{"status":true,"message":"","result":[{"server_id":9,"name":"Uncletopia | Atlanta | 1 | All Maps","name_short":"atl-1","host":"atl-1.us.uncletopia.com","port":27015,"enabled":true,"region":"us-east","cc":"us","latitude":33.753746,"longitude":-84.38633,"reserved":0,"last_update":"0001-01-01T00:00:00Z","name_a2s":"Uncletopia | Atlanta | 1 | All Maps","protocol":17,"map":"koth_highpass","folder":"tf","game":"Team Fortress","app_id":440,"player_count":0,"max_players":24,"Bots":0,"server_type":"Dedicated","server_os":"Linux","password":true,"vac":true,"version":"7961495","steam_id":85568392924469982,"keywords":["cp","nocrits","nodmgspread","uncletopia"],"game_id":440,"stv_port":27016,"stv_name":"Uncletopia | Atlanta | 1 | All Maps | STV","players":null},{"server_id":104,"name":"Uncletopia | Atlanta | 2 | All Maps","name_short":"atl-2","host":"atl-1.us.uncletopia.com","port":27025,"enabled":true,"region":"us-east","cc":"us","latitude":33.753746,"longitude":-84.38633,"reserved":0,"last_update":"0001-01-01T00:00:00Z","name_a2s":"Uncletopia | Atlanta | 2 | All Maps","protocol":17,"map":"koth_cascade","folder":"tf","game":"Team Fortress","app_id":440,"player_count":0,"max_players":24,"Bots":0,"server_type":"Dedicated","server_os":"Linux","password":true,"vac":true,"version":"7961495","steam_id":85568392924469983,"keywords":["cp","nocrits","nodmgspread","uncletopia"],"game_id":440,"stv_port":27026,"stv_name":"Uncletopia | Atlanta | 2 | All Maps | STV","players":null},{"server_id":400,"name":"Uncletopia | Atlanta | 3 | Stopwatch","name_short":"atl-3","host":"atl-1.us.uncletopia.com","port":27035,"enabled":true,"region":"us-east","cc":"us","latitude":33.753746,"longitude":-84.38633,"reserved":0,"last_update":"0001-01-01T00:00:00Z","name_a2s":"Uncletopia | Atlanta | 3 | Stopwatch","protocol":17,"map":"koth_clearcut_b15","folder":"tf","game":"Team Fortress","app_id":440,"player_count":0,"max_players":24,"Bots":0,"server_type":"Dedicated","server_os":"Linux","password":true,"vac":true,"version":"7961495","steam_id":85568392924515187,"keywords":["cp","nocrits","nodmgspread","uncletopia"],"game_id":440,"stv_port":27036,"stv_name":"Uncletopia | Atlanta | 3 | Stopwatch | STV","players":null},{"server_id":401,"name":"Uncletopia | Atlanta | 4 | Community","name_short":"atl-4","host":"atl-1.us.uncletopia.com","port":27045,"enabled":true,"region":"us-east","cc":"us","latitude":33.753746,"longitude":-84.38633,"reserved":0,"last_update":"0001-01-01T00:00:00Z","name_a2s":"Uncletopia | Atlanta | 4 | Community","protocol":17,"map":"koth_bagel_rc6","folder":"tf","game":"Team Fortress","app_id":440,"player_count":0,"max_players":24,"Bots":0,"server_type":"Dedicated","server_os":"Linux","password":true,"vac":true,"version":"7961495","steam_id":85568392924515188,"keywords":["cp","nocrits","nodmgspread","uncletopia"],"game_id":440,"stv_port":27046,"stv_name":"Uncletopia | Atlanta | 4 | Community | STV","players":null},{"server_id":2,"name":"Uncletopia | Chicago | 1 | All Maps","name_short":"chi-1","host":"chi-1.us.uncletopia.com","port":27015,"enabled":true,"region":"us-central","cc":"us","latitude":41.881832,"longitude":-87.62318,"reserved":0,"last_update":"0001-01-01T00:00:00Z","name_a2s":"Uncletopia | Chicago | 1 | All Maps","protocol":17,"map":"koth_viaduct","folder":"tf","game":"Team Fortress","app_id":440,"player_count":1,"max_players":24,"Bots":0,"server_type":"Dedicated","server_os":"Linux","password":true,"vac":true,"version":"7961495","steam_id":85568392924469984,"keywords":["cp","nocrits","nodmgspread","uncletopia"],"game_id":440,"stv_port":27016,"stv_name":"Uncletopia | Chicago | 1 | All Maps | STV","players":[{"user_id":27,"name":"Nerf Clean Hit","steam_id":76561198257691881,"connected_time":418000000000,"state":"active","ping":81}]},{"server_id":106,"name":"Uncletopia | Chicago | 2 | All Maps","name_short":"chi-2","host":"chi-1.us.uncletopia.com","port":27025,"enabled":true,"region":"us-central","cc":"us","latitude":41.881832,"longitude":-87.62318,"reserved":0,"last_update":"0001-01-01T00:00:00Z","name_a2s":"Uncletopia | Chicago | 2 | All Maps","protocol":17,"map":"pl_pier","folder":"tf","game":"Team Fortress","app_id":440,"player_count":24,"max_players":24,"Bots":0,"server_type":"Dedicated","server_os":"Linux","password":true,"vac":true,"version":"7961495","steam_id":85568392924469985,"keywords":["nocrits","nodmgspread","payload","uncletopia"],"game_id":440,"stv_port":27026,"stv_name":"Uncletopia | Chicago | 2 | All Maps | STV","players":[{"user_id":136,"name":"seinfeld dog","steam_id":76561199013337543,"connected_time":19000000000,"state":"active","ping":67},{"user_id":124,"name":"Turkish The Fright","steam_id":76561198082670244,"connected_time":542000000000,"state":"active","ping":74},{"user_id":111,"name":"SAD PARTY CLOWN","steam_id":76561198051421643,"connected_time":2402000000000,"state":"active","ping":52},{"user_id":56,"name":"Aimless S. (Caberace \u003e:3ing)","steam_id":76561198058382041,"connected_time":7053000000000,"state":"active","ping":84},{"user_id":135,"name":"Acro","steam_id":76561198092451804,"connected_time":116000000000,"state":"active","ping":67},{"user_id":125,"name":"CaptainRedbeard","steam_id":76561198058647430,"connected_time":526000000000,"state":"active","ping":112},{"user_id":127,"name":"Tom","steam_id":76561198139202942,"connected_time":440000000000,"state":"active","ping":70},{"user_id":86,"name":"Heathcliff","steam_id":76561198044288534,"connected_time":4420000000000,"state":"active","ping":98},{"user_id":76,"name":"John Fortnite","steam_id":76561198076608253,"connected_time":5456000000000,"state":"active","ping":73},{"user_id":108,"name":"Antikythera","steam_id":76561198045923020,"connected_time":2442000000000,"state":"active","ping":59},{"user_id":119,"name":"mkl","steam_id":76561197986401685,"connected_time":1342000000000,"state":"active","ping":85},{"user_id":130,"name":"rumidog","steam_id":76561198046896005,"connected_time":414000000000,"state":"active","ping":86},{"user_id":110,"name":"Loogus","steam_id":76561198811561721,"connected_time":2409000000000,"state":"active","ping":90},{"user_id":120,"name":"Lock'd","steam_id":76561198170108230,"connected_time":1331000000000,"state":"active","ping":84},{"user_id":116,"name":"BRUH NATOR","steam_id":76561199094694437,"connected_time":2278000000000,"state":"active","ping":96},{"user_id":134,"name":"Pelham Bay Rat","steam_id":76561198096692107,"connected_time":139000000000,"state":"active","ping":71},{"user_id":133,"name":"Winter the Witchie","steam_id":76561198151971178,"connected_time":223000000000,"state":"active","ping":53},{"user_id":132,"name":"Old Man Run Yover","steam_id":76561199164710505,"connected_time":250000000000,"state":"active","ping":42},{"user_id":64,"name":"Broadsword #LGM","steam_id":76561198011160411,"connected_time":6174000000000,"state":"active","ping":90},{"user_id":68,"name":"ATL1_Lav4ie_She/They","steam_id":76561198825997674,"connected_time":6023000000000,"state":"active","ping":74},{"user_id":73,"name":"Rornir","steam_id":76561198081829615,"connected_time":5655000000000,"state":"active","ping":38},{"user_id":99,"name":"fiddlesticks","steam_id":76561198174428289,"connected_time":3290000000000,"state":"active","ping":75},{"user_id":121,"name":"Swedish Crowbar","steam_id":76561199105488936,"connected_time":1286000000000,"state":"active","ping":148},{"user_id":30,"name":"Yam Jazzy Jim","steam_id":76561198000788950,"connected_time":8720000000000,"state":"active","ping":67}]},{"server_id":402,"name":"Uncletopia | Chicago | 3 | All Maps","name_short":"chi-3","host":"chi-1.us.uncletopia.com","port":27035,"enabled":true,"region":"us-central","cc":"us","latitude":41.881832,"longitude":-87.62318,"reserved":0,"last_update":"0001-01-01T00:00:00Z","name_a2s":"Uncletopia | Chicago | 3 | All Maps","protocol":17,"map":"koth_sawmill","folder":"tf","game":"Team Fortress","app_id":440,"player_count":24,"max_players":24,"Bots":0,"server_type":"Dedicated","server_os":"Linux","password":true,"vac":true,"version":"7961495","steam_id":85568392924515191,"keywords":["cp","nocrits","nodmgspread","uncletopia"],"game_id":440,"stv_port":27036,"stv_name":"Uncletopia | Chicago | 3 | All Maps | STV","players":[{"user_id":13,"name":"Fred Fuchs","steam_id":76561198099998578,"connected_time":1448000000000,"state":"active","ping":61},{"user_id":10,"name":"FUMO FUMO","steam_id":76561199445350651,"connected_time":1498000000000,"state":"active","ping":65},{"user_id":43,"name":"Nyle","steam_id":76561198045652639,"connected_time":281000000000,"state":"active","ping":135},{"user_id":12,"name":"Kuyumiester","steam_id":76561198126835302,"connected_time":1453000000000,"state":"active","ping":61},{"user_id":22,"name":"acrosjester","steam_id":76561199379207629,"connected_time":898000000000,"state":"active","ping":91},{"user_id":16,"name":"U œâ U","steam_id":76561198118802562,"connected_time":1336000000000,"state":"active","ping":110},{"user_id":17,"name":"MaybeMars","steam_id":76561198084736804,"connected_time":1257000000000,"state":"active","ping":80},{"user_id":19,"name":"socializedCryptid","steam_id":76561198991665007,"connected_time":1023000000000,"state":"active","ping":56},{"user_id":28,"name":"Lylith","steam_id":76561198386687546,"connected_time":639000000000,"state":"active","ping":69},{"user_id":23,"name":"Mr. Sandman","steam_id":76561198065870487,"connected_time":893000000000,"state":"active","ping":57},{"user_id":26,"name":"üÖúüÖîüÖîüÖöüÖ¢üÖ£üÖî\ufffd\ufffd\ufffd","steam_id":76561197999748343,"connected_time":755000000000,"state":"active","ping":61},{"user_id":27,"name":"PokoRacc","steam_id":76561198931436503,"connected_time":711000000000,"state":"active","ping":66},{"user_id":29,"name":"honked off the bobo","steam_id":76561198123287268,"connected_time":638000000000,"state":"active","ping":48},{"user_id":30,"name":"MR SKELTAL","steam_id":76561198031089598,"connected_time":620000000000,"state":"active","ping":72},{"user_id":31,"name":"SoggyCrouton","steam_id":76561198127356255,"connected_time":596000000000,"state":"active","ping":75},{"user_id":32,"name":"UnforeseenCabbages","steam_id":76561198079386608,"connected_time":553000000000,"state":"active","ping":81},{"user_id":33,"name":"markiplier","steam_id":76561198285140503,"connected_time":522000000000,"state":"active","ping":43},{"user_id":34,"name":"The Enigmatic Dolphin","steam_id":76561197991390953,"connected_time":513000000000,"state":"active","ping":70},{"user_id":35,"name":"MostWanted","steam_id":76561198118523992,"connected_time":502000000000,"state":"active","ping":64},{"user_id":36,"name":"CombustibleToast","steam_id":76561198051358882,"connected_time":484000000000,"state":"active","ping":54},{"user_id":37,"name":"Duckbeater","steam_id":76561198012421014,"connected_time":477000000000,"state":"active","ping":106},{"user_id":38,"name":"Aeri","steam_id":76561198041809495,"connected_time":468000000000,"state":"active","ping":93},{"user_id":39,"name":"jerma but crying and lesbian","steam_id":76561198110661425,"connected_time":464000000000,"state":"active","ping":49},{"user_id":42,"name":"Feared Gamer","steam_id":76561198350127514,"connected_time":365000000000,"state":"active","ping":65}]},{"server_id":403,"name":"Uncletopia | Chicago | 4 | All Maps","name_short":"chi-4","host":"chi-1.us.uncletopia.com","port":27045,"enabled":true,"region":"us-central","cc":"us","latitude":41.881832,"longitude":-87.62318,"reserved":0,"last_update":"0001-01-01T00:00:00Z","name_a2s":"Uncletopia | Chicago | 4 | All Maps","protocol":17,"map":"koth_cascade","folder":"tf","game":"Team Fortress","app_id":440,"player_count":0,"max_players":24,"Bots":0,"server_type":"Dedicated","server_os":"Linux","password":true,"vac":true,"version":"7961495","steam_id":85568392924515193,"keywords":["cp","nocrits","nodmgspread","uncletopia"],"game_id":440,"stv_port":27046,"stv_name":"Uncletopia | Chicago | 4 | All Maps | STV","players":null},{"server_id":36,"name":"Uncletopia | Chicago | 5 | All Maps","name_short":"chi-5","host":"chi-2.us.uncletopia.com","port":27015,"enabled":true,"region":"us-central","cc":"us","latitude":41.881832,"longitude":-87.62318,"reserved":0,"last_update":"0001-01-01T00:00:00Z","name_a2s":"Uncletopia | Chicago | 5 | All Maps","protocol":17,"map":"koth_viaduct","folder":"tf","game":"Team Fortress","app_id":440,"player_count":0,"max_players":24,"Bots":0,"server_type":"Dedicated","server_os":"Linux","password":true,"vac":true,"version":"7961495","steam_id":85568392924866362,"keywords":["cp","nocrits","nodmgspread","uncletopia"],"game_id":440,"stv_port":27016,"stv_name":"Uncletopia | Chicago | 5 | All Maps | STV","players":null},{"server_id":37,"name":"Uncletopia | Chicago | 6 | All Maps","name_short":"chi-6","host":"chi-2.us.uncletopia.com","port":27025,"enabled":true,"region":"us-central","cc":"us","latitude":41.881832,"longitude":-87.62318,"reserved":0,"last_update":"0001-01-01T00:00:00Z","name_a2s":"Uncletopia | Chicago | 6 | All Maps","protocol":17,"map":"koth_highpass","folder":"tf","game":"Team Fortress","app_id":440,"player_count":23,"max_players":24,"Bots":0,"server_type":"Dedicated","server_os":"Linux","password":true,"vac":true,"version":"7961495","steam_id":85568392924866363,"keywords":["cp","nocrits","nodmgspread","uncletopia"],"game_id":440,"stv_port":27026,"stv_name":"Uncletopia | Chicago | 6 | All Maps | STV","players":[{"user_id":358,"name":"ZYNTERLINKED","steam_id":76561198241948526,"connected_time":434000000000,"state":"active","ping":64},{"user_id":223,"name":"Window Licker #pride","steam_id":76561198386717007,"connected_time":10117000000000,"state":"active","ping":48},{"user_id":336,"name":"k3nny11","steam_id":76561198182533757,"connected_time":2165000000000,"state":"active","ping":67},{"user_id":353,"name":"Candy Sparkles","steam_id":76561198126871264,"connected_time":957000000000,"state":"active","ping":86},{"user_id":347,"name":"Prsm","steam_id":76561198053344995,"connected_time":1122000000000,"state":"active","ping":52},{"user_id":81,"name":"Elias","steam_id":76561198106431732,"connected_time":16853000000000,"state":"active","ping":40},{"user_id":278,"name":"Khaicchi ‚ô•","steam_id":76561198104454754,"connected_time":6862000000000,"state":"active","ping":172},{"user_id":354,"name":"ultralisk52","steam_id":76561198051666604,"connected_time":829000000000,"state":"active","ping":64},{"user_id":323,"name":"Fern","steam_id":76561198047666741,"connected_time":3402000000000,"state":"active","ping":113},{"user_id":311,"name":"taigaxx","steam_id":76561198202669250,"connected_time":4312000000000,"state":"active","ping":74},{"user_id":316,"name":"iamjusttyler","steam_id":76561198050930749,"connected_time":4021000000000,"state":"active","ping":74},{"user_id":328,"name":"spoon","steam_id":76561198298232556,"connected_time":2766000000000,"state":"active","ping":65},{"user_id":352,"name":"Mkwhackertracker","steam_id":76561198128343704,"connected_time":1009000000000,"state":"active","ping":79},{"user_id":318,"name":"Weary","steam_id":76561198145767546,"connected_time":3901000000000,"state":"active","ping":61},{"user_id":341,"name":"Shooter of Walls","steam_id":76561197988105207,"connected_time":1192000000000,"state":"active","ping":73},{"user_id":296,"name":"Ringo x Seiran","steam_id":76561198357437908,"connected_time":5014000000000,"state":"active","ping":71},{"user_id":342,"name":"PK","steam_id":76561198368722500,"connected_time":1183000000000,"state":"active","ping":77},{"user_id":355,"name":"Gene Takovic","steam_id":76561198120442624,"connected_time":764000000000,"state":"active","ping":71},{"user_id":319,"name":"need a dispenser here","steam_id":76561198060912995,"connected_time":3844000000000,"state":"active","ping":60},{"user_id":359,"name":"·πΩ‚ßâ cookie","steam_id":76561197998884823,"connected_time":304000000000,"state":"active","ping":72},{"user_id":351,"name":"junebug","steam_id":76561198126662775,"connected_time":1047000000000,"state":"active","ping":51},{"user_id":356,"name":"IMM0RTAL","steam_id":76561198013747901,"connected_time":559000000000,"state":"active","ping":77},{"user_id":357,"name":"chimpin","steam_id":76561198858089300,"connected_time":444000000000,"state":"active","ping":79}]},{"server_id":38,"name":"Uncletopia | Chicago | 7 | Stopwatch","name_short":"chi-7","host":"chi-2.us.uncletopia.com","port":27035,"enabled":true,"region":"us-central","cc":"us","latitude":41.881832,"longitude":-87.62318,"reserved":0,"last_update":"0001-01-01T00:00:00Z","name_a2s":"Uncletopia | Chicago | 7 | Stopwatch","protocol":17,"map":"pl_badwater","folder":"tf","game":"Team Fortress","app_id":440,"player_count":0,"max_players":24,"Bots":0,"server_type":"Dedicated","server_os":"Linux","password":true,"vac":true,"version":"7961495","steam_id":85568392924866364,"keywords":["nocrits","nodmgspread","payload","uncletopia"],"game_id":440,"stv_port":27036,"stv_name":"Uncletopia | Chicago | 7 | Stopwatch | STV","players":null},{"server_id":39,"name":"Uncletopia | Chicago | 8 | Community","name_short":"chi-8","host":"chi-2.us.uncletopia.com","port":27045,"enabled":true,"region":"us-central","cc":"us","latitude":41.881832,"longitude":-87.62318,"reserved":0,"last_update":"0001-01-01T00:00:00Z","name_a2s":"Uncletopia | Chicago | 8 | Community","protocol":17,"map":"pl_pier","folder":"tf","game":"Team Fortress","app_id":440,"player_count":0,"max_players":24,"Bots":0,"server_type":"Dedicated","server_os":"Linux","password":true,"vac":true,"version":"7961495","steam_id":85568392924866365,"keywords":["nocrits","nodmgspread","payload","uncletopia"],"game_id":440,"stv_port":27046,"stv_name":"Uncletopia | Chicago | 8 | Community | STV","players":null},{"server_id":8,"name":"Uncletopia | Dallas | 1 | All Maps","name_short":"dal-1","host":"dal-1.us.uncletopia.com","port":27015,"enabled":true,"region":"us-central","cc":"us","latitude":32.779167,"longitude":-96.80889,"reserved":0,"last_update":"0001-01-01T00:00:00Z","name_a2s":"Uncletopia | Dallas | 1 | All Maps","protocol":17,"map":"pl_frontier_final","folder":"tf","game":"Team Fortress","app_id":440,"player_count":0,"max_players":24,"Bots":0,"server_type":"Dedicated","server_os":"Linux","password":true,"vac":true,"version":"7961495","steam_id":85568392924469986,"keywords":["nocrits","nodmgspread","payload","uncletopia"],"game_id":440,"stv_port":27016,"stv_name":"Uncletopia | Dallas | 1 | All Maps | STV","players":null},{"server_id":108,"name":"Uncletopia | Dallas | 2 | All Maps","name_short":"dal-2","host":"dal-1.us.uncletopia.com","port":27025,"enabled":true,"region":"us-central","cc":"us","latitude":32.779167,"longitude":-96.80889,"reserved":0,"last_update":"0001-01-01T00:00:00Z","name_a2s":"Uncletopia | Dallas | 2 | All Maps","protocol":17,"map":"pl_borneo","folder":"tf","game":"Team Fortress","app_id":440,"player_count":24,"max_players":24,"Bots":0,"server_type":"Dedicated","server_os":"Linux","password":true,"vac":true,"version":"7961495","steam_id":85568392924469988,"keywords":["nocrits","nodmgspread","payload","uncletopia"],"game_id":440,"stv_port":27026,"stv_name":"Uncletopia | Dallas | 2 | All Maps | STV","players":[{"user_id":99,"name":"Steven","steam_id":76561198075526342,"connected_time":1923000000000,"state":"active","ping":47},{"user_id":106,"name":"EmeraldMoth","steam_id":76561198153816586,"connected_time":1112000000000,"state":"active","ping":77},{"user_id":122,"name":"Copland OS","steam_id":76561198041800378,"connected_time":227000000000,"state":"active","ping":80},{"user_id":116,"name":"reko","steam_id":76561198278020887,"connected_time":712000000000,"state":"active","ping":60},{"user_id":108,"name":"GX thedittoguy","steam_id":76561199013129784,"connected_time":1099000000000,"state":"active","ping":57},{"user_id":94,"name":"Borgir","steam_id":76561198325390265,"connected_time":2226000000000,"state":"active","ping":57},{"user_id":113,"name":"Borked","steam_id":76561197984964095,"connected_time":841000000000,"state":"active","ping":89},{"user_id":124,"name":"MrBurgerItHere","steam_id":76561198902777035,"connected_time":187000000000,"state":"active","ping":98},{"user_id":110,"name":"viedoamges","steam_id":76561198025295263,"connected_time":1045000000000,"state":"active","ping":56},{"user_id":121,"name":"HOODOO_LOVER_2007","steam_id":76561199087691214,"connected_time":293000000000,"state":"active","ping":100},{"user_id":117,"name":"jxh300","steam_id":76561199196579894,"connected_time":665000000000,"state":"active","ping":93},{"user_id":87,"name":"Doldrum","steam_id":76561198061196517,"connected_time":2896000000000,"state":"active","ping":59},{"user_id":100,"name":"fungus","steam_id":76561198169917455,"connected_time":1863000000000,"state":"active","ping":77},{"user_id":101,"name":"El pedro","steam_id":76561198145288595,"connected_time":1845000000000,"state":"active","ping":80},{"user_id":114,"name":"flaccid","steam_id":76561198299241777,"connected_time":825000000000,"state":"active","ping":97},{"user_id":84,"name":"Duk","steam_id":76561198450692568,"connected_time":2976000000000,"state":"active","ping":91},{"user_id":123,"name":"Cookie_Crab","steam_id":76561198088116479,"connected_time":222000000000,"state":"active","ping":71},{"user_id":120,"name":"Forced2Wipe","steam_id":76561198170390298,"connected_time":469000000000,"state":"active","ping":62},{"user_id":125,"name":"imng","steam_id":76561198014988031,"connected_time":167000000000,"state":"active","ping":74},{"user_id":97,"name":"Toady","steam_id":76561198012587461,"connected_time":1960000000000,"state":"active","ping":100},{"user_id":115,"name":"basilberry","steam_id":76561198145275937,"connected_time":809000000000,"state":"active","ping":67},{"user_id":112,"name":"can of Heinz Beans","steam_id":76561198806423231,"connected_time":989000000000,"state":"active","ping":120},{"user_id":95,"name":"denzell05","steam_id":76561198086987061,"connected_time":2043000000000,"state":"active","ping":94},{"user_id":88,"name":"Urbanzpinapple","steam_id":76561198115426938,"connected_time":2884000000000,"state":"active","ping":84}]},{"server_id":404,"name":"Uncletopia | Dallas | 3 | All Maps","name_short":"dal-3","host":"dal-1.us.uncletopia.com","port":27035,"enabled":true,"region":"us-central","cc":"us","latitude":32.779167,"longitude":-96.80889,"reserved":0,"last_update":"0001-01-01T00:00:00Z","name_a2s":"Uncletopia | Dallas | 3 | All Maps","protocol":17,"map":"pl_swiftwater_final1","folder":"tf","game":"Team Fortress","app_id":440,"player_count":0,"max_players":24,"Bots":0,"server_type":"Dedicated","server_os":"Linux","password":true,"vac":true,"version":"7961495","steam_id":85568392924515219,"keywords":["nocrits","nodmgspread","payload","uncletopia"],"game_id":440,"stv_port":27036,"stv_name":"Uncletopia | Dallas | 3 | All Maps | STV","players":null},{"server_id":405,"name":"Uncletopia | Dallas | 4 | Community","name_short":"dal-4","host":"dal-1.us.uncletopia.com","port":27045,"enabled":true,"region":"us-central","cc":"us","latitude":32.779167,"longitude":-96.80889,"reserved":0,"last_update":"0001-01-01T00:00:00Z","name_a2s":"Uncletopia | Dallas | 4 | Community","protocol":17,"map":"pl_pier","folder":"tf","game":"Team Fortress","app_id":440,"player_count":0,"max_players":24,"Bots":0,"server_type":"Dedicated","server_os":"Linux","password":true,"vac":true,"version":"7961495","steam_id":85568392924515220,"keywords":["nocrits","nodmgspread","payload","uncletopia"],"game_id":440,"stv_port":27046,"stv_name":"Uncletopia | Dallas | 4 | Community | STV","players":null},{"server_id":5,"name":"Uncletopia | Frankfurt | 1 | All Maps","name_short":"frk-1","host":"frk-1.de.uncletopia.com","port":27015,"enabled":true,"region":"eu","cc":"de","latitude":50.110924,"longitude":8.682127,"reserved":0,"last_update":"0001-01-01T00:00:00Z","name_a2s":"Uncletopia | Frankfurt | 1 | All Maps","protocol":17,"map":"pl_badwater","folder":"tf","game":"Team Fortress","app_id":440,"player_count":24,"max_players":24,"Bots":0,"server_type":"Dedicated","server_os":"Linux","password":true,"vac":true,"version":"7961495","steam_id":85568392924469989,"keywords":["nocrits","nodmgspread","payload","uncletopia"],"game_id":440,"stv_port":27016,"stv_name":"Uncletopia | Frankfurt | 1 | All Maps | STV","players":[{"user_id":117,"name":"Agurkesalatü•í","steam_id":76561198300501653,"connected_time":704000000000,"state":"active","ping":45},{"user_id":132,"name":"jj","steam_id":76561198010586391,"connected_time":82000000000,"state":"active","ping":74},{"user_id":122,"name":"dum","steam_id":76561198053386482,"connected_time":591000000000,"state":"active","ping":146},{"user_id":104,"name":"Ferno","steam_id":76561199416742729,"connected_time":1773000000000,"state":"active","ping":74},{"user_id":124,"name":"Strawberry","steam_id":76561198052255586,"connected_time":445000000000,"state":"active","ping":64},{"user_id":115,"name":"amaterasu-_-","steam_id":76561198878687605,"connected_time":879000000000,"state":"active","ping":96},{"user_id":102,"name":"WrytXander","steam_id":76561198067856323,"connected_time":1786000000000,"state":"active","ping":90},{"user_id":121,"name":"Vikep'S","steam_id":76561199002274689,"connected_time":615000000000,"state":"active","ping":77},{"user_id":64,"name":"F4.exe","steam_id":76561198278822807,"connected_time":4421000000000,"state":"active","ping":61},{"user_id":112,"name":"Skuld","steam_id":76561198064734905,"connected_time":1009000000000,"state":"active","ping":113},{"user_id":75,"name":"Ôº¨ÔΩïÔΩéÔΩÑÔΩÖÔΩíÔΩìÂÑö","steam_id":76561198001599722,"connected_time":3562000000000,"state":"active","ping":88},{"user_id":131,"name":"Dirocks","steam_id":76561198138494815,"connected_time":140000000000,"state":"active","ping":82},{"user_id":98,"name":"glyph","steam_id":76561197980736364,"connected_time":1993000000000,"state":"active","ping":77},{"user_id":101,"name":"HelwiiHill","steam_id":76561198066730552,"connected_time":1797000000000,"state":"active","ping":87},{"user_id":130,"name":"Jezal dan Luthar","steam_id":76561198989449047,"connected_time":238000000000,"state":"active","ping":130},{"user_id":109,"name":"Nathaniel Nozek","steam_id":76561198044085536,"connected_time":1518000000000,"state":"active","ping":68},{"user_id":126,"name":"elmstJP ‚Ç™ F4.exe","steam_id":76561197997909480,"connected_time":370000000000,"state":"active","ping":70},{"user_id":129,"name":"Saber 0X1","steam_id":76561198090226093,"connected_time":287000000000,"state":"active","ping":144},{"user_id":108,"name":"Doriian","steam_id":76561198071438810,"connected_time":1608000000000,"state":"active","ping":82},{"user_id":79,"name":"[O\u0026O]YaboiDucki","steam_id":76561198195976589,"connected_time":3453000000000,"state":"active","ping":84},{"user_id":123,"name":"mud","steam_id":76561198141497461,"connected_time":576000000000,"state":"active","ping":63},{"user_id":127,"name":"Akis—è–Ω","steam_id":76561198078706435,"connected_time":362000000000,"state":"active","ping":75},{"user_id":128,"name":"Piteras","steam_id":76561198858532207,"connected_time":347000000000,"state":"active","ping":70},{"user_id":94,"name":"Adam","steam_id":76561198259467867,"connected_time":2420000000000,"state":"active","ping":85}]},{"server_id":110,"name":"Uncletopia | Frankfurt | 2 | All Maps","name_short":"frk-2","host":"frk-1.de.uncletopia.com","port":27025,"enabled":true,"region":"eu","cc":"de","latitude":50.110924,"longitude":8.682127,"reserved":0,"last_update":"0001-01-01T00:00:00Z","name_a2s":"Uncletopia | Frankfurt | 2 | All Maps","protocol":17,"map":"pl_borneo","folder":"tf","game":"Team Fortress","app_id":440,"player_count":24,"max_players":24,"Bots":0,"server_type":"Dedicated","server_os":"Linux","password":true,"vac":true,"version":"7961495","steam_id":85568392924469990,"keywords":["nocrits","nodmgspread","payload","uncletopia"],"game_id":440,"stv_port":27026,"stv_name":"Uncletopia | Frankfurt | 2 | All Maps | STV","players":[{"user_id":192,"name":"RiX","steam_id":76561197969053733,"connected_time":3483000000000,"state":"active","ping":64},{"user_id":225,"name":"TheDeath","steam_id":76561198265038954,"connected_time":398000000000,"state":"active","ping":68},{"user_id":219,"name":"Grillem Dafoe","steam_id":76561198306874574,"connected_time":904000000000,"state":"active","ping":76},{"user_id":221,"name":"tensh1","steam_id":76561198282471866,"connected_time":557000000000,"state":"active","ping":96},{"user_id":227,"name":"Gugu gaga","steam_id":76561198161822358,"connected_time":116000000000,"state":"active","ping":58},{"user_id":209,"name":"Elsuedi","steam_id":76561198074722832,"connected_time":1252000000000,"state":"active","ping":58},{"user_id":210,"name":"Pan Pan","steam_id":76561199074670515,"connected_time":1251000000000,"state":"active","ping":80},{"user_id":222,"name":"SUSHII","steam_id":76561198086702651,"connected_time":546000000000,"state":"active","ping":53},{"user_id":113,"name":"El Gato Volador","steam_id":76561198021296882,"connected_time":10223000000000,"state":"active","ping":81},{"user_id":223,"name":"Memelord #69,420","steam_id":76561199013403918,"connected_time":504000000000,"state":"active","ping":84},{"user_id":212,"name":"Far ‚àû","steam_id":76561199166149359,"connected_time":1209000000000,"state":"active","ping":83},{"user_id":190,"name":"Andrea","steam_id":76561199487380678,"connected_time":3655000000000,"state":"active","ping":122},{"user_id":213,"name":"Szeregowy LowiRyb","steam_id":76561198855967762,"connected_time":1203000000000,"state":"active","ping":100},{"user_id":228,"name":"Will","steam_id":76561198173329977,"connected_time":85000000000,"state":"active","ping":68},{"user_id":214,"name":"Dagoth Ur","steam_id":76561198220232352,"connected_time":1200000000000,"state":"active","ping":51},{"user_id":226,"name":"WHUSSKEY","steam_id":76561198137827441,"connected_time":312000000000,"state":"active","ping":67},{"user_id":202,"name":"Columban","steam_id":76561199202258284,"connected_time":1635000000000,"state":"active","ping":54},{"user_id":205,"name":"MBntas","steam_id":76561198814023796,"connected_time":1563000000000,"state":"active","ping":89},{"user_id":216,"name":"spurdala","steam_id":76561198886546942,"connected_time":1199000000000,"state":"active","ping":59},{"user_id":217,"name":"Spongelica Slobblecoque","steam_id":76561198009072273,"connected_time":1190000000000,"state":"active","ping":59},{"user_id":165,"name":"BELADIT","steam_id":76561198011911501,"connected_time":5995000000000,"state":"active","ping":67},{"user_id":179,"name":"Voodoo D Child","steam_id":76561198094569373,"connected_time":4887000000000,"state":"active","ping":78},{"user_id":180,"name":"Tre3","steam_id":76561198054795379,"connected_time":4871000000000,"state":"active","ping":54},{"user_id":183,"name":"SlaughterHouse","steam_id":76561198396338904,"connected_time":4262000000000,"state":"active","ping":89}]},{"server_id":308,"name":"Uncletopia | Frankfurt | 3 | All Maps","name_short":"frk-3","host":"frk-1.de.uncletopia.com","port":27035,"enabled":true,"region":"eu","cc":"de","latitude":50.110924,"longitude":8.682127,"reserved":0,"last_update":"0001-01-01T00:00:00Z","name_a2s":"Uncletopia | Frankfurt | 3 | All Maps","protocol":17,"map":"pl_swiftwater_final1","folder":"tf","game":"Team Fortress","app_id":440,"player_count":24,"max_players":24,"Bots":0,"server_type":"Dedicated","server_os":"Linux","password":true,"vac":true,"version":"7961495","steam_id":85568392924504274,"keywords":["nocrits","nodmgspread","payload","uncletopia"],"game_id":440,"stv_port":27036,"stv_name":"Uncletopia | Frankfurt | 3 | All Maps | STV","players":[{"user_id":340,"name":"Daddy-O","steam_id":76561198120101147,"connected_time":2840000000000,"state":"active","ping":98},{"user_id":327,"name":"heddwch","steam_id":76561198076097983,"connected_time":3994000000000,"state":"active","ping":74},{"user_id":370,"name":"BJ","steam_id":76561198146229582,"connected_time":229000000000,"state":"active","ping":62},{"user_id":343,"name":"Who's laughing?","steam_id":76561198013961148,"connected_time":2710000000000,"state":"active","ping":99},{"user_id":320,"name":"The King","steam_id":76561198117344758,"connected_time":4404000000000,"state":"active","ping":155},{"user_id":314,"name":"After8","steam_id":76561198090750865,"connected_time":4682000000000,"state":"active","ping":66},{"user_id":353,"name":"unKr","steam_id":76561198342024316,"connected_time":936000000000,"state":"active","ping":72},{"user_id":355,"name":"QR-M5TR","steam_id":76561198197626135,"connected_time":852000000000,"state":"active","ping":58},{"user_id":363,"name":"Bobo","steam_id":76561198052308399,"connected_time":577000000000,"state":"active","ping":59},{"user_id":233,"name":"Owlet","steam_id":76561198065613974,"connected_time":9976000000000,"state":"active","ping":74},{"user_id":352,"name":"DiscoTraveler","steam_id":76561199240168088,"connected_time":1311000000000,"state":"active","ping":131},{"user_id":346,"name":"bleuthoot","steam_id":76561198080591941,"connected_time":2574000000000,"state":"active","ping":49},{"user_id":350,"name":"EEEEEH","steam_id":76561198126717413,"connected_time":1539000000000,"state":"active","ping":76},{"user_id":347,"name":"Flint Atheno","steam_id":76561198000565196,"connected_time":2553000000000,"state":"active","ping":55},{"user_id":365,"name":"Plarium","steam_id":76561198289776607,"connected_time":336000000000,"state":"active","ping":165},{"user_id":372,"name":"skill","steam_id":76561198106012909,"connected_time":221000000000,"state":"active","ping":66},{"user_id":366,"name":"Exee","steam_id":76561198139574633,"connected_time":336000000000,"state":"active","ping":74},{"user_id":357,"name":"laggy","steam_id":76561198430050570,"connected_time":809000000000,"state":"active","ping":75},{"user_id":358,"name":"MUWEQ","steam_id":76561198107615727,"connected_time":809000000000,"state":"active","ping":73},{"user_id":373,"name":"sad monkey hands on his head","steam_id":76561198116530769,"connected_time":43000000000,"state":"active","ping":90},{"user_id":368,"name":"Mr. Mundy","steam_id":76561198132008918,"connected_time":284000000000,"state":"active","ping":75},{"user_id":369,"name":"lord palpatine","steam_id":76561198796155512,"connected_time":271000000000,"state":"active","ping":157},{"user_id":333,"name":"neJ","steam_id":76561198003397488,"connected_time":3931000000000,"state":"active","ping":75},{"user_id":371,"name":"Kiri pour le ftour","steam_id":76561198203256418,"connected_time":228000000000,"state":"active","ping":80}]},{"server_id":309,"name":"Uncletopia | Frankfurt | 4 | All Maps","name_short":"frk-4","host":"frk-1.de.uncletopia.com","port":27045,"enabled":true,"region":"eu","cc":"de","latitude":50.110924,"longitude":8.682127,"reserved":0,"last_update":"0001-01-01T00:00:00Z","name_a2s":"Uncletopia | Frankfurt | 4 | All Maps","protocol":17,"map":"pl_upward","folder":"tf","game":"Team Fortress","app_id":440,"player_count":24,"max_players":24,"Bots":0,"server_type":"Dedicated","server_os":"Linux","password":true,"vac":true,"version":"7961495","steam_id":85568392924504275,"keywords":["nocrits","nodmgspread","payload","uncletopia"],"game_id":440,"stv_port":27046,"stv_name":"Uncletopia | Frankfurt | 4 | All Maps | STV","players":[{"user_id":78,"name":"The Empire Ant","steam_id":76561198082466790,"connected_time":272000000000,"state":"active","ping":56},{"user_id":32,"name":"Aleknat","steam_id":76561198055379857,"connected_time":2863000000000,"state":"active","ping":68},{"user_id":70,"name":"MC DONALDS CHOOCHIE","steam_id":76561199012155377,"connected_time":651000000000,"state":"active","ping":43},{"user_id":33,"name":"Shadowdrake88","steam_id":76561198113085367,"connected_time":2804000000000,"state":"active","ping":80},{"user_id":39,"name":"‚ô•‚ô•TGA‚ô•‚ô•","steam_id":76561198853016656,"connected_time":2137000000000,"state":"active","ping":51},{"user_id":72,"name":"Czecze≈Ñski Katolik","steam_id":76561198270983277,"connected_time":529000000000,"state":"active","ping":59},{"user_id":73,"name":"WormiestChicken","steam_id":76561198124574045,"connected_time":498000000000,"state":"active","ping":64},{"user_id":74,"name":"I have no duck and I must quack","steam_id":76561198061920656,"connected_time":467000000000,"state":"active","ping":82},{"user_id":46,"name":"average eu3 enjoyer F2P","steam_id":76561199227880511,"connected_time":1690000000000,"state":"active","ping":60},{"user_id":54,"name":"spl .davi","steam_id":76561198029015952,"connected_time":1124000000000,"state":"active","ping":59},{"user_id":81,"name":"Machepka","steam_id":76561198226266992,"connected_time":71000000000,"state":"active","ping":76},{"user_id":52,"name":"marconiuszcd","steam_id":76561198272952196,"connected_time":1408000000000,"state":"active","ping":60},{"user_id":55,"name":"flave","steam_id":76561198056372101,"connected_time":1100000000000,"state":"active","ping":68},{"user_id":56,"name":"–Øobot‰∫ó","steam_id":76561199095734117,"connected_time":1073000000000,"state":"active","ping":62},{"user_id":77,"name":"pablo","steam_id":76561198089285014,"connected_time":278000000000,"state":"active","ping":70},{"user_id":58,"name":"Iroh had enough","steam_id":76561198114083188,"connected_time":1065000000000,"state":"active","ping":66},{"user_id":60,"name":"Cojanco","steam_id":76561198803271320,"connected_time":1033000000000,"state":"active","ping":58},{"user_id":79,"name":"Rapha \u003c3","steam_id":76561198238958174,"connected_time":266000000000,"state":"active","ping":70},{"user_id":62,"name":"boxi","steam_id":76561198123238801,"connected_time":835000000000,"state":"active","ping":68},{"user_id":63,"name":"SomeBodyStoleMySandwich","steam_id":76561198116696083,"connected_time":780000000000,"state":"active","ping":167},{"user_id":69,"name":"flr","steam_id":76561198249327786,"connected_time":724000000000,"state":"active","ping":75},{"user_id":82,"name":"Erates","steam_id":76561197968707211,"connected_time":46000000000,"state":"active","ping":60},{"user_id":76,"name":"superd0074","steam_id":76561199440927207,"connected_time":414000000000,"state":"active","ping":60},{"user_id":67,"name":"Brian","steam_id":76561198077756206,"connected_time":769000000000,"state":"active","ping":58}]},{"server_id":310,"name":"Uncletopia | Frankfurt | 5 | All Maps","name_short":"frk-5","host":"frk-1.de.uncletopia.com","port":27055,"enabled":true,"region":"eu","cc":"de","latitude":50.110924,"longitude":8.682127,"reserved":0,"last_update":"0001-01-01T00:00:00Z","name_a2s":"Uncletopia | Frankfurt | 5 | All Maps","protocol":17,"map":"pl_badwater","folder":"tf","game":"Team Fortress","app_id":440,"player_count":6,"max_players":24,"Bots":0,"server_type":"Dedicated","server_os":"Linux","password":true,"vac":true,"version":"7961495","steam_id":85568392924504277,"keywords":["nocrits","nodmgspread","payload","uncletopia"],"game_id":440,"stv_port":27056,"stv_name":"Uncletopia | Frankfurt | 5 | All Maps | STV","players":[{"user_id":182,"name":"Ivy_Foxxie (She/Her)","steam_id":76561198303517687,"connected_time":622000000000,"state":"active","ping":60},{"user_id":184,"name":"KaboomBoy","steam_id":76561199031303306,"connected_time":411000000000,"state":"active","ping":46},{"user_id":185,"name":"Archive","steam_id":76561198071255385,"connected_time":330000000000,"state":"active","ping":95},{"user_id":190,"name":"Behind you","steam_id":76561198102420849,"connected_time":72000000000,"state":"active","ping":45},{"user_id":135,"name":"Mini","steam_id":76561197968634073,"connected_time":4298000000000,"state":"active","ping":105},{"user_id":178,"name":"TruMoskal'","steam_id":76561198413276988,"connected_time":1214000000000,"state":"active","ping":74}]},{"server_id":311,"name":"Uncletopia | Frankfurt | 6 | All Maps","name_short":"frk-6","host":"frk-1.de.uncletopia.com","port":27065,"enabled":true,"region":"eu","cc":"de","latitude":50.110924,"longitude":8.682127,"reserved":0,"last_update":"0001-01-01T00:00:00Z","name_a2s":"Uncletopia | Frankfurt | 6 | All Maps","protocol":17,"map":"koth_cascade","folder":"tf","game":"Team Fortress","app_id":440,"player_count":24,"max_players":24,"Bots":0,"server_type":"Dedicated","server_os":"Linux","password":true,"vac":true,"version":"7961495","steam_id":85568392924504278,"keywords":["cp","nocrits","nodmgspread","uncletopia"],"game_id":440,"stv_port":27066,"stv_name":"Uncletopia | Frankfurt | 6 | All Maps | STV","players":[{"user_id":79,"name":"Michal Jordan (real)","steam_id":76561199106262610,"connected_time":4275000000000,"state":"active","ping":50},{"user_id":129,"name":"Foo","steam_id":76561198373446562,"connected_time":561000000000,"state":"active","ping":181},{"user_id":139,"name":"Ketich","steam_id":76561198021772703,"connected_time":168000000000,"state":"active","ping":69},{"user_id":109,"name":"–®–∞–ø–∫–∞ #TF2Center","steam_id":76561198368792603,"connected_time":1600000000000,"state":"active","ping":66},{"user_id":97,"name":"TSUTSUMARETE","steam_id":76561198325061394,"connected_time":2891000000000,"state":"active","ping":68},{"user_id":124,"name":"zek","steam_id":76561198862763731,"connected_time":901000000000,"state":"active","ping":57},{"user_id":92,"name":"Gruset","steam_id":76561198327512432,"connected_time":3144000000000,"state":"active","ping":82},{"user_id":101,"name":"CzechMate #SaveTF2","steam_id":76561198012687703,"connected_time":2263000000000,"state":"active","ping":48},{"user_id":94,"name":"Pighead_08","steam_id":76561199060466647,"connected_time":3118000000000,"state":"active","ping":104},{"user_id":132,"name":"Vlach Shepherd","steam_id":76561199206064576,"connected_time":334000000000,"state":"active","ping":99},{"user_id":118,"name":"splarvis","steam_id":76561198007792525,"connected_time":1422000000000,"state":"active","ping":52},{"user_id":90,"name":"baby's first domination","steam_id":76561198325898181,"connected_time":3340000000000,"state":"active","ping":73},{"user_id":102,"name":"keleos82","steam_id":76561198123916013,"connected_time":2219000000000,"state":"active","ping":68},{"user_id":131,"name":"Shinru","steam_id":76561198285951918,"connected_time":364000000000,"state":"active","ping":80},{"user_id":130,"name":"bonzai","steam_id":76561198086817743,"connected_time":435000000000,"state":"active","ping":70},{"user_id":127,"name":"Smoking problem","steam_id":76561198361351449,"connected_time":731000000000,"state":"active","ping":46},{"user_id":128,"name":"OpticalBlack","steam_id":76561198038624807,"connected_time":669000000000,"state":"active","ping":98},{"user_id":133,"name":"Javier dorsaless","steam_id":76561198179324075,"connected_time":287000000000,"state":"active","ping":75},{"user_id":126,"name":"Drinking Problem","steam_id":76561198319162953,"connected_time":807000000000,"state":"active","ping":57},{"user_id":134,"name":"Kornel","steam_id":76561199000320652,"connected_time":282000000000,"state":"active","ping":137},{"user_id":105,"name":"REN","steam_id":76561198000596385,"connected_time":1667000000000,"state":"active","ping":69},{"user_id":135,"name":"Qdarks","steam_id":76561198013391340,"connected_time":272000000000,"state":"active","ping":143},{"user_id":107,"name":"magnificent darkness","steam_id":76561199059524050,"connected_time":1612000000000,"state":"active","ping":77},{"user_id":136,"name":"idenburg","steam_id":76561198063574956,"connected_time":271000000000,"state":"active","ping":72}]},{"server_id":23,"name":"Uncletopia | Frankfurt | 7 | Stopwatch","name_short":"frk-7","host":"frk-1.de.uncletopia.com","port":27075,"enabled":true,"region":"eu","cc":"de","latitude":50.110924,"longitude":8.682127,"reserved":0,"last_update":"0001-01-01T00:00:00Z","name_a2s":"Uncletopia | Frankfurt | 7 | Stopwatch","protocol":17,"map":"workshop/koth_clearcut_b15.ugc2107050255","folder":"tf","game":"Team Fortress","app_id":440,"player_count":0,"max_players":24,"Bots":0,"server_type":"Dedicated","server_os":"Linux","password":true,"vac":true,"version":"7961495","steam_id":85568392924742827,"keywords":["cp","nocrits","nodmgspread","uncletopia"],"game_id":440,"stv_port":27076,"stv_name":"Uncletopia | Frankfurt | 7 | Stopwatch | STV","players":null},{"server_id":24,"name":"Uncletopia | Frankfurt | 8 | Community","name_short":"frk-8","host":"frk-1.de.uncletopia.com","port":27085,"enabled":true,"region":"eu","cc":"de","latitude":50.110924,"longitude":8.682127,"reserved":0,"last_update":"0001-01-01T00:00:00Z","name_a2s":"Uncletopia | Frankfurt | 8 | Community","protocol":17,"map":"workshop/cp_alloy_rc3.ugc592805587","folder":"tf","game":"Team Fortress","app_id":440,"player_count":23,"max_players":24,"Bots":0,"server_type":"Dedicated","server_os":"Linux","password":true,"vac":true,"version":"7961495","steam_id":85568392924742828,"keywords":["cp","nocrits","nodmgspread","uncletopia"],"game_id":440,"stv_port":27086,"stv_name":"Uncletopia | Frankfurt | 8 | Community | STV","players":[{"user_id":244,"name":"Rubik Mind","steam_id":76561198295991607,"connected_time":227000000000,"state":"active","ping":69},{"user_id":245,"name":"greg's mom","steam_id":76561198050525471,"connected_time":222000000000,"state":"active","ping":60},{"user_id":198,"name":"spy in the base","steam_id":76561198284570752,"connected_time":3045000000000,"state":"active","ping":56},{"user_id":246,"name":"Bun","steam_id":76561197989239999,"connected_time":185000000000,"state":"active","ping":46},{"user_id":247,"name":"Fran","steam_id":76561199070516960,"connected_time":178000000000,"state":"active","ping":63},{"user_id":213,"name":"‚ú°Cpruin‚ú°","steam_id":76561198184924239,"connected_time":2547000000000,"state":"active","ping":68},{"user_id":241,"name":"Nobaddy","steam_id":76561198037871007,"connected_time":453000000000,"state":"active","ping":98},{"user_id":248,"name":"Franko_D_Tanko","steam_id":76561198043464571,"connected_time":138000000000,"state":"active","ping":43},{"user_id":230,"name":"Memper","steam_id":76561198066700614,"connected_time":1442000000000,"state":"active","ping":85},{"user_id":191,"name":"darkwater","steam_id":76561197986978738,"connected_time":3620000000000,"state":"active","ping":60},{"user_id":149,"name":"Artemis","steam_id":76561198199091801,"connected_time":5485000000000,"state":"active","ping":44},{"user_id":249,"name":"Skatnaset","steam_id":76561198298457353,"connected_time":97000000000,"state":"active","ping":71},{"user_id":220,"name":"beanie","steam_id":76561198870866890,"connected_time":2204000000000,"state":"active","ping":49},{"user_id":251,"name":"2(-)13","steam_id":76561198068108772,"connected_time":52000000000,"state":"active","ping":59},{"user_id":250,"name":"Potato Girl","steam_id":76561198216908735,"connected_time":83000000000,"state":"active","ping":104},{"user_id":181,"name":"Brisket \u003c3","steam_id":76561198047291354,"connected_time":4339000000000,"state":"active","ping":140},{"user_id":252,"name":"Superiumentarius","steam_id":76561198081642249,"connected_time":48000000000,"state":"active","ping":45},{"user_id":126,"name":"sloppy transgirl toppy","steam_id":76561198057092208,"connected_time":6850000000000,"state":"active","ping":69},{"user_id":236,"name":"Flang","steam_id":76561198085376090,"connected_time":706000000000,"state":"active","ping":109},{"user_id":207,"name":"Infrunami","steam_id":76561199191668256,"connected_time":2950000000000,"state":"active","ping":63},{"user_id":253,"name":"raebbitos","steam_id":76561198167580006,"connected_time":45000000000,"state":"active","ping":57},{"user_id":208,"name":"rets_","steam_id":76561198061551392,"connected_time":2908000000000,"state":"active","ping":48},{"user_id":242,"name":"Righty","steam_id":76561199224705434,"connected_time":419000000000,"state":"active","ping":119}]},{"server_id":202,"name":"Uncletopia | Hong Kong | 1 | All Maps","name_short":"hgk-1","host":"hgk-1.hk.uncletopia.com","port":27015,"enabled":true,"region":"asia","cc":"hk","latitude":22.302711,"longitude":114.177216,"reserved":0,"last_update":"0001-01-01T00:00:00Z","name_a2s":"Uncletopia | Hong Kong | 1 | All Maps","protocol":17,"map":"koth_cascade","folder":"tf","game":"Team Fortress","app_id":440,"player_count":0,"max_players":24,"Bots":0,"server_type":"Dedicated","server_os":"Linux","password":true,"vac":true,"version":"7961495","steam_id":85568392924494504,"keywords":["cp","nocrits","nodmgspread","uncletopia"],"game_id":440,"stv_port":27016,"stv_name":"Uncletopia | Hong Kong | 1 | All Maps | STV","players":null},{"server_id":1,"name":"Uncletopia | Los Angeles | 1 | All Maps","name_short":"lax-1","host":"lax-1.us.uncletopia.com","port":27015,"enabled":true,"region":"us-west","cc":"us","latitude":33.94279,"longitude":-118.41004,"reserved":0,"last_update":"0001-01-01T00:00:00Z","name_a2s":"Uncletopia | Los Angeles | 1 | All Maps","protocol":17,"map":"pl_swiftwater_final1","folder":"tf","game":"Team Fortress","app_id":440,"player_count":0,"max_players":24,"Bots":0,"server_type":"Dedicated","server_os":"Linux","password":true,"vac":true,"version":"7961495","steam_id":85568392924469991,"keywords":["nocrits","nodmgspread","payload","uncletopia"],"game_id":440,"stv_port":27016,"stv_name":"Uncletopia | Los Angeles | 1 | All Maps | STV","players":null},{"server_id":112,"name":"Uncletopia | Los Angeles | 2 | All Maps","name_short":"lax-2","host":"lax-1.us.uncletopia.com","port":27025,"enabled":true,"region":"us-west","cc":"us","latitude":33.94279,"longitude":-118.41004,"reserved":0,"last_update":"0001-01-01T00:00:00Z","name_a2s":"Uncletopia | Los Angeles | 2 | All Maps","protocol":17,"map":"pl_borneo","folder":"tf","game":"Team Fortress","app_id":440,"player_count":0,"max_players":24,"Bots":0,"server_type":"Dedicated","server_os":"Linux","password":true,"vac":true,"version":"7961495","steam_id":85568392924469992,"keywords":["nocrits","nodmgspread","payload","uncletopia"],"game_id":440,"stv_port":27026,"stv_name":"Uncletopia | Los Angeles | 2 | All Maps | STV","players":null},{"server_id":324,"name":"Uncletopia | Los Angeles | 3 | All Maps","name_short":"lax-3","host":"lax-1.us.uncletopia.com","port":27035,"enabled":true,"region":"us-west","cc":"us","latitude":33.94279,"longitude":-118.41004,"reserved":0,"last_update":"0001-01-01T00:00:00Z","name_a2s":"Uncletopia | Los Angeles | 3 | All Maps","protocol":17,"map":"pl_frontier_final","folder":"tf","game":"Team Fortress","app_id":440,"player_count":0,"max_players":24,"Bots":0,"server_type":"Dedicated","server_os":"Linux","password":true,"vac":true,"version":"7961495","steam_id":85568392924510198,"keywords":["nocrits","nodmgspread","payload","uncletopia"],"game_id":440,"stv_port":27036,"stv_name":"Uncletopia | Los Angeles | 3 | All Maps | STV","players":null},{"server_id":25,"name":"Uncletopia | Los Angeles | 4 | Stopwatch","name_short":"lax-4","host":"lax-1.us.uncletopia.com","port":27045,"enabled":true,"region":"us-west","cc":"us","latitude":33.94279,"longitude":-118.41004,"reserved":0,"last_update":"0001-01-01T00:00:00Z","name_a2s":"Uncletopia | Los Angeles | 4 | Stopwatch","protocol":17,"map":"pl_barnblitz","folder":"tf","game":"Team Fortress","app_id":440,"player_count":0,"max_players":24,"Bots":0,"server_type":"Dedicated","server_os":"Linux","password":true,"vac":true,"version":"7961495","steam_id":85568392924510199,"keywords":["nocrits","nodmgspread","payload","uncletopia"],"game_id":440,"stv_port":27046,"stv_name":"Uncletopia | Los Angeles | 4 | Stopwatch | STV","players":null},{"server_id":11,"name":"Uncletopia | London | 1 | All Maps","name_short":"lon-1","host":"lon-1.uk.uncletopia.com","port":27015,"enabled":true,"region":"eu","cc":"gb","latitude":51.509865,"longitude":-0.118092,"reserved":0,"last_update":"0001-01-01T00:00:00Z","name_a2s":"Uncletopia | London | 1 | All Maps","protocol":17,"map":"pl_borneo","folder":"tf","game":"Team Fortress","app_id":440,"player_count":24,"max_players":24,"Bots":0,"server_type":"Dedicated","server_os":"Linux","password":true,"vac":true,"version":"7961495","steam_id":85568392924367362,"keywords":["nocrits","nodmgspread","payload","uncletopia"],"game_id":440,"stv_port":27016,"stv_name":"Uncletopia | London | 1 | All Maps | STV","players":[{"user_id":381,"name":"Nenny","steam_id":76561198072638167,"connected_time":323000000000,"state":"active","ping":47},{"user_id":383,"name":"Hogs Sidekick","steam_id":76561198136433205,"connected_time":32000000000,"state":"spawning","ping":54},{"user_id":365,"name":"icymelon","steam_id":76561198072239175,"connected_time":1704000000000,"state":"active","ping":39},{"user_id":360,"name":"Pineappleman","steam_id":76561199074651648,"connected_time":2054000000000,"state":"active","ping":45},{"user_id":376,"name":"Tweek.","steam_id":76561198030958701,"connected_time":1188000000000,"state":"active","ping":80},{"user_id":366,"name":"Infantile Pillock","steam_id":76561198283851362,"connected_time":1680000000000,"state":"active","ping":54},{"user_id":379,"name":"Je≈æek :)","steam_id":76561198127703483,"connected_time":826000000000,"state":"active","ping":69},{"user_id":349,"name":"simon","steam_id":76561198880361394,"connected_time":3215000000000,"state":"active","ping":63},{"user_id":322,"name":"Trapezoid","steam_id":76561198059369295,"connected_time":4638000000000,"state":"active","ping":74},{"user_id":372,"name":"Hamedius","steam_id":76561199152512027,"connected_time":1502000000000,"state":"active","ping":66},{"user_id":358,"name":"Mircoxi","steam_id":76561199407632710,"connected_time":2209000000000,"state":"active","ping":55},{"user_id":333,"name":"femboy enjoyer","steam_id":76561199041737814,"connected_time":4081000000000,"state":"active","ping":30},{"user_id":295,"name":"yuno appreciator","steam_id":76561198083286511,"connected_time":6626000000000,"state":"active","ping":35},{"user_id":367,"name":"TheBatInBlack","steam_id":76561198116808459,"connected_time":1671000000000,"state":"active","ping":48},{"user_id":347,"name":"Bonkovich","steam_id":76561198256800084,"connected_time":3333000000000,"state":"active","ping":120},{"user_id":384,"name":"Ah shit, here we go again","steam_id":76561198382080975,"connected_time":24000000000,"state":"active","ping":53},{"user_id":380,"name":"MrPineapple7199","steam_id":76561198968221354,"connected_time":534000000000,"state":"active","ping":44},{"user_id":387,"name":"Tri-","steam_id":76561198133524794,"connected_time":0,"state":"spawning","ping":0},{"user_id":369,"name":"Kahvi","steam_id":76561198723244199,"connected_time":1663000000000,"state":"active","ping":74},{"user_id":386,"name":"Mabert","steam_id":76561198436058407,"connected_time":7000000000,"state":"spawning","ping":82},{"user_id":359,"name":"‚∏∏aura‚∏∏","steam_id":76561198066258544,"connected_time":2086000000000,"state":"active","ping":62},{"user_id":374,"name":"breakfast burrito","steam_id":76561198148606969,"connected_time":1314000000000,"state":"active","ping":72},{"user_id":356,"name":"Fuzz","steam_id":76561198013049077,"connected_time":2329000000000,"state":"active","ping":71},{"user_id":377,"name":"regimiro","steam_id":76561198120457008,"connected_time":1020000000000,"state":"active","ping":55}]},{"server_id":114,"name":"Uncletopia | London | 2 | All Maps","name_short":"lon-2","host":"lon-1.uk.uncletopia.com","port":27025,"enabled":true,"region":"eu","cc":"gb","latitude":51.509865,"longitude":-0.118092,"reserved":0,"last_update":"0001-01-01T00:00:00Z","name_a2s":"Uncletopia | London | 2 | All Maps","protocol":17,"map":"cp_steel","folder":"tf","game":"Team Fortress","app_id":440,"player_count":12,"max_players":24,"Bots":0,"server_type":"Dedicated","server_os":"Linux","password":true,"vac":true,"version":"7961495","steam_id":85568392924470941,"keywords":["cp","nocrits","nodmgspread","uncletopia"],"game_id":440,"stv_port":27026,"stv_name":"Uncletopia | London | 2 | All Maps | STV","players":[{"user_id":342,"name":"sokige","steam_id":76561198167112371,"connected_time":2156000000000,"state":"active","ping":103},{"user_id":345,"name":"Rambi","steam_id":76561199058078505,"connected_time":1410000000000,"state":"active","ping":149},{"user_id":309,"name":"kbourbery","steam_id":76561198109943492,"connected_time":3525000000000,"state":"active","ping":45},{"user_id":362,"name":"üóªüé¥Hadrian Maloneüé¥üóª","steam_id":76561198036151103,"connected_time":463000000000,"state":"active","ping":54},{"user_id":356,"name":"nejurnia","steam_id":76561198010360372,"connected_time":986000000000,"state":"active","ping":68},{"user_id":368,"name":"!","steam_id":76561198427311326,"connected_time":24000000000,"state":"active","ping":75},{"user_id":346,"name":"masturbator cybersport","steam_id":76561199325274331,"connected_time":1397000000000,"state":"active","ping":81},{"user_id":310,"name":"gayest MF DOOM fan","steam_id":76561198065801979,"connected_time":3509000000000,"state":"active","ping":127},{"user_id":358,"name":"bowchika wowa #SlavaUkraine","steam_id":76561198159564550,"connected_time":908000000000,"state":"active","ping":69},{"user_id":347,"name":"Rodia","steam_id":76561197968293161,"connected_time":1372000000000,"state":"active","ping":74},{"user_id":331,"name":"piper","steam_id":76561198112687349,"connected_time":2475000000000,"state":"active","ping":47},{"user_id":361,"name":"s.ghost","steam_id":76561198851865793,"connected_time":730000000000,"state":"active","ping":42}]},{"server_id":320,"name":"Uncletopia | London | 3 | All Maps","name_short":"lon-3","host":"lon-1.uk.uncletopia.com","port":27035,"enabled":true,"region":"eu","cc":"gb","latitude":51.509865,"longitude":-0.118092,"reserved":0,"last_update":"0001-01-01T00:00:00Z","name_a2s":"Uncletopia | London | 3 | All Maps","protocol":17,"map":"cp_snakewater_final1","folder":"tf","game":"Team Fortress","app_id":440,"player_count":24,"max_players":24,"Bots":0,"server_type":"Dedicated","server_os":"Linux","password":true,"vac":true,"version":"7961495","steam_id":85568392924510192,"keywords":["cp","nocrits","nodmgspread","uncletopia"],"game_id":440,"stv_port":27036,"stv_name":"Uncletopia | London | 3 | All Maps | STV","players":[{"user_id":524,"name":"Alexandre","steam_id":76561198121784446,"connected_time":2492000000000,"state":"active","ping":38},{"user_id":537,"name":"jaime","steam_id":76561197980590671,"connected_time":1440000000000,"state":"active","ping":76},{"user_id":499,"name":"Topool45","steam_id":76561199161389847,"connected_time":4088000000000,"state":"active","ping":79},{"user_id":517,"name":"Oak","steam_id":76561198027681311,"connected_time":2599000000000,"state":"active","ping":74},{"user_id":544,"name":"ran is running","steam_id":76561199443185667,"connected_time":755000000000,"state":"active","ping":133},{"user_id":558,"name":"Draconis","steam_id":76561198151381256,"connected_time":110000000000,"state":"active","ping":132},{"user_id":487,"name":"UltimateSlayer","steam_id":76561198384109309,"connected_time":5443000000000,"state":"active","ping":56},{"user_id":501,"name":"A Very Disappointing Salad","steam_id":76561198020277939,"connected_time":3943000000000,"state":"active","ping":53},{"user_id":512,"name":"NoPfizer","steam_id":76561198307914381,"connected_time":2840000000000,"state":"active","ping":48},{"user_id":454,"name":"awkward weirdo loser freak","steam_id":76561199042470246,"connected_time":7781000000000,"state":"active","ping":65},{"user_id":479,"name":"r0la","steam_id":76561198128315340,"connected_time":5818000000000,"state":"active","ping":87},{"user_id":423,"name":"lion king 5 the reckoning","steam_id":76561198041040598,"connected_time":10457000000000,"state":"active","ping":85},{"user_id":556,"name":"Gentlemann Co.","steam_id":76561197997142921,"connected_time":295000000000,"state":"active","ping":58},{"user_id":554,"name":"Arthur","steam_id":76561198066109166,"connected_time":326000000000,"state":"active","ping":83},{"user_id":546,"name":"ExtraFlames","steam_id":76561199136146246,"connected_time":687000000000,"state":"active","ping":61},{"user_id":559,"name":"Large spoon user","steam_id":76561198235814492,"connected_time":79000000000,"state":"active","ping":76},{"user_id":547,"name":"bolunia","steam_id":76561198305866363,"connected_time":658000000000,"state":"active","ping":112},{"user_id":557,"name":"Mikeal (bad)","steam_id":76561198241759034,"connected_time":169000000000,"state":"active","ping":91},{"user_id":551,"name":"grt","steam_id":76561199213901239,"connected_time":523000000000,"state":"active","ping":46},{"user_id":550,"name":"Tywhip","steam_id":76561199207545191,"connected_time":589000000000,"state":"active","ping":57},{"user_id":365,"name":"john fortress","steam_id":76561198013237629,"connected_time":15292000000000,"state":"active","ping":97},{"user_id":513,"name":"_hannah_on_fire_","steam_id":76561198038619707,"connected_time":2791000000000,"state":"active","ping":70},{"user_id":552,"name":"Da bodi do","steam_id":76561198131055184,"connected_time":511000000000,"state":"active","ping":71},{"user_id":533,"name":"in mcdonalds","steam_id":76561198143921841,"connected_time":1581000000000,"state":"active","ping":100}]},{"server_id":321,"name":"Uncletopia | London | 4 | All Maps","name_short":"lon-4","host":"lon-1.uk.uncletopia.com","port":27045,"enabled":true,"region":"eu","cc":"gb","latitude":51.509865,"longitude":-0.118092,"reserved":0,"last_update":"0001-01-01T00:00:00Z","name_a2s":"Uncletopia | London | 4 | All Maps","protocol":17,"map":"koth_viaduct","folder":"tf","game":"Team Fortress","app_id":440,"player_count":24,"max_players":24,"Bots":0,"server_type":"Dedicated","server_os":"Linux","password":true,"vac":true,"version":"7961495","steam_id":85568392924510193,"keywords":["cp","nocrits","nodmgspread","uncletopia"],"game_id":440,"stv_port":27046,"stv_name":"Uncletopia | London | 4 | All Maps | STV","players":[{"user_id":103,"name":"Ricey","steam_id":76561198832961307,"connected_time":1873000000000,"state":"active","ping":46},{"user_id":136,"name":"semaca","steam_id":76561198068027379,"connected_time":119000000000,"state":"active","ping":77},{"user_id":138,"name":"skai","steam_id":76561198184881255,"connected_time":89000000000,"state":"active","ping":69},{"user_id":127,"name":"Papa Cheese","steam_id":76561198276351496,"connected_time":536000000000,"state":"active","ping":67},{"user_id":117,"name":"cristinadmp","steam_id":76561199404737792,"connected_time":1323000000000,"state":"active","ping":122},{"user_id":133,"name":"SpyCrab  Erik Twice","steam_id":76561198009710309,"connected_time":157000000000,"state":"active","ping":64},{"user_id":137,"name":"Pudlich","steam_id":76561198300089671,"connected_time":116000000000,"state":"active","ping":81},{"user_id":134,"name":"Penis Contortionist","steam_id":76561198073663784,"connected_time":151000000000,"state":"active","ping":37},{"user_id":111,"name":"Kitten","steam_id":76561198019027657,"connected_time":1483000000000,"state":"active","ping":78},{"user_id":121,"name":"THE_FATCAT","steam_id":76561198067211689,"connected_time":1078000000000,"state":"active","ping":45},{"user_id":130,"name":"Visphiric","steam_id":76561198071938027,"connected_time":412000000000,"state":"active","ping":41},{"user_id":123,"name":"-rikeOo-","steam_id":76561198303995379,"connected_time":960000000000,"state":"active","ping":79},{"user_id":139,"name":"shablool","steam_id":76561199192795613,"connected_time":86000000000,"state":"active","ping":105},{"user_id":91,"name":"katten","steam_id":76561198163615254,"connected_time":2518000000000,"state":"active","ping":61},{"user_id":97,"name":"‚òÖLily","steam_id":76561198014774371,"connected_time":2272000000000,"state":"active","ping":45},{"user_id":124,"name":"gr3821","steam_id":76561198091531010,"connected_time":936000000000,"state":"active","ping":41},{"user_id":129,"name":"‚ù§G a n K","steam_id":76561199125995565,"connected_time":487000000000,"state":"active","ping":63},{"user_id":92,"name":"cattle","steam_id":76561198311044984,"connected_time":2513000000000,"state":"active","ping":75},{"user_id":74,"name":"Sizenberg","steam_id":76561198115842661,"connected_time":3438000000000,"state":"active","ping":141},{"user_id":76,"name":"Rapnoc","steam_id":76561198255884546,"connected_time":3291000000000,"state":"active","ping":87},{"user_id":106,"name":"fluffy474","steam_id":76561198375486320,"connected_time":1818000000000,"state":"active","ping":53},{"user_id":93,"name":"Blackgdkcb","steam_id":76561199027950389,"connected_time":2475000000000,"state":"active","ping":58},{"user_id":131,"name":"Fish","steam_id":76561198811811405,"connected_time":189000000000,"state":"active","ping":76},{"user_id":141,"name":"imthegerman","steam_id":76561198053401077,"connected_time":60000000000,"state":"active","ping":116}]},{"server_id":21,"name":"Uncletopia | London | 5 | All Maps","name_short":"lon-5","host":"lon-1.uk.uncletopia.com","port":27055,"enabled":true,"region":"eu","cc":"gb","latitude":51.509865,"longitude":-0.118092,"reserved":0,"last_update":"0001-01-01T00:00:00Z","name_a2s":"Uncletopia | London | 5 | All Maps","protocol":17,"map":"koth_lakeside_final","folder":"tf","game":"Team Fortress","app_id":440,"player_count":0,"max_players":24,"Bots":0,"server_type":"Dedicated","server_os":"Linux","password":true,"vac":true,"version":"7961495","steam_id":85568392924742829,"keywords":["cp","nocrits","nodmgspread","uncletopia"],"game_id":440,"stv_port":27056,"stv_name":"Uncletopia | London | 5 | All Maps | STV","players":null},{"server_id":22,"name":"Uncletopia | London | 6 | All Maps","name_short":"lon-6","host":"lon-1.uk.uncletopia.com","port":27065,"enabled":true,"region":"eu","cc":"gb","latitude":51.509865,"longitude":-0.118092,"reserved":0,"last_update":"0001-01-01T00:00:00Z","name_a2s":"Uncletopia | London | 6 | All Maps","protocol":17,"map":"cp_process_final","folder":"tf","game":"Team Fortress","app_id":440,"player_count":20,"max_players":24,"Bots":0,"server_type":"Dedicated","server_os":"Linux","password":true,"vac":true,"version":"7961495","steam_id":85568392924742830,"keywords":["cp","nocrits","nodmgspread","uncletopia"],"game_id":440,"stv_port":27066,"stv_name":"Uncletopia | London | 6 | All Maps | STV","players":[{"user_id":522,"name":"c1v","steam_id":76561199085624224,"connected_time":2278000000000,"state":"spawning","ping":62},{"user_id":567,"name":"Gimble","steam_id":76561198964372777,"connected_time":9000000000,"state":"spawning","ping":69},{"user_id":533,"name":"RedPyro2009","steam_id":76561198935824363,"connected_time":1419000000000,"state":"spawning","ping":48},{"user_id":552,"name":"Worm","steam_id":76561198296497176,"connected_time":620000000000,"state":"spawning","ping":42},{"user_id":531,"name":"quesoengineer","steam_id":76561199371985209,"connected_time":1502000000000,"state":"spawning","ping":369},{"user_id":532,"name":"Rose","steam_id":76561199163784606,"connected_time":1490000000000,"state":"spawning","ping":137},{"user_id":544,"name":"frosty","steam_id":76561198094560834,"connected_time":801000000000,"state":"active","ping":142},{"user_id":536,"name":"RLCrazyCat3","steam_id":76561197983757878,"connected_time":1165000000000,"state":"spawning","ping":48},{"user_id":538,"name":"SuperSpartan093","steam_id":76561198365347374,"connected_time":1133000000000,"state":"spawning","ping":39},{"user_id":545,"name":"Spurt","steam_id":76561198078523852,"connected_time":796000000000,"state":"spawning","ping":49},{"user_id":546,"name":"LOBZIK","steam_id":76561198114830120,"connected_time":790000000000,"state":"spawning","ping":87},{"user_id":554,"name":"minecraft","steam_id":76561199218227502,"connected_time":443000000000,"state":"active","ping":171},{"user_id":547,"name":"Udinese Dion","steam_id":76561198067931573,"connected_time":778000000000,"state":"connecting","ping":55},{"user_id":548,"name":"PASTAMANIA!","steam_id":76561197967858558,"connected_time":760000000000,"state":"spawning","ping":103},{"user_id":561,"name":"St. Pablo","steam_id":76561199009805208,"connected_time":316000000000,"state":"spawning","ping":114},{"user_id":551,"name":"Gurcharan S. G.","steam_id":76561198436609733,"connected_time":672000000000,"state":"spawning","ping":53},{"user_id":494,"name":"chillrend_morphs_high_lod6","steam_id":76561198452963141,"connected_time":5280000000000,"state":"spawning","ping":82},{"user_id":557,"name":"Haschgott 2.0","steam_id":76561198049820307,"connected_time":411000000000,"state":"spawning","ping":61},{"user_id":562,"name":"Jeff","steam_id":76561199190902540,"connected_time":253000000000,"state":"active","ping":287},{"user_id":563,"name":"Least Trans Software Engineer","steam_id":76561198213386019,"connected_time":230000000000,"state":"spawning","ping":125}]},{"server_id":40,"name":"Uncletopia | London | 7 | Stopwatch","name_short":"lon-7","host":"lon-1.uk.uncletopia.com","port":27075,"enabled":true,"region":"eu","cc":"gb","latitude":51.509865,"longitude":-0.118092,"reserved":0,"last_update":"0001-01-01T00:00:00Z","name_a2s":"Uncletopia | London | 7 | Stopwatch","protocol":17,"map":"pl_upward","folder":"tf","game":"Team Fortress","app_id":440,"player_count":0,"max_players":24,"Bots":0,"server_type":"Dedicated","server_os":"Linux","password":true,"vac":true,"version":"7961495","steam_id":85568392924964314,"keywords":["nocrits","nodmgspread","payload","uncletopia"],"game_id":440,"stv_port":27076,"stv_name":"Uncletopia | London | 7 | Stopwatch | STV","players":null},{"server_id":41,"name":"Uncletopia | London | 8 | Community","name_short":"lon-8","host":"lon-1.uk.uncletopia.com","port":27085,"enabled":true,"region":"eu","cc":"gb","latitude":51.509865,"longitude":-0.118092,"reserved":0,"last_update":"0001-01-01T00:00:00Z","name_a2s":"Uncletopia | London | 8 | Community","protocol":17,"map":"workshop/koth_bagel_rc6.ugc2514036946","folder":"tf","game":"Team Fortress","app_id":440,"player_count":0,"max_players":24,"Bots":0,"server_type":"Dedicated","server_os":"Linux","password":true,"vac":true,"version":"7961495","steam_id":85568392924964315,"keywords":["cp","nocrits","nodmgspread","uncletopia"],"game_id":440,"stv_port":27086,"stv_name":"Uncletopia | London | 8 | Community | STV","players":null},{"server_id":300,"name":"Uncletopia | Montr√©al | 1 | One Thousand Uncles","name_short":"mtl-1","host":"mtl-1.ca.uncletopia.com","port":27015,"enabled":true,"region":"us-east","cc":"ca","latitude":45.50889,"longitude":-73.56167,"reserved":0,"last_update":"0001-01-01T00:00:00Z","name_a2s":"","protocol":0,"map":"","folder":"","game":"","app_id":0,"player_count":0,"max_players":0,"Bots":0,"server_type":"","server_os":"","password":false,"vac":false,"version":"","steam_id":0,"keywords":null,"game_id":0,"stv_port":0,"stv_name":"","players":null},{"server_id":301,"name":"Uncletopia | Montr√©al | 2 | One Thousand Uncles","name_short":"mtl-2","host":"mtl-1.ca.uncletopia.com","port":27025,"enabled":true,"region":"us-east","cc":"ca","latitude":45.50889,"longitude":-73.56167,"reserved":0,"last_update":"0001-01-01T00:00:00Z","name_a2s":"","protocol":0,"map":"","folder":"","game":"","app_id":0,"player_count":0,"max_players":0,"Bots":0,"server_type":"","server_os":"","password":false,"vac":false,"version":"","steam_id":0,"keywords":null,"game_id":0,"stv_port":0,"stv_name":"","players":null},{"server_id":302,"name":"Uncletopia | Montr√©al | 3 | One Thousand Uncles","name_short":"mtl-3","host":"mtl-1.ca.uncletopia.com","port":27035,"enabled":true,"region":"us-east","cc":"ca","latitude":45.50889,"longitude":-73.56167,"reserved":0,"last_update":"0001-01-01T00:00:00Z","name_a2s":"","protocol":0,"map":"","folder":"","game":"","app_id":0,"player_count":0,"max_players":0,"Bots":0,"server_type":"","server_os":"","password":false,"vac":false,"version":"","steam_id":0,"keywords":null,"game_id":0,"stv_port":0,"stv_name":"","players":null},{"server_id":13,"name":"Uncletopia | New York City | 1 | All Maps","name_short":"nyc-1","host":"nyc-1.us.uncletopia.com","port":27015,"enabled":true,"region":"us-east","cc":"us","latitude":40.73061,"longitude":-73.93524,"reserved":0,"last_update":"0001-01-01T00:00:00Z","name_a2s":"Uncletopia | New York City | 1 | All Maps","protocol":17,"map":"plr_pipeline","folder":"tf","game":"Team Fortress","app_id":440,"player_count":24,"max_players":24,"Bots":0,"server_type":"Dedicated","server_os":"Linux","password":true,"vac":true,"version":"7961495","steam_id":85568392924469993,"keywords":["nocrits","nodmgspread","payload","uncletopia"],"game_id":440,"stv_port":27016,"stv_name":"Uncletopia | New York City | 1 | All Maps | STV","players":[{"user_id":42,"name":"Rigby","steam_id":76561198258121396,"connected_time":10000000000,"state":"spawning","ping":70},{"user_id":6,"name":"The SludgeMaster","steam_id":76561198364035415,"connected_time":3918000000000,"state":"spawning","ping":61},{"user_id":39,"name":"Jeremy","steam_id":76561198283977979,"connected_time":38000000000,"state":"spawning","ping":38},{"user_id":11,"name":"Coop","steam_id":76561198042839356,"connected_time":3072000000000,"state":"spawning","ping":55},{"user_id":10,"name":"chiswola","steam_id":76561198046920142,"connected_time":3257000000000,"state":"spawning","ping":81},{"user_id":35,"name":"Maid 'n' China","steam_id":76561198423392976,"connected_time":1689000000000,"state":"spawning","ping":87},{"user_id":13,"name":"Tyr","steam_id":76561198015381712,"connected_time":2885000000000,"state":"spawning","ping":75},{"user_id":20,"name":"Typh","steam_id":76561198315344079,"connected_time":2319000000000,"state":"spawning","ping":81},{"user_id":15,"name":"Kibeka the Weird","steam_id":76561198116534133,"connected_time":2782000000000,"state":"spawning","ping":52},{"user_id":16,"name":"LW | [wrd]HaloLagann","steam_id":76561198047561568,"connected_time":2587000000000,"state":"spawning","ping":56},{"user_id":37,"name":"6ix *","steam_id":76561198415484497,"connected_time":1516000000000,"state":"spawning","ping":173},{"user_id":18,"name":"gamerlegend47","steam_id":76561198122776598,"connected_time":2445000000000,"state":"spawning","ping":68},{"user_id":19,"name":"sardien","steam_id":76561198256184467,"connected_time":2428000000000,"state":"spawning","ping":60},{"user_id":34,"name":"killingorc","steam_id":76561199010635213,"connected_time":1963000000000,"state":"spawning","ping":79},{"user_id":22,"name":"mu","steam_id":76561197997530228,"connected_time":2244000000000,"state":"spawning","ping":110},{"user_id":41,"name":"The Hose on Upward","steam_id":76561197965092192,"connected_time":11000000000,"state":"connecting","ping":45},{"user_id":26,"name":"DR. Kraken","steam_id":76561198050401978,"connected_time":2080000000000,"state":"spawning","ping":49},{"user_id":27,"name":"Jasper‚Ñ¢","steam_id":76561198260018463,"connected_time":2042000000000,"state":"spawning","ping":63},{"user_id":28,"name":"Mild","steam_id":76561198086355221,"connected_time":2029000000000,"state":"spawning","ping":93},{"user_id":38,"name":"Sea Raider","steam_id":76561198055654064,"connected_time":749000000000,"state":"spawning","ping":62},{"user_id":30,"name":"gregoryhens","steam_id":76561199434318315,"connected_time":2016000000000,"state":"spawning","ping":168},{"user_id":31,"name":"Bandit","steam_id":76561198328421159,"connected_time":2001000000000,"state":"spawning","ping":61},{"user_id":33,"name":"floppy muppet","steam_id":76561198003076261,"connected_time":1970000000000,"state":"spawning","ping":81},{"user_id":40,"name":"Brawns","steam_id":76561198045190199,"connected_time":38000000000,"state":"spawning","ping":57}]},{"server_id":14,"name":"Uncletopia | New York City | 2 | All Maps","name_short":"nyc-2","host":"nyc-1.us.uncletopia.com","port":27025,"enabled":true,"region":"us-east","cc":"us","latitude":40.73061,"longitude":-73.93524,"reserved":0,"last_update":"0001-01-01T00:00:00Z","name_a2s":"Uncletopia | New York City | 2 | All Maps","protocol":17,"map":"cp_snakewater_final1","folder":"tf","game":"Team Fortress","app_id":440,"player_count":0,"max_players":24,"Bots":0,"server_type":"Dedicated","server_os":"Linux","password":true,"vac":true,"version":"7961495","steam_id":85568392924469994,"keywords":["cp","nocrits","nodmgspread","uncletopia"],"game_id":440,"stv_port":27026,"stv_name":"Uncletopia | New York City | 2 | All Maps | STV","players":null},{"server_id":15,"name":"Uncletopia | New York City | 3 | Stopwatch","name_short":"nyc-3","host":"nyc-1.us.uncletopia.com","port":27035,"enabled":true,"region":"us-east","cc":"us","latitude":40.73061,"longitude":-73.93524,"reserved":0,"last_update":"0001-01-01T00:00:00Z","name_a2s":"Uncletopia | New York City | 3 | Stopwatch","protocol":17,"map":"pl_snowycoast","folder":"tf","game":"Team Fortress","app_id":440,"player_count":0,"max_players":24,"Bots":0,"server_type":"Dedicated","server_os":"Linux","password":true,"vac":true,"version":"7961495","steam_id":85568392924742820,"keywords":["nocrits","nodmgspread","payload","uncletopia"],"game_id":440,"stv_port":27036,"stv_name":"Uncletopia | New York City | 3 | Stopwatch | STV","players":null},{"server_id":16,"name":"Uncletopia | New York City | 4 | Community","name_short":"nyc-4","host":"nyc-1.us.uncletopia.com","port":27045,"enabled":true,"region":"us-east","cc":"us","latitude":40.73061,"longitude":-73.93524,"reserved":0,"last_update":"0001-01-01T00:00:00Z","name_a2s":"Uncletopia | New York City | 4 | Community","protocol":17,"map":"workshop/pl_fifthcurve_rc1.ugc648227046","folder":"tf","game":"Team Fortress","app_id":440,"player_count":0,"max_players":24,"Bots":0,"server_type":"Dedicated","server_os":"Linux","password":true,"vac":true,"version":"7961495","steam_id":85568392924742821,"keywords":["nocrits","nodmgspread","payload","uncletopia"],"game_id":440,"stv_port":27046,"stv_name":"Uncletopia | New York City | 4 | Community | STV","players":null},{"server_id":142,"name":"Uncletopia | S√£o Paulo | 1 | All Maps","name_short":"sao-1","host":"sao-1.br.uncletopia.com","port":27015,"enabled":true,"region":"sa","cc":"br","latitude":-23.533773,"longitude":-46.62529,"reserved":0,"last_update":"0001-01-01T00:00:00Z","name_a2s":"Uncletopia | S√£o Paulo | 1 | All Maps","protocol":17,"map":"cp_mountainlab","folder":"tf","game":"Team Fortress","app_id":440,"player_count":0,"max_players":24,"Bots":0,"server_type":"Dedicated","server_os":"Linux","password":true,"vac":true,"version":"7961495","steam_id":85568392924469996,"keywords":["cp","nocrits","nodmgspread","uncletopia"],"game_id":440,"stv_port":27016,"stv_name":"Uncletopia | S√£o Paulo | 1 | All Maps | STV","players":null},{"server_id":143,"name":"Uncletopia | S√£o Paulo | 2 | Community","name_short":"sao-2","host":"sao-2.br.uncletopia.com","port":27015,"enabled":true,"region":"sa","cc":"br","latitude":-23.533773,"longitude":-46.62529,"reserved":0,"last_update":"0001-01-01T00:00:00Z","name_a2s":"Uncletopia | S√£o Paulo | 2 | Community","protocol":17,"map":"pl_badwater","folder":"tf","game":"Team Fortress","app_id":440,"player_count":0,"max_players":24,"Bots":0,"server_type":"Dedicated","server_os":"Linux","password":true,"vac":true,"version":"7961495","steam_id":85568392924485349,"keywords":["nocrits","nodmgspread","payload","uncletopia"],"game_id":440,"stv_port":27016,"stv_name":"Uncletopia | S√£o Paulo | 2 | Community | STV","players":null},{"server_id":7,"name":"Uncletopia | Seattle | 1 | All Maps","name_short":"sea-1","host":"sea-1.us.uncletopia.com","port":27015,"enabled":true,"region":"us-west","cc":"us","latitude":47.608013,"longitude":-122.33517,"reserved":0,"last_update":"0001-01-01T00:00:00Z","name_a2s":"Uncletopia | Seattle | 1 | All Maps","protocol":17,"map":"koth_viaduct","folder":"tf","game":"Team Fortress","app_id":440,"player_count":24,"max_players":24,"Bots":0,"server_type":"Dedicated","server_os":"Linux","password":true,"vac":true,"version":"7961495","steam_id":85568392924469997,"keywords":["cp","nocrits","nodmgspread","uncletopia"],"game_id":440,"stv_port":27016,"stv_name":"Uncletopia | Seattle | 1 | All Maps | STV","players":[{"user_id":166,"name":"Toasterduds","steam_id":76561198163477584,"connected_time":5920000000000,"state":"active","ping":74},{"user_id":217,"name":"BEHELIT","steam_id":76561198881144114,"connected_time":464000000000,"state":"active","ping":58},{"user_id":211,"name":"Nom Skirrett","steam_id":76561198014600788,"connected_time":2140000000000,"state":"active","ping":62},{"user_id":220,"name":"Gabe","steam_id":76561198081153719,"connected_time":236000000000,"state":"active","ping":61},{"user_id":195,"name":"Gluppo","steam_id":76561198060016004,"connected_time":3289000000000,"state":"active","ping":101},{"user_id":182,"name":"Radio","steam_id":76561198194821053,"connected_time":4155000000000,"state":"active","ping":53},{"user_id":205,"name":"SnailYT","steam_id":76561198332040385,"connected_time":2650000000000,"state":"active","ping":56},{"user_id":191,"name":"TheArachnidGamer","steam_id":76561198304986752,"connected_time":3562000000000,"state":"active","ping":74},{"user_id":192,"name":"andrewbmarshmellow","steam_id":76561198347169036,"connected_time":3560000000000,"state":"active","ping":53},{"user_id":179,"name":"oo","steam_id":76561198119626492,"connected_time":4293000000000,"state":"active","ping":75},{"user_id":221,"name":"NormanVillage","steam_id":76561198330337371,"connected_time":122000000000,"state":"active","ping":108},{"user_id":200,"name":"BL√òRG","steam_id":76561198036126673,"connected_time":2881000000000,"state":"active","ping":84},{"user_id":158,"name":"TheMagicMrWaffle","steam_id":76561198104357256,"connected_time":6297000000000,"state":"active","ping":69},{"user_id":137,"name":"owl","steam_id":76561198088403016,"connected_time":8148000000000,"state":"active","ping":156},{"user_id":214,"name":"imasheep","steam_id":76561198210322871,"connected_time":1508000000000,"state":"active","ping":77},{"user_id":219,"name":"Starpillow ‚ô°","steam_id":76561198095034817,"connected_time":407000000000,"state":"active","ping":61},{"user_id":222,"name":"mik-","steam_id":76561198380722433,"connected_time":122000000000,"state":"active","ping":80},{"user_id":213,"name":"burger bill","steam_id":76561198116829392,"connected_time":1962000000000,"state":"active","ping":56},{"user_id":215,"name":"Ahzain","steam_id":76561198035894333,"connected_time":473000000000,"state":"active","ping":77},{"user_id":167,"name":"toes","steam_id":76561198221151676,"connected_time":5896000000000,"state":"active","ping":59},{"user_id":208,"name":"Little Linguine","steam_id":76561198816986370,"connected_time":2362000000000,"state":"active","ping":45},{"user_id":206,"name":"kirby7","steam_id":76561199167006749,"connected_time":2638000000000,"state":"active","ping":116},{"user_id":198,"name":"Toxic Medic Main (he/they)","steam_id":76561198009314845,"connected_time":3265000000000,"state":"active","ping":71},{"user_id":216,"name":"snorp","steam_id":76561198210045361,"connected_time":473000000000,"state":"active","ping":62}]},{"server_id":119,"name":"Uncletopia | Seattle | 2 | All Maps","name_short":"sea-2","host":"sea-1.us.uncletopia.com","port":27025,"enabled":true,"region":"us-west","cc":"us","latitude":47.608013,"longitude":-122.33517,"reserved":0,"last_update":"0001-01-01T00:00:00Z","name_a2s":"Uncletopia | Seattle | 2 | All Maps","protocol":17,"map":"koth_cascade","folder":"tf","game":"Team Fortress","app_id":440,"player_count":0,"max_players":24,"Bots":0,"server_type":"Dedicated","server_os":"Linux","password":true,"vac":true,"version":"7961495","steam_id":85568392924469998,"keywords":["cp","nocrits","nodmgspread","uncletopia"],"game_id":440,"stv_port":27026,"stv_name":"Uncletopia | Seattle | 2 | All Maps | STV","players":null},{"server_id":406,"name":"Uncletopia | Seattle | 3 | Stopwatch","name_short":"sea-3","host":"sea-1.us.uncletopia.com","port":27035,"enabled":true,"region":"us-west","cc":"us","latitude":47.608013,"longitude":-122.33517,"reserved":0,"last_update":"0001-01-01T00:00:00Z","name_a2s":"Uncletopia | Seattle | 3 | Stopwatch","protocol":17,"map":"pl_pier","folder":"tf","game":"Team Fortress","app_id":440,"player_count":0,"max_players":24,"Bots":0,"server_type":"Dedicated","server_os":"Linux","password":true,"vac":true,"version":"7961495","steam_id":85568392924515217,"keywords":["nocrits","nodmgspread","payload","uncletopia"],"game_id":440,"stv_port":27036,"stv_name":"Uncletopia | Seattle | 3 | Stopwatch | STV","players":null},{"server_id":17,"name":"Uncletopia | San Francisco | 1 | All Maps","name_short":"sfo-1","host":"sfo-1.us.uncletopia.com","port":27015,"enabled":true,"region":"us-west","cc":"us","latitude":37.77397,"longitude":-122.4313,"reserved":0,"last_update":"0001-01-01T00:00:00Z","name_a2s":"Uncletopia | San Francisco | 1 | All Maps","protocol":17,"map":"koth_cascade","folder":"tf","game":"Team Fortress","app_id":440,"player_count":0,"max_players":24,"Bots":0,"server_type":"Dedicated","server_os":"Linux","password":true,"vac":true,"version":"7961495","steam_id":85568392924469999,"keywords":["cp","nocrits","nodmgspread","uncletopia"],"game_id":440,"stv_port":27016,"stv_name":"Uncletopia | San Francisco | 1 | All Maps | STV","players":null},{"server_id":18,"name":"Uncletopia | San Francisco | 2 | All Maps","name_short":"sfo-2","host":"sfo-1.us.uncletopia.com","port":27025,"enabled":true,"region":"us-west","cc":"us","latitude":37.77397,"longitude":-122.4313,"reserved":0,"last_update":"0001-01-01T00:00:00Z","name_a2s":"Uncletopia | San Francisco | 2 | All Maps","protocol":17,"map":"pl_frontier_final","folder":"tf","game":"Team Fortress","app_id":440,"player_count":0,"max_players":24,"Bots":0,"server_type":"Dedicated","server_os":"Linux","password":true,"vac":true,"version":"7961495","steam_id":85568392924470000,"keywords":["nocrits","nodmgspread","payload","uncletopia"],"game_id":440,"stv_port":27026,"stv_name":"Uncletopia | San Francisco | 2 | All Maps | STV","players":null},{"server_id":19,"name":"Uncletopia | San Francisco | 3 | Stopwatch","name_short":"sfo-3","host":"sfo-1.us.uncletopia.com","port":27035,"enabled":true,"region":"us-west","cc":"us","latitude":37.77397,"longitude":-122.4313,"reserved":0,"last_update":"0001-01-01T00:00:00Z","name_a2s":"Uncletopia | San Francisco | 3 | Stopwatch","protocol":17,"map":"pl_pier","folder":"tf","game":"Team Fortress","app_id":440,"player_count":0,"max_players":24,"Bots":0,"server_type":"Dedicated","server_os":"Linux","password":true,"vac":true,"version":"7961495","steam_id":85568392924742824,"keywords":["nocrits","nodmgspread","payload","uncletopia"],"game_id":440,"stv_port":27036,"stv_name":"Uncletopia | San Francisco | 3 | Stopwatch | STV","players":null},{"server_id":20,"name":"Uncletopia | San Francisco | 4 | Community","name_short":"sfo-4","host":"sfo-1.us.uncletopia.com","port":27045,"enabled":true,"region":"us-west","cc":"us","latitude":37.77397,"longitude":-122.4313,"reserved":0,"last_update":"0001-01-01T00:00:00Z","name_a2s":"Uncletopia | San Francisco | 4 | Community","protocol":17,"map":"pl_pier","folder":"tf","game":"Team Fortress","app_id":440,"player_count":0,"max_players":24,"Bots":0,"server_type":"Dedicated","server_os":"Linux","password":true,"vac":true,"version":"7961495","steam_id":85568392924742826,"keywords":["nocrits","nodmgspread","payload","uncletopia"],"game_id":440,"stv_port":27046,"stv_name":"Uncletopia | San Francisco | 4 | Community | STV","players":null},{"server_id":141,"name":"Uncletopia | Sydney | 1 | All Maps","name_short":"syd-1","host":"syd-1.au.uncletopia.com","port":27015,"enabled":true,"region":"au","cc":"au","latitude":-33.865143,"longitude":151.2099,"reserved":0,"last_update":"0001-01-01T00:00:00Z","name_a2s":"Uncletopia | Sydney | 1 | All Maps","protocol":17,"map":"koth_highpass","folder":"tf","game":"Team Fortress","app_id":440,"player_count":0,"max_players":24,"Bots":0,"server_type":"Dedicated","server_os":"Linux","password":true,"vac":true,"version":"7961495","steam_id":85568392924470001,"keywords":["cp","nocrits","nodmgspread","uncletopia"],"game_id":440,"stv_port":27016,"stv_name":"Uncletopia | Sydney | 1 | All Maps | STV","players":null},{"server_id":123,"name":"Uncletopia | Sydney | 2 | All Maps","name_short":"syd-2","host":"syd-1.au.uncletopia.com","port":27025,"enabled":true,"region":"au","cc":"au","latitude":-33.865143,"longitude":151.2099,"reserved":0,"last_update":"0001-01-01T00:00:00Z","name_a2s":"Uncletopia | Sydney | 2 | All Maps","protocol":17,"map":"pl_badwater","folder":"tf","game":"Team Fortress","app_id":440,"player_count":0,"max_players":24,"Bots":0,"server_type":"Dedicated","server_os":"Linux","password":true,"vac":true,"version":"7961495","steam_id":85568392924470002,"keywords":["nocrits","nodmgspread","payload","uncletopia"],"game_id":440,"stv_port":27026,"stv_name":"Uncletopia | Sydney | 2 | All Maps | STV","players":null},{"server_id":395,"name":"Uncletopia | Sydney | 3 | All Maps","name_short":"syd-3","host":"syd-1.au.uncletopia.com","port":27035,"enabled":true,"region":"au","cc":"au","latitude":-33.865143,"longitude":151.2099,"reserved":0,"last_update":"0001-01-01T00:00:00Z","name_a2s":"Uncletopia | Sydney | 3 | All Maps","protocol":17,"map":"koth_viaduct","folder":"tf","game":"Team Fortress","app_id":440,"player_count":0,"max_players":24,"Bots":0,"server_type":"Dedicated","server_os":"Linux","password":true,"vac":true,"version":"7961495","steam_id":85568392925194467,"keywords":["cp","nocrits","nodmgspread","uncletopia"],"game_id":440,"stv_port":27036,"stv_name":"Uncletopia | Sydney | 3 | All Maps | STV","players":null},{"server_id":396,"name":"Uncletopia | Sydney | 4 | All Maps","name_short":"syd-4","host":"syd-1.au.uncletopia.com","port":27045,"enabled":true,"region":"au","cc":"au","latitude":-33.865143,"longitude":151.2099,"reserved":0,"last_update":"0001-01-01T00:00:00Z","name_a2s":"Uncletopia | Sydney | 4 | All Maps","protocol":17,"map":"koth_highpass","folder":"tf","game":"Team Fortress","app_id":440,"player_count":0,"max_players":24,"Bots":0,"server_type":"Dedicated","server_os":"Linux","password":true,"vac":true,"version":"7961495","steam_id":85568392925397958,"keywords":["cp","nocrits","nodmgspread","uncletopia"],"game_id":440,"stv_port":27046,"stv_name":"Uncletopia | Sydney | 4 | All Maps | STV","players":null},{"server_id":58,"name":"Uncletopia | Sydney | 5 | Stopwatch","name_short":"syd-5","host":"syd-1.au.uncletopia.com","port":27055,"enabled":true,"region":"au","cc":"au","latitude":-33.865143,"longitude":151.2099,"reserved":0,"last_update":"0001-01-01T00:00:00Z","name_a2s":"Uncletopia | Sydney | 5 | Stopwatch","protocol":17,"map":"pl_frontier_final","folder":"tf","game":"Team Fortress","app_id":440,"player_count":0,"max_players":24,"Bots":0,"server_type":"Dedicated","server_os":"Linux","password":true,"vac":true,"version":"7961495","steam_id":85568392925397959,"keywords":["nocrits","nodmgspread","payload","uncletopia"],"game_id":440,"stv_port":27056,"stv_name":"Uncletopia | Sydney | 5 | Stopwatch | STV","players":null},{"server_id":59,"name":"Uncletopia | Sydney | 6 | Community","name_short":"syd-6","host":"syd-1.au.uncletopia.com","port":27065,"enabled":true,"region":"au","cc":"au","latitude":-33.865143,"longitude":151.2099,"reserved":0,"last_update":"0001-01-01T00:00:00Z","name_a2s":"Uncletopia | Sydney | 6 | Community","protocol":17,"map":"workshop/pl_highwood_b13.ugc1769496557","folder":"tf","game":"Team Fortress","app_id":440,"player_count":3,"max_players":24,"Bots":0,"server_type":"Dedicated","server_os":"Linux","password":true,"vac":true,"version":"7961495","steam_id":85568392925397960,"keywords":["nocrits","nodmgspread","payload","uncletopia"],"game_id":440,"stv_port":27066,"stv_name":"Uncletopia | Sydney | 6 | Community | STV","players":[{"user_id":15,"name":"Flying Hobo","steam_id":76561198344666389,"connected_time":644000000000,"state":"active","ping":338},{"user_id":16,"name":"‚úØ Lenkuri746 ‚úØ","steam_id":76561198399792129,"connected_time":353000000000,"state":"active","ping":302},{"user_id":17,"name":"HILLOPIEKSU","steam_id":76561198055854518,"connected_time":147000000000,"state":"active","ping":363}]},{"server_id":49,"name":"Uncletopia | Warsaw | 1 | One Thousand Uncles","name_short":"waw-1","host":"waw-1.pl.uncletopia.com","port":27015,"enabled":true,"region":"eu","cc":"pl","latitude":52.2297,"longitude":21.017532,"reserved":0,"last_update":"0001-01-01T00:00:00Z","name_a2s":"Uncletopia | Warsaw | 1 | One Thousand Uncles","protocol":17,"map":"cp_egypt_final","folder":"tf","game":"Team Fortress","app_id":440,"player_count":28,"max_players":32,"Bots":16,"server_type":"Dedicated","server_os":"Linux","password":true,"vac":true,"version":"7961495","steam_id":85568392925397850,"keywords":["alltalk","bots","cp","danepve","increased_maxplayers","nocrits","norespawntime","uncletopia"],"game_id":440,"stv_port":0,"stv_name":"","players":[{"user_id":306,"name":"Dj_Bear","steam_id":76561198149865187,"connected_time":49000000000,"state":"active","ping":40},{"user_id":299,"name":"Samuel L. Jackson","steam_id":76561198130427881,"connected_time":1357000000000,"state":"active","ping":182},{"user_id":216,"name":"GAJtheSPY","steam_id":76561198256080023,"connected_time":6199000000000,"state":"active","ping":60},{"user_id":300,"name":"Shlyk","steam_id":76561198333387103,"connected_time":1334000000000,"state":"active","ping":116},{"user_id":301,"name":"Sisyphus","steam_id":76561198146194820,"connected_time":1263000000000,"state":"active","ping":108},{"user_id":280,"name":"Enter69","steam_id":76561199049440719,"connected_time":2296000000000,"state":"active","ping":93},{"user_id":270,"name":"Crimson","steam_id":76561197987552332,"connected_time":3793000000000,"state":"active","ping":64},{"user_id":302,"name":"Lotgor","steam_id":76561198977918331,"connected_time":936000000000,"state":"active","ping":38},{"user_id":303,"name":"Kewlan","steam_id":76561198042775020,"connected_time":716000000000,"state":"active","ping":93},{"user_id":304,"name":"Loo32","steam_id":76561199094568704,"connected_time":374000000000,"state":"active","ping":71},{"user_id":277,"name":"Creature :3:3","steam_id":76561198869564327,"connected_time":3005000000000,"state":"active","ping":91},{"user_id":271,"name":"the bee shield","steam_id":76561198315405589,"connected_time":3650000000000,"state":"active","ping":45}]},{"server_id":50,"name":"Uncletopia | Warsaw | 2 | One Thousand Uncles","name_short":"waw-2","host":"waw-1.pl.uncletopia.com","port":27025,"enabled":true,"region":"eu","cc":"pl","latitude":52.2297,"longitude":21.017532,"reserved":0,"last_update":"0001-01-01T00:00:00Z","name_a2s":"Uncletopia | Warsaw | 2 | One Thousand Uncles","protocol":17,"map":"cp_dustbowl","folder":"tf","game":"Team Fortress","app_id":440,"player_count":0,"max_players":32,"Bots":0,"server_type":"Dedicated","server_os":"Linux","password":true,"vac":true,"version":"7961495","steam_id":85568392925397851,"keywords":["alltalk","cp","danepve","increased_maxplayers","nocrits","norespawntime","uncletopia"],"game_id":440,"stv_port":0,"stv_name":"","players":null},{"server_id":51,"name":"Uncletopia | Warsaw | 3 | All Maps","name_short":"waw-3","host":"waw-1.pl.uncletopia.com","port":27035,"enabled":true,"region":"eu","cc":"pl","latitude":52.2297,"longitude":21.017532,"reserved":0,"last_update":"0001-01-01T00:00:00Z","name_a2s":"Uncletopia | Warsaw | 3 | All Maps","protocol":17,"map":"plr_pipeline","folder":"tf","game":"Team Fortress","app_id":440,"player_count":6,"max_players":24,"Bots":0,"server_type":"Dedicated","server_os":"Linux","password":true,"vac":true,"version":"7961495","steam_id":85568392925397852,"keywords":["nocrits","nodmgspread","payload","uncletopia"],"game_id":440,"stv_port":27036,"stv_name":"Uncletopia | Warsaw | 3 | All Maps | STV","players":[{"user_id":9,"name":"Laryssa","steam_id":76561198271084076,"connected_time":1474000000000,"state":"active","ping":45},{"user_id":10,"name":"Hrabia","steam_id":76561198164608139,"connected_time":1458000000000,"state":"active","ping":40},{"user_id":11,"name":"Ursyn","steam_id":76561198287800213,"connected_time":1454000000000,"state":"active","ping":56},{"user_id":14,"name":"Guthlaf","steam_id":76561198153564078,"connected_time":1290000000000,"state":"active","ping":52},{"user_id":13,"name":"TheRock","steam_id":76561198386889558,"connected_time":1393000000000,"state":"active","ping":61},{"user_id":20,"name":"kaczorek","steam_id":76561199490042880,"connected_time":187000000000,"state":"active","ping":59}]},{"server_id":52,"name":"Uncletopia | Warsaw | 4 | All Maps","name_short":"waw-4","host":"waw-1.pl.uncletopia.com","port":27045,"enabled":true,"region":"eu","cc":"pl","latitude":52.2297,"longitude":21.017532,"reserved":0,"last_update":"0001-01-01T00:00:00Z","name_a2s":"Uncletopia | Warsaw | 4 | All Maps","protocol":17,"map":"pl_borneo","folder":"tf","game":"Team Fortress","app_id":440,"player_count":2,"max_players":24,"Bots":0,"server_type":"Dedicated","server_os":"Linux","password":true,"vac":true,"version":"7961495","steam_id":85568392925397853,"keywords":["nocrits","nodmgspread","payload","uncletopia"],"game_id":440,"stv_port":27046,"stv_name":"Uncletopia | Warsaw | 4 | All Maps | STV","players":[{"user_id":24,"name":"Stels_master24317","steam_id":76561199072984683,"connected_time":255000000000,"state":"active","ping":57},{"user_id":25,"name":"Nyashka_ubivashka","steam_id":76561199379525111,"connected_time":250000000000,"state":"active","ping":58}]},{"server_id":53,"name":"Uncletopia | Warsaw | 5 | Stopwatch","name_short":"waw-5","host":"waw-1.pl.uncletopia.com","port":27055,"enabled":true,"region":"eu","cc":"pl","latitude":52.2297,"longitude":21.017532,"reserved":0,"last_update":"0001-01-01T00:00:00Z","name_a2s":"Uncletopia | Warsaw | 5 | Stopwatch","protocol":17,"map":"koth_highpass","folder":"tf","game":"Team Fortress","app_id":440,"player_count":0,"max_players":24,"Bots":0,"server_type":"Dedicated","server_os":"Linux","password":true,"vac":true,"version":"7961495","steam_id":85568392925397854,"keywords":["cp","nocrits","nodmgspread","uncletopia"],"game_id":440,"stv_port":27056,"stv_name":"Uncletopia | Warsaw | 5 | Stopwatch | STV","players":null},{"server_id":54,"name":"Uncletopia | Warsaw | 6 | Community","name_short":"waw-6","host":"waw-1.pl.uncletopia.com","port":27065,"enabled":true,"region":"eu","cc":"pl","latitude":52.2297,"longitude":21.017532,"reserved":0,"last_update":"0001-01-01T00:00:00Z","name_a2s":"Uncletopia | Warsaw | 6 | Community","protocol":17,"map":"workshop/koth_synthetic_rc6a.ugc1549817316","folder":"tf","game":"Team Fortress","app_id":440,"player_count":0,"max_players":24,"Bots":0,"server_type":"Dedicated","server_os":"Linux","password":true,"vac":true,"version":"7961495","steam_id":85568392925397856,"keywords":["cp","nocrits","nodmgspread","uncletopia"],"game_id":440,"stv_port":27066,"stv_name":"Uncletopia | Warsaw | 6 | Community | STV","players":null}]}