{"status":true,"message":"","result":[{"server_id":2,"name":"Uncletopia | Chicago | 1 | All Maps","name_short":"chi-1","host":"chi-1.us.uncletopia.com","port":27015,"enabled":true,"region":"us-central","cc":"us","latitude":41.881832,"longitude":-87.62318,"reserved":0,"last_update":"0001-01-01T00:00:00Z","name_a2s":"Uncletopia | Chicago | 1 | All Maps","protocol":17,"map":"koth_harvest_final","folder":"tf","game":"Team Fortress","app_id":440,"player_count":24,"max_players":24,"Bots":0,"server_type":"Dedicated","server_os":"Linux","password":true,"vac":true,"version":"7961495","steam_id":85568392924469984,"keywords":["cp","nocrits","nodmgspread","uncletopia"],"game_id":440,"stv_port":27016,"stv_name":"Uncletopia | Chicago | 1 | All Maps | STV","players":[{"user_id":673,"name":"DoomedMakwa","steam_id":76561198167053158,"connected_time":2029000000000,"state":"active","ping":64},{"user_id":680,"name":"Thomas","steam_id":76561198064273772,"connected_time":1303000000000,"state":"active","ping":74},{"user_id":692,"name":"Khaicchi","steam_id":76561198104454754,"connected_time":310000000000,"state":"active","ping":169},{"user_id":691,"name":"loser","steam_id":76561198259380127,"connected_time":337000000000,"state":"active","ping":54},{"user_id":682,"name":"herb","steam_id":76561198185980055,"connected_time":1252000000000,"state":"active","ping":60},{"user_id":645,"name":"dumb niko","steam_id":76561199309929040,"connected_time":3620000000000,"state":"active","ping":100},{"user_id":683,"name":"Possibly Dane?","steam_id":76561199093824429,"connected_time":1133000000000,"state":"active","ping":91},{"user_id":695,"name":"trash beast","steam_id":76561198015792736,"connected_time":17000000000,"state":"spawning","ping":68},{"user_id":693,"name":"fruitpunch","steam_id":76561198156516161,"connected_time":267000000000,"state":"active","ping":68},{"user_id":685,"name":"mechiimi","steam_id":76561198321627268,"connected_time":1056000000000,"state":"active","ping":115},{"user_id":646,"name":"Rusted Cake","steam_id":76561198209755931,"connected_time":3568000000000,"state":"active","ping":102},{"user_id":689,"name":"cheese burger","steam_id":76561198999217575,"connected_time":692000000000,"state":"active","ping":65},{"user_id":686,"name":"doctor who","steam_id":76561199380529447,"connected_time":1042000000000,"state":"active","ping":131},{"user_id":678,"name":"Aniz","steam_id":76561199226665024,"connected_time":1578000000000,"state":"active","ping":133},{"user_id":670,"name":"DragonFalcon™","steam_id":76561198044559930,"connected_time":2227000000000,"state":"active","ping":79},{"user_id":559,"name":"JDD4LIFE","steam_id":76561199026646159,"connected_time":9306000000000,"state":"active","ping":54},{"user_id":663,"name":"Orca?","steam_id":76561198164341099,"connected_time":2721000000000,"state":"active","ping":85},{"user_id":694,"name":"B.D. Joe Bowling","steam_id":76561198125801070,"connected_time":191000000000,"state":"active","ping":112},{"user_id":556,"name":"Jeff","steam_id":76561199003107869,"connected_time":9496000000000,"state":"active","ping":98},{"user_id":650,"name":"Si1entSn1pa","steam_id":76561198170095479,"connected_time":3460000000000,"state":"active","ping":85},{"user_id":679,"name":"NormalManPerson","steam_id":76561198007436312,"connected_time":1547000000000,"state":"active","ping":94},{"user_id":661,"name":"Bird","steam_id":76561198231624620,"connected_time":2761000000000,"state":"active","ping":61},{"user_id":652,"name":"Spy Gaming","steam_id":76561198453295613,"connected_time":3384000000000,"state":"active","ping":110},{"user_id":688,"name":"loyaldandan0764","steam_id":76561199231020424,"connected_time":975000000000,"state":"active","ping":114}]},{"server_id":106,"name":"Uncletopia | Chicago | 2 | All Maps","name_short":"chi-2","host":"chi-1.us.uncletopia.com","port":27025,"enabled":true,"region":"us-central","cc":"us","latitude":41.881832,"longitude":-87.62318,"reserved":0,"last_update":"0001-01-01T00:00:00Z","name_a2s":"Uncletopia | Chicago | 2 | All Maps","protocol":17,"map":"cp_dustbowl","folder":"tf","game":"Team Fortress","app_id":440,"player_count":3,"max_players":24,"Bots":0,"server_type":"Dedicated","server_os":"Linux","password":true,"vac":true,"version":"7961495","steam_id":85568392924469985,"keywords":["cp","nocrits","nodmgspread","uncletopia"],"game_id":440,"stv_port":27026,"stv_name":"Uncletopia | Chicago | 2 | All Maps | STV","players":[{"user_id":776,"name":"CertainlyMe","steam_id":76561198039564401,"connected_time":4216000000000,"state":"active","ping":50},{"user_id":775,"name":"eloressa","steam_id":76561198120330867,"connected_time":4246000000000,"state":"active","ping":35},{"user_id":779,"name":"H4N-TYUM1","steam_id":76561198069387999,"connected_time":3634000000000,"state":"active","ping":54}]},{"server_id":402,"name":"Uncletopia | Chicago | 3 | All Maps","name_short":"chi-3","host":"chi-1.us.uncletopia.com","port":27035,"enabled":true,"region":"us-central","cc":"us","latitude":41.881832,"longitude":-87.62318,"reserved":0,"last_update":"0001-01-01T00:00:00Z","name_a2s":"Uncletopia | Chicago | 3 | All Maps","protocol":17,"map":"cp_altitude","folder":"tf","game":"Team Fortress","app_id":440,"player_count":0,"max_players":24,"Bots":0,"server_type":"Dedicated","server_os":"Linux","password":true,"vac":true,"version":"7961495","steam_id":85568392924515191,"keywords":["cp","nocrits","nodmgspread","uncletopia"],"game_id":440,"stv_port":27036,"stv_name":"Uncletopia | Chicago | 3 | All Maps | STV","players":null},{"server_id":403,"name":"Uncletopia | Chicago | 4 | All Maps","name_short":"chi-4","host":"chi-1.us.uncletopia.com","port":27045,"enabled":true,"region":"us-central","cc":"us","latitude":41.881832,"longitude":-87.62318,"reserved":0,"last_update":"0001-01-01T00:00:00Z","name_a2s":"Uncletopia | Chicago | 4 | All Maps","protocol":17,"map":"pl_pier","folder":"tf","game":"Team Fortress","app_id":440,"player_count":23,"max_players":24,"Bots":0,"server_type":"Dedicated","server_os":"Linux","password":true,"vac":true,"version":"7961495","steam_id":85568392924515193,"keywords":["nocrits","nodmgspread","payload","uncletopia"],"game_id":440,"stv_port":27046,"stv_name":"Uncletopia | Chicago | 4 | All Maps | STV","players":[{"user_id":1040,"name":"ashsillygoober","steam_id":76561199454622997,"connected_time":2742000000000,"state":"active","ping":89},{"user_id":993,"name":"孫子","steam_id":76561198083112681,"connected_time":6741000000000,"state":"active","ping":76},{"user_id":956,"name":"Danmar33","steam_id":76561198056453091,"connected_time":10318000000000,"state":"active","ping":46},{"user_id":958,"name":"Rez LeRoux","steam_id":76561198451503538,"connected_time":10299000000000,"state":"active","ping":71},{"user_id":1066,"name":"roo the observer","steam_id":76561198120684348,"connected_time":137000000000,"state":"active","ping":50},{"user_id":1030,"name":"Ojen","steam_id":76561197998414482,"connected_time":3250000000000,"state":"active","ping":60},{"user_id":1058,"name":"bobbymcbobington","steam_id":76561199089411172,"connected_time":503000000000,"state":"active","ping":107},{"user_id":986,"name":"honor in defeat","steam_id":76561198013735714,"connected_time":7220000000000,"state":"active","ping":73},{"user_id":1043,"name":"Neophyte","steam_id":76561198027183394,"connected_time":2384000000000,"state":"active","ping":125},{"user_id":1029,"name":"paetho YT (new vid!)","steam_id":76561198152690003,"connected_time":3987000000000,"state":"active","ping":50},{"user_id":1005,"name":"Honorless Fellow","steam_id":76561198017367763,"connected_time":5679000000000,"state":"active","ping":90},{"user_id":1068,"name":"aversa","steam_id":76561198840460101,"connected_time":104000000000,"state":"active","ping":60},{"user_id":1061,"name":"hashmap","steam_id":76561198043794014,"connected_time":315000000000,"state":"active","ping":49},{"user_id":1035,"name":"living in mushroom park","steam_id":76561198097588802,"connected_time":3100000000000,"state":"active","ping":45},{"user_id":1036,"name":"shaq$","steam_id":76561198045246504,"connected_time":2987000000000,"state":"active","ping":47},{"user_id":1062,"name":"Organ Harvester","steam_id":76561198069948353,"connected_time":304000000000,"state":"active","ping":80},{"user_id":1052,"name":"Nut Bustray","steam_id":76561198092403883,"connected_time":1224000000000,"state":"active","ping":107},{"user_id":1063,"name":"Ludcmorais","steam_id":76561198359217809,"connected_time":248000000000,"state":"active","ping":186},{"user_id":1050,"name":"s s $","steam_id":76561199064932372,"connected_time":1505000000000,"state":"active","ping":97},{"user_id":1065,"name":"clumbly","steam_id":76561198413125750,"connected_time":152000000000,"state":"active","ping":64},{"user_id":1069,"name":"Wallah","steam_id":76561198281948574,"connected_time":57000000000,"state":"active","ping":69},{"user_id":1053,"name":"Nüþ","steam_id":76561198043956703,"connected_time":1223000000000,"state":"active","ping":103},{"user_id":1070,"name":"zeno","steam_id":76561198201545159,"connected_time":49000000000,"state":"active","ping":84}]},{"server_id":36,"name":"Uncletopia | Chicago | 5 | All Maps","name_short":"chi-5","host":"chi-2.us.uncletopia.com","port":27015,"enabled":true,"region":"us-central","cc":"us","latitude":41.881832,"longitude":-87.62318,"reserved":0,"last_update":"0001-01-01T00:00:00Z","name_a2s":"Uncletopia | Chicago | 5 | All Maps","protocol":17,"map":"pl_upward","folder":"tf","game":"Team Fortress","app_id":440,"player_count":23,"max_players":24,"Bots":0,"server_type":"Dedicated","server_os":"Linux","password":true,"vac":true,"version":"7961495","steam_id":85568392924866362,"keywords":["nocrits","nodmgspread","payload","uncletopia"],"game_id":440,"stv_port":27016,"stv_name":"Uncletopia | Chicago | 5 | All Maps | STV","players":[{"user_id":628,"name":"rAnch","steam_id":76561198024562587,"connected_time":335000000000,"state":"active","ping":59},{"user_id":619,"name":"KP","steam_id":76561198077911451,"connected_time":592000000000,"state":"active","ping":96},{"user_id":629,"name":"bread loaf","steam_id":76561199076164760,"connected_time":294000000000,"state":"active","ping":120},{"user_id":630,"name":"EdxTheFig","steam_id":76561198108650109,"connected_time":247000000000,"state":"active","ping":101},{"user_id":620,"name":"mac","steam_id":76561198043039518,"connected_time":521000000000,"state":"active","ping":86},{"user_id":569,"name":"JelloSniffer","steam_id":76561198142770733,"connected_time":2426000000000,"state":"active","ping":53},{"user_id":632,"name":"Dunkin' Ponuts","steam_id":76561198082382465,"connected_time":173000000000,"state":"active","ping":75},{"user_id":546,"name":"Bunt","steam_id":76561198124477567,"connected_time":4509000000000,"state":"active","ping":66},{"user_id":609,"name":"Majestic-A","steam_id":76561198988062101,"connected_time":1416000000000,"state":"active","ping":80},{"user_id":621,"name":"Thelonious Prime, King of Jazz","steam_id":76561198077785482,"connected_time":518000000000,"state":"active","ping":64},{"user_id":547,"name":"jayhong","steam_id":76561198046772832,"connected_time":4431000000000,"state":"active","ping":46},{"user_id":571,"name":"Kopfjager","steam_id":76561198086397482,"connected_time":2366000000000,"state":"active","ping":158},{"user_id":633,"name":"Female Gamer","steam_id":76561199366482682,"connected_time":149000000000,"state":"active","ping":107},{"user_id":610,"name":"sandman","steam_id":76561198144772540,"connected_time":1256000000000,"state":"active","ping":105},{"user_id":622,"name":"MR. BEEEEEEEEEEEEEAAAAAAAAAAST","steam_id":76561198205346760,"connected_time":476000000000,"state":"active","ping":45},{"user_id":557,"name":"ling","steam_id":76561198088647686,"connected_time":3716000000000,"state":"active","ping":55},{"user_id":623,"name":"ĐïɐȐɹɦɆa","steam_id":76561198981411945,"connected_time":468000000000,"state":"active","ping":92},{"user_id":624,"name":"3am drywall","steam_id":76561198964609865,"connected_time":433000000000,"state":"active","ping":62},{"user_id":625,"name":"*","steam_id":76561198173047169,"connected_time":417000000000,"state":"active","ping":61},{"user_id":612,"name":"Smooky","steam_id":76561198191435451,"connected_time":1206000000000,"state":"active","ping":72},{"user_id":634,"name":"Coms","steam_id":76561198204995668,"connected_time":144000000000,"state":"active","ping":76},{"user_id":626,"name":"dig","steam_id":76561198050061475,"connected_time":416000000000,"state":"active","ping":78},{"user_id":627,"name":"Hope","steam_id":76561199201900779,"connected_time":387000000000,"state":"active","ping":75}]},{"server_id":37,"name":"Uncletopia | Chicago | 6 | All Maps","name_short":"chi-6","host":"chi-2.us.uncletopia.com","port":27025,"enabled":true,"region":"us-central","cc":"us","latitude":41.881832,"longitude":-87.62318,"reserved":0,"last_update":"0001-01-01T00:00:00Z","name_a2s":"Uncletopia | Chicago | 6 | All Maps","protocol":17,"map":"koth_highpass","folder":"tf","game":"Team Fortress","app_id":440,"player_count":0,"max_players":24,"Bots":0,"server_type":"Dedicated","server_os":"Linux","password":true,"vac":true,"version":"7961495","steam_id":85568392924866363,"keywords":["cp","nocrits","nodmgspread","uncletopia"],"game_id":440,"stv_port":27026,"stv_name":"Uncletopia | Chicago | 6 | All Maps | STV","players":null},{"server_id":38,"name":"Uncletopia | Chicago | 7 | Stopwatch Beta","name_short":"chi-7","host":"chi-2.us.uncletopia.com","port":27035,"enabled":true,"region":"us-central","cc":"us","latitude":41.881832,"longitude":-87.62318,"reserved":0,"last_update":"0001-01-01T00:00:00Z","name_a2s":"Uncletopia | Chicago | 7 | Stopwatch Beta","protocol":17,"map":"workshop/koth_product_final.ugc454272353","folder":"tf","game":"Team Fortress","app_id":440,"player_count":0,"max_players":24,"Bots":0,"server_type":"Dedicated","server_os":"Linux","password":true,"vac":true,"version":"7961495","steam_id":85568392924866364,"keywords":["cp","nocrits","nodmgspread","uncletopia"],"game_id":440,"stv_port":27036,"stv_name":"Uncletopia | Chicago | 7 | Stopwatch Beta | STV","players":null},{"server_id":39,"name":"Uncletopia | Chicago | 8 | Community","name_short":"chi-8","host":"chi-2.us.uncletopia.com","port":27045,"enabled":true,"region":"us-central","cc":"us","latitude":41.881832,"longitude":-87.62318,"reserved":0,"last_update":"0001-01-01T00:00:00Z","name_a2s":"Uncletopia | Chicago | 8 | Community","protocol":17,"map":"workshop/pl_cactuscanyon_redux_final2.ugc2579644293","folder":"tf","game":"Team Fortress","app_id":440,"player_count":0,"max_players":24,"Bots":0,"server_type":"Dedicated","server_os":"Linux","password":true,"vac":true,"version":"7961495","steam_id":85568392924866365,"keywords":["nocrits","nodmgspread","payload","uncletopia"],"game_id":440,"stv_port":27046,"stv_name":"Uncletopia | Chicago | 8 | Community | STV","players":null},{"server_id":8,"name":"Uncletopia | Dallas | 1 | All Maps","name_short":"dal-1","host":"dal-1.us.uncletopia.com","port":27015,"enabled":true,"region":"us-central","cc":"us","latitude":32.779167,"longitude":-96.80889,"reserved":0,"last_update":"0001-01-01T00:00:00Z","name_a2s":"Uncletopia | Dallas | 1 | All Maps","protocol":17,"map":"pl_upward","folder":"tf","game":"Team Fortress","app_id":440,"player_count":23,"max_players":24,"Bots":0,"server_type":"Dedicated","server_os":"Linux","password":true,"vac":true,"version":"7961495","steam_id":85568392924469986,"keywords":["nocrits","nodmgspread","payload","uncletopia"],"game_id":440,"stv_port":27016,"stv_name":"Uncletopia | Dallas | 1 | All Maps | STV","players":[{"user_id":907,"name":"Stupid Monkey =3","steam_id":76561198024580166,"connected_time":2588000000000,"state":"active","ping":101},{"user_id":947,"name":"exotic fishes","steam_id":76561199046490785,"connected_time":259000000000,"state":"active","ping":89},{"user_id":941,"name":"Rudy","steam_id":76561198013456828,"connected_time":1088000000000,"state":"active","ping":82},{"user_id":943,"name":"cesarcasv","steam_id":76561198325641258,"connected_time":943000000000,"state":"active","ping":72},{"user_id":919,"name":"poggerchamp","steam_id":76561199145124973,"connected_time":2091000000000,"state":"active","ping":50},{"user_id":946,"name":"shalankawanak","steam_id":76561198987719376,"connected_time":659000000000,"state":"active","ping":82},{"user_id":866,"name":"Lane","steam_id":76561197965828506,"connected_time":5224000000000,"state":"active","ping":60},{"user_id":920,"name":"Fred","steam_id":76561197983870604,"connected_time":2076000000000,"state":"active","ping":66},{"user_id":916,"name":"Valheim","steam_id":76561198044199912,"connected_time":2405000000000,"state":"active","ping":179},{"user_id":940,"name":"Qwerty","steam_id":76561198082874885,"connected_time":1235000000000,"state":"active","ping":70},{"user_id":948,"name":"lancer","steam_id":76561199124468228,"connected_time":258000000000,"state":"active","ping":57},{"user_id":949,"name":"that_man4","steam_id":76561198133102865,"connected_time":236000000000,"state":"active","ping":56},{"user_id":929,"name":"xFactr","steam_id":76561198129007422,"connected_time":1825000000000,"state":"active","ping":80},{"user_id":869,"name":"Socially Anxious Dragon","steam_id":76561198341821780,"connected_time":5185000000000,"state":"active","ping":77},{"user_id":934,"name":"Zesty Italian","steam_id":76561198117835053,"connected_time":1693000000000,"state":"active","ping":53},{"user_id":950,"name":"la fleur","steam_id":76561198277979851,"connected_time":67000000000,"state":"active","ping":103},{"user_id":944,"name":"Not Giga Chad","steam_id":76561198059785363,"connected_time":913000000000,"state":"active","ping":66},{"user_id":945,"name":"orgasmo","steam_id":76561198047355245,"connected_time":824000000000,"state":"active","ping":84},{"user_id":935,"name":"heck","steam_id":76561198308547958,"connected_time":1652000000000,"state":"active","ping":82},{"user_id":898,"name":"Alivefox","steam_id":76561198075211239,"connected_time":3838000000000,"state":"active","ping":52},{"user_id":937,"name":"Kdash","steam_id":76561198043829155,"connected_time":1527000000000,"state":"active","ping":62},{"user_id":938,"name":"LtK","steam_id":76561197993180943,"connected_time":1474000000000,"state":"active","ping":43},{"user_id":939,"name":"ang","steam_id":76561198435151254,"connected_time":1468000000000,"state":"active","ping":85}]},{"server_id":108,"name":"Uncletopia | Dallas | 2 | All Maps","name_short":"dal-2","host":"dal-1.us.uncletopia.com","port":27025,"enabled":true,"region":"us-central","cc":"us","latitude":32.779167,"longitude":-96.80889,"reserved":0,"last_update":"0001-01-01T00:00:00Z","name_a2s":"Uncletopia | Dallas | 2 | All Maps","protocol":17,"map":"pl_swiftwater_final1","folder":"tf","game":"Team Fortress","app_id":440,"player_count":20,"max_players":24,"Bots":0,"server_type":"Dedicated","server_os":"Linux","password":true,"vac":true,"version":"7961495","steam_id":85568392924469988,"keywords":["nocrits","nodmgspread","payload","uncletopia"],"game_id":440,"stv_port":27026,"stv_name":"Uncletopia | Dallas | 2 | All Maps | STV","players":[{"user_id":867,"name":"Fostrel","steam_id":76561198152160601,"connected_time":106000000000,"state":"active","ping":54},{"user_id":833,"name":"Brock","steam_id":76561197998471141,"connected_time":2881000000000,"state":"active","ping":89},{"user_id":841,"name":"Full Throttle Axolotl","steam_id":76561198041836477,"connected_time":2535000000000,"state":"active","ping":53},{"user_id":821,"name":"Jones","steam_id":76561198046037216,"connected_time":3956000000000,"state":"active","ping":127},{"user_id":849,"name":"motherfucker 2.0","steam_id":76561198141189209,"connected_time":1962000000000,"state":"active","ping":31},{"user_id":863,"name":"exten-z","steam_id":76561198004359190,"connected_time":379000000000,"state":"active","ping":74},{"user_id":868,"name":"MALWARE9000","steam_id":76561198065238093,"connected_time":102000000000,"state":"active","ping":59},{"user_id":826,"name":"Ruby","steam_id":76561198818620540,"connected_time":3727000000000,"state":"active","ping":58},{"user_id":865,"name":"SteveC","steam_id":76561197994786195,"connected_time":208000000000,"state":"active","ping":75},{"user_id":851,"name":"manz","steam_id":76561198059065906,"connected_time":1771000000000,"state":"active","ping":74},{"user_id":830,"name":"SQbuilder","steam_id":76561198076473375,"connected_time":3039000000000,"state":"active","ping":79},{"user_id":852,"name":"sweaterfan","steam_id":76561199389567214,"connected_time":1603000000000,"state":"active","ping":62},{"user_id":778,"name":"AzuriousAlex","steam_id":76561198158026405,"connected_time":8721000000000,"state":"active","ping":76},{"user_id":856,"name":"transgender fortress 2","steam_id":76561198062263639,"connected_time":1132000000000,"state":"active","ping":55},{"user_id":864,"name":"TheOnlyItchy","steam_id":76561198964202303,"connected_time":261000000000,"state":"active","ping":108},{"user_id":869,"name":"Azalea","steam_id":76561198105514182,"connected_time":72000000000,"state":"active","ping":91},{"user_id":870,"name":"alpha1zer0ready","steam_id":76561199206731331,"connected_time":56000000000,"state":"active","ping":78},{"user_id":861,"name":"hamletespacial","steam_id":76561199084414649,"connected_time":596000000000,"state":"active","ping":60},{"user_id":862,"name":"xXxbloddywritszxXx","steam_id":76561198025849070,"connected_time":462000000000,"state":"active","ping":53},{"user_id":858,"name":"MistakesWereMade","steam_id":76561199059220481,"connected_time":951000000000,"state":"active","ping":89}]},{"server_id":5,"name":"Uncletopia | Frankfurt | 1 | All Maps","name_short":"frk-1","host":"frk-1.de.uncletopia.com","port":27015,"enabled":true,"region":"eu","cc":"de","latitude":50.110924,"longitude":8.682127,"reserved":0,"last_update":"0001-01-01T00:00:00Z","name_a2s":"Uncletopia | Frankfurt | 1 | All Maps","protocol":17,"map":"cp_altitude","folder":"tf","game":"Team Fortress","app_id":440,"player_count":0,"max_players":24,"Bots":0,"server_type":"Dedicated","server_os":"Linux","password":true,"vac":true,"version":"7961495","steam_id":85568392924469989,"keywords":["cp","nocrits","nodmgspread","uncletopia"],"game_id":440,"stv_port":27016,"stv_name":"Uncletopia | Frankfurt | 1 | All Maps | STV","players":null},{"server_id":110,"name":"Uncletopia | Frankfurt | 2 | All Maps","name_short":"frk-2","host":"frk-1.de.uncletopia.com","port":27025,"enabled":true,"region":"eu","cc":"de","latitude":50.110924,"longitude":8.682127,"reserved":0,"last_update":"0001-01-01T00:00:00Z","name_a2s":"Uncletopia | Frankfurt | 2 | All Maps","protocol":17,"map":"cp_sunshine","folder":"tf","game":"Team Fortress","app_id":440,"player_count":0,"max_players":24,"Bots":0,"server_type":"Dedicated","server_os":"Linux","password":true,"vac":true,"version":"7961495","steam_id":85568392924469990,"keywords":["cp","nocrits","nodmgspread","uncletopia"],"game_id":440,"stv_port":27026,"stv_name":"Uncletopia | Frankfurt | 2 | All Maps | STV","players":null},{"server_id":308,"name":"Uncletopia | Frankfurt | 3 | All Maps","name_short":"frk-3","host":"frk-1.de.uncletopia.com","port":27035,"enabled":true,"region":"eu","cc":"de","latitude":50.110924,"longitude":8.682127,"reserved":0,"last_update":"0001-01-01T00:00:00Z","name_a2s":"Uncletopia | Frankfurt | 3 | All Maps","protocol":17,"map":"cp_mountainlab","folder":"tf","game":"Team Fortress","app_id":440,"player_count":0,"max_players":24,"Bots":0,"server_type":"Dedicated","server_os":"Linux","password":true,"vac":true,"version":"7961495","steam_id":85568392924504274,"keywords":["cp","nocrits","nodmgspread","uncletopia"],"game_id":440,"stv_port":27036,"stv_name":"Uncletopia | Frankfurt | 3 | All Maps | STV","players":null},{"server_id":309,"name":"Uncletopia | Frankfurt | 4 | All Maps","name_short":"frk-4","host":"frk-1.de.uncletopia.com","port":27045,"enabled":true,"region":"eu","cc":"de","latitude":50.110924,"longitude":8.682127,"reserved":0,"last_update":"0001-01-01T00:00:00Z","name_a2s":"Uncletopia | Frankfurt | 4 | All Maps","protocol":17,"map":"cp_process_final","folder":"tf","game":"Team Fortress","app_id":440,"player_count":0,"max_players":24,"Bots":0,"server_type":"Dedicated","server_os":"Linux","password":true,"vac":true,"version":"7961495","steam_id":85568392924504275,"keywords":["cp","nocrits","nodmgspread","uncletopia"],"game_id":440,"stv_port":27046,"stv_name":"Uncletopia | Frankfurt | 4 | All Maps | STV","players":null},{"server_id":310,"name":"Uncletopia | Frankfurt | 5 | All Maps","name_short":"frk-5","host":"frk-1.de.uncletopia.com","port":27055,"enabled":true,"region":"eu","cc":"de","latitude":50.110924,"longitude":8.682127,"reserved":0,"last_update":"0001-01-01T00:00:00Z","name_a2s":"Uncletopia | Frankfurt | 5 | All Maps","protocol":17,"map":"koth_viaduct","folder":"tf","game":"Team Fortress","app_id":440,"player_count":0,"max_players":24,"Bots":0,"server_type":"Dedicated","server_os":"Linux","password":true,"vac":true,"version":"7961495","steam_id":85568392924504277,"keywords":["cp","nocrits","nodmgspread","uncletopia"],"game_id":440,"stv_port":27056,"stv_name":"Uncletopia | Frankfurt | 5 | All Maps | STV","players":null},{"server_id":311,"name":"Uncletopia | Frankfurt | 6 | All Maps","name_short":"frk-6","host":"frk-1.de.uncletopia.com","port":27065,"enabled":true,"region":"eu","cc":"de","latitude":50.110924,"longitude":8.682127,"reserved":0,"last_update":"0001-01-01T00:00:00Z","name_a2s":"Uncletopia | Frankfurt | 6 | All Maps","protocol":17,"map":"pl_pier","folder":"tf","game":"Team Fortress","app_id":440,"player_count":0,"max_players":24,"Bots":0,"server_type":"Dedicated","server_os":"Linux","password":true,"vac":true,"version":"7961495","steam_id":85568392924504278,"keywords":["nocrits","nodmgspread","payload","uncletopia"],"game_id":440,"stv_port":27066,"stv_name":"Uncletopia | Frankfurt | 6 | All Maps | STV","players":null},{"server_id":23,"name":"Uncletopia | Frankfurt | 7 | Stopwatch Beta","name_short":"frk-7","host":"frk-1.de.uncletopia.com","port":27075,"enabled":true,"region":"eu","cc":"de","latitude":50.110924,"longitude":8.682127,"reserved":0,"last_update":"0001-01-01T00:00:00Z","name_a2s":"Uncletopia | Frankfurt | 7 | Stopwatch Beta","protocol":17,"map":"koth_cascade","folder":"tf","game":"Team Fortress","app_id":440,"player_count":0,"max_players":24,"Bots":0,"server_type":"Dedicated","server_os":"Linux","password":true,"vac":true,"version":"7961495","steam_id":85568392924742827,"keywords":["cp","nocrits","nodmgspread","uncletopia"],"game_id":440,"stv_port":27076,"stv_name":"Uncletopia | Frankfurt | 7 | Stopwatch Beta | STV","players":null},{"server_id":24,"name":"Uncletopia | Frankfurt | 8 | Community","name_short":"frk-8","host":"frk-1.de.uncletopia.com","port":27085,"enabled":true,"region":"eu","cc":"de","latitude":50.110924,"longitude":8.682127,"reserved":0,"last_update":"0001-01-01T00:00:00Z","name_a2s":"Uncletopia | Frankfurt | 8 | Community","protocol":17,"map":"cp_process_final","folder":"tf","game":"Team Fortress","app_id":440,"player_count":0,"max_players":24,"Bots":0,"server_type":"Dedicated","server_os":"Linux","password":true,"vac":true,"version":"7961495","steam_id":85568392924742828,"keywords":["cp","nocrits","nodmgspread","uncletopia"],"game_id":440,"stv_port":27086,"stv_name":"Uncletopia | Frankfurt | 8 | Community | STV","players":null},{"server_id":202,"name":"Uncletopia | Hong Kong | 1 | All Maps","name_short":"hgk-1","host":"hgk-1.hk.uncletopia.com","port":27015,"enabled":true,"region":"asia","cc":"hk","latitude":22.302711,"longitude":114.177216,"reserved":0,"last_update":"0001-01-01T00:00:00Z","name_a2s":"Uncletopia | Hong Kong | 1 | All Maps","protocol":17,"map":"pl_upward","folder":"tf","game":"Team Fortress","app_id":440,"player_count":22,"max_players":24,"Bots":0,"server_type":"Dedicated","server_os":"Linux","password":true,"vac":true,"version":"7961495","steam_id":85568392924494504,"keywords":["nocrits","nodmgspread","payload","uncletopia"],"game_id":440,"stv_port":27016,"stv_name":"Uncletopia | Hong Kong | 1 | All Maps | STV","players":[{"user_id":38,"name":"becquerel","steam_id":76561198230213828,"connected_time":2598000000000,"state":"active","ping":57},{"user_id":77,"name":"juice","steam_id":76561199009556495,"connected_time":68000000000,"state":"active","ping":101},{"user_id":39,"name":"TomProPlayer","steam_id":76561199223292521,"connected_time":2489000000000,"state":"active","ping":73},{"user_id":41,"name":"Prussian","steam_id":76561198974248745,"connected_time":2443000000000,"state":"active","ping":64},{"user_id":42,"name":"coakDeLera","steam_id":76561199262817512,"connected_time":2353000000000,"state":"active","ping":80},{"user_id":44,"name":"Lelouch","steam_id":76561198828840546,"connected_time":2251000000000,"state":"active","ping":94},{"user_id":67,"name":"ISL (Down)","steam_id":76561198356759597,"connected_time":1153000000000,"state":"active","ping":42},{"user_id":46,"name":"Stewb","steam_id":76561198131423270,"connected_time":2177000000000,"state":"active","ping":105},{"user_id":47,"name":"condiment king","steam_id":76561199039560921,"connected_time":2158000000000,"state":"active","ping":73},{"user_id":48,"name":"the NYN mass producer","steam_id":76561198214192048,"connected_time":2114000000000,"state":"active","ping":134},{"user_id":70,"name":"let him cook","steam_id":76561199219484527,"connected_time":837000000000,"state":"active","ping":118},{"user_id":72,"name":"MeetTeMedic99","steam_id":76561199208706868,"connected_time":617000000000,"state":"active","ping":81},{"user_id":76,"name":"h1n4","steam_id":76561198846884400,"connected_time":365000000000,"state":"active","ping":150},{"user_id":74,"name":"vansire","steam_id":76561198996517121,"connected_time":523000000000,"state":"active","ping":78},{"user_id":54,"name":"Kasugano","steam_id":76561198158666692,"connected_time":1876000000000,"state":"active","ping":37},{"user_id":55,"name":"Zinx","steam_id":76561199116459368,"connected_time":1769000000000,"state":"active","ping":83},{"user_id":57,"name":"arona (devbuild v0.69)","steam_id":76561198198162181,"connected_time":1610000000000,"state":"active","ping":48},{"user_id":75,"name":"Spy Gaming","steam_id":76561198192935603,"connected_time":499000000000,"state":"active","ping":65},{"user_id":59,"name":"water tastes good","steam_id":76561199375947670,"connected_time":1451000000000,"state":"active","ping":70},{"user_id":61,"name":"bazooka","steam_id":76561198061628689,"connected_time":1337000000000,"state":"active","ping":58},{"user_id":62,"name":"Pillboi","steam_id":76561198011172886,"connected_time":1332000000000,"state":"active","ping":43},{"user_id":68,"name":"are you hot? let me fan u","steam_id":76561198388935921,"connected_time":1015000000000,"state":"active","ping":84}]},{"server_id":1,"name":"Uncletopia | Los Angeles | 1 | All Maps","name_short":"lax-1","host":"lax-1.us.uncletopia.com","port":27015,"enabled":true,"region":"us-west","cc":"us","latitude":33.94279,"longitude":-118.41004,"reserved":0,"last_update":"0001-01-01T00:00:00Z","name_a2s":"Uncletopia | Los Angeles | 1 | All Maps","protocol":17,"map":"pl_pier","folder":"tf","game":"Team Fortress","app_id":440,"player_count":24,"max_players":24,"Bots":0,"server_type":"Dedicated","server_os":"Linux","password":true,"vac":true,"version":"7961495","steam_id":85568392924469991,"keywords":["nocrits","nodmgspread","payload","uncletopia"],"game_id":440,"stv_port":27016,"stv_name":"Uncletopia | Los Angeles | 1 | All Maps | STV","players":[{"user_id":696,"name":"for the king","steam_id":76561197973488858,"connected_time":404000000000,"state":"active","ping":90},{"user_id":700,"name":"Lezorical","steam_id":76561198183891521,"connected_time":212000000000,"state":"active","ping":88},{"user_id":685,"name":"35 years without a footjob...","steam_id":76561198799299193,"connected_time":1189000000000,"state":"active","ping":78},{"user_id":668,"name":"vulcan nightclub pon farr night","steam_id":76561197974283797,"connected_time":2157000000000,"state":"active","ping":97},{"user_id":686,"name":"Ralph Kramden (Slim Charles)","steam_id":76561197981687895,"connected_time":1101000000000,"state":"active","ping":57},{"user_id":631,"name":"xbox record that","steam_id":76561198150117455,"connected_time":5488000000000,"state":"active","ping":57},{"user_id":654,"name":"anipe10","steam_id":76561199084698417,"connected_time":3792000000000,"state":"active","ping":58},{"user_id":693,"name":"John16Mark","steam_id":76561198119445407,"connected_time":804000000000,"state":"active","ping":96},{"user_id":701,"name":"californjoe","steam_id":76561197965047795,"connected_time":113000000000,"state":"active","ping":60},{"user_id":677,"name":"Mike Bean Burritos","steam_id":76561198173430607,"connected_time":1783000000000,"state":"active","ping":78},{"user_id":629,"name":"HAT-WEARING™ Maggot Gamer Cat","steam_id":76561197973992705,"connected_time":5817000000000,"state":"active","ping":71},{"user_id":671,"name":"cjetson","steam_id":76561198074482272,"connected_time":2109000000000,"state":"active","ping":56},{"user_id":674,"name":"hi ping","steam_id":76561198383636396,"connected_time":1974000000000,"state":"active","ping":98},{"user_id":690,"name":"The_guyontheceiling","steam_id":76561198840156789,"connected_time":896000000000,"state":"active","ping":56},{"user_id":697,"name":"john.","steam_id":76561198982939658,"connected_time":378000000000,"state":"active","ping":61},{"user_id":702,"name":":(){ :|:\u0026 };:","steam_id":76561198115242460,"connected_time":78000000000,"state":"active","ping":89},{"user_id":688,"name":"Trey","steam_id":76561198110024593,"connected_time":982000000000,"state":"active","ping":85},{"user_id":648,"name":"vioxynteris","steam_id":76561198161428666,"connected_time":3911000000000,"state":"active","ping":33},{"user_id":695,"name":"Maniac9","steam_id":76561197960530967,"connected_time":423000000000,"state":"active","ping":54},{"user_id":698,"name":"Coolgoat2005","steam_id":76561198284935250,"connected_time":357000000000,"state":"active","ping":52},{"user_id":680,"name":"Mr. Pockets","steam_id":76561198053657771,"connected_time":1641000000000,"state":"active","ping":64},{"user_id":692,"name":"Deflated Horse","steam_id":76561199260931005,"connected_time":827000000000,"state":"active","ping":80},{"user_id":684,"name":"Bubblegum Tip","steam_id":76561198048131308,"connected_time":1324000000000,"state":"active","ping":60},{"user_id":676,"name":"Literal Vampire Potbelly Goblin","steam_id":76561197970527356,"connected_time":1897000000000,"state":"active","ping":51}]},{"server_id":112,"name":"Uncletopia | Los Angeles | 2 | All Maps","name_short":"lax-2","host":"lax-1.us.uncletopia.com","port":27025,"enabled":true,"region":"us-west","cc":"us","latitude":33.94279,"longitude":-118.41004,"reserved":0,"last_update":"0001-01-01T00:00:00Z","name_a2s":"Uncletopia | Los Angeles | 2 | All Maps","protocol":17,"map":"cp_dustbowl","folder":"tf","game":"Team Fortress","app_id":440,"player_count":23,"max_players":24,"Bots":0,"server_type":"Dedicated","server_os":"Linux","password":true,"vac":true,"version":"7961495","steam_id":85568392924469992,"keywords":["cp","nocrits","nodmgspread","uncletopia"],"game_id":440,"stv_port":27026,"stv_name":"Uncletopia | Los Angeles | 2 | All Maps | STV","players":[{"user_id":414,"name":"UltraBron James","steam_id":76561198066091050,"connected_time":2064000000000,"state":"active","ping":71},{"user_id":448,"name":"SneekiCheekiQbone","steam_id":76561198045077980,"connected_time":115000000000,"state":"active","ping":40},{"user_id":343,"name":"lol","steam_id":76561198026491738,"connected_time":7943000000000,"state":"active","ping":59},{"user_id":418,"name":"Arcane Flame","steam_id":76561198360024422,"connected_time":1857000000000,"state":"active","ping":55},{"user_id":429,"name":"Eris","steam_id":76561198120775038,"connected_time":1027000000000,"state":"active","ping":71},{"user_id":329,"name":"xD","steam_id":76561198149683030,"connected_time":9163000000000,"state":"active","ping":67},{"user_id":424,"name":"Boastful","steam_id":76561198328586756,"connected_time":1523000000000,"state":"active","ping":75},{"user_id":431,"name":"super ghostbusters","steam_id":76561199021827610,"connected_time":916000000000,"state":"active","ping":58},{"user_id":435,"name":"LarsLoop","steam_id":76561198064892315,"connected_time":782000000000,"state":"active","ping":86},{"user_id":427,"name":"DrSnailFarm","steam_id":76561199207820854,"connected_time":1288000000000,"state":"active","ping":61},{"user_id":430,"name":"Terraimn","steam_id":76561198167795557,"connected_time":1021000000000,"state":"active","ping":68},{"user_id":432,"name":"fried eggs","steam_id":76561198319442494,"connected_time":867000000000,"state":"active","ping":60},{"user_id":443,"name":"Granny from Hoodwinked","steam_id":76561198116389072,"connected_time":540000000000,"state":"active","ping":94},{"user_id":441,"name":"wtfxid","steam_id":76561198377797212,"connected_time":620000000000,"state":"active","ping":35},{"user_id":403,"name":"moneymobile","steam_id":76561198066730780,"connected_time":2521000000000,"state":"active","ping":47},{"user_id":436,"name":"Zeodexic","steam_id":76561198055636655,"connected_time":760000000000,"state":"active","ping":116},{"user_id":368,"name":"AT✪MIC","steam_id":76561198100385184,"connected_time":5936000000000,"state":"active","ping":58},{"user_id":373,"name":"Ian","steam_id":76561198159334435,"connected_time":4853000000000,"state":"active","ping":169},{"user_id":395,"name":"Ken","steam_id":76561198190992453,"connected_time":2793000000000,"state":"active","ping":48},{"user_id":437,"name":"TheSmokingMan","steam_id":76561198032652995,"connected_time":729000000000,"state":"active","ping":90},{"user_id":442,"name":"Cheff cook","steam_id":76561198451203268,"connected_time":563000000000,"state":"active","ping":54},{"user_id":446,"name":"the pizza is aggressive","steam_id":76561198057040611,"connected_time":448000000000,"state":"active","ping":53},{"user_id":447,"name":"BuncusBeffer","steam_id":76561198285936616,"connected_time":436000000000,"state":"active","ping":76}]},{"server_id":324,"name":"Uncletopia | Los Angeles | 3 | All Maps","name_short":"lax-3","host":"lax-1.us.uncletopia.com","port":27035,"enabled":true,"region":"us-west","cc":"us","latitude":33.94279,"longitude":-118.41004,"reserved":0,"last_update":"0001-01-01T00:00:00Z","name_a2s":"Uncletopia | Los Angeles | 3 | All Maps","protocol":17,"map":"pl_pier","folder":"tf","game":"Team Fortress","app_id":440,"player_count":23,"max_players":24,"Bots":0,"server_type":"Dedicated","server_os":"Linux","password":true,"vac":true,"version":"7961495","steam_id":85568392924510198,"keywords":["nocrits","nodmgspread","payload","uncletopia"],"game_id":440,"stv_port":27036,"stv_name":"Uncletopia | Los Angeles | 3 | All Maps | STV","players":[{"user_id":404,"name":"NIL","steam_id":76561198339527138,"connected_time":1050000000000,"state":"active","ping":44},{"user_id":405,"name":"Frank Accardi","steam_id":76561198017275707,"connected_time":971000000000,"state":"active","ping":64},{"user_id":406,"name":"tobrehto","steam_id":76561198097544038,"connected_time":868000000000,"state":"active","ping":50},{"user_id":401,"name":"coconut gun","steam_id":76561198206922028,"connected_time":1594000000000,"state":"active","ping":49},{"user_id":390,"name":"mu","steam_id":76561197997530228,"connected_time":2482000000000,"state":"active","ping":88},{"user_id":337,"name":"El Gato Paranoico","steam_id":76561198116567116,"connected_time":6338000000000,"state":"active","ping":85},{"user_id":400,"name":"Marz","steam_id":76561198799364911,"connected_time":1650000000000,"state":"active","ping":69},{"user_id":407,"name":"Random Civic Ek9","steam_id":76561198817302192,"connected_time":834000000000,"state":"active","ping":72},{"user_id":397,"name":"el wokismo","steam_id":76561198058617608,"connected_time":2254000000000,"state":"active","ping":47},{"user_id":393,"name":"Dreamzapp","steam_id":76561199084936632,"connected_time":2401000000000,"state":"active","ping":70},{"user_id":408,"name":"Clornk (Destroyer of Happiness)","steam_id":76561198360396485,"connected_time":770000000000,"state":"active","ping":65},{"user_id":396,"name":"Hakuyer","steam_id":76561198098618247,"connected_time":2352000000000,"state":"active","ping":84},{"user_id":413,"name":"Excalibrine","steam_id":76561198129312118,"connected_time":499000000000,"state":"active","ping":66},{"user_id":303,"name":"Gerbias","steam_id":76561198001002427,"connected_time":9003000000000,"state":"active","ping":64},{"user_id":293,"name":"Edwon","steam_id":76561198319902846,"connected_time":9354000000000,"state":"active","ping":57},{"user_id":403,"name":"Cheetose Intolerant","steam_id":76561198013399809,"connected_time":1288000000000,"state":"active","ping":47},{"user_id":277,"name":"phon","steam_id":76561198140659236,"connected_time":10642000000000,"state":"active","ping":40},{"user_id":363,"name":"FriskyDemon","steam_id":76561198043684646,"connected_time":4269000000000,"state":"active","ping":74},{"user_id":374,"name":"drrockso20[MicS]","steam_id":76561198001003987,"connected_time":3549000000000,"state":"active","ping":55},{"user_id":371,"name":"CaiGaming","steam_id":76561198313023508,"connected_time":3836000000000,"state":"active","ping":73},{"user_id":382,"name":"a homeless cat","steam_id":76561198058388903,"connected_time":3436000000000,"state":"active","ping":83},{"user_id":388,"name":"corg","steam_id":76561198338740292,"connected_time":2934000000000,"state":"active","ping":55},{"user_id":387,"name":"Pyrotek⁴","steam_id":76561198072747672,"connected_time":3163000000000,"state":"active","ping":43}]},{"server_id":25,"name":"Uncletopia | Los Angeles | 4 | Stopwatch Beta","name_short":"lax-4","host":"lax-1.us.uncletopia.com","port":27045,"enabled":true,"region":"us-west","cc":"us","latitude":33.94279,"longitude":-118.41004,"reserved":0,"last_update":"0001-01-01T00:00:00Z","name_a2s":"Uncletopia | Los Angeles | 4 | Stopwatch Beta","protocol":17,"map":"koth_lakeside_final","folder":"tf","game":"Team Fortress","app_id":440,"player_count":0,"max_players":24,"Bots":0,"server_type":"Dedicated","server_os":"Linux","password":true,"vac":true,"version":"7961495","steam_id":85568392924510199,"keywords":["cp","nocrits","nodmgspread","uncletopia"],"game_id":440,"stv_port":27046,"stv_name":"Uncletopia | Los Angeles | 4 | Stopwatch Beta | STV","players":null},{"server_id":11,"name":"Uncletopia | London | 1 | All Maps","name_short":"lon-1","host":"lon-1.uk.uncletopia.com","port":27015,"enabled":true,"region":"eu","cc":"gb","latitude":51.509865,"longitude":-0.118092,"reserved":0,"last_update":"0001-01-01T00:00:00Z","name_a2s":"Uncletopia | London | 1 | All Maps","protocol":17,"map":"pl_snowycoast","folder":"tf","game":"Team Fortress","app_id":440,"player_count":18,"max_players":24,"Bots":0,"server_type":"Dedicated","server_os":"Linux","password":true,"vac":true,"version":"7961495","steam_id":85568392924367362,"keywords":["nocrits","nodmgspread","payload","uncletopia"],"game_id":440,"stv_port":27016,"stv_name":"Uncletopia | London | 1 | All Maps | STV","players":[{"user_id":4,"name":"sub class?","steam_id":76561199184873889,"connected_time":1242000000000,"state":"active","ping":56},{"user_id":5,"name":"the_Bulgarian_Badger","steam_id":76561199067348424,"connected_time":1061000000000,"state":"active","ping":104},{"user_id":6,"name":"yuno appreciator","steam_id":76561198083286511,"connected_time":1053000000000,"state":"active","ping":32},{"user_id":15,"name":"engineer drip","steam_id":76561198991032570,"connected_time":606000000000,"state":"active","ping":97},{"user_id":9,"name":"Narvhalø","steam_id":76561198147495474,"connected_time":729000000000,"state":"active","ping":45},{"user_id":10,"name":"Acheron","steam_id":76561198306593373,"connected_time":718000000000,"state":"active","ping":80},{"user_id":18,"name":"Guess I'm just popo","steam_id":76561197966419253,"connected_time":498000000000,"state":"active","ping":139},{"user_id":17,"name":"Soul Of Caber","steam_id":76561198110395811,"connected_time":508000000000,"state":"active","ping":105},{"user_id":26,"name":"Leibeigener","steam_id":76561199275478305,"connected_time":102000000000,"state":"active","ping":46},{"user_id":14,"name":"zapdos981","steam_id":76561198119674397,"connected_time":668000000000,"state":"active","ping":85},{"user_id":16,"name":"Kepler_62f","steam_id":76561199005732555,"connected_time":576000000000,"state":"active","ping":64},{"user_id":22,"name":"yeldad","steam_id":76561198447264153,"connected_time":229000000000,"state":"active","ping":122},{"user_id":20,"name":"germinator","steam_id":76561199387893648,"connected_time":461000000000,"state":"active","ping":103},{"user_id":23,"name":"Amin","steam_id":76561199212272501,"connected_time":204000000000,"state":"active","ping":171},{"user_id":24,"name":"autistic luigi","steam_id":76561199218285040,"connected_time":196000000000,"state":"active","ping":81},{"user_id":25,"name":"[CC]Nyafka","steam_id":76561198289878090,"connected_time":182000000000,"state":"active","ping":131},{"user_id":27,"name":"Nipper ripper","steam_id":76561198058970707,"connected_time":94000000000,"state":"active","ping":54},{"user_id":28,"name":"Generál Kiwi","steam_id":76561198255946537,"connected_time":2000000000,"state":"spawning","ping":40}]},{"server_id":114,"name":"Uncletopia | London | 2 | All Maps","name_short":"lon-2","host":"lon-1.uk.uncletopia.com","port":27025,"enabled":true,"region":"eu","cc":"gb","latitude":51.509865,"longitude":-0.118092,"reserved":0,"last_update":"0001-01-01T00:00:00Z","name_a2s":"Uncletopia | London | 2 | All Maps","protocol":17,"map":"cp_badlands","folder":"tf","game":"Team Fortress","app_id":440,"player_count":21,"max_players":24,"Bots":0,"server_type":"Dedicated","server_os":"Linux","password":true,"vac":true,"version":"7961495","steam_id":85568392924470941,"keywords":["cp","nocrits","nodmgspread","uncletopia"],"game_id":440,"stv_port":27026,"stv_name":"Uncletopia | London | 2 | All Maps | STV","players":[{"user_id":96,"name":"gingus bobing IV","steam_id":76561198197851753,"connected_time":566000000000,"state":"active","ping":83},{"user_id":98,"name":"BlinkedUp","steam_id":76561198249985618,"connected_time":48000000000,"state":"active","ping":67},{"user_id":93,"name":"Neimon","steam_id":76561198343485710,"connected_time":676000000000,"state":"active","ping":128},{"user_id":99,"name":"Cosmetic brain","steam_id":76561198055936410,"connected_time":24000000000,"state":"active","ping":77},{"user_id":81,"name":"Anzu","steam_id":76561198043953503,"connected_time":2040000000000,"state":"active","ping":81},{"user_id":70,"name":"killbind irl","steam_id":76561198180637374,"connected_time":2572000000000,"state":"active","ping":92},{"user_id":64,"name":"The Chad, The Bad, This Guy","steam_id":76561199215849598,"connected_time":2784000000000,"state":"active","ping":89},{"user_id":22,"name":"spxcy","steam_id":76561198080296853,"connected_time":6869000000000,"state":"active","ping":87},{"user_id":89,"name":"costco-pilled individual","steam_id":76561198818037965,"connected_time":1342000000000,"state":"active","ping":106},{"user_id":100,"name":"mge brother","steam_id":76561198996092998,"connected_time":20000000000,"state":"spawning","ping":81},{"user_id":97,"name":"Jara.","steam_id":76561197992207165,"connected_time":193000000000,"state":"active","ping":103},{"user_id":83,"name":"diet coke consumer","steam_id":76561197975862809,"connected_time":1906000000000,"state":"active","ping":72},{"user_id":23,"name":"BoxLag","steam_id":76561198303995144,"connected_time":6810000000000,"state":"active","ping":42},{"user_id":86,"name":"the noob!","steam_id":76561198360600945,"connected_time":1671000000000,"state":"active","ping":92},{"user_id":92,"name":"The Infraggable Krunk","steam_id":76561198031573426,"connected_time":686000000000,"state":"active","ping":72},{"user_id":45,"name":"Lander","steam_id":76561198201339157,"connected_time":5150000000000,"state":"active","ping":56},{"user_id":94,"name":"DaLuigi","steam_id":76561198054486188,"connected_time":657000000000,"state":"active","ping":60},{"user_id":38,"name":"Bahador","steam_id":76561198897378461,"connected_time":5538000000000,"state":"active","ping":70},{"user_id":54,"name":"Larry Penus","steam_id":76561198207546233,"connected_time":3919000000000,"state":"active","ping":34},{"user_id":56,"name":"Asmodeus","steam_id":76561198283156425,"connected_time":3750000000000,"state":"active","ping":70},{"user_id":95,"name":"night.s","steam_id":76561198326287823,"connected_time":634000000000,"state":"active","ping":63}]},{"server_id":320,"name":"Uncletopia | London | 3 | All Maps","name_short":"lon-3","host":"lon-1.uk.uncletopia.com","port":27035,"enabled":true,"region":"eu","cc":"gb","latitude":51.509865,"longitude":-0.118092,"reserved":0,"last_update":"0001-01-01T00:00:00Z","name_a2s":"Uncletopia | London | 3 | All Maps","protocol":17,"map":"pl_upward","folder":"tf","game":"Team Fortress","app_id":440,"player_count":0,"max_players":24,"Bots":0,"server_type":"Dedicated","server_os":"Linux","password":true,"vac":true,"version":"7961495","steam_id":85568392924510192,"keywords":["nocrits","nodmgspread","payload","uncletopia"],"game_id":440,"stv_port":27036,"stv_name":"Uncletopia | London | 3 | All Maps | STV","players":null},{"server_id":321,"name":"Uncletopia | London | 4 | All Maps","name_short":"lon-4","host":"lon-1.uk.uncletopia.com","port":27045,"enabled":true,"region":"eu","cc":"gb","latitude":51.509865,"longitude":-0.118092,"reserved":0,"last_update":"0001-01-01T00:00:00Z","name_a2s":"Uncletopia | London | 4 | All Maps","protocol":17,"map":"koth_cascade","folder":"tf","game":"Team Fortress","app_id":440,"player_count":0,"max_players":24,"Bots":0,"server_type":"Dedicated","server_os":"Linux","password":true,"vac":true,"version":"7961495","steam_id":85568392924510193,"keywords":["cp","nocrits","nodmgspread","uncletopia"],"game_id":440,"stv_port":27046,"stv_name":"Uncletopia | London | 4 | All Maps | STV","players":null},{"server_id":21,"name":"Uncletopia | London | 5 | All Maps","name_short":"lon-5","host":"lon-1.uk.uncletopia.com","port":27055,"enabled":true,"region":"eu","cc":"gb","latitude":51.509865,"longitude":-0.118092,"reserved":0,"last_update":"0001-01-01T00:00:00Z","name_a2s":"Uncletopia | London | 5 | All Maps","protocol":17,"map":"pl_snowycoast","folder":"tf","game":"Team Fortress","app_id":440,"player_count":0,"max_players":24,"Bots":0,"server_type":"Dedicated","server_os":"Linux","password":true,"vac":true,"version":"7961495","steam_id":85568392924742829,"keywords":["nocrits","nodmgspread","payload","uncletopia"],"game_id":440,"stv_port":27056,"stv_name":"Uncletopia | London | 5 | All Maps | STV","players":null},{"server_id":22,"name":"Uncletopia | London | 6 | All Maps","name_short":"lon-6","host":"lon-1.uk.uncletopia.com","port":27065,"enabled":true,"region":"eu","cc":"gb","latitude":51.509865,"longitude":-0.118092,"reserved":0,"last_update":"0001-01-01T00:00:00Z","name_a2s":"Uncletopia | London | 6 | All Maps","protocol":17,"map":"koth_lakeside_final","folder":"tf","game":"Team Fortress","app_id":440,"player_count":0,"max_players":24,"Bots":0,"server_type":"Dedicated","server_os":"Linux","password":true,"vac":true,"version":"7961495","steam_id":85568392924742830,"keywords":["cp","nocrits","nodmgspread","uncletopia"],"game_id":440,"stv_port":27066,"stv_name":"Uncletopia | London | 6 | All Maps | STV","players":null},{"server_id":40,"name":"Uncletopia | London | 7 | No Payload","name_short":"lon-7","host":"lon-1.uk.uncletopia.com","port":27075,"enabled":true,"region":"eu","cc":"gb","latitude":51.509865,"longitude":-0.118092,"reserved":0,"last_update":"0001-01-01T00:00:00Z","name_a2s":"Uncletopia | London | 7 | No Payload","protocol":17,"map":"pl_snowycoast","folder":"tf","game":"Team Fortress","app_id":440,"player_count":0,"max_players":24,"Bots":0,"server_type":"Dedicated","server_os":"Linux","password":true,"vac":true,"version":"7961495","steam_id":85568392924964314,"keywords":["nocrits","nodmgspread","payload","uncletopia"],"game_id":440,"stv_port":27076,"stv_name":"Uncletopia | London | 7 | No Payload | STV","players":null},{"server_id":41,"name":"Uncletopia | London | 8 | Community","name_short":"lon-8","host":"lon-1.uk.uncletopia.com","port":27085,"enabled":true,"region":"eu","cc":"gb","latitude":51.509865,"longitude":-0.118092,"reserved":0,"last_update":"0001-01-01T00:00:00Z","name_a2s":"Uncletopia | London | 8 | Community","protocol":17,"map":"koth_viaduct","folder":"tf","game":"Team Fortress","app_id":440,"player_count":0,"max_players":24,"Bots":0,"server_type":"Dedicated","server_os":"Linux","password":true,"vac":true,"version":"7961495","steam_id":85568392924964315,"keywords":["cp","nocrits","nodmgspread","uncletopia"],"game_id":440,"stv_port":27086,"stv_name":"Uncletopia | London | 8 | Community | STV","players":null},{"server_id":300,"name":"Uncletopia | Montréal | 1 | All Maps","name_short":"mtl-1","host":"mtl-1.ca.uncletopia.com","port":27015,"enabled":true,"region":"us-east","cc":"ca","latitude":45.50889,"longitude":-73.56167,"reserved":0,"last_update":"0001-01-01T00:00:00Z","name_a2s":"Uncletopia | Montréal | 1 | All Maps","protocol":17,"map":"koth_highpass","folder":"tf","game":"Team Fortress","app_id":440,"player_count":0,"max_players":24,"Bots":0,"server_type":"Dedicated","server_os":"Linux","password":true,"vac":true,"version":"7961495","steam_id":85568392924500087,"keywords":["cp","nocrits","nodmgspread","uncletopia"],"game_id":440,"stv_port":27016,"stv_name":"Uncletopia | Montréal | 1 | All Maps | STV","players":null},{"server_id":301,"name":"Uncletopia | Montréal | 2 | All Maps","name_short":"mtl-2","host":"mtl-1.ca.uncletopia.com","port":27025,"enabled":true,"region":"us-east","cc":"ca","latitude":45.50889,"longitude":-73.56167,"reserved":0,"last_update":"0001-01-01T00:00:00Z","name_a2s":"Uncletopia | Montréal | 2 | All Maps","protocol":17,"map":"cp_snakewater_final1","folder":"tf","game":"Team Fortress","app_id":440,"player_count":0,"max_players":24,"Bots":0,"server_type":"Dedicated","server_os":"Linux","password":true,"vac":true,"version":"7961495","steam_id":85568392924500088,"keywords":["cp","nocrits","nodmgspread","uncletopia"],"game_id":440,"stv_port":27026,"stv_name":"Uncletopia | Montréal | 2 | All Maps | STV","players":null},{"server_id":302,"name":"Uncletopia | Montréal | 3 | All Maps","name_short":"mtl-3","host":"mtl-1.ca.uncletopia.com","port":27035,"enabled":true,"region":"us-east","cc":"ca","latitude":45.50889,"longitude":-73.56167,"reserved":0,"last_update":"0001-01-01T00:00:00Z","name_a2s":"Uncletopia | Montréal | 3 | All Maps","protocol":17,"map":"koth_lakeside_final","folder":"tf","game":"Team Fortress","app_id":440,"player_count":0,"max_players":24,"Bots":0,"server_type":"Dedicated","server_os":"Linux","password":true,"vac":true,"version":"7961495","steam_id":85568392924500089,"keywords":["cp","nocrits","nodmgspread","uncletopia"],"game_id":440,"stv_port":27036,"stv_name":"Uncletopia | Montréal | 3 | All Maps | STV","players":null},{"server_id":303,"name":"Uncletopia | Montréal | 4 | No Payload","name_short":"mtl-4","host":"mtl-1.ca.uncletopia.com","port":27045,"enabled":true,"region":"us-east","cc":"ca","latitude":45.50889,"longitude":-73.56167,"reserved":0,"last_update":"0001-01-01T00:00:00Z","name_a2s":"Uncletopia | Montréal | 4 | No Payload","protocol":17,"map":"cp_gravelpit","folder":"tf","game":"Team Fortress","app_id":440,"player_count":0,"max_players":24,"Bots":0,"server_type":"Dedicated","server_os":"Linux","password":true,"vac":true,"version":"7961495","steam_id":85568392924500090,"keywords":["cp","nocrits","nodmgspread","uncletopia"],"game_id":440,"stv_port":27046,"stv_name":"Uncletopia | Montréal | 4 | No Payload | STV","players":null},{"server_id":13,"name":"Uncletopia | New York City | 1 | All Maps","name_short":"nyc-1","host":"nyc-1.us.uncletopia.com","port":27015,"enabled":true,"region":"us-east","cc":"us","latitude":40.73061,"longitude":-73.93524,"reserved":0,"last_update":"0001-01-01T00:00:00Z","name_a2s":"Uncletopia | New York City | 1 | All Maps","protocol":17,"map":"ctf_2fort","folder":"tf","game":"Team Fortress","app_id":440,"player_count":0,"max_players":24,"Bots":0,"server_type":"Dedicated","server_os":"Linux","password":true,"vac":true,"version":"7961495","steam_id":85568392924469993,"keywords":["ctf","nocrits","nodmgspread","uncletopia"],"game_id":440,"stv_port":27016,"stv_name":"Uncletopia | New York City | 1 | All Maps | STV","players":null},{"server_id":14,"name":"Uncletopia | New York City | 2 | All Maps","name_short":"nyc-2","host":"nyc-1.us.uncletopia.com","port":27025,"enabled":true,"region":"us-east","cc":"us","latitude":40.73061,"longitude":-73.93524,"reserved":0,"last_update":"0001-01-01T00:00:00Z","name_a2s":"Uncletopia | New York City | 2 | All Maps","protocol":17,"map":"koth_cascade","folder":"tf","game":"Team Fortress","app_id":440,"player_count":0,"max_players":24,"Bots":0,"server_type":"Dedicated","server_os":"Linux","password":true,"vac":true,"version":"7961495","steam_id":85568392924469994,"keywords":["cp","nocrits","nodmgspread","uncletopia"],"game_id":440,"stv_port":27026,"stv_name":"Uncletopia | New York City | 2 | All Maps | STV","players":null},{"server_id":15,"name":"Uncletopia | New York City | 3 | Stopwatch Beta","name_short":"nyc-3","host":"nyc-1.us.uncletopia.com","port":27035,"enabled":true,"region":"us-east","cc":"us","latitude":40.73061,"longitude":-73.93524,"reserved":0,"last_update":"0001-01-01T00:00:00Z","name_a2s":"Uncletopia | New York City | 3 | Stopwatch Beta","protocol":17,"map":"pl_borneo","folder":"tf","game":"Team Fortress","app_id":440,"player_count":0,"max_players":24,"Bots":0,"server_type":"Dedicated","server_os":"Linux","password":true,"vac":true,"version":"7961495","steam_id":85568392924742820,"keywords":["nocrits","nodmgspread","payload","uncletopia"],"game_id":440,"stv_port":27036,"stv_name":"Uncletopia | New York City | 3 | Stopwatch Beta | STV","players":null},{"server_id":16,"name":"Uncletopia | New York City | 4 | Community","name_short":"nyc-4","host":"nyc-1.us.uncletopia.com","port":27045,"enabled":true,"region":"us-east","cc":"us","latitude":40.73061,"longitude":-73.93524,"reserved":0,"last_update":"0001-01-01T00:00:00Z","name_a2s":"Uncletopia | New York City | 4 | Community","protocol":17,"map":"workshop/pl_divulgence_b4b.ugc2884808746","folder":"tf","game":"Team Fortress","app_id":440,"player_count":0,"max_players":24,"Bots":0,"server_type":"Dedicated","server_os":"Linux","password":true,"vac":true,"version":"7961495","steam_id":85568392924742821,"keywords":["nocrits","nodmgspread","payload","uncletopia"],"game_id":440,"stv_port":27046,"stv_name":"Uncletopia | New York City | 4 | Community | STV","players":null},{"server_id":142,"name":"Uncletopia | São Paulo | 1 | All Maps","name_short":"sao-1","host":"sao-1.br.uncletopia.com","port":27015,"enabled":true,"region":"sa","cc":"br","latitude":-23.533773,"longitude":-46.62529,"reserved":0,"last_update":"0001-01-01T00:00:00Z","name_a2s":"Uncletopia | São Paulo | 1 | All Maps","protocol":17,"map":"koth_lakeside_final","folder":"tf","game":"Team Fortress","app_id":440,"player_count":0,"max_players":24,"Bots":0,"server_type":"Dedicated","server_os":"Linux","password":true,"vac":true,"version":"7961495","steam_id":85568392924469996,"keywords":["cp","nocrits","nodmgspread","uncletopia"],"game_id":440,"stv_port":27016,"stv_name":"Uncletopia | São Paulo | 1 | All Maps | STV","players":null},{"server_id":143,"name":"Uncletopia | São Paulo | 2 | All Maps","name_short":"sao-2","host":"sao-2.br.uncletopia.com","port":27015,"enabled":true,"region":"sa","cc":"br","latitude":-23.533773,"longitude":-46.62529,"reserved":0,"last_update":"0001-01-01T00:00:00Z","name_a2s":"Uncletopia | São Paulo | 2 | All Maps","protocol":17,"map":"pl_snowycoast","folder":"tf","game":"Team Fortress","app_id":440,"player_count":0,"max_players":24,"Bots":0,"server_type":"Dedicated","server_os":"Linux","password":true,"vac":true,"version":"7961495","steam_id":85568392924485349,"keywords":["nocrits","nodmgspread","payload","uncletopia"],"game_id":440,"stv_port":27016,"stv_name":"Uncletopia | São Paulo | 2 | All Maps | STV","players":null},{"server_id":7,"name":"Uncletopia | Seattle | 1 | All Maps","name_short":"sea-1","host":"sea-1.us.uncletopia.com","port":27015,"enabled":true,"region":"us-west","cc":"us","latitude":47.608013,"longitude":-122.33517,"reserved":0,"last_update":"0001-01-01T00:00:00Z","name_a2s":"Uncletopia | Seattle | 1 | All Maps","protocol":17,"map":"pl_badwater","folder":"tf","game":"Team Fortress","app_id":440,"player_count":24,"max_players":24,"Bots":0,"server_type":"Dedicated","server_os":"Linux","password":true,"vac":true,"version":"7961495","steam_id":85568392924469997,"keywords":["nocrits","nodmgspread","payload","uncletopia"],"game_id":440,"stv_port":27016,"stv_name":"Uncletopia | Seattle | 1 | All Maps | STV","players":[{"user_id":583,"name":"Mocha Josie","steam_id":76561198066452726,"connected_time":1756000000000,"state":"active","ping":75},{"user_id":582,"name":"Zee✞","steam_id":76561198274550638,"connected_time":1829000000000,"state":"active","ping":109},{"user_id":516,"name":"Arsonist Goose","steam_id":76561198147441830,"connected_time":9751000000000,"state":"active","ping":70},{"user_id":561,"name":"2 Point Tom","steam_id":76561198087617008,"connected_time":4187000000000,"state":"active","ping":56},{"user_id":563,"name":"mike, isntrorywashere","steam_id":76561198225411004,"connected_time":4077000000000,"state":"active","ping":63},{"user_id":562,"name":"lavender","steam_id":76561199069518286,"connected_time":4145000000000,"state":"active","ping":73},{"user_id":564,"name":"Pukei-Pukei","steam_id":76561197992722546,"connected_time":3595000000000,"state":"active","ping":84},{"user_id":599,"name":"sunlight wings","steam_id":76561198208098377,"connected_time":470000000000,"state":"active","ping":70},{"user_id":553,"name":"[TrC] Dackstrus","steam_id":76561197973518509,"connected_time":4870000000000,"state":"active","ping":57},{"user_id":476,"name":"rat gets the cheese","steam_id":76561198031234032,"connected_time":12045000000000,"state":"active","ping":101},{"user_id":588,"name":"NEBULA","steam_id":76561198086878595,"connected_time":1462000000000,"state":"active","ping":71},{"user_id":600,"name":"Translucent૮₍ • ᴥ •","steam_id":76561199212057076,"connected_time":411000000000,"state":"active","ping":82},{"user_id":601,"name":"lemonjack","steam_id":76561198277380277,"connected_time":388000000000,"state":"active","ping":82},{"user_id":584,"name":"Henchie!","steam_id":76561198047567464,"connected_time":1724000000000,"state":"active","ping":95},{"user_id":597,"name":"Can of Coca-Cola","steam_id":76561198449103812,"connected_time":816000000000,"state":"active","ping":81},{"user_id":445,"name":"lusty","steam_id":76561198138478947,"connected_time":14211000000000,"state":"active","ping":40},{"user_id":608,"name":"Mustachacre","steam_id":76561198056309992,"connected_time":99000000000,"state":"active","ping":45},{"user_id":596,"name":"DAYTONA","steam_id":76561198061975847,"connected_time":1063000000000,"state":"active","ping":77},{"user_id":574,"name":"Ayayayayayahuasca","steam_id":76561199002906056,"connected_time":2993000000000,"state":"active","ping":55},{"user_id":578,"name":"orbisg","steam_id":76561198004133638,"connected_time":2976000000000,"state":"active","ping":85},{"user_id":598,"name":"[TrC] Nosy","steam_id":76561197978859310,"connected_time":614000000000,"state":"active","ping":56},{"user_id":560,"name":"Finkly","steam_id":76561198049828110,"connected_time":4415000000000,"state":"active","ping":47},{"user_id":593,"name":"SYMBOL_YT","steam_id":76561198848655517,"connected_time":1208000000000,"state":"active","ping":66},{"user_id":602,"name":"swarm of bee","steam_id":76561198059604047,"connected_time":333000000000,"state":"active","ping":32}]},{"server_id":119,"name":"Uncletopia | Seattle | 2 | All Maps","name_short":"sea-2","host":"sea-1.us.uncletopia.com","port":27025,"enabled":true,"region":"us-west","cc":"us","latitude":47.608013,"longitude":-122.33517,"reserved":0,"last_update":"0001-01-01T00:00:00Z","name_a2s":"Uncletopia | Seattle | 2 | All Maps","protocol":17,"map":"pl_badwater","folder":"tf","game":"Team Fortress","app_id":440,"player_count":23,"max_players":24,"Bots":0,"server_type":"Dedicated","server_os":"Linux","password":true,"vac":true,"version":"7961495","steam_id":85568392924469998,"keywords":["nocrits","nodmgspread","payload","uncletopia"],"game_id":440,"stv_port":27026,"stv_name":"Uncletopia | Seattle | 2 | All Maps | STV","players":[{"user_id":381,"name":"hosewater","steam_id":76561198023383126,"connected_time":2009000000000,"state":"active","ping":49},{"user_id":347,"name":"They could be starlings","steam_id":76561198441020995,"connected_time":5892000000000,"state":"active","ping":71},{"user_id":391,"name":"Golddick Lewisson","steam_id":76561198054719949,"connected_time":823000000000,"state":"active","ping":63},{"user_id":366,"name":"colonthree","steam_id":76561198998635499,"connected_time":3443000000000,"state":"active","ping":59},{"user_id":319,"name":"The King of Piss World","steam_id":76561198082806956,"connected_time":7641000000000,"state":"active","ping":143},{"user_id":389,"name":"Ruben","steam_id":76561198048508642,"connected_time":1182000000000,"state":"active","ping":56},{"user_id":382,"name":"Whatsapp Spy","steam_id":76561198085410969,"connected_time":1843000000000,"state":"active","ping":85},{"user_id":362,"name":"BoxCann0n","steam_id":76561199153390130,"connected_time":3827000000000,"state":"active","ping":183},{"user_id":329,"name":"10HourNaps","steam_id":76561199082304859,"connected_time":7031000000000,"state":"active","ping":58},{"user_id":403,"name":"Teddy","steam_id":76561198048106221,"connected_time":304000000000,"state":"active","ping":67},{"user_id":378,"name":"wrench","steam_id":76561198137242573,"connected_time":2272000000000,"state":"active","ping":48},{"user_id":388,"name":"CaseyXW","steam_id":76561198073356712,"connected_time":1250000000000,"state":"active","ping":78},{"user_id":318,"name":"General Fisticuffs","steam_id":76561198255721392,"connected_time":7815000000000,"state":"active","ping":108},{"user_id":390,"name":"Boobie and vagene","steam_id":76561198078464924,"connected_time":889000000000,"state":"active","ping":50},{"user_id":359,"name":"JavaScript Frappuccino","steam_id":76561198111620153,"connected_time":4878000000000,"state":"active","ping":43},{"user_id":371,"name":"D.A.V.I.D","steam_id":76561199443570634,"connected_time":3226000000000,"state":"active","ping":77},{"user_id":385,"name":"Drezki","steam_id":76561198075875098,"connected_time":1428000000000,"state":"active","ping":100},{"user_id":395,"name":"Cookie","steam_id":76561198047736899,"connected_time":557000000000,"state":"active","ping":105},{"user_id":372,"name":"Mr. Carfox","steam_id":76561198041664428,"connected_time":3196000000000,"state":"active","ping":61},{"user_id":387,"name":"Wendigo","steam_id":76561197994528974,"connected_time":1410000000000,"state":"active","ping":80},{"user_id":248,"name":"Grand","steam_id":76561198290143399,"connected_time":13990000000000,"state":"active","ping":77},{"user_id":255,"name":"Truffles","steam_id":76561198095868800,"connected_time":13174000000000,"state":"active","ping":113}]},{"server_id":406,"name":"Uncletopia | Seattle | 3 | Stopwatch Beta","name_short":"sea-3","host":"sea-1.us.uncletopia.com","port":27035,"enabled":true,"region":"us-west","cc":"us","latitude":47.608013,"longitude":-122.33517,"reserved":0,"last_update":"0001-01-01T00:00:00Z","name_a2s":"Uncletopia | Seattle | 3 | Stopwatch Beta","protocol":17,"map":"koth_highpass","folder":"tf","game":"Team Fortress","app_id":440,"player_count":0,"max_players":24,"Bots":0,"server_type":"Dedicated","server_os":"Linux","password":true,"vac":true,"version":"7961495","steam_id":85568392924515217,"keywords":["cp","nocrits","nodmgspread","uncletopia"],"game_id":440,"stv_port":27036,"stv_name":"Uncletopia | Seattle | 3 | Stopwatch Beta | STV","players":null},{"server_id":17,"name":"Uncletopia | San Francisco | 1 | All Maps","name_short":"sfo-1","host":"sfo-1.us.uncletopia.com","port":27015,"enabled":true,"region":"us-west","cc":"us","latitude":37.77397,"longitude":-122.4313,"reserved":0,"last_update":"0001-01-01T00:00:00Z","name_a2s":"Uncletopia | San Francisco | 1 | All Maps","protocol":17,"map":"pl_frontier_final","folder":"tf","game":"Team Fortress","app_id":440,"player_count":0,"max_players":24,"Bots":0,"server_type":"Dedicated","server_os":"Linux","password":true,"vac":true,"version":"7932396","steam_id":85568392924469999,"keywords":["nocrits","nodmgspread","payload","uncletopia"],"game_id":440,"stv_port":27016,"stv_name":"Uncletopia | San Francisco | 1 | All Maps | STV","players":null},{"server_id":18,"name":"Uncletopia | San Francisco | 2 | All Maps","name_short":"sfo-2","host":"sfo-1.us.uncletopia.com","port":27025,"enabled":true,"region":"us-west","cc":"us","latitude":37.77397,"longitude":-122.4313,"reserved":0,"last_update":"0001-01-01T00:00:00Z","name_a2s":"Uncletopia | San Francisco | 2 | All Maps","protocol":17,"map":"cp_snakewater_final1","folder":"tf","game":"Team Fortress","app_id":440,"player_count":0,"max_players":24,"Bots":0,"server_type":"Dedicated","server_os":"Linux","password":true,"vac":true,"version":"7932396","steam_id":85568392924470000,"keywords":["cp","nocrits","nodmgspread","uncletopia"],"game_id":440,"stv_port":27026,"stv_name":"Uncletopia | San Francisco | 2 | All Maps | STV","players":null},{"server_id":19,"name":"Uncletopia | San Francisco | 3 | Stopwatch Beta","name_short":"sfo-3","host":"sfo-1.us.uncletopia.com","port":27035,"enabled":true,"region":"us-west","cc":"us","latitude":37.77397,"longitude":-122.4313,"reserved":0,"last_update":"0001-01-01T00:00:00Z","name_a2s":"Uncletopia | San Francisco | 3 | Stopwatch Beta","protocol":17,"map":"koth_lakeside_final","folder":"tf","game":"Team Fortress","app_id":440,"player_count":0,"max_players":24,"Bots":0,"server_type":"Dedicated","server_os":"Linux","password":true,"vac":true,"version":"7932396","steam_id":85568392924742824,"keywords":["cp","nocrits","nodmgspread","uncletopia"],"game_id":440,"stv_port":27036,"stv_name":"Uncletopia | San Francisco | 3 | Stopwatch Beta | STV","players":null},{"server_id":20,"name":"Uncletopia | San Francisco | 4 | Community","name_short":"sfo-4","host":"sfo-1.us.uncletopia.com","port":27045,"enabled":true,"region":"us-west","cc":"us","latitude":37.77397,"longitude":-122.4313,"reserved":0,"last_update":"0001-01-01T00:00:00Z","name_a2s":"Uncletopia | San Francisco | 4 | Community","protocol":17,"map":"pl_borneo","folder":"tf","game":"Team Fortress","app_id":440,"player_count":0,"max_players":24,"Bots":0,"server_type":"Dedicated","server_os":"Linux","password":true,"vac":true,"version":"7932396","steam_id":85568392924742826,"keywords":["nocrits","nodmgspread","payload","uncletopia"],"game_id":440,"stv_port":27046,"stv_name":"Uncletopia | San Francisco | 4 | Community | STV","players":null},{"server_id":141,"name":"Uncletopia | Sydney | 1 | All Maps","name_short":"syd-1","host":"syd-1.au.uncletopia.com","port":27015,"enabled":true,"region":"au","cc":"au","latitude":-33.865143,"longitude":151.2099,"reserved":0,"last_update":"0001-01-01T00:00:00Z","name_a2s":"Uncletopia | Sydney | 1 | All Maps","protocol":17,"map":"pl_borneo","folder":"tf","game":"Team Fortress","app_id":440,"player_count":24,"max_players":24,"Bots":0,"server_type":"Dedicated","server_os":"Linux","password":true,"vac":true,"version":"7961495","steam_id":85568392924470001,"keywords":["nocrits","nodmgspread","payload","uncletopia"],"game_id":440,"stv_port":27016,"stv_name":"Uncletopia | Sydney | 1 | All Maps | STV","players":[{"user_id":161,"name":"theory haver","steam_id":76561198133867907,"connected_time":4318000000000,"state":"active","ping":79},{"user_id":194,"name":"Cyborgcupine","steam_id":76561198257389366,"connected_time":511000000000,"state":"active","ping":75},{"user_id":182,"name":"Minimindd","steam_id":76561199006274892,"connected_time":2039000000000,"state":"active","ping":47},{"user_id":158,"name":"slignorbus prongnobbler","steam_id":76561198063481761,"connected_time":4711000000000,"state":"active","ping":45},{"user_id":176,"name":"PROFILE NAME#savetf2","steam_id":76561199080833813,"connected_time":3097000000000,"state":"active","ping":161},{"user_id":114,"name":"mushroom","steam_id":76561197992336470,"connected_time":8634000000000,"state":"active","ping":96},{"user_id":186,"name":"Warren","steam_id":76561198120350917,"connected_time":1769000000000,"state":"active","ping":41},{"user_id":191,"name":"Frog Friend","steam_id":76561198054505772,"connected_time":923000000000,"state":"active","ping":64},{"user_id":144,"name":"Jeshī","steam_id":76561198105982416,"connected_time":6121000000000,"state":"active","ping":51},{"user_id":166,"name":"Edgar's can't be choosers","steam_id":76561198301282416,"connected_time":3493000000000,"state":"active","ping":56},{"user_id":138,"name":"ItsSnakey","steam_id":76561199187623513,"connected_time":6684000000000,"state":"active","ping":88},{"user_id":192,"name":"no teles 4 u","steam_id":76561198018478297,"connected_time":921000000000,"state":"active","ping":81},{"user_id":178,"name":"james16","steam_id":76561198362678073,"connected_time":2297000000000,"state":"active","ping":46},{"user_id":164,"name":"modus","steam_id":76561198025099660,"connected_time":3842000000000,"state":"active","ping":44},{"user_id":143,"name":"Penguin Wielder","steam_id":76561198169038889,"connected_time":6507000000000,"state":"active","ping":61},{"user_id":190,"name":"[TÐK] KeRpaL","steam_id":76561197974427061,"connected_time":984000000000,"state":"active","ping":62},{"user_id":189,"name":"Second Lieutenant Pisser","steam_id":76561198866538028,"connected_time":1386000000000,"state":"active","ping":75},{"user_id":156,"name":"Fleetfoot","steam_id":76561198072845816,"connected_time":5012000000000,"state":"active","ping":52},{"user_id":155,"name":"Paul Hollywood","steam_id":76561198060024585,"connected_time":5317000000000,"state":"active","ping":44},{"user_id":193,"name":"ibus","steam_id":76561199026701614,"connected_time":751000000000,"state":"active","ping":59},{"user_id":184,"name":"Meat","steam_id":76561198021812511,"connected_time":1781000000000,"state":"active","ping":54},{"user_id":145,"name":"Bill Nye","steam_id":76561198312898168,"connected_time":5951000000000,"state":"active","ping":92},{"user_id":167,"name":"horrid webbon ᘛ⁐̤ᕐᐷ","steam_id":76561198061998379,"connected_time":3493000000000,"state":"active","ping":48},{"user_id":179,"name":"Snowy","steam_id":76561198255720598,"connected_time":2296000000000,"state":"active","ping":50}]},{"server_id":123,"name":"Uncletopia | Sydney | 2 | All Maps","name_short":"syd-2","host":"syd-1.au.uncletopia.com","port":27025,"enabled":true,"region":"au","cc":"au","latitude":-33.865143,"longitude":151.2099,"reserved":0,"last_update":"0001-01-01T00:00:00Z","name_a2s":"Uncletopia | Sydney | 2 | All Maps","protocol":17,"map":"koth_viaduct","folder":"tf","game":"Team Fortress","app_id":440,"player_count":1,"max_players":24,"Bots":0,"server_type":"Dedicated","server_os":"Linux","password":true,"vac":true,"version":"7961495","steam_id":85568392924470002,"keywords":["cp","nocrits","nodmgspread","uncletopia"],"game_id":440,"stv_port":27026,"stv_name":"Uncletopia | Sydney | 2 | All Maps | STV","players":[{"user_id":15,"name":"N0thing_but_pure_lag_and_luck","steam_id":76561199002102933,"connected_time":89000000000,"state":"active","ping":108}]},{"server_id":395,"name":"Uncletopia | Sydney | 3 | All Maps","name_short":"syd-3","host":"syd-1.au.uncletopia.com","port":27035,"enabled":true,"region":"au","cc":"au","latitude":-33.865143,"longitude":151.2099,"reserved":0,"last_update":"0001-01-01T00:00:00Z","name_a2s":"Uncletopia | Sydney | 3 | All Maps","protocol":17,"map":"koth_lazarus","folder":"tf","game":"Team Fortress","app_id":440,"player_count":24,"max_players":24,"Bots":0,"server_type":"Dedicated","server_os":"Linux","password":true,"vac":true,"version":"7961495","steam_id":85568392925194467,"keywords":["cp","nocrits","nodmgspread","uncletopia"],"game_id":440,"stv_port":27036,"stv_name":"Uncletopia | Sydney | 3 | All Maps | STV","players":[{"user_id":273,"name":"Ricochet","steam_id":76561198018889278,"connected_time":115000000000,"state":"active","ping":59},{"user_id":246,"name":"ALTOMBO fez","steam_id":76561198432133383,"connected_time":1483000000000,"state":"active","ping":103},{"user_id":268,"name":"Capi","steam_id":76561198086011812,"connected_time":333000000000,"state":"active","ping":38},{"user_id":270,"name":"Storms","steam_id":76561199058704739,"connected_time":287000000000,"state":"active","ping":80},{"user_id":259,"name":"michael","steam_id":76561198052848358,"connected_time":814000000000,"state":"active","ping":66},{"user_id":257,"name":"giant skeleton","steam_id":76561198951165749,"connected_time":1251000000000,"state":"active","ping":47},{"user_id":269,"name":"the big cheeze | busy","steam_id":76561198117597416,"connected_time":329000000000,"state":"active","ping":45},{"user_id":258,"name":"e_o","steam_id":76561198040405520,"connected_time":1068000000000,"state":"active","ping":58},{"user_id":237,"name":"SECT","steam_id":76561199122367855,"connected_time":1919000000000,"state":"active","ping":154},{"user_id":214,"name":"york","steam_id":76561197996817216,"connected_time":2694000000000,"state":"active","ping":37},{"user_id":267,"name":"TheSnipenRaptor","steam_id":76561198205917311,"connected_time":360000000000,"state":"active","ping":87},{"user_id":199,"name":"PhD in Shoe Shining","steam_id":76561198972095766,"connected_time":4084000000000,"state":"active","ping":42},{"user_id":228,"name":"Morc","steam_id":76561198244778782,"connected_time":2269000000000,"state":"active","ping":44},{"user_id":262,"name":"whiteshaq","steam_id":76561198131988811,"connected_time":640000000000,"state":"active","ping":40},{"user_id":264,"name":"Sover blw.tf","steam_id":76561198136347837,"connected_time":386000000000,"state":"active","ping":131},{"user_id":223,"name":"Hungry for thumbtacks","steam_id":76561198059129270,"connected_time":2349000000000,"state":"active","ping":70},{"user_id":255,"name":"tim88435","steam_id":76561198089653987,"connected_time":1308000000000,"state":"active","ping":52},{"user_id":256,"name":"Empolé","steam_id":76561198363939040,"connected_time":1301000000000,"state":"active","ping":76},{"user_id":271,"name":"Okie Dokie","steam_id":76561198125237921,"connected_time":213000000000,"state":"active","ping":43},{"user_id":272,"name":"AAAAaaaAAAAAA!!!!!!!","steam_id":76561199174449723,"connected_time":199000000000,"state":"active","ping":147},{"user_id":274,"name":"asdf","steam_id":76561198062324724,"connected_time":17000000000,"state":"active","ping":59},{"user_id":239,"name":"dumbvent","steam_id":76561198190062810,"connected_time":1814000000000,"state":"active","ping":63},{"user_id":240,"name":"mada","steam_id":76561199436707447,"connected_time":1794000000000,"state":"active","ping":54},{"user_id":250,"name":"little raw meat boy","steam_id":76561199248254676,"connected_time":1419000000000,"state":"active","ping":60}]},{"server_id":396,"name":"Uncletopia | Sydney | 4 | All Maps","name_short":"syd-4","host":"syd-1.au.uncletopia.com","port":27045,"enabled":true,"region":"au","cc":"au","latitude":-33.865143,"longitude":151.2099,"reserved":0,"last_update":"0001-01-01T00:00:00Z","name_a2s":"Uncletopia | Sydney | 4 | All Maps","protocol":17,"map":"koth_cascade","folder":"tf","game":"Team Fortress","app_id":440,"player_count":0,"max_players":24,"Bots":0,"server_type":"Dedicated","server_os":"Linux","password":true,"vac":true,"version":"7961495","steam_id":85568392925397958,"keywords":["cp","nocrits","nodmgspread","uncletopia"],"game_id":440,"stv_port":27046,"stv_name":"Uncletopia | Sydney | 4 | All Maps | STV","players":null},{"server_id":58,"name":"Uncletopia | Sydney | 5 | Stopwatch Beta","name_short":"syd-5","host":"syd-1.au.uncletopia.com","port":27055,"enabled":true,"region":"au","cc":"au","latitude":-33.865143,"longitude":151.2099,"reserved":0,"last_update":"0001-01-01T00:00:00Z","name_a2s":"Uncletopia | Sydney | 5 | Stopwatch Beta","protocol":17,"map":"koth_viaduct","folder":"tf","game":"Team Fortress","app_id":440,"player_count":0,"max_players":24,"Bots":0,"server_type":"Dedicated","server_os":"Linux","password":true,"vac":true,"version":"7961495","steam_id":85568392925397959,"keywords":["cp","nocrits","nodmgspread","uncletopia"],"game_id":440,"stv_port":27056,"stv_name":"Uncletopia | Sydney | 5 | Stopwatch Beta | STV","players":null},{"server_id":59,"name":"Uncletopia | Sydney | 6 | Community","name_short":"syd-6","host":"syd-1.au.uncletopia.com","port":27065,"enabled":true,"region":"au","cc":"au","latitude":-33.865143,"longitude":151.2099,"reserved":0,"last_update":"0001-01-01T00:00:00Z","name_a2s":"Uncletopia | Sydney | 6 | Community","protocol":17,"map":"workshop/koth_ramjam_rc1.ugc459778887","folder":"tf","game":"Team Fortress","app_id":440,"player_count":0,"max_players":24,"Bots":0,"server_type":"Dedicated","server_os":"Linux","password":true,"vac":true,"version":"7961495","steam_id":85568392925397960,"keywords":["cp","nocrits","nodmgspread","uncletopia"],"game_id":440,"stv_port":27066,"stv_name":"Uncletopia | Sydney | 6 | Community | STV","players":null},{"server_id":49,"name":"Uncletopia | Warsaw | 1 | All Maps","name_short":"waw-1","host":"waw-1.pl.uncletopia.com","port":27015,"enabled":true,"region":"eu","cc":"pl","latitude":52.2297,"longitude":21.017532,"reserved":0,"last_update":"0001-01-01T00:00:00Z","name_a2s":"","protocol":0,"map":"","folder":"","game":"","app_id":0,"player_count":0,"max_players":0,"Bots":0,"server_type":"","server_os":"","password":false,"vac":false,"version":"","steam_id":0,"keywords":null,"game_id":0,"stv_port":0,"stv_name":"","players":null},{"server_id":50,"name":"Uncletopia | Warsaw | 2 | All Maps","name_short":"waw-2","host":"waw-1.pl.uncletopia.com","port":27025,"enabled":true,"region":"eu","cc":"pl","latitude":52.2297,"longitude":21.017532,"reserved":0,"last_update":"0001-01-01T00:00:00Z","name_a2s":"Uncletopia | Warsaw | 2 | All Maps","protocol":17,"map":"cp_mountainlab","folder":"tf","game":"Team Fortress","app_id":440,"player_count":0,"max_players":24,"Bots":0,"server_type":"Dedicated","server_os":"Linux","password":true,"vac":true,"version":"7961495","steam_id":85568392925397851,"keywords":["cp","nocrits","nodmgspread","uncletopia"],"game_id":440,"stv_port":27026,"stv_name":"Uncletopia | Warsaw | 2 | All Maps | STV","players":null},{"server_id":51,"name":"Uncletopia | Warsaw | 3 | All Maps","name_short":"waw-3","host":"waw-1.pl.uncletopia.com","port":27035,"enabled":true,"region":"eu","cc":"pl","latitude":52.2297,"longitude":21.017532,"reserved":0,"last_update":"0001-01-01T00:00:00Z","name_a2s":"Uncletopia | Warsaw | 3 | All Maps","protocol":17,"map":"pl_barnblitz","folder":"tf","game":"Team Fortress","app_id":440,"player_count":0,"max_players":24,"Bots":0,"server_type":"Dedicated","server_os":"Linux","password":true,"vac":true,"version":"7961495","steam_id":85568392925397852,"keywords":["nocrits","nodmgspread","payload","uncletopia"],"game_id":440,"stv_port":27036,"stv_name":"Uncletopia | Warsaw | 3 | All Maps | STV","players":null},{"server_id":52,"name":"Uncletopia | Warsaw | 4 | All Maps","name_short":"waw-4","host":"waw-1.pl.uncletopia.com","port":27045,"enabled":true,"region":"eu","cc":"pl","latitude":52.2297,"longitude":21.017532,"reserved":0,"last_update":"0001-01-01T00:00:00Z","name_a2s":"Uncletopia | Warsaw | 4 | All Maps","protocol":17,"map":"cp_dustbowl","folder":"tf","game":"Team Fortress","app_id":440,"player_count":0,"max_players":24,"Bots":0,"server_type":"Dedicated","server_os":"Linux","password":true,"vac":true,"version":"7961495","steam_id":85568392925397853,"keywords":["cp","nocrits","nodmgspread","uncletopia"],"game_id":440,"stv_port":27046,"stv_name":"Uncletopia | Warsaw | 4 | All Maps | STV","players":null},{"server_id":53,"name":"Uncletopia | Warsaw | 5 | Stopwatch Beta","name_short":"waw-5","host":"waw-1.pl.uncletopia.com","port":27055,"enabled":true,"region":"eu","cc":"pl","latitude":52.2297,"longitude":21.017532,"reserved":0,"last_update":"0001-01-01T00:00:00Z","name_a2s":"Uncletopia | Warsaw | 5 | Stopwatch Beta","protocol":17,"map":"pl_snowycoast","folder":"tf","game":"Team Fortress","app_id":440,"player_count":0,"max_players":24,"Bots":0,"server_type":"Dedicated","server_os":"Linux","password":true,"vac":true,"version":"7961495","steam_id":85568392925397854,"keywords":["nocrits","nodmgspread","payload","uncletopia"],"game_id":440,"stv_port":27056,"stv_name":"Uncletopia | Warsaw | 5 | Stopwatch Beta | STV","players":null},{"server_id":54,"name":"Uncletopia | Warsaw | 6 | Community","name_short":"waw-6","host":"waw-1.pl.uncletopia.com","port":27065,"enabled":true,"region":"eu","cc":"pl","latitude":52.2297,"longitude":21.017532,"reserved":0,"last_update":"0001-01-01T00:00:00Z","name_a2s":"Uncletopia | Warsaw | 6 | Community","protocol":17,"map":"pl_borneo","folder":"tf","game":"Team Fortress","app_id":440,"player_count":0,"max_players":24,"Bots":0,"server_type":"Dedicated","server_os":"Linux","password":true,"vac":true,"version":"7961495","steam_id":85568392925397856,"keywords":["nocrits","nodmgspread","payload","uncletopia"],"game_id":440,"stv_port":27066,"stv_name":"Uncletopia | Warsaw | 6 | Community | STV","players":null}]}