{"status":true,"message":"","result":[{"server_id":2,"name":"Uncletopia | Chicago | 1 | All Maps","name_short":"chi-1","host":"chi-1.us.uncletopia.com","port":27015,"enabled":true,"region":"us-central","cc":"us","latitude":41.881832,"longitude":-87.62318,"reserved":0,"last_update":"0001-01-01T00:00:00Z","name_a2s":"Uncletopia | Chicago | 1 | All Maps","protocol":17,"map":"pl_barnblitz","folder":"tf","game":"Team Fortress","app_id":440,"player_count":24,"max_players":24,"Bots":0,"server_type":"Dedicated","server_os":"Linux","password":true,"vac":true,"version":"7961495","steam_id":85568392924469984,"keywords":["nocrits","nodmgspread","payload","uncletopia"],"game_id":440,"stv_port":27016,"stv_name":"Uncletopia | Chicago | 1 | All Maps | STV","players":[{"user_id":496,"name":"nba youngboy","steam_id":76561198149967340,"connected_time":1628000000000,"state":"active","ping":86},{"user_id":499,"name":"Wizard Raccoon","steam_id":76561198072562591,"connected_time":1622000000000,"state":"active","ping":85},{"user_id":494,"name":"kentrell jr.","steam_id":76561198136642793,"connected_time":2051000000000,"state":"active","ping":81},{"user_id":468,"name":"AlcoholicDad454","steam_id":76561198157414556,"connected_time":4696000000000,"state":"active","ping":80},{"user_id":469,"name":"subdromeda","steam_id":76561198884351860,"connected_time":4585000000000,"state":"active","ping":69},{"user_id":491,"name":"Ikevis","steam_id":76561197990274063,"connected_time":2705000000000,"state":"active","ping":68},{"user_id":502,"name":"ATastyDonut","steam_id":76561198984819894,"connected_time":1258000000000,"state":"active","ping":66},{"user_id":510,"name":"Joker","steam_id":76561198341537452,"connected_time":457000000000,"state":"active","ping":76},{"user_id":501,"name":"filter in the backwoods","steam_id":76561198136146032,"connected_time":1283000000000,"state":"active","ping":53},{"user_id":506,"name":"Gibby","steam_id":76561199336569123,"connected_time":828000000000,"state":"active","ping":114},{"user_id":388,"name":"Praise_to_the_Flashlight!","steam_id":76561199001728789,"connected_time":13572000000000,"state":"active","ping":53},{"user_id":509,"name":"Zoot","steam_id":76561198121944243,"connected_time":553000000000,"state":"active","ping":83},{"user_id":487,"name":"leesh","steam_id":76561198079603938,"connected_time":2754000000000,"state":"active","ping":64},{"user_id":504,"name":"loser","steam_id":76561198259380127,"connected_time":843000000000,"state":"active","ping":60},{"user_id":511,"name":"Mally","steam_id":76561198025013765,"connected_time":290000000000,"state":"active","ping":88},{"user_id":481,"name":"sir_shroomer","steam_id":76561199073946769,"connected_time":2808000000000,"state":"active","ping":117},{"user_id":512,"name":"playguy carter","steam_id":76561198080679337,"connected_time":239000000000,"state":"active","ping":48},{"user_id":508,"name":"Heathcliff","steam_id":76561198044288534,"connected_time":800000000000,"state":"active","ping":91},{"user_id":489,"name":"A Future US Army Soldier","steam_id":76561198008263869,"connected_time":2740000000000,"state":"active","ping":74},{"user_id":490,"name":"Kirby","steam_id":76561199161858008,"connected_time":2731000000000,"state":"active","ping":81},{"user_id":492,"name":"(TPT) Ghost","steam_id":76561198123262873,"connected_time":2698000000000,"state":"active","ping":116},{"user_id":439,"name":"unc havin a fent battle","steam_id":76561198144766439,"connected_time":8765000000000,"state":"active","ping":42},{"user_id":497,"name":"Mail Delivery","steam_id":76561198290046318,"connected_time":1628000000000,"state":"active","ping":70},{"user_id":498,"name":"ronny","steam_id":76561197994180230,"connected_time":1628000000000,"state":"active","ping":66}]},{"server_id":106,"name":"Uncletopia | Chicago | 2 | All Maps","name_short":"chi-2","host":"chi-1.us.uncletopia.com","port":27025,"enabled":true,"region":"us-central","cc":"us","latitude":41.881832,"longitude":-87.62318,"reserved":0,"last_update":"0001-01-01T00:00:00Z","name_a2s":"Uncletopia | Chicago | 2 | All Maps","protocol":17,"map":"pl_snowycoast","folder":"tf","game":"Team Fortress","app_id":440,"player_count":24,"max_players":24,"Bots":0,"server_type":"Dedicated","server_os":"Linux","password":true,"vac":true,"version":"7961495","steam_id":85568392924469985,"keywords":["nocrits","nodmgspread","payload","uncletopia"],"game_id":440,"stv_port":27026,"stv_name":"Uncletopia | Chicago | 2 | All Maps | STV","players":[{"user_id":658,"name":"Owixan","steam_id":76561198074990070,"connected_time":3362000000000,"state":"active","ping":33},{"user_id":692,"name":"totoro","steam_id":76561198210420871,"connected_time":1552000000000,"state":"active","ping":44},{"user_id":579,"name":"Apetometrist","steam_id":76561198045391635,"connected_time":12400000000000,"state":"active","ping":62},{"user_id":688,"name":"tiananmensquare1989","steam_id":76561199076837870,"connected_time":1617000000000,"state":"active","ping":84},{"user_id":659,"name":"^w^","steam_id":76561198400058665,"connected_time":3362000000000,"state":"active","ping":71},{"user_id":689,"name":"incredirocks","steam_id":76561198061079993,"connected_time":1613000000000,"state":"active","ping":46},{"user_id":690,"name":"stormfoam","steam_id":76561198936871387,"connected_time":1612000000000,"state":"active","ping":61},{"user_id":684,"name":"Thingy","steam_id":76561198140161202,"connected_time":1880000000000,"state":"active","ping":75},{"user_id":646,"name":"Giggles™","steam_id":76561198058708019,"connected_time":5185000000000,"state":"active","ping":57},{"user_id":651,"name":"aiming with drawing tablet","steam_id":76561198397662124,"connected_time":4794000000000,"state":"active","ping":89},{"user_id":671,"name":"agentdaffy007","steam_id":76561198000283251,"connected_time":3046000000000,"state":"active","ping":84},{"user_id":683,"name":"DRUNK KAYLA","steam_id":76561198044916925,"connected_time":2047000000000,"state":"active","ping":68},{"user_id":639,"name":"Alecto","steam_id":76561198042476864,"connected_time":6442000000000,"state":"active","ping":45},{"user_id":655,"name":"Toottoot","steam_id":76561197992404836,"connected_time":3376000000000,"state":"active","ping":49},{"user_id":687,"name":"vynn","steam_id":76561198017218011,"connected_time":1644000000000,"state":"active","ping":51},{"user_id":695,"name":"goopgrabber","steam_id":76561199029951083,"connected_time":1055000000000,"state":"active","ping":90},{"user_id":644,"name":"[DATS➡] Sugar Meowth","steam_id":76561197995251793,"connected_time":6095000000000,"state":"active","ping":100},{"user_id":641,"name":"kite","steam_id":76561198346516392,"connected_time":6316000000000,"state":"active","ping":68},{"user_id":696,"name":"shalankawanak","steam_id":76561198987719376,"connected_time":970000000000,"state":"active","ping":40},{"user_id":685,"name":"a table","steam_id":76561198158461279,"connected_time":1697000000000,"state":"active","ping":67},{"user_id":680,"name":"SaltyManok","steam_id":76561198160082948,"connected_time":2288000000000,"state":"active","ping":53},{"user_id":673,"name":"scoshar","steam_id":76561198056769956,"connected_time":2416000000000,"state":"active","ping":120},{"user_id":681,"name":"Margo_Rae","steam_id":76561198035046430,"connected_time":2264000000000,"state":"active","ping":85},{"user_id":676,"name":"The Noob Sire","steam_id":76561198119219754,"connected_time":2387000000000,"state":"active","ping":98}]},{"server_id":402,"name":"Uncletopia | Chicago | 3 | All Maps","name_short":"chi-3","host":"chi-1.us.uncletopia.com","port":27035,"enabled":true,"region":"us-central","cc":"us","latitude":41.881832,"longitude":-87.62318,"reserved":0,"last_update":"0001-01-01T00:00:00Z","name_a2s":"Uncletopia | Chicago | 3 | All Maps","protocol":17,"map":"pl_borneo","folder":"tf","game":"Team Fortress","app_id":440,"player_count":24,"max_players":24,"Bots":0,"server_type":"Dedicated","server_os":"Linux","password":true,"vac":true,"version":"7961495","steam_id":85568392924515191,"keywords":["nocrits","nodmgspread","payload","uncletopia"],"game_id":440,"stv_port":27036,"stv_name":"Uncletopia | Chicago | 3 | All Maps | STV","players":[{"user_id":515,"name":"ispongebobz11","steam_id":76561198862843572,"connected_time":584000000000,"state":"active","ping":71},{"user_id":514,"name":"Saldaña","steam_id":76561198214473001,"connected_time":656000000000,"state":"active","ping":87},{"user_id":499,"name":"The One True Luke","steam_id":76561198180891187,"connected_time":1270000000000,"state":"active","ping":68},{"user_id":458,"name":"msay","steam_id":76561198170888029,"connected_time":5598000000000,"state":"active","ping":101},{"user_id":509,"name":"-{2 wycked}- 2DELUXXXE","steam_id":76561198074678273,"connected_time":889000000000,"state":"active","ping":56},{"user_id":443,"name":"6t26j","steam_id":76561198278282836,"connected_time":6736000000000,"state":"active","ping":45},{"user_id":512,"name":"caption cool","steam_id":76561197990612056,"connected_time":694000000000,"state":"active","ping":50},{"user_id":449,"name":"Talented","steam_id":76561198800259660,"connected_time":6171000000000,"state":"active","ping":67},{"user_id":518,"name":"*","steam_id":76561198173047169,"connected_time":80000000000,"state":"active","ping":59},{"user_id":491,"name":"plush shark","steam_id":76561199104586170,"connected_time":1733000000000,"state":"active","ping":75},{"user_id":511,"name":"Milky Luggage","steam_id":76561198433728893,"connected_time":711000000000,"state":"active","ping":60},{"user_id":495,"name":"westward (was/were)","steam_id":76561198805512350,"connected_time":1494000000000,"state":"active","ping":117},{"user_id":460,"name":"Keymaster","steam_id":76561198881514228,"connected_time":5595000000000,"state":"active","ping":83},{"user_id":479,"name":"kaputon","steam_id":76561198146299782,"connected_time":3406000000000,"state":"active","ping":80},{"user_id":516,"name":"Nodspine","steam_id":76561198253579994,"connected_time":524000000000,"state":"active","ping":129},{"user_id":483,"name":"Spruce","steam_id":76561198081684676,"connected_time":3171000000000,"state":"active","ping":135},{"user_id":465,"name":"2cats_2curious","steam_id":76561198027143149,"connected_time":5312000000000,"state":"active","ping":42},{"user_id":492,"name":"The Sydney Sleeper Itself","steam_id":76561198180251763,"connected_time":1729000000000,"state":"active","ping":74},{"user_id":501,"name":"Rhutebeer","steam_id":76561198018302761,"connected_time":1252000000000,"state":"active","ping":103},{"user_id":434,"name":"rum","steam_id":76561198465334150,"connected_time":7729000000000,"state":"active","ping":95},{"user_id":503,"name":"seldom","steam_id":76561198166193756,"connected_time":1113000000000,"state":"active","ping":70},{"user_id":517,"name":"aversa","steam_id":76561198840460101,"connected_time":259000000000,"state":"active","ping":67},{"user_id":493,"name":"Brett Favre","steam_id":76561198202195792,"connected_time":1692000000000,"state":"active","ping":59},{"user_id":510,"name":"YORCHspartan117","steam_id":76561198272955205,"connected_time":729000000000,"state":"active","ping":90}]},{"server_id":403,"name":"Uncletopia | Chicago | 4 | All Maps","name_short":"chi-4","host":"chi-1.us.uncletopia.com","port":27045,"enabled":true,"region":"us-central","cc":"us","latitude":41.881832,"longitude":-87.62318,"reserved":0,"last_update":"0001-01-01T00:00:00Z","name_a2s":"Uncletopia | Chicago | 4 | All Maps","protocol":17,"map":"pl_borneo","folder":"tf","game":"Team Fortress","app_id":440,"player_count":24,"max_players":24,"Bots":0,"server_type":"Dedicated","server_os":"Linux","password":true,"vac":true,"version":"7961495","steam_id":85568392924515193,"keywords":["nocrits","nodmgspread","payload","uncletopia"],"game_id":440,"stv_port":27046,"stv_name":"Uncletopia | Chicago | 4 | All Maps | STV","players":[{"user_id":861,"name":"igotmail","steam_id":76561198070631899,"connected_time":6864000000000,"state":"active","ping":64},{"user_id":908,"name":"pim","steam_id":76561198095163441,"connected_time":1138000000000,"state":"active","ping":67},{"user_id":890,"name":"jaundice","steam_id":76561198231965100,"connected_time":3572000000000,"state":"active","ping":45},{"user_id":911,"name":"ᴯᴱ Mildstrife","steam_id":76561198000080715,"connected_time":886000000000,"state":"active","ping":65},{"user_id":901,"name":"ʕ•ᴥ•ʔ the bear","steam_id":76561197989591976,"connected_time":1886000000000,"state":"active","ping":77},{"user_id":842,"name":"Chestnnut","steam_id":76561198077782729,"connected_time":7606000000000,"state":"active","ping":73},{"user_id":892,"name":"spartanman284","steam_id":76561198952947651,"connected_time":3182000000000,"state":"active","ping":79},{"user_id":875,"name":"Stranger in a Strange Land","steam_id":76561198049843671,"connected_time":5382000000000,"state":"active","ping":62},{"user_id":843,"name":"Lucon","steam_id":76561198067147724,"connected_time":7584000000000,"state":"active","ping":60},{"user_id":904,"name":"Doc Brown","steam_id":76561198015030118,"connected_time":1196000000000,"state":"active","ping":74},{"user_id":912,"name":"Treeckogeek","steam_id":76561198453328078,"connected_time":751000000000,"state":"active","ping":59},{"user_id":883,"name":"Kagerou123","steam_id":76561198044277460,"connected_time":4492000000000,"state":"active","ping":83},{"user_id":914,"name":"Skull emoji","steam_id":76561199387783793,"connected_time":721000000000,"state":"active","ping":105},{"user_id":918,"name":"Flubby","steam_id":76561198069171252,"connected_time":557000000000,"state":"active","ping":60},{"user_id":887,"name":"Gh0w0st","steam_id":76561199471261226,"connected_time":3822000000000,"state":"active","ping":81},{"user_id":866,"name":"Swash","steam_id":76561197969421355,"connected_time":6702000000000,"state":"active","ping":53},{"user_id":863,"name":"hej","steam_id":76561197996366940,"connected_time":6854000000000,"state":"active","ping":60},{"user_id":844,"name":"Eitior","steam_id":76561198082189916,"connected_time":7579000000000,"state":"active","ping":80},{"user_id":916,"name":"A Can of AriZona Green Tea","steam_id":76561198062481133,"connected_time":644000000000,"state":"active","ping":81},{"user_id":868,"name":"MedRed™ #IATAH","steam_id":76561198002962970,"connected_time":6602000000000,"state":"active","ping":96},{"user_id":915,"name":"Pochita","steam_id":76561198328977973,"connected_time":719000000000,"state":"active","ping":116},{"user_id":910,"name":"queen \"RIPPER\" elizabeth I","steam_id":76561198025681784,"connected_time":941000000000,"state":"active","ping":69},{"user_id":913,"name":"I shovel mayonnaise in mouth","steam_id":76561199123118241,"connected_time":738000000000,"state":"active","ping":110},{"user_id":882,"name":"Dr Oshawott","steam_id":76561198042021629,"connected_time":4633000000000,"state":"active","ping":71}]},{"server_id":36,"name":"Uncletopia | Chicago | 5 | All Maps","name_short":"chi-5","host":"chi-2.us.uncletopia.com","port":27015,"enabled":true,"region":"us-central","cc":"us","latitude":41.881832,"longitude":-87.62318,"reserved":0,"last_update":"0001-01-01T00:00:00Z","name_a2s":"Uncletopia | Chicago | 5 | All Maps","protocol":17,"map":"pl_snowycoast","folder":"tf","game":"Team Fortress","app_id":440,"player_count":24,"max_players":24,"Bots":0,"server_type":"Dedicated","server_os":"Linux","password":true,"vac":true,"version":"7961495","steam_id":85568392924866362,"keywords":["nocrits","nodmgspread","payload","uncletopia"],"game_id":440,"stv_port":27016,"stv_name":"Uncletopia | Chicago | 5 | All Maps | STV","players":[{"user_id":399,"name":"KOI BOY","steam_id":76561198402739250,"connected_time":4570000000000,"state":"active","ping":76},{"user_id":423,"name":"ApertureCity","steam_id":76561198004153607,"connected_time":2438000000000,"state":"active","ping":84},{"user_id":403,"name":"raya","steam_id":76561198051504581,"connected_time":3878000000000,"state":"active","ping":75},{"user_id":387,"name":"SpockASD","steam_id":76561198307516731,"connected_time":6015000000000,"state":"active","ping":85},{"user_id":438,"name":"General Sherman","steam_id":76561198044769376,"connected_time":811000000000,"state":"active","ping":80},{"user_id":429,"name":"gendermutt","steam_id":76561198152857317,"connected_time":2212000000000,"state":"active","ping":54},{"user_id":434,"name":"Dzhoshua","steam_id":76561198071915251,"connected_time":1194000000000,"state":"active","ping":70},{"user_id":439,"name":"Superman123389","steam_id":76561198267472539,"connected_time":423000000000,"state":"active","ping":86},{"user_id":430,"name":"lukamine","steam_id":76561198166827208,"connected_time":2158000000000,"state":"active","ping":105},{"user_id":386,"name":"No Chance of Pearly Gates","steam_id":76561198042570322,"connected_time":6027000000000,"state":"active","ping":57},{"user_id":388,"name":"sooty","steam_id":76561198830243167,"connected_time":6011000000000,"state":"active","ping":67},{"user_id":440,"name":"mytoyo2k2","steam_id":76561199486326945,"connected_time":388000000000,"state":"active","ping":76},{"user_id":424,"name":"Bee's","steam_id":76561198041888432,"connected_time":2425000000000,"state":"active","ping":87},{"user_id":431,"name":"flanseey","steam_id":76561198342593905,"connected_time":1312000000000,"state":"active","ping":96},{"user_id":396,"name":"Makina","steam_id":76561198057475567,"connected_time":5213000000000,"state":"active","ping":77},{"user_id":441,"name":"Observer","steam_id":76561198326814067,"connected_time":381000000000,"state":"active","ping":70},{"user_id":444,"name":"chiswola","steam_id":76561198046920142,"connected_time":306000000000,"state":"active","ping":86},{"user_id":401,"name":"tingle shitmouth","steam_id":76561198055109192,"connected_time":4155000000000,"state":"active","ping":62},{"user_id":436,"name":"22moo","steam_id":76561199075331630,"connected_time":1124000000000,"state":"active","ping":87},{"user_id":398,"name":"viagra addict","steam_id":76561198017705248,"connected_time":4668000000000,"state":"active","ping":45},{"user_id":427,"name":"CherriKat","steam_id":76561198821297512,"connected_time":2297000000000,"state":"active","ping":104},{"user_id":416,"name":"Za Zombie","steam_id":76561198055545262,"connected_time":2914000000000,"state":"active","ping":74},{"user_id":342,"name":"Pizza","steam_id":76561198118748364,"connected_time":10321000000000,"state":"active","ping":81},{"user_id":443,"name":"A Rope, for big pits","steam_id":76561198068044782,"connected_time":360000000000,"state":"active","ping":71}]},{"server_id":37,"name":"Uncletopia | Chicago | 6 | All Maps","name_short":"chi-6","host":"chi-2.us.uncletopia.com","port":27025,"enabled":true,"region":"us-central","cc":"us","latitude":41.881832,"longitude":-87.62318,"reserved":0,"last_update":"0001-01-01T00:00:00Z","name_a2s":"Uncletopia | Chicago | 6 | All Maps","protocol":17,"map":"pl_frontier_final","folder":"tf","game":"Team Fortress","app_id":440,"player_count":24,"max_players":24,"Bots":0,"server_type":"Dedicated","server_os":"Linux","password":true,"vac":true,"version":"7961495","steam_id":85568392924866363,"keywords":["nocrits","nodmgspread","payload","uncletopia"],"game_id":440,"stv_port":27026,"stv_name":"Uncletopia | Chicago | 6 | All Maps | STV","players":[{"user_id":577,"name":"Filet Mignon?","steam_id":76561198131057631,"connected_time":128000000000,"state":"active","ping":58},{"user_id":530,"name":"Lumberjane37 (She/Her)","steam_id":76561198014841793,"connected_time":3498000000000,"state":"active","ping":111},{"user_id":576,"name":"dahperson","steam_id":76561198067207467,"connected_time":266000000000,"state":"active","ping":57},{"user_id":575,"name":"ImmortalProphet","steam_id":76561198012352477,"connected_time":679000000000,"state":"active","ping":44},{"user_id":555,"name":"Masonicle","steam_id":76561198192327657,"connected_time":2720000000000,"state":"active","ping":74},{"user_id":561,"name":"Captain Gus","steam_id":76561198348265490,"connected_time":2355000000000,"state":"active","ping":101},{"user_id":559,"name":"Dog","steam_id":76561198450992953,"connected_time":2374000000000,"state":"active","ping":110},{"user_id":545,"name":"Weary","steam_id":76561198145767546,"connected_time":3292000000000,"state":"active","ping":62},{"user_id":540,"name":"A Mogus","steam_id":76561198097998607,"connected_time":3403000000000,"state":"active","ping":49},{"user_id":512,"name":":)","steam_id":76561198093921290,"connected_time":5527000000000,"state":"active","ping":49},{"user_id":484,"name":"SLaPPy- oNaSiS","steam_id":76561198009286862,"connected_time":7324000000000,"state":"active","ping":70},{"user_id":528,"name":"bojack from the show bojack hor","steam_id":76561198053006712,"connected_time":3504000000000,"state":"active","ping":60},{"user_id":553,"name":"workin for snapple","steam_id":76561198013732450,"connected_time":2851000000000,"state":"active","ping":55},{"user_id":546,"name":"canofspaghettios","steam_id":76561198124204246,"connected_time":3288000000000,"state":"active","ping":60},{"user_id":567,"name":"Weiserbot","steam_id":76561198882389970,"connected_time":1378000000000,"state":"active","ping":93},{"user_id":475,"name":"sansa musa","steam_id":76561198163723555,"connected_time":7761000000000,"state":"active","ping":66},{"user_id":552,"name":"jolo","steam_id":76561198042831480,"connected_time":3030000000000,"state":"active","ping":69},{"user_id":569,"name":"OffKey","steam_id":76561198017660927,"connected_time":1004000000000,"state":"active","ping":46},{"user_id":573,"name":"Your Alcoholic Dad","steam_id":76561198214494745,"connected_time":891000000000,"state":"active","ping":57},{"user_id":574,"name":"Pattar","steam_id":76561198146276146,"connected_time":760000000000,"state":"active","ping":63},{"user_id":536,"name":"Dr. Dick","steam_id":76561198138011922,"connected_time":3471000000000,"state":"active","ping":80},{"user_id":537,"name":"Balerion the Black Dread","steam_id":76561198003728369,"connected_time":3466000000000,"state":"active","ping":64},{"user_id":554,"name":"FrostStorm","steam_id":76561198142685151,"connected_time":2792000000000,"state":"active","ping":69},{"user_id":570,"name":"Znulls","steam_id":76561198400285977,"connected_time":935000000000,"state":"active","ping":66}]},{"server_id":38,"name":"Uncletopia | Chicago | 7 | Stopwatch Beta","name_short":"chi-7","host":"chi-2.us.uncletopia.com","port":27035,"enabled":true,"region":"us-central","cc":"us","latitude":41.881832,"longitude":-87.62318,"reserved":0,"last_update":"0001-01-01T00:00:00Z","name_a2s":"Uncletopia | Chicago | 7 | Stopwatch Beta","protocol":17,"map":"workshop/koth_bagel_rc6.ugc2514036946","folder":"tf","game":"Team Fortress","app_id":440,"player_count":23,"max_players":24,"Bots":0,"server_type":"Dedicated","server_os":"Linux","password":true,"vac":true,"version":"7961495","steam_id":85568392924866364,"keywords":["cp","nocrits","nodmgspread","uncletopia"],"game_id":440,"stv_port":27036,"stv_name":"Uncletopia | Chicago | 7 | Stopwatch Beta | STV","players":[{"user_id":298,"name":"Lv4 Gnoll Magus","steam_id":76561198042068995,"connected_time":139000000000,"state":"active","ping":80},{"user_id":299,"name":"kite man","steam_id":76561198156336213,"connected_time":121000000000,"state":"active","ping":83},{"user_id":220,"name":"-=Bits=-Dinkleberg","steam_id":76561198080367616,"connected_time":4043000000000,"state":"active","ping":68},{"user_id":259,"name":"Slimeboy Enthusiast","steam_id":76561199200969139,"connected_time":2534000000000,"state":"active","ping":579},{"user_id":300,"name":"Punkin","steam_id":76561198334301755,"connected_time":80000000000,"state":"active","ping":68},{"user_id":291,"name":"Belloq","steam_id":76561198060279052,"connected_time":833000000000,"state":"active","ping":46},{"user_id":286,"name":"Hindmost","steam_id":76561199081837220,"connected_time":1211000000000,"state":"active","ping":84},{"user_id":263,"name":"Monsrox","steam_id":76561198253732619,"connected_time":2223000000000,"state":"active","ping":86},{"user_id":264,"name":"Infinitytacos","steam_id":76561198884260211,"connected_time":2207000000000,"state":"active","ping":49},{"user_id":287,"name":"★RIVI★","steam_id":76561198086635699,"connected_time":1208000000000,"state":"active","ping":79},{"user_id":266,"name":"The milkman (milks you)","steam_id":76561199155456102,"connected_time":2143000000000,"state":"active","ping":83},{"user_id":297,"name":"CloudVic","steam_id":76561198118868716,"connected_time":310000000000,"state":"active","ping":79},{"user_id":268,"name":"Miner2495","steam_id":76561198445904523,"connected_time":2079000000000,"state":"active","ping":67},{"user_id":283,"name":"J21","steam_id":76561198066590783,"connected_time":1372000000000,"state":"active","ping":75},{"user_id":249,"name":"Nooblord","steam_id":76561199105123730,"connected_time":3147000000000,"state":"active","ping":112},{"user_id":293,"name":"99999999 説明を見て","steam_id":76561199163884669,"connected_time":709000000000,"state":"active","ping":116},{"user_id":288,"name":"nomie","steam_id":76561198262836131,"connected_time":1167000000000,"state":"active","ping":48},{"user_id":285,"name":"xThatAsianx","steam_id":76561198158431343,"connected_time":1309000000000,"state":"active","ping":66},{"user_id":296,"name":"ceres","steam_id":76561198291976960,"connected_time":536000000000,"state":"active","ping":105},{"user_id":271,"name":"Ribbon","steam_id":76561198149101805,"connected_time":2058000000000,"state":"active","ping":69},{"user_id":294,"name":"Brendan","steam_id":76561198041079914,"connected_time":692000000000,"state":"active","ping":68},{"user_id":240,"name":"lost in spaaaaace","steam_id":76561199085974120,"connected_time":3685000000000,"state":"active","ping":84},{"user_id":279,"name":"JustLooking","steam_id":76561198207877387,"connected_time":1509000000000,"state":"active","ping":65}]},{"server_id":39,"name":"Uncletopia | Chicago | 8 | Community","name_short":"chi-8","host":"chi-2.us.uncletopia.com","port":27045,"enabled":true,"region":"us-central","cc":"us","latitude":41.881832,"longitude":-87.62318,"reserved":0,"last_update":"0001-01-01T00:00:00Z","name_a2s":"Uncletopia | Chicago | 8 | Community","protocol":17,"map":"workshop/pl_cactuscanyon_redux_final2.ugc2579644293","folder":"tf","game":"Team Fortress","app_id":440,"player_count":19,"max_players":24,"Bots":0,"server_type":"Dedicated","server_os":"Linux","password":true,"vac":true,"version":"7961495","steam_id":85568392924866365,"keywords":["nocrits","nodmgspread","payload","uncletopia"],"game_id":440,"stv_port":27046,"stv_name":"Uncletopia | Chicago | 8 | Community | STV","players":[{"user_id":343,"name":"TQman","steam_id":76561199031963925,"connected_time":27000000000,"state":"spawning","ping":170},{"user_id":340,"name":"CyberSpaceGaming","steam_id":76561198991830883,"connected_time":412000000000,"state":"active","ping":84},{"user_id":317,"name":"EvilsConscience","steam_id":76561198073451760,"connected_time":1418000000000,"state":"active","ping":93},{"user_id":321,"name":"MonkaS Madlad","steam_id":76561198086575617,"connected_time":1068000000000,"state":"spawning","ping":237},{"user_id":270,"name":"YASAI JUICE","steam_id":76561198131971992,"connected_time":5908000000000,"state":"spawning","ping":23},{"user_id":335,"name":"Treader","steam_id":76561198096555885,"connected_time":580000000000,"state":"spawning","ping":110},{"user_id":328,"name":"canadian birds","steam_id":76561198059466588,"connected_time":799000000000,"state":"spawning","ping":58},{"user_id":304,"name":"leonardo doujinshi","steam_id":76561198025810326,"connected_time":2699000000000,"state":"spawning","ping":135},{"user_id":324,"name":"Phozumi","steam_id":76561198054068499,"connected_time":1017000000000,"state":"spawning","ping":117},{"user_id":341,"name":"dum bnuy","steam_id":76561198170574941,"connected_time":196000000000,"state":"spawning","ping":136},{"user_id":283,"name":"Count Ejacula","steam_id":76561198058400387,"connected_time":4858000000000,"state":"spawning","ping":327},{"user_id":325,"name":"Wife Enjoyer","steam_id":76561198044109761,"connected_time":1000000000000,"state":"spawning","ping":139},{"user_id":336,"name":"Cream Cheese","steam_id":76561198198147002,"connected_time":549000000000,"state":"spawning","ping":122},{"user_id":295,"name":"Woe 1099-G be upon ye","steam_id":76561198129055951,"connected_time":4096000000000,"state":"spawning","ping":87},{"user_id":313,"name":"SuperEnderGuy","steam_id":76561198352732164,"connected_time":1753000000000,"state":"active","ping":238},{"user_id":280,"name":"iyed","steam_id":76561198982141827,"connected_time":5309000000000,"state":"spawning","ping":163},{"user_id":305,"name":"green bean","steam_id":76561198113099204,"connected_time":2296000000000,"state":"active","ping":77},{"user_id":306,"name":"(pro) semitic ye","steam_id":76561198068830312,"connected_time":2104000000000,"state":"spawning","ping":47},{"user_id":318,"name":"Falcor","steam_id":76561198088330242,"connected_time":1171000000000,"state":"spawning","ping":88}]},{"server_id":8,"name":"Uncletopia | Dallas | 1 | All Maps","name_short":"dal-1","host":"dal-1.us.uncletopia.com","port":27015,"enabled":true,"region":"us-central","cc":"us","latitude":32.779167,"longitude":-96.80889,"reserved":0,"last_update":"0001-01-01T00:00:00Z","name_a2s":"Uncletopia | Dallas | 1 | All Maps","protocol":17,"map":"pl_snowycoast","folder":"tf","game":"Team Fortress","app_id":440,"player_count":24,"max_players":24,"Bots":0,"server_type":"Dedicated","server_os":"Linux","password":true,"vac":true,"version":"7961495","steam_id":85568392924469986,"keywords":["nocrits","nodmgspread","payload","uncletopia"],"game_id":440,"stv_port":27016,"stv_name":"Uncletopia | Dallas | 1 | All Maps | STV","players":[{"user_id":753,"name":"trash beast","steam_id":76561198015792736,"connected_time":1976000000000,"state":"active","ping":75},{"user_id":700,"name":"LampMan","steam_id":76561198079857527,"connected_time":5654000000000,"state":"active","ping":53},{"user_id":769,"name":"Powerpuker LFT","steam_id":76561198034620567,"connected_time":882000000000,"state":"active","ping":90},{"user_id":775,"name":"Lil' Dunky","steam_id":76561198163572748,"connected_time":299000000000,"state":"active","ping":92},{"user_id":755,"name":"Necronoxide","steam_id":76561197997856321,"connected_time":1507000000000,"state":"active","ping":88},{"user_id":718,"name":"catfish from toontown","steam_id":76561198060070002,"connected_time":5389000000000,"state":"active","ping":61},{"user_id":761,"name":"warp","steam_id":76561198190417719,"connected_time":1008000000000,"state":"active","ping":61},{"user_id":760,"name":"ChoiBoi9001","steam_id":76561199401392691,"connected_time":1033000000000,"state":"active","ping":81},{"user_id":774,"name":"meggie","steam_id":76561198038291026,"connected_time":306000000000,"state":"active","ping":41},{"user_id":719,"name":"aloysius","steam_id":76561199193617048,"connected_time":5329000000000,"state":"active","ping":80},{"user_id":758,"name":"sunny","steam_id":76561198069380992,"connected_time":1368000000000,"state":"active","ping":55},{"user_id":765,"name":"SafetyInstructor","steam_id":76561199195205705,"connected_time":946000000000,"state":"active","ping":59},{"user_id":756,"name":"choppa凸(►˛◄'!)","steam_id":76561198123236186,"connected_time":1458000000000,"state":"active","ping":77},{"user_id":759,"name":"doku","steam_id":76561199186072324,"connected_time":1072000000000,"state":"active","ping":65},{"user_id":734,"name":"Spacebar? \"UngovernablePugs\"-ye","steam_id":76561198167797009,"connected_time":3583000000000,"state":"active","ping":60},{"user_id":777,"name":"SneekiCheekiQbone","steam_id":76561198045077980,"connected_time":93000000000,"state":"active","ping":77},{"user_id":770,"name":"schmuck","steam_id":76561198143789773,"connected_time":482000000000,"state":"active","ping":52},{"user_id":724,"name":"Grand Piano Tuna","steam_id":76561198135137213,"connected_time":5005000000000,"state":"active","ping":52},{"user_id":750,"name":"MyTeamIsAzz","steam_id":76561198241921220,"connected_time":2090000000000,"state":"active","ping":98},{"user_id":766,"name":"AtomicSexMachine","steam_id":76561198886585159,"connected_time":944000000000,"state":"active","ping":60},{"user_id":738,"name":"Bogey","steam_id":76561198096227944,"connected_time":2758000000000,"state":"active","ping":45},{"user_id":418,"name":"fleepore (:","steam_id":76561199238295034,"connected_time":13814000000000,"state":"active","ping":72},{"user_id":764,"name":"°Creamy Gilligan","steam_id":76561198001569384,"connected_time":959000000000,"state":"active","ping":85},{"user_id":772,"name":"Caught a Thundah","steam_id":76561198054495572,"connected_time":395000000000,"state":"active","ping":56}]},{"server_id":108,"name":"Uncletopia | Dallas | 2 | All Maps","name_short":"dal-2","host":"dal-1.us.uncletopia.com","port":27025,"enabled":true,"region":"us-central","cc":"us","latitude":32.779167,"longitude":-96.80889,"reserved":0,"last_update":"0001-01-01T00:00:00Z","name_a2s":"Uncletopia | Dallas | 2 | All Maps","protocol":17,"map":"pl_frontier_final","folder":"tf","game":"Team Fortress","app_id":440,"player_count":23,"max_players":24,"Bots":0,"server_type":"Dedicated","server_os":"Linux","password":true,"vac":true,"version":"7961495","steam_id":85568392924469988,"keywords":["nocrits","nodmgspread","payload","uncletopia"],"game_id":440,"stv_port":27026,"stv_name":"Uncletopia | Dallas | 2 | All Maps | STV","players":[{"user_id":724,"name":"Pippermint","steam_id":76561198292091925,"connected_time":117000000000,"state":"active","ping":72},{"user_id":723,"name":"sebasnerd12","steam_id":76561199437010123,"connected_time":271000000000,"state":"active","ping":90},{"user_id":725,"name":"poke_ravi","steam_id":76561198006619886,"connected_time":2000000000,"state":"spawning","ping":80},{"user_id":691,"name":"[FOFS]billyburl","steam_id":76561198079535159,"connected_time":3362000000000,"state":"active","ping":78},{"user_id":629,"name":"INCOGNITO","steam_id":76561199466963424,"connected_time":9287000000000,"state":"active","ping":97},{"user_id":611,"name":"Ironaka","steam_id":76561198029993183,"connected_time":11198000000000,"state":"active","ping":88},{"user_id":673,"name":"RockMan","steam_id":76561199228684720,"connected_time":5790000000000,"state":"active","ping":50},{"user_id":715,"name":"Sup m8","steam_id":76561198081659121,"connected_time":1517000000000,"state":"active","ping":37},{"user_id":712,"name":"IlTrashPanda","steam_id":76561198447864095,"connected_time":1626000000000,"state":"active","ping":58},{"user_id":677,"name":"Big Inch","steam_id":76561198052513500,"connected_time":5556000000000,"state":"active","ping":71},{"user_id":710,"name":"illious","steam_id":76561198169925494,"connected_time":2419000000000,"state":"active","ping":74},{"user_id":705,"name":"you bet your bippity","steam_id":76561199077027954,"connected_time":2590000000000,"state":"active","ping":47},{"user_id":714,"name":"danger","steam_id":76561198000459165,"connected_time":1606000000000,"state":"active","ping":60},{"user_id":703,"name":"errant","steam_id":76561197961758410,"connected_time":2695000000000,"state":"active","ping":36},{"user_id":722,"name":"Destroyer1004","steam_id":76561199367685913,"connected_time":335000000000,"state":"active","ping":112},{"user_id":662,"name":"Manic","steam_id":76561198128149670,"connected_time":6603000000000,"state":"active","ping":43},{"user_id":706,"name":"Saiki k on meth","steam_id":76561199187226776,"connected_time":2588000000000,"state":"active","ping":52},{"user_id":669,"name":"LobsterPot","steam_id":76561198072225973,"connected_time":6545000000000,"state":"active","ping":74},{"user_id":670,"name":"lil boogie","steam_id":76561198064059721,"connected_time":6529000000000,"state":"active","ping":95},{"user_id":713,"name":"BigPimpin","steam_id":76561198119549348,"connected_time":1611000000000,"state":"active","ping":50},{"user_id":672,"name":"barker bill","steam_id":76561198018451994,"connected_time":6014000000000,"state":"active","ping":60},{"user_id":716,"name":"totallynot_raf","steam_id":76561198211437197,"connected_time":1425000000000,"state":"active","ping":89},{"user_id":709,"name":"KoolBucky","steam_id":76561198147927648,"connected_time":2512000000000,"state":"active","ping":78}]},{"server_id":5,"name":"Uncletopia | Frankfurt | 1 | All Maps","name_short":"frk-1","host":"frk-1.de.uncletopia.com","port":27015,"enabled":true,"region":"eu","cc":"de","latitude":50.110924,"longitude":8.682127,"reserved":0,"last_update":"0001-01-01T00:00:00Z","name_a2s":"Uncletopia | Frankfurt | 1 | All Maps","protocol":17,"map":"koth_viaduct","folder":"tf","game":"Team Fortress","app_id":440,"player_count":0,"max_players":24,"Bots":0,"server_type":"Dedicated","server_os":"Linux","password":true,"vac":true,"version":"7961495","steam_id":85568392924469989,"keywords":["cp","nocrits","nodmgspread","uncletopia"],"game_id":440,"stv_port":27016,"stv_name":"Uncletopia | Frankfurt | 1 | All Maps | STV","players":null},{"server_id":110,"name":"Uncletopia | Frankfurt | 2 | All Maps","name_short":"frk-2","host":"frk-1.de.uncletopia.com","port":27025,"enabled":true,"region":"eu","cc":"de","latitude":50.110924,"longitude":8.682127,"reserved":0,"last_update":"0001-01-01T00:00:00Z","name_a2s":"Uncletopia | Frankfurt | 2 | All Maps","protocol":17,"map":"pl_swiftwater_final1","folder":"tf","game":"Team Fortress","app_id":440,"player_count":3,"max_players":24,"Bots":0,"server_type":"Dedicated","server_os":"Linux","password":true,"vac":true,"version":"7961495","steam_id":85568392924469990,"keywords":["nocrits","nodmgspread","payload","uncletopia"],"game_id":440,"stv_port":27026,"stv_name":"Uncletopia | Frankfurt | 2 | All Maps | STV","players":[{"user_id":926,"name":"Goose of Wisdom","steam_id":76561198233465044,"connected_time":1081000000000,"state":"active","ping":157},{"user_id":920,"name":"theflamesocker","steam_id":76561199113500743,"connected_time":3206000000000,"state":"active","ping":164},{"user_id":910,"name":"yuno appreciator","steam_id":76561198083286511,"connected_time":4889000000000,"state":"active","ping":46}]},{"server_id":308,"name":"Uncletopia | Frankfurt | 3 | All Maps","name_short":"frk-3","host":"frk-1.de.uncletopia.com","port":27035,"enabled":true,"region":"eu","cc":"de","latitude":50.110924,"longitude":8.682127,"reserved":0,"last_update":"0001-01-01T00:00:00Z","name_a2s":"Uncletopia | Frankfurt | 3 | All Maps","protocol":17,"map":"koth_highpass","folder":"tf","game":"Team Fortress","app_id":440,"player_count":0,"max_players":24,"Bots":0,"server_type":"Dedicated","server_os":"Linux","password":true,"vac":true,"version":"7961495","steam_id":85568392924504274,"keywords":["cp","nocrits","nodmgspread","uncletopia"],"game_id":440,"stv_port":27036,"stv_name":"Uncletopia | Frankfurt | 3 | All Maps | STV","players":null},{"server_id":309,"name":"Uncletopia | Frankfurt | 4 | All Maps","name_short":"frk-4","host":"frk-1.de.uncletopia.com","port":27045,"enabled":true,"region":"eu","cc":"de","latitude":50.110924,"longitude":8.682127,"reserved":0,"last_update":"0001-01-01T00:00:00Z","name_a2s":"Uncletopia | Frankfurt | 4 | All Maps","protocol":17,"map":"koth_lakeside_final","folder":"tf","game":"Team Fortress","app_id":440,"player_count":0,"max_players":24,"Bots":0,"server_type":"Dedicated","server_os":"Linux","password":true,"vac":true,"version":"7961495","steam_id":85568392924504275,"keywords":["cp","nocrits","nodmgspread","uncletopia"],"game_id":440,"stv_port":27046,"stv_name":"Uncletopia | Frankfurt | 4 | All Maps | STV","players":null},{"server_id":310,"name":"Uncletopia | Frankfurt | 5 | All Maps","name_short":"frk-5","host":"frk-1.de.uncletopia.com","port":27055,"enabled":true,"region":"eu","cc":"de","latitude":50.110924,"longitude":8.682127,"reserved":0,"last_update":"0001-01-01T00:00:00Z","name_a2s":"Uncletopia | Frankfurt | 5 | All Maps","protocol":17,"map":"koth_cascade","folder":"tf","game":"Team Fortress","app_id":440,"player_count":0,"max_players":24,"Bots":0,"server_type":"Dedicated","server_os":"Linux","password":true,"vac":true,"version":"7961495","steam_id":85568392924504277,"keywords":["cp","nocrits","nodmgspread","uncletopia"],"game_id":440,"stv_port":27056,"stv_name":"Uncletopia | Frankfurt | 5 | All Maps | STV","players":null},{"server_id":311,"name":"Uncletopia | Frankfurt | 6 | All Maps","name_short":"frk-6","host":"frk-1.de.uncletopia.com","port":27065,"enabled":true,"region":"eu","cc":"de","latitude":50.110924,"longitude":8.682127,"reserved":0,"last_update":"0001-01-01T00:00:00Z","name_a2s":"Uncletopia | Frankfurt | 6 | All Maps","protocol":17,"map":"koth_cascade","folder":"tf","game":"Team Fortress","app_id":440,"player_count":0,"max_players":24,"Bots":0,"server_type":"Dedicated","server_os":"Linux","password":true,"vac":true,"version":"7961495","steam_id":85568392924504278,"keywords":["cp","nocrits","nodmgspread","uncletopia"],"game_id":440,"stv_port":27066,"stv_name":"Uncletopia | Frankfurt | 6 | All Maps | STV","players":null},{"server_id":23,"name":"Uncletopia | Frankfurt | 7 | Stopwatch Beta","name_short":"frk-7","host":"frk-1.de.uncletopia.com","port":27075,"enabled":true,"region":"eu","cc":"de","latitude":50.110924,"longitude":8.682127,"reserved":0,"last_update":"0001-01-01T00:00:00Z","name_a2s":"Uncletopia | Frankfurt | 7 | Stopwatch Beta","protocol":17,"map":"koth_lakeside_final","folder":"tf","game":"Team Fortress","app_id":440,"player_count":0,"max_players":24,"Bots":0,"server_type":"Dedicated","server_os":"Linux","password":true,"vac":true,"version":"7961495","steam_id":85568392924742827,"keywords":["cp","nocrits","nodmgspread","uncletopia"],"game_id":440,"stv_port":27076,"stv_name":"Uncletopia | Frankfurt | 7 | Stopwatch Beta | STV","players":null},{"server_id":24,"name":"Uncletopia | Frankfurt | 8 | Community","name_short":"frk-8","host":"frk-1.de.uncletopia.com","port":27085,"enabled":true,"region":"eu","cc":"de","latitude":50.110924,"longitude":8.682127,"reserved":0,"last_update":"0001-01-01T00:00:00Z","name_a2s":"Uncletopia | Frankfurt | 8 | Community","protocol":17,"map":"workshop/cp_overgrown_rc8.ugc503939302","folder":"tf","game":"Team Fortress","app_id":440,"player_count":0,"max_players":24,"Bots":0,"server_type":"Dedicated","server_os":"Linux","password":true,"vac":true,"version":"7961495","steam_id":85568392924742828,"keywords":["cp","nocrits","nodmgspread","uncletopia"],"game_id":440,"stv_port":27086,"stv_name":"Uncletopia | Frankfurt | 8 | Community | STV","players":null},{"server_id":202,"name":"Uncletopia | Hong Kong | 1 | All Maps","name_short":"hgk-1","host":"hgk-1.hk.uncletopia.com","port":27015,"enabled":true,"region":"asia","cc":"hk","latitude":22.302711,"longitude":114.177216,"reserved":0,"last_update":"0001-01-01T00:00:00Z","name_a2s":"Uncletopia | Hong Kong | 1 | All Maps","protocol":17,"map":"koth_highpass","folder":"tf","game":"Team Fortress","app_id":440,"player_count":0,"max_players":24,"Bots":0,"server_type":"Dedicated","server_os":"Linux","password":true,"vac":true,"version":"7961495","steam_id":85568392924494504,"keywords":["cp","nocrits","nodmgspread","uncletopia"],"game_id":440,"stv_port":27016,"stv_name":"Uncletopia | Hong Kong | 1 | All Maps | STV","players":null},{"server_id":1,"name":"Uncletopia | Los Angeles | 1 | All Maps","name_short":"lax-1","host":"lax-1.us.uncletopia.com","port":27015,"enabled":true,"region":"us-west","cc":"us","latitude":33.94279,"longitude":-118.41004,"reserved":0,"last_update":"0001-01-01T00:00:00Z","name_a2s":"Uncletopia | Los Angeles | 1 | All Maps","protocol":17,"map":"cp_mountainlab","folder":"tf","game":"Team Fortress","app_id":440,"player_count":24,"max_players":24,"Bots":0,"server_type":"Dedicated","server_os":"Linux","password":true,"vac":true,"version":"7961495","steam_id":85568392924469991,"keywords":["cp","nocrits","nodmgspread","uncletopia"],"game_id":440,"stv_port":27016,"stv_name":"Uncletopia | Los Angeles | 1 | All Maps | STV","players":[{"user_id":521,"name":"miguelrodriguez2013","steam_id":76561198269253587,"connected_time":44000000000,"state":"active","ping":48},{"user_id":462,"name":"30-50 feral hogs","steam_id":76561198073587145,"connected_time":4440000000000,"state":"active","ping":81},{"user_id":495,"name":"Garfelf","steam_id":76561198419850129,"connected_time":1584000000000,"state":"active","ping":75},{"user_id":516,"name":"Subject Delta","steam_id":76561199109118980,"connected_time":543000000000,"state":"active","ping":56},{"user_id":515,"name":"zinnk","steam_id":76561198092081825,"connected_time":582000000000,"state":"active","ping":56},{"user_id":473,"name":"Reem0h","steam_id":76561198169848690,"connected_time":2930000000000,"state":"active","ping":110},{"user_id":478,"name":"Sprit ♥","steam_id":76561198268780781,"connected_time":2879000000000,"state":"active","ping":91},{"user_id":520,"name":"phon","steam_id":76561198140659236,"connected_time":69000000000,"state":"active","ping":39},{"user_id":490,"name":"Truly Cryo","steam_id":76561198347497484,"connected_time":1811000000000,"state":"active","ping":122},{"user_id":512,"name":"Vlone","steam_id":76561199119064542,"connected_time":948000000000,"state":"active","ping":62},{"user_id":518,"name":"Grizzakk","steam_id":76561198115821923,"connected_time":301000000000,"state":"active","ping":84},{"user_id":493,"name":"Whisper!","steam_id":76561198119609795,"connected_time":1742000000000,"state":"active","ping":53},{"user_id":508,"name":"bobbymcbobington","steam_id":76561199089411172,"connected_time":1140000000000,"state":"active","ping":140},{"user_id":514,"name":"jungus","steam_id":76561198129862008,"connected_time":791000000000,"state":"active","ping":48},{"user_id":503,"name":"Matches_","steam_id":76561198048925904,"connected_time":1280000000000,"state":"active","ping":61},{"user_id":513,"name":"Roberto Del Fuego","steam_id":76561198043458554,"connected_time":891000000000,"state":"active","ping":90},{"user_id":483,"name":"Goldensliv","steam_id":76561198161673891,"connected_time":2568000000000,"state":"active","ping":31},{"user_id":471,"name":"HAT-WEARING™ Maggot Gamer Cat","steam_id":76561197973992705,"connected_time":3210000000000,"state":"active","ping":68},{"user_id":463,"name":"Nyges","steam_id":76561198139236154,"connected_time":3432000000000,"state":"active","ping":45},{"user_id":456,"name":"lazy catboy","steam_id":76561198359994674,"connected_time":4512000000000,"state":"active","ping":124},{"user_id":501,"name":"Higuma","steam_id":76561198375229012,"connected_time":1537000000000,"state":"active","ping":67},{"user_id":499,"name":"speedshot2006","steam_id":76561199136044043,"connected_time":1568000000000,"state":"active","ping":112},{"user_id":464,"name":"Fostrel","steam_id":76561198152160601,"connected_time":3376000000000,"state":"active","ping":87},{"user_id":519,"name":"mechanicvirus","steam_id":76561198038161480,"connected_time":280000000000,"state":"active","ping":60}]},{"server_id":112,"name":"Uncletopia | Los Angeles | 2 | All Maps","name_short":"lax-2","host":"lax-1.us.uncletopia.com","port":27025,"enabled":true,"region":"us-west","cc":"us","latitude":33.94279,"longitude":-118.41004,"reserved":0,"last_update":"0001-01-01T00:00:00Z","name_a2s":"Uncletopia | Los Angeles | 2 | All Maps","protocol":17,"map":"pl_goldrush","folder":"tf","game":"Team Fortress","app_id":440,"player_count":24,"max_players":24,"Bots":0,"server_type":"Dedicated","server_os":"Linux","password":true,"vac":true,"version":"7961495","steam_id":85568392924469992,"keywords":["nocrits","nodmgspread","payload","uncletopia"],"game_id":440,"stv_port":27026,"stv_name":"Uncletopia | Los Angeles | 2 | All Maps | STV","players":[{"user_id":275,"name":"Laxoloni","steam_id":76561199197045700,"connected_time":536000000000,"state":"active","ping":103},{"user_id":276,"name":"Slogly","steam_id":76561198057242179,"connected_time":531000000000,"state":"active","ping":60},{"user_id":224,"name":"21-60 damage","steam_id":76561198065662025,"connected_time":2654000000000,"state":"active","ping":61},{"user_id":268,"name":"TrueGodOfBread","steam_id":76561198127577215,"connected_time":1013000000000,"state":"active","ping":45},{"user_id":272,"name":"Vriska","steam_id":76561198942104681,"connected_time":718000000000,"state":"active","ping":57},{"user_id":265,"name":"(1)lol","steam_id":76561198026491738,"connected_time":1145000000000,"state":"active","ping":58},{"user_id":261,"name":"UltraBron James","steam_id":76561198066091050,"connected_time":1197000000000,"state":"active","ping":85},{"user_id":279,"name":"jxnkz","steam_id":76561198965970894,"connected_time":454000000000,"state":"active","ping":92},{"user_id":266,"name":"proud_asian","steam_id":76561198977973083,"connected_time":1103000000000,"state":"active","ping":105},{"user_id":273,"name":"RAT BASTARD","steam_id":76561198281265166,"connected_time":672000000000,"state":"active","ping":97},{"user_id":281,"name":"AKA-1NC","steam_id":76561199397330767,"connected_time":355000000000,"state":"active","ping":85},{"user_id":282,"name":"I am just a fish","steam_id":76561198062459671,"connected_time":336000000000,"state":"active","ping":52},{"user_id":271,"name":"Saddam","steam_id":76561197985725267,"connected_time":846000000000,"state":"active","ping":94},{"user_id":274,"name":"UnusualTofu","steam_id":76561198060103750,"connected_time":565000000000,"state":"active","ping":58},{"user_id":169,"name":"riSygneD","steam_id":76561198331618687,"connected_time":6390000000000,"state":"active","ping":40},{"user_id":269,"name":"ChingaTuMadre.com","steam_id":76561199003163608,"connected_time":1000000000000,"state":"active","ping":78},{"user_id":246,"name":"[Industrial] A_HUMBLEBUMBLED","steam_id":76561198064771878,"connected_time":1725000000000,"state":"active","ping":84},{"user_id":283,"name":"Herbal Infusion","steam_id":76561198146881319,"connected_time":313000000000,"state":"active","ping":51},{"user_id":256,"name":"party rock","steam_id":76561198257019042,"connected_time":1503000000000,"state":"active","ping":87},{"user_id":236,"name":"3ArmsNoSouls","steam_id":76561198861260640,"connected_time":2294000000000,"state":"active","ping":93},{"user_id":277,"name":"Killing_Moon","steam_id":76561198028185566,"connected_time":492000000000,"state":"active","ping":52},{"user_id":179,"name":"ForAPessimistImPrettyOptimistic","steam_id":76561198170128009,"connected_time":5055000000000,"state":"active","ping":52},{"user_id":280,"name":"-The_Under_Miner-","steam_id":76561199195735972,"connected_time":451000000000,"state":"active","ping":61},{"user_id":259,"name":"match1stick","steam_id":76561199103743083,"connected_time":1456000000000,"state":"active","ping":48}]},{"server_id":324,"name":"Uncletopia | Los Angeles | 3 | All Maps","name_short":"lax-3","host":"lax-1.us.uncletopia.com","port":27035,"enabled":true,"region":"us-west","cc":"us","latitude":33.94279,"longitude":-118.41004,"reserved":0,"last_update":"0001-01-01T00:00:00Z","name_a2s":"Uncletopia | Los Angeles | 3 | All Maps","protocol":17,"map":"pl_frontier_final","folder":"tf","game":"Team Fortress","app_id":440,"player_count":24,"max_players":24,"Bots":0,"server_type":"Dedicated","server_os":"Linux","password":true,"vac":true,"version":"7961495","steam_id":85568392924510198,"keywords":["nocrits","nodmgspread","payload","uncletopia"],"game_id":440,"stv_port":27036,"stv_name":"Uncletopia | Los Angeles | 3 | All Maps | STV","players":[{"user_id":234,"name":"canakblasteran","steam_id":76561199472518822,"connected_time":260000000000,"state":"active","ping":70},{"user_id":206,"name":"K.A.R.M.A.","steam_id":76561198240750142,"connected_time":2515000000000,"state":"active","ping":45},{"user_id":226,"name":"Dr. Hashbrown","steam_id":76561198410780370,"connected_time":515000000000,"state":"active","ping":68},{"user_id":213,"name":"thedeadlyamoeba","steam_id":76561198040810178,"connected_time":1328000000000,"state":"active","ping":65},{"user_id":204,"name":"Mer","steam_id":76561198192171041,"connected_time":2670000000000,"state":"active","ping":171},{"user_id":221,"name":"Robert_Cheeto","steam_id":76561198103638020,"connected_time":658000000000,"state":"active","ping":65},{"user_id":224,"name":"Sexhater9000","steam_id":76561198048795755,"connected_time":551000000000,"state":"active","ping":65},{"user_id":220,"name":"Paranoid_Manatee","steam_id":76561198068623572,"connected_time":691000000000,"state":"active","ping":69},{"user_id":196,"name":"Doctor™","steam_id":76561198134309750,"connected_time":3061000000000,"state":"active","ping":127},{"user_id":208,"name":"☭Borris☭","steam_id":76561198011136886,"connected_time":2471000000000,"state":"active","ping":71},{"user_id":225,"name":"TwoForFlinching","steam_id":76561198073814209,"connected_time":541000000000,"state":"active","ping":98},{"user_id":191,"name":"[FGCP] party hat","steam_id":76561198044268609,"connected_time":3224000000000,"state":"active","ping":119},{"user_id":230,"name":"NaeNaeChungusBozo","steam_id":76561199446407203,"connected_time":389000000000,"state":"active","ping":121},{"user_id":202,"name":"Florist","steam_id":76561198009121060,"connected_time":2909000000000,"state":"active","ping":81},{"user_id":212,"name":"yada","steam_id":76561198285242273,"connected_time":1701000000000,"state":"active","ping":98},{"user_id":227,"name":"SneakySneak","steam_id":76561198064847921,"connected_time":501000000000,"state":"active","ping":100},{"user_id":231,"name":"tw1light_sparkle","steam_id":76561198309823950,"connected_time":387000000000,"state":"active","ping":65},{"user_id":143,"name":"the mug maniac","steam_id":76561198389268114,"connected_time":5711000000000,"state":"active","ping":82},{"user_id":232,"name":"-L","steam_id":76561198046074220,"connected_time":385000000000,"state":"active","ping":45},{"user_id":199,"name":"spurious george","steam_id":76561198043558709,"connected_time":3046000000000,"state":"active","ping":77},{"user_id":192,"name":"Ink","steam_id":76561198328781175,"connected_time":3191000000000,"state":"active","ping":69},{"user_id":233,"name":"THIRDPIERCE","steam_id":76561198405366314,"connected_time":366000000000,"state":"active","ping":92},{"user_id":203,"name":"Makibeki","steam_id":76561197991265555,"connected_time":2745000000000,"state":"active","ping":106},{"user_id":219,"name":"Bon Gripper","steam_id":76561198090074621,"connected_time":834000000000,"state":"active","ping":128}]},{"server_id":25,"name":"Uncletopia | Los Angeles | 4 | Stopwatch Beta","name_short":"lax-4","host":"lax-1.us.uncletopia.com","port":27045,"enabled":true,"region":"us-west","cc":"us","latitude":33.94279,"longitude":-118.41004,"reserved":0,"last_update":"0001-01-01T00:00:00Z","name_a2s":"Uncletopia | Los Angeles | 4 | Stopwatch Beta","protocol":17,"map":"koth_lakeside_final","folder":"tf","game":"Team Fortress","app_id":440,"player_count":2,"max_players":24,"Bots":0,"server_type":"Dedicated","server_os":"Linux","password":true,"vac":true,"version":"7961495","steam_id":85568392924510199,"keywords":["cp","nocrits","nodmgspread","uncletopia"],"game_id":440,"stv_port":27046,"stv_name":"Uncletopia | Los Angeles | 4 | Stopwatch Beta | STV","players":[{"user_id":9,"name":"Barnie Sandlers","steam_id":76561198153295482,"connected_time":603000000000,"state":"active","ping":30},{"user_id":10,"name":"squid","steam_id":76561198070236972,"connected_time":424000000000,"state":"active","ping":47}]},{"server_id":11,"name":"Uncletopia | London | 1 | All Maps","name_short":"lon-1","host":"lon-1.uk.uncletopia.com","port":27015,"enabled":true,"region":"eu","cc":"gb","latitude":51.509865,"longitude":-0.118092,"reserved":0,"last_update":"0001-01-01T00:00:00Z","name_a2s":"Uncletopia | London | 1 | All Maps","protocol":17,"map":"pl_borneo","folder":"tf","game":"Team Fortress","app_id":440,"player_count":2,"max_players":24,"Bots":0,"server_type":"Dedicated","server_os":"Linux","password":true,"vac":true,"version":"7961495","steam_id":85568392924367362,"keywords":["nocrits","nodmgspread","payload","uncletopia"],"game_id":440,"stv_port":27016,"stv_name":"Uncletopia | London | 1 | All Maps | STV","players":[{"user_id":859,"name":"Mustekala1","steam_id":76561198044468928,"connected_time":1450000000000,"state":"active","ping":60},{"user_id":860,"name":"Noam","steam_id":76561198057789807,"connected_time":1167000000000,"state":"active","ping":90}]},{"server_id":114,"name":"Uncletopia | London | 2 | All Maps","name_short":"lon-2","host":"lon-1.uk.uncletopia.com","port":27025,"enabled":true,"region":"eu","cc":"gb","latitude":51.509865,"longitude":-0.118092,"reserved":0,"last_update":"0001-01-01T00:00:00Z","name_a2s":"Uncletopia | London | 2 | All Maps","protocol":17,"map":"cp_steel","folder":"tf","game":"Team Fortress","app_id":440,"player_count":21,"max_players":24,"Bots":0,"server_type":"Dedicated","server_os":"Linux","password":true,"vac":true,"version":"7961495","steam_id":85568392924470941,"keywords":["cp","nocrits","nodmgspread","uncletopia"],"game_id":440,"stv_port":27026,"stv_name":"Uncletopia | London | 2 | All Maps | STV","players":[{"user_id":570,"name":"help how to circlestab","steam_id":76561199136308055,"connected_time":2069000000000,"state":"active","ping":53},{"user_id":576,"name":"I am the one who's sus","steam_id":76561198344435644,"connected_time":1061000000000,"state":"active","ping":60},{"user_id":586,"name":"SPOOKY_","steam_id":76561198073395404,"connected_time":109000000000,"state":"active","ping":75},{"user_id":587,"name":"-Kost1xx","steam_id":76561198160062258,"connected_time":85000000000,"state":"active","ping":95},{"user_id":506,"name":"Son Goku","steam_id":76561199383437138,"connected_time":7390000000000,"state":"active","ping":118},{"user_id":566,"name":"aolkdi","steam_id":76561198025479415,"connected_time":2483000000000,"state":"active","ping":135},{"user_id":580,"name":"beebo","steam_id":76561199120277007,"connected_time":694000000000,"state":"active","ping":38},{"user_id":540,"name":"fecal incident","steam_id":76561198086770023,"connected_time":4570000000000,"state":"active","ping":69},{"user_id":537,"name":"Noodle","steam_id":76561198306486695,"connected_time":4575000000000,"state":"active","ping":69},{"user_id":572,"name":"minn","steam_id":76561198099101232,"connected_time":1782000000000,"state":"active","ping":54},{"user_id":584,"name":"Dragon","steam_id":76561198163255365,"connected_time":616000000000,"state":"active","ping":109},{"user_id":585,"name":"Coca162","steam_id":76561198230656540,"connected_time":137000000000,"state":"active","ping":34},{"user_id":528,"name":"Klorophyte","steam_id":76561198885112655,"connected_time":5557000000000,"state":"active","ping":100},{"user_id":579,"name":"うおおお msgk","steam_id":76561198083049568,"connected_time":790000000000,"state":"active","ping":75},{"user_id":582,"name":"diet coke consumer","steam_id":76561197975862809,"connected_time":676000000000,"state":"active","ping":84},{"user_id":574,"name":"meow for 0 euro","steam_id":76561199013457963,"connected_time":1125000000000,"state":"active","ping":46},{"user_id":514,"name":"Borat","steam_id":76561198122226417,"connected_time":6869000000000,"state":"active","ping":42},{"user_id":577,"name":"Idk","steam_id":76561199077930212,"connected_time":1046000000000,"state":"active","ping":156},{"user_id":573,"name":"Not Sussy Tanuki","steam_id":76561198137289375,"connected_time":1126000000000,"state":"active","ping":105},{"user_id":551,"name":"Cosmetic brain","steam_id":76561198055936410,"connected_time":4086000000000,"state":"active","ping":75},{"user_id":583,"name":"(no monitor) ayylien","steam_id":76561198042127970,"connected_time":659000000000,"state":"active","ping":143}]},{"server_id":320,"name":"Uncletopia | London | 3 | All Maps","name_short":"lon-3","host":"lon-1.uk.uncletopia.com","port":27035,"enabled":true,"region":"eu","cc":"gb","latitude":51.509865,"longitude":-0.118092,"reserved":0,"last_update":"0001-01-01T00:00:00Z","name_a2s":"Uncletopia | London | 3 | All Maps","protocol":17,"map":"koth_cascade","folder":"tf","game":"Team Fortress","app_id":440,"player_count":0,"max_players":24,"Bots":0,"server_type":"Dedicated","server_os":"Linux","password":true,"vac":true,"version":"7961495","steam_id":85568392924510192,"keywords":["cp","nocrits","nodmgspread","uncletopia"],"game_id":440,"stv_port":27036,"stv_name":"Uncletopia | London | 3 | All Maps | STV","players":null},{"server_id":321,"name":"Uncletopia | London | 4 | All Maps","name_short":"lon-4","host":"lon-1.uk.uncletopia.com","port":27045,"enabled":true,"region":"eu","cc":"gb","latitude":51.509865,"longitude":-0.118092,"reserved":0,"last_update":"0001-01-01T00:00:00Z","name_a2s":"Uncletopia | London | 4 | All Maps","protocol":17,"map":"koth_viaduct","folder":"tf","game":"Team Fortress","app_id":440,"player_count":0,"max_players":24,"Bots":0,"server_type":"Dedicated","server_os":"Linux","password":true,"vac":true,"version":"7961495","steam_id":85568392924510193,"keywords":["cp","nocrits","nodmgspread","uncletopia"],"game_id":440,"stv_port":27046,"stv_name":"Uncletopia | London | 4 | All Maps | STV","players":null},{"server_id":21,"name":"Uncletopia | London | 5 | All Maps","name_short":"lon-5","host":"lon-1.uk.uncletopia.com","port":27055,"enabled":true,"region":"eu","cc":"gb","latitude":51.509865,"longitude":-0.118092,"reserved":0,"last_update":"0001-01-01T00:00:00Z","name_a2s":"Uncletopia | London | 5 | All Maps","protocol":17,"map":"cp_sunshine","folder":"tf","game":"Team Fortress","app_id":440,"player_count":0,"max_players":24,"Bots":0,"server_type":"Dedicated","server_os":"Linux","password":true,"vac":true,"version":"7961495","steam_id":85568392924742829,"keywords":["cp","nocrits","nodmgspread","uncletopia"],"game_id":440,"stv_port":27056,"stv_name":"Uncletopia | London | 5 | All Maps | STV","players":null},{"server_id":22,"name":"Uncletopia | London | 6 | All Maps","name_short":"lon-6","host":"lon-1.uk.uncletopia.com","port":27065,"enabled":true,"region":"eu","cc":"gb","latitude":51.509865,"longitude":-0.118092,"reserved":0,"last_update":"0001-01-01T00:00:00Z","name_a2s":"Uncletopia | London | 6 | All Maps","protocol":17,"map":"cp_dustbowl","folder":"tf","game":"Team Fortress","app_id":440,"player_count":0,"max_players":24,"Bots":0,"server_type":"Dedicated","server_os":"Linux","password":true,"vac":true,"version":"7961495","steam_id":85568392924742830,"keywords":["cp","nocrits","nodmgspread","uncletopia"],"game_id":440,"stv_port":27066,"stv_name":"Uncletopia | London | 6 | All Maps | STV","players":null},{"server_id":40,"name":"Uncletopia | London | 7 | No Payload","name_short":"lon-7","host":"lon-1.uk.uncletopia.com","port":27075,"enabled":true,"region":"eu","cc":"gb","latitude":51.509865,"longitude":-0.118092,"reserved":0,"last_update":"0001-01-01T00:00:00Z","name_a2s":"Uncletopia | London | 7 | No Payload","protocol":17,"map":"koth_nucleus","folder":"tf","game":"Team Fortress","app_id":440,"player_count":0,"max_players":24,"Bots":0,"server_type":"Dedicated","server_os":"Linux","password":true,"vac":true,"version":"7961495","steam_id":85568392924964314,"keywords":["cp","nocrits","nodmgspread","uncletopia"],"game_id":440,"stv_port":27076,"stv_name":"Uncletopia | London | 7 | No Payload | STV","players":null},{"server_id":41,"name":"Uncletopia | London | 8 | Community","name_short":"lon-8","host":"lon-1.uk.uncletopia.com","port":27085,"enabled":true,"region":"eu","cc":"gb","latitude":51.509865,"longitude":-0.118092,"reserved":0,"last_update":"0001-01-01T00:00:00Z","name_a2s":"Uncletopia | London | 8 | Community","protocol":17,"map":"workshop/koth_bagel_rc6.ugc2514036946","folder":"tf","game":"Team Fortress","app_id":440,"player_count":0,"max_players":24,"Bots":0,"server_type":"Dedicated","server_os":"Linux","password":true,"vac":true,"version":"7961495","steam_id":85568392924964315,"keywords":["cp","nocrits","nodmgspread","uncletopia"],"game_id":440,"stv_port":27086,"stv_name":"Uncletopia | London | 8 | Community | STV","players":null},{"server_id":300,"name":"Uncletopia | Montréal | 1 | All Maps","name_short":"mtl-1","host":"mtl-1.ca.uncletopia.com","port":27015,"enabled":true,"region":"us-east","cc":"ca","latitude":45.50889,"longitude":-73.56167,"reserved":0,"last_update":"0001-01-01T00:00:00Z","name_a2s":"Uncletopia | Montréal | 1 | All Maps","protocol":17,"map":"koth_cascade","folder":"tf","game":"Team Fortress","app_id":440,"player_count":9,"max_players":24,"Bots":0,"server_type":"Dedicated","server_os":"Linux","password":true,"vac":true,"version":"7961495","steam_id":85568392924500087,"keywords":["cp","nocrits","nodmgspread","uncletopia"],"game_id":440,"stv_port":27016,"stv_name":"Uncletopia | Montréal | 1 | All Maps | STV","players":[{"user_id":4,"name":"Tacobell_nugget","steam_id":76561199248567851,"connected_time":956000000000,"state":"active","ping":111},{"user_id":5,"name":"Racer X","steam_id":76561198073613932,"connected_time":942000000000,"state":"active","ping":84},{"user_id":6,"name":"(TTV) The_Astrum_Guardian","steam_id":76561198130134103,"connected_time":924000000000,"state":"active","ping":68},{"user_id":7,"name":"stew","steam_id":76561198136286178,"connected_time":816000000000,"state":"active","ping":59},{"user_id":8,"name":"Dazpanda","steam_id":76561198162593808,"connected_time":805000000000,"state":"active","ping":82},{"user_id":9,"name":"Rakuna","steam_id":76561198798539385,"connected_time":770000000000,"state":"active","ping":61},{"user_id":10,"name":"Juvn","steam_id":76561198838658833,"connected_time":766000000000,"state":"active","ping":129},{"user_id":14,"name":"banana97286","steam_id":76561199367847817,"connected_time":406000000000,"state":"active","ping":57},{"user_id":15,"name":"QWERTY","steam_id":76561198211430420,"connected_time":111000000000,"state":"active","ping":65}]},{"server_id":301,"name":"Uncletopia | Montréal | 2 | All Maps","name_short":"mtl-2","host":"mtl-1.ca.uncletopia.com","port":27025,"enabled":true,"region":"us-east","cc":"ca","latitude":45.50889,"longitude":-73.56167,"reserved":0,"last_update":"0001-01-01T00:00:00Z","name_a2s":"Uncletopia | Montréal | 2 | All Maps","protocol":17,"map":"cp_process_final","folder":"tf","game":"Team Fortress","app_id":440,"player_count":21,"max_players":24,"Bots":0,"server_type":"Dedicated","server_os":"Linux","password":true,"vac":true,"version":"7961495","steam_id":85568392924500088,"keywords":["cp","nocrits","nodmgspread","uncletopia"],"game_id":440,"stv_port":27026,"stv_name":"Uncletopia | Montréal | 2 | All Maps | STV","players":[{"user_id":13,"name":"corygaming","steam_id":76561198035669409,"connected_time":3110000000000,"state":"active","ping":125},{"user_id":17,"name":"Sunshine","steam_id":76561198085837469,"connected_time":1977000000000,"state":"active","ping":82},{"user_id":14,"name":"squishy","steam_id":76561198015034116,"connected_time":3104000000000,"state":"active","ping":55},{"user_id":15,"name":"pink hair and pronouns","steam_id":76561198066227208,"connected_time":3097000000000,"state":"active","ping":54},{"user_id":46,"name":"minecraft","steam_id":76561198104345201,"connected_time":303000000000,"state":"active","ping":66},{"user_id":36,"name":"Coach Nebula","steam_id":76561198034552198,"connected_time":1199000000000,"state":"active","ping":76},{"user_id":56,"name":"kami","steam_id":76561198119523007,"connected_time":47000000000,"state":"active","ping":60},{"user_id":55,"name":"Mak","steam_id":76561198856016840,"connected_time":112000000000,"state":"active","ping":60},{"user_id":30,"name":"[Soldunk]","steam_id":76561198142400155,"connected_time":1341000000000,"state":"active","ping":60},{"user_id":22,"name":"Rat King (Deposed)","steam_id":76561198271907916,"connected_time":1781000000000,"state":"active","ping":60},{"user_id":50,"name":"tesagi","steam_id":76561198026664629,"connected_time":249000000000,"state":"active","ping":52},{"user_id":29,"name":"Dededoo","steam_id":76561198279033471,"connected_time":1479000000000,"state":"active","ping":110},{"user_id":51,"name":"minte","steam_id":76561198012914428,"connected_time":242000000000,"state":"active","ping":84},{"user_id":32,"name":"Sunfly","steam_id":76561198034307439,"connected_time":1282000000000,"state":"active","ping":60},{"user_id":52,"name":"phonedirectory","steam_id":76561198102360911,"connected_time":236000000000,"state":"active","ping":84},{"user_id":34,"name":"Inevitable","steam_id":76561198210050169,"connected_time":1258000000000,"state":"active","ping":60},{"user_id":35,"name":"Ineffable","steam_id":76561198968869068,"connected_time":1223000000000,"state":"active","ping":92},{"user_id":37,"name":"single mother of 24/24 ctf_2for","steam_id":76561198034096805,"connected_time":1195000000000,"state":"active","ping":77},{"user_id":39,"name":"your mom calls me princess too","steam_id":76561198020400899,"connected_time":1154000000000,"state":"active","ping":89},{"user_id":40,"name":"Poopie Babie","steam_id":76561198047500494,"connected_time":1149000000000,"state":"active","ping":80},{"user_id":54,"name":"abcdefghijklmnopqrstuvwxyz","steam_id":76561198175741741,"connected_time":197000000000,"state":"active","ping":85}]},{"server_id":302,"name":"Uncletopia | Montréal | 3 | All Maps","name_short":"mtl-3","host":"mtl-1.ca.uncletopia.com","port":27035,"enabled":true,"region":"us-east","cc":"ca","latitude":45.50889,"longitude":-73.56167,"reserved":0,"last_update":"0001-01-01T00:00:00Z","name_a2s":"Uncletopia | Montréal | 3 | All Maps","protocol":17,"map":"koth_lakeside_final","folder":"tf","game":"Team Fortress","app_id":440,"player_count":0,"max_players":24,"Bots":0,"server_type":"Dedicated","server_os":"Linux","password":true,"vac":true,"version":"7961495","steam_id":85568392924500089,"keywords":["cp","nocrits","nodmgspread","uncletopia"],"game_id":440,"stv_port":27036,"stv_name":"Uncletopia | Montréal | 3 | All Maps | STV","players":null},{"server_id":303,"name":"Uncletopia | Montréal | 4 | No Payload","name_short":"mtl-4","host":"mtl-1.ca.uncletopia.com","port":27045,"enabled":true,"region":"us-east","cc":"ca","latitude":45.50889,"longitude":-73.56167,"reserved":0,"last_update":"0001-01-01T00:00:00Z","name_a2s":"Uncletopia | Montréal | 4 | No Payload","protocol":17,"map":"cp_gravelpit","folder":"tf","game":"Team Fortress","app_id":440,"player_count":0,"max_players":24,"Bots":0,"server_type":"Dedicated","server_os":"Linux","password":true,"vac":true,"version":"7961495","steam_id":85568392924500090,"keywords":["cp","nocrits","nodmgspread","uncletopia"],"game_id":440,"stv_port":27046,"stv_name":"Uncletopia | Montréal | 4 | No Payload | STV","players":null},{"server_id":13,"name":"Uncletopia | New York City | 1 | All Maps","name_short":"nyc-1","host":"nyc-1.us.uncletopia.com","port":27015,"enabled":true,"region":"us-east","cc":"us","latitude":40.73061,"longitude":-73.93524,"reserved":0,"last_update":"0001-01-01T00:00:00Z","name_a2s":"Uncletopia | New York City | 1 | All Maps","protocol":17,"map":"pl_badwater","folder":"tf","game":"Team Fortress","app_id":440,"player_count":24,"max_players":24,"Bots":0,"server_type":"Dedicated","server_os":"Linux","password":true,"vac":true,"version":"7961495","steam_id":85568392924469993,"keywords":["nocrits","nodmgspread","payload","uncletopia"],"game_id":440,"stv_port":27016,"stv_name":"Uncletopia | New York City | 1 | All Maps | STV","players":[{"user_id":401,"name":"pungentpoolsidepoopy","steam_id":76561197972601902,"connected_time":151000000000,"state":"active","ping":103},{"user_id":384,"name":"Degree","steam_id":76561198059812393,"connected_time":999000000000,"state":"active","ping":45},{"user_id":397,"name":"A Puppy","steam_id":76561198828184456,"connected_time":423000000000,"state":"active","ping":48},{"user_id":352,"name":"Wahaha hee","steam_id":76561198098017157,"connected_time":3369000000000,"state":"active","ping":93},{"user_id":343,"name":"Rabid-Gentleman","steam_id":76561199071967379,"connected_time":3844000000000,"state":"active","ping":81},{"user_id":302,"name":"Periculosum PhD in Funny","steam_id":76561198123370914,"connected_time":7947000000000,"state":"active","ping":85},{"user_id":356,"name":"CheddarCake","steam_id":76561198061993725,"connected_time":3213000000000,"state":"active","ping":56},{"user_id":373,"name":"wool","steam_id":76561198869689933,"connected_time":2243000000000,"state":"active","ping":59},{"user_id":361,"name":"pearly","steam_id":76561198017274978,"connected_time":3023000000000,"state":"active","ping":93},{"user_id":372,"name":"George W Bush","steam_id":76561199056002173,"connected_time":2256000000000,"state":"active","ping":100},{"user_id":377,"name":"First Name Agent","steam_id":76561199431280503,"connected_time":2190000000000,"state":"active","ping":63},{"user_id":335,"name":"Spiral Mountain","steam_id":76561198058683715,"connected_time":4519000000000,"state":"active","ping":68},{"user_id":392,"name":"Lorberry","steam_id":76561198023706058,"connected_time":777000000000,"state":"active","ping":56},{"user_id":378,"name":"Futo","steam_id":76561198023185653,"connected_time":2068000000000,"state":"active","ping":89},{"user_id":399,"name":"Xx_gam3rberg_xX","steam_id":76561199035781025,"connected_time":219000000000,"state":"active","ping":76},{"user_id":393,"name":"wise","steam_id":76561198030066204,"connected_time":759000000000,"state":"active","ping":35},{"user_id":386,"name":"ven the foreskin haver","steam_id":76561198880428283,"connected_time":926000000000,"state":"active","ping":56},{"user_id":400,"name":"Freya","steam_id":76561198068912131,"connected_time":184000000000,"state":"active","ping":79},{"user_id":398,"name":"The Map","steam_id":76561198138812108,"connected_time":311000000000,"state":"active","ping":69},{"user_id":385,"name":"ADRIEN BRODY","steam_id":76561198009299473,"connected_time":942000000000,"state":"active","ping":55},{"user_id":396,"name":"sqerkbo","steam_id":76561198080012700,"connected_time":512000000000,"state":"active","ping":46},{"user_id":367,"name":"Queso2469","steam_id":76561197993024580,"connected_time":2758000000000,"state":"active","ping":52},{"user_id":382,"name":"[VP]PurplePaladin","steam_id":76561198017011129,"connected_time":1243000000000,"state":"active","ping":47},{"user_id":395,"name":"BOOTZ","steam_id":76561198042750746,"connected_time":738000000000,"state":"active","ping":89}]},{"server_id":14,"name":"Uncletopia | New York City | 2 | All Maps","name_short":"nyc-2","host":"nyc-1.us.uncletopia.com","port":27025,"enabled":true,"region":"us-east","cc":"us","latitude":40.73061,"longitude":-73.93524,"reserved":0,"last_update":"0001-01-01T00:00:00Z","name_a2s":"Uncletopia | New York City | 2 | All Maps","protocol":17,"map":"cp_dustbowl","folder":"tf","game":"Team Fortress","app_id":440,"player_count":24,"max_players":24,"Bots":0,"server_type":"Dedicated","server_os":"Linux","password":true,"vac":true,"version":"7961495","steam_id":85568392924469994,"keywords":["cp","nocrits","nodmgspread","uncletopia"],"game_id":440,"stv_port":27026,"stv_name":"Uncletopia | New York City | 2 | All Maps | STV","players":[{"user_id":623,"name":"Cold shoulder","steam_id":76561198453824178,"connected_time":2712000000000,"state":"active","ping":124},{"user_id":610,"name":"DogMan223","steam_id":76561198258561365,"connected_time":5074000000000,"state":"active","ping":56},{"user_id":611,"name":"HollyBlocky","steam_id":76561198030156100,"connected_time":5044000000000,"state":"active","ping":80},{"user_id":621,"name":"DAG","steam_id":76561198219508244,"connected_time":2741000000000,"state":"active","ping":54},{"user_id":615,"name":"Cassini","steam_id":76561198318526294,"connected_time":4643000000000,"state":"active","ping":56},{"user_id":636,"name":"GibbusGod","steam_id":76561199232436690,"connected_time":847000000000,"state":"active","ping":85},{"user_id":588,"name":"Terror-Billy #SaveTF2","steam_id":76561198328141870,"connected_time":6001000000000,"state":"active","ping":69},{"user_id":613,"name":"King of Ping","steam_id":76561198278737470,"connected_time":4687000000000,"state":"active","ping":54},{"user_id":614,"name":"RazeMania","steam_id":76561199016669751,"connected_time":4683000000000,"state":"active","ping":100},{"user_id":616,"name":"Uncle Majic the Hip Hop Magicia","steam_id":76561198107924303,"connected_time":4632000000000,"state":"active","ping":33},{"user_id":490,"name":"Nerrrd_","steam_id":76561198870129960,"connected_time":13066000000000,"state":"active","ping":46},{"user_id":622,"name":"Preacher","steam_id":76561198022215764,"connected_time":2736000000000,"state":"active","ping":61},{"user_id":637,"name":"Umbra (speavy main)","steam_id":76561199132338544,"connected_time":723000000000,"state":"active","ping":68},{"user_id":581,"name":"Sableye","steam_id":76561198061247147,"connected_time":6615000000000,"state":"active","ping":74},{"user_id":629,"name":"Herdez Hot Salsa","steam_id":76561197991740906,"connected_time":1440000000000,"state":"active","ping":68},{"user_id":639,"name":"Ruby Gillman","steam_id":76561198366299848,"connected_time":64000000000,"state":"active","ping":69},{"user_id":640,"name":"SALTe","steam_id":76561197996295408,"connected_time":48000000000,"state":"active","ping":87},{"user_id":631,"name":"dongus","steam_id":76561198042774930,"connected_time":1122000000000,"state":"active","ping":157},{"user_id":627,"name":"Confused Creation","steam_id":76561198393664306,"connected_time":2625000000000,"state":"active","ping":129},{"user_id":638,"name":"S-pin","steam_id":76561198195599518,"connected_time":93000000000,"state":"active","ping":129},{"user_id":620,"name":"Park","steam_id":76561198057222814,"connected_time":3160000000000,"state":"active","ping":47},{"user_id":499,"name":"$0.18","steam_id":76561198360134800,"connected_time":12357000000000,"state":"active","ping":59},{"user_id":609,"name":"Not Ghostie","steam_id":76561198068686762,"connected_time":5134000000000,"state":"active","ping":53},{"user_id":630,"name":"Tri_Hunter","steam_id":76561198108176706,"connected_time":1145000000000,"state":"active","ping":44}]},{"server_id":15,"name":"Uncletopia | New York City | 3 | Stopwatch Beta","name_short":"nyc-3","host":"nyc-1.us.uncletopia.com","port":27035,"enabled":true,"region":"us-east","cc":"us","latitude":40.73061,"longitude":-73.93524,"reserved":0,"last_update":"0001-01-01T00:00:00Z","name_a2s":"Uncletopia | New York City | 3 | Stopwatch Beta","protocol":17,"map":"pl_borneo","folder":"tf","game":"Team Fortress","app_id":440,"player_count":0,"max_players":24,"Bots":0,"server_type":"Dedicated","server_os":"Linux","password":true,"vac":true,"version":"7961495","steam_id":85568392924742820,"keywords":["nocrits","nodmgspread","payload","uncletopia"],"game_id":440,"stv_port":27036,"stv_name":"Uncletopia | New York City | 3 | Stopwatch Beta | STV","players":null},{"server_id":16,"name":"Uncletopia | New York City | 4 | Community","name_short":"nyc-4","host":"nyc-1.us.uncletopia.com","port":27045,"enabled":true,"region":"us-east","cc":"us","latitude":40.73061,"longitude":-73.93524,"reserved":0,"last_update":"0001-01-01T00:00:00Z","name_a2s":"Uncletopia | New York City | 4 | Community","protocol":17,"map":"workshop/koth_bagel_rc6.ugc2514036946","folder":"tf","game":"Team Fortress","app_id":440,"player_count":18,"max_players":24,"Bots":0,"server_type":"Dedicated","server_os":"Linux","password":true,"vac":true,"version":"7961495","steam_id":85568392924742821,"keywords":["cp","nocrits","nodmgspread","uncletopia"],"game_id":440,"stv_port":27046,"stv_name":"Uncletopia | New York City | 4 | Community | STV","players":[{"user_id":98,"name":"Dr. Pleasant","steam_id":76561198111945101,"connected_time":932000000000,"state":"active","ping":89},{"user_id":105,"name":"Slashes","steam_id":76561197968573499,"connected_time":367000000000,"state":"active","ping":41},{"user_id":118,"name":"5mech","steam_id":76561198979167520,"connected_time":37000000000,"state":"active","ping":86},{"user_id":106,"name":"Ludcmorais","steam_id":76561198359217809,"connected_time":358000000000,"state":"active","ping":176},{"user_id":36,"name":"beyonder","steam_id":76561198045844070,"connected_time":4178000000000,"state":"active","ping":88},{"user_id":37,"name":"BreakfastTacos","steam_id":76561198847620442,"connected_time":4167000000000,"state":"active","ping":130},{"user_id":87,"name":"JokLit","steam_id":76561198117542242,"connected_time":1676000000000,"state":"active","ping":179},{"user_id":110,"name":"Huh?","steam_id":76561198119768703,"connected_time":245000000000,"state":"active","ping":62},{"user_id":117,"name":"ItsBrieDude","steam_id":76561198051971306,"connected_time":137000000000,"state":"active","ping":59},{"user_id":112,"name":"Overlooked","steam_id":76561199072155749,"connected_time":241000000000,"state":"active","ping":88},{"user_id":85,"name":";^)","steam_id":76561198269497358,"connected_time":2067000000000,"state":"active","ping":85},{"user_id":48,"name":"Theo","steam_id":76561198147484780,"connected_time":4050000000000,"state":"active","ping":113},{"user_id":113,"name":"K) Mazin","steam_id":76561198003419146,"connected_time":238000000000,"state":"active","ping":89},{"user_id":108,"name":"ARINET","steam_id":76561198052572890,"connected_time":343000000000,"state":"active","ping":43},{"user_id":97,"name":"metal pipe","steam_id":76561198849461209,"connected_time":1174000000000,"state":"active","ping":78},{"user_id":109,"name":"Guess I'm just popo","steam_id":76561197966419253,"connected_time":325000000000,"state":"active","ping":71},{"user_id":115,"name":"Lorelord","steam_id":76561199443152879,"connected_time":223000000000,"state":"active","ping":98},{"user_id":116,"name":"JFK GAMING","steam_id":76561198025593142,"connected_time":221000000000,"state":"active","ping":74}]},{"server_id":142,"name":"Uncletopia | São Paulo | 1 | All Maps","name_short":"sao-1","host":"sao-1.br.uncletopia.com","port":27015,"enabled":true,"region":"sa","cc":"br","latitude":-23.533773,"longitude":-46.62529,"reserved":0,"last_update":"0001-01-01T00:00:00Z","name_a2s":"Uncletopia | São Paulo | 1 | All Maps","protocol":17,"map":"koth_lakeside_final","folder":"tf","game":"Team Fortress","app_id":440,"player_count":0,"max_players":24,"Bots":0,"server_type":"Dedicated","server_os":"Linux","password":true,"vac":true,"version":"7961495","steam_id":85568392924469996,"keywords":["cp","nocrits","nodmgspread","uncletopia"],"game_id":440,"stv_port":27016,"stv_name":"Uncletopia | São Paulo | 1 | All Maps | STV","players":null},{"server_id":143,"name":"Uncletopia | São Paulo | 2 | All Maps","name_short":"sao-2","host":"sao-2.br.uncletopia.com","port":27015,"enabled":true,"region":"sa","cc":"br","latitude":-23.533773,"longitude":-46.62529,"reserved":0,"last_update":"0001-01-01T00:00:00Z","name_a2s":"Uncletopia | São Paulo | 2 | All Maps","protocol":17,"map":"cp_sunshine","folder":"tf","game":"Team Fortress","app_id":440,"player_count":0,"max_players":24,"Bots":0,"server_type":"Dedicated","server_os":"Linux","password":true,"vac":true,"version":"7961495","steam_id":85568392924485349,"keywords":["cp","nocrits","nodmgspread","uncletopia"],"game_id":440,"stv_port":27016,"stv_name":"Uncletopia | São Paulo | 2 | All Maps | STV","players":null},{"server_id":7,"name":"Uncletopia | Seattle | 1 | All Maps","name_short":"sea-1","host":"sea-1.us.uncletopia.com","port":27015,"enabled":true,"region":"us-west","cc":"us","latitude":47.608013,"longitude":-122.33517,"reserved":0,"last_update":"0001-01-01T00:00:00Z","name_a2s":"Uncletopia | Seattle | 1 | All Maps","protocol":17,"map":"pl_upward","folder":"tf","game":"Team Fortress","app_id":440,"player_count":24,"max_players":24,"Bots":0,"server_type":"Dedicated","server_os":"Linux","password":true,"vac":true,"version":"7961495","steam_id":85568392924469997,"keywords":["nocrits","nodmgspread","payload","uncletopia"],"game_id":440,"stv_port":27016,"stv_name":"Uncletopia | Seattle | 1 | All Maps | STV","players":[{"user_id":403,"name":"Neptune˖⁺｡˚⋆˙♥","steam_id":76561199054203198,"connected_time":4159000000000,"state":"active","ping":131},{"user_id":452,"name":"TrixieHap","steam_id":76561198728548389,"connected_time":471000000000,"state":"active","ping":62},{"user_id":446,"name":"Ducks","steam_id":76561198130038345,"connected_time":916000000000,"state":"active","ping":66},{"user_id":453,"name":"ZaniZ","steam_id":76561198161467000,"connected_time":392000000000,"state":"active","ping":30},{"user_id":454,"name":"tr","steam_id":76561198046944222,"connected_time":361000000000,"state":"active","ping":40},{"user_id":439,"name":"mike, isntrorywashere","steam_id":76561198225411004,"connected_time":1788000000000,"state":"active","ping":69},{"user_id":456,"name":"LAB8","steam_id":76561198047743526,"connected_time":258000000000,"state":"active","ping":32},{"user_id":420,"name":"bubblefier","steam_id":76561198872316133,"connected_time":1923000000000,"state":"active","ping":62},{"user_id":386,"name":"pizzalover_2014","steam_id":76561198870649125,"connected_time":5010000000000,"state":"active","ping":84},{"user_id":457,"name":"slim goodbody","steam_id":76561197997100185,"connected_time":238000000000,"state":"active","ping":85},{"user_id":421,"name":"[ibb™]Shadow20X6-ENGI","steam_id":76561198019292755,"connected_time":1922000000000,"state":"active","ping":87},{"user_id":395,"name":"ORANGE","steam_id":76561198000401769,"connected_time":4761000000000,"state":"active","ping":45},{"user_id":443,"name":"Attrition","steam_id":76561197969881916,"connected_time":1169000000000,"state":"active","ping":60},{"user_id":455,"name":"Skabbety","steam_id":76561198168044257,"connected_time":359000000000,"state":"active","ping":43},{"user_id":462,"name":"FlamingManiac","steam_id":76561198361996837,"connected_time":19000000000,"state":"active","ping":160},{"user_id":445,"name":"lusty","steam_id":76561198138478947,"connected_time":937000000000,"state":"active","ping":45},{"user_id":414,"name":"Luca","steam_id":76561198125087140,"connected_time":2997000000000,"state":"active","ping":47},{"user_id":416,"name":"korkskrou","steam_id":76561198422156430,"connected_time":2534000000000,"state":"active","ping":46},{"user_id":442,"name":"Rebel","steam_id":76561198056377621,"connected_time":1507000000000,"state":"active","ping":90},{"user_id":435,"name":"Snoogs","steam_id":76561198444880931,"connected_time":1840000000000,"state":"active","ping":124},{"user_id":448,"name":"A UsedNom","steam_id":76561198402832756,"connected_time":866000000000,"state":"active","ping":58},{"user_id":425,"name":"YahYeeterson","steam_id":76561198120480906,"connected_time":1920000000000,"state":"active","ping":67},{"user_id":461,"name":"PopcornBucketGames","steam_id":76561199089562026,"connected_time":120000000000,"state":"active","ping":71},{"user_id":405,"name":"HaphazardHazel","steam_id":76561198316812693,"connected_time":4092000000000,"state":"active","ping":135}]},{"server_id":119,"name":"Uncletopia | Seattle | 2 | All Maps","name_short":"sea-2","host":"sea-1.us.uncletopia.com","port":27025,"enabled":true,"region":"us-west","cc":"us","latitude":47.608013,"longitude":-122.33517,"reserved":0,"last_update":"0001-01-01T00:00:00Z","name_a2s":"Uncletopia | Seattle | 2 | All Maps","protocol":17,"map":"pl_pier","folder":"tf","game":"Team Fortress","app_id":440,"player_count":24,"max_players":24,"Bots":0,"server_type":"Dedicated","server_os":"Linux","password":true,"vac":true,"version":"7961495","steam_id":85568392924469998,"keywords":["nocrits","nodmgspread","payload","uncletopia"],"game_id":440,"stv_port":27026,"stv_name":"Uncletopia | Seattle | 2 | All Maps | STV","players":[{"user_id":218,"name":"Petrivus","steam_id":76561198202152453,"connected_time":3164000000000,"state":"active","ping":54},{"user_id":227,"name":"blueboy23","steam_id":76561199121889873,"connected_time":2425000000000,"state":"active","ping":46},{"user_id":219,"name":"ilun","steam_id":76561198042913843,"connected_time":3106000000000,"state":"active","ping":55},{"user_id":203,"name":"here2he1p","steam_id":76561199216977630,"connected_time":4495000000000,"state":"active","ping":68},{"user_id":236,"name":"Bidi Bom Bom","steam_id":76561197980385816,"connected_time":1738000000000,"state":"active","ping":64},{"user_id":234,"name":"Lord Boaretheus","steam_id":76561198963410515,"connected_time":1755000000000,"state":"active","ping":129},{"user_id":249,"name":"Idontknow","steam_id":76561199207044048,"connected_time":532000000000,"state":"active","ping":40},{"user_id":245,"name":"lytewerk","steam_id":76561198002819791,"connected_time":994000000000,"state":"active","ping":57},{"user_id":225,"name":"Neophyte","steam_id":76561198027183394,"connected_time":2654000000000,"state":"active","ping":113},{"user_id":237,"name":"Dr.DeFriend","steam_id":76561198081356344,"connected_time":1735000000000,"state":"active","ping":66},{"user_id":240,"name":"bubba simp club","steam_id":76561199338554815,"connected_time":1579000000000,"state":"active","ping":93},{"user_id":211,"name":"lil homie gay ass","steam_id":76561198044804626,"connected_time":4139000000000,"state":"active","ping":102},{"user_id":233,"name":"Funbearable ʕ •ᴥ•ʔ","steam_id":76561197968272094,"connected_time":1834000000000,"state":"active","ping":49},{"user_id":238,"name":"2Alpha6","steam_id":76561197992690915,"connected_time":1723000000000,"state":"active","ping":70},{"user_id":199,"name":"moe","steam_id":76561198929586245,"connected_time":4726000000000,"state":"active","ping":72},{"user_id":230,"name":"Sleuth","steam_id":76561198418288939,"connected_time":2304000000000,"state":"active","ping":70},{"user_id":252,"name":"John Johnson","steam_id":76561198347510093,"connected_time":517000000000,"state":"active","ping":64},{"user_id":186,"name":"CashGordon","steam_id":76561197975594096,"connected_time":5860000000000,"state":"active","ping":40},{"user_id":212,"name":"dougrocks421","steam_id":76561198165063918,"connected_time":3831000000000,"state":"active","ping":45},{"user_id":241,"name":"Zatrahel (hie/hym/hys)","steam_id":76561198262628370,"connected_time":1568000000000,"state":"active","ping":70},{"user_id":246,"name":"Okar","steam_id":76561199274214624,"connected_time":961000000000,"state":"active","ping":132},{"user_id":206,"name":"type \"bad med\" to kick","steam_id":76561198076402476,"connected_time":4313000000000,"state":"active","ping":94},{"user_id":253,"name":"Plains Phoenix","steam_id":76561198817161299,"connected_time":457000000000,"state":"active","ping":107},{"user_id":248,"name":"Grand","steam_id":76561198290143399,"connected_time":738000000000,"state":"active","ping":76}]},{"server_id":406,"name":"Uncletopia | Seattle | 3 | Stopwatch Beta","name_short":"sea-3","host":"sea-1.us.uncletopia.com","port":27035,"enabled":true,"region":"us-west","cc":"us","latitude":47.608013,"longitude":-122.33517,"reserved":0,"last_update":"0001-01-01T00:00:00Z","name_a2s":"Uncletopia | Seattle | 3 | Stopwatch Beta","protocol":17,"map":"koth_highpass","folder":"tf","game":"Team Fortress","app_id":440,"player_count":0,"max_players":24,"Bots":0,"server_type":"Dedicated","server_os":"Linux","password":true,"vac":true,"version":"7961495","steam_id":85568392924515217,"keywords":["cp","nocrits","nodmgspread","uncletopia"],"game_id":440,"stv_port":27036,"stv_name":"Uncletopia | Seattle | 3 | Stopwatch Beta | STV","players":null},{"server_id":17,"name":"Uncletopia | San Francisco | 1 | All Maps","name_short":"sfo-1","host":"sfo-1.us.uncletopia.com","port":27015,"enabled":true,"region":"us-west","cc":"us","latitude":37.77397,"longitude":-122.4313,"reserved":0,"last_update":"0001-01-01T00:00:00Z","name_a2s":"Uncletopia | San Francisco | 1 | All Maps","protocol":17,"map":"pl_frontier_final","folder":"tf","game":"Team Fortress","app_id":440,"player_count":0,"max_players":24,"Bots":0,"server_type":"Dedicated","server_os":"Linux","password":true,"vac":true,"version":"7932396","steam_id":85568392924469999,"keywords":["nocrits","nodmgspread","payload","uncletopia"],"game_id":440,"stv_port":27016,"stv_name":"Uncletopia | San Francisco | 1 | All Maps | STV","players":null},{"server_id":18,"name":"Uncletopia | San Francisco | 2 | All Maps","name_short":"sfo-2","host":"sfo-1.us.uncletopia.com","port":27025,"enabled":true,"region":"us-west","cc":"us","latitude":37.77397,"longitude":-122.4313,"reserved":0,"last_update":"0001-01-01T00:00:00Z","name_a2s":"Uncletopia | San Francisco | 2 | All Maps","protocol":17,"map":"cp_snakewater_final1","folder":"tf","game":"Team Fortress","app_id":440,"player_count":0,"max_players":24,"Bots":0,"server_type":"Dedicated","server_os":"Linux","password":true,"vac":true,"version":"7932396","steam_id":85568392924470000,"keywords":["cp","nocrits","nodmgspread","uncletopia"],"game_id":440,"stv_port":27026,"stv_name":"Uncletopia | San Francisco | 2 | All Maps | STV","players":null},{"server_id":19,"name":"Uncletopia | San Francisco | 3 | Stopwatch Beta","name_short":"sfo-3","host":"sfo-1.us.uncletopia.com","port":27035,"enabled":true,"region":"us-west","cc":"us","latitude":37.77397,"longitude":-122.4313,"reserved":0,"last_update":"0001-01-01T00:00:00Z","name_a2s":"Uncletopia | San Francisco | 3 | Stopwatch Beta","protocol":17,"map":"koth_lakeside_final","folder":"tf","game":"Team Fortress","app_id":440,"player_count":0,"max_players":24,"Bots":0,"server_type":"Dedicated","server_os":"Linux","password":true,"vac":true,"version":"7932396","steam_id":85568392924742824,"keywords":["cp","nocrits","nodmgspread","uncletopia"],"game_id":440,"stv_port":27036,"stv_name":"Uncletopia | San Francisco | 3 | Stopwatch Beta | STV","players":null},{"server_id":20,"name":"Uncletopia | San Francisco | 4 | Community","name_short":"sfo-4","host":"sfo-1.us.uncletopia.com","port":27045,"enabled":true,"region":"us-west","cc":"us","latitude":37.77397,"longitude":-122.4313,"reserved":0,"last_update":"0001-01-01T00:00:00Z","name_a2s":"Uncletopia | San Francisco | 4 | Community","protocol":17,"map":"pl_borneo","folder":"tf","game":"Team Fortress","app_id":440,"player_count":0,"max_players":24,"Bots":0,"server_type":"Dedicated","server_os":"Linux","password":true,"vac":true,"version":"7932396","steam_id":85568392924742826,"keywords":["nocrits","nodmgspread","payload","uncletopia"],"game_id":440,"stv_port":27046,"stv_name":"Uncletopia | San Francisco | 4 | Community | STV","players":null},{"server_id":141,"name":"Uncletopia | Sydney | 1 | All Maps","name_short":"syd-1","host":"syd-1.au.uncletopia.com","port":27015,"enabled":true,"region":"au","cc":"au","latitude":-33.865143,"longitude":151.2099,"reserved":0,"last_update":"0001-01-01T00:00:00Z","name_a2s":"Uncletopia | Sydney | 1 | All Maps","protocol":17,"map":"koth_harvest_final","folder":"tf","game":"Team Fortress","app_id":440,"player_count":24,"max_players":24,"Bots":0,"server_type":"Dedicated","server_os":"Linux","password":true,"vac":true,"version":"7961495","steam_id":85568392924470001,"keywords":["cp","nocrits","nodmgspread","uncletopia"],"game_id":440,"stv_port":27016,"stv_name":"Uncletopia | Sydney | 1 | All Maps | STV","players":[{"user_id":25,"name":"Office","steam_id":76561198059380714,"connected_time":1671000000000,"state":"active","ping":76},{"user_id":15,"name":"iam bada s","steam_id":76561198867007873,"connected_time":2590000000000,"state":"active","ping":103},{"user_id":54,"name":"faithless","steam_id":76561198064565908,"connected_time":120000000000,"state":"active","ping":87},{"user_id":32,"name":"In the face!","steam_id":76561199400467501,"connected_time":1026000000000,"state":"active","ping":98},{"user_id":55,"name":"Phibs","steam_id":76561199323730865,"connected_time":114000000000,"state":"active","ping":36},{"user_id":19,"name":"A 1989 Nissan Patrol DX","steam_id":76561198152812718,"connected_time":2372000000000,"state":"active","ping":75},{"user_id":21,"name":"Senator Armstrong","steam_id":76561199098106608,"connected_time":2281000000000,"state":"active","ping":59},{"user_id":22,"name":"kisses u","steam_id":76561198288970258,"connected_time":2251000000000,"state":"active","ping":51},{"user_id":41,"name":"xaxaxa_you_lose_kankerlijer","steam_id":76561198197725837,"connected_time":508000000000,"state":"active","ping":60},{"user_id":36,"name":"Parasonic C3 DNA Scrambler","steam_id":76561198238031616,"connected_time":763000000000,"state":"active","ping":78},{"user_id":51,"name":"cool game .","steam_id":76561198357990697,"connected_time":152000000000,"state":"active","ping":70},{"user_id":34,"name":"Owlenstein™","steam_id":76561198093983826,"connected_time":841000000000,"state":"active","ping":120},{"user_id":35,"name":"Birb","steam_id":76561198032752815,"connected_time":800000000000,"state":"active","ping":73},{"user_id":38,"name":"opium","steam_id":76561199184547017,"connected_time":721000000000,"state":"active","ping":41},{"user_id":39,"name":"zombie doggo","steam_id":76561198124268116,"connected_time":586000000000,"state":"active","ping":108},{"user_id":40,"name":"ron","steam_id":76561198072560017,"connected_time":554000000000,"state":"active","ping":55},{"user_id":42,"name":"Fyrestorm","steam_id":76561198025600650,"connected_time":472000000000,"state":"active","ping":52},{"user_id":43,"name":"NovaTheory69","steam_id":76561199469769054,"connected_time":277000000000,"state":"active","ping":74},{"user_id":44,"name":"Bonker","steam_id":76561198845159846,"connected_time":276000000000,"state":"active","ping":59},{"user_id":45,"name":"Beangodhiann","steam_id":76561198189663681,"connected_time":272000000000,"state":"active","ping":57},{"user_id":47,"name":"BigLadBoyga","steam_id":76561198985263763,"connected_time":179000000000,"state":"active","ping":76},{"user_id":59,"name":"mayhem","steam_id":76561198059228525,"connected_time":26000000000,"state":"active","ping":103},{"user_id":49,"name":"Christopher Moltisanti","steam_id":76561199216915172,"connected_time":166000000000,"state":"active","ping":64},{"user_id":50,"name":"An Asian Fella","steam_id":76561198400378180,"connected_time":165000000000,"state":"active","ping":51}]},{"server_id":123,"name":"Uncletopia | Sydney | 2 | All Maps","name_short":"syd-2","host":"syd-1.au.uncletopia.com","port":27025,"enabled":true,"region":"au","cc":"au","latitude":-33.865143,"longitude":151.2099,"reserved":0,"last_update":"0001-01-01T00:00:00Z","name_a2s":"Uncletopia | Sydney | 2 | All Maps","protocol":17,"map":"koth_viaduct","folder":"tf","game":"Team Fortress","app_id":440,"player_count":0,"max_players":24,"Bots":0,"server_type":"Dedicated","server_os":"Linux","password":true,"vac":true,"version":"7961495","steam_id":85568392924470002,"keywords":["cp","nocrits","nodmgspread","uncletopia"],"game_id":440,"stv_port":27026,"stv_name":"Uncletopia | Sydney | 2 | All Maps | STV","players":null},{"server_id":395,"name":"Uncletopia | Sydney | 3 | All Maps","name_short":"syd-3","host":"syd-1.au.uncletopia.com","port":27035,"enabled":true,"region":"au","cc":"au","latitude":-33.865143,"longitude":151.2099,"reserved":0,"last_update":"0001-01-01T00:00:00Z","name_a2s":"Uncletopia | Sydney | 3 | All Maps","protocol":17,"map":"pl_borneo","folder":"tf","game":"Team Fortress","app_id":440,"player_count":0,"max_players":24,"Bots":0,"server_type":"Dedicated","server_os":"Linux","password":true,"vac":true,"version":"7961495","steam_id":85568392925194467,"keywords":["nocrits","nodmgspread","payload","uncletopia"],"game_id":440,"stv_port":27036,"stv_name":"Uncletopia | Sydney | 3 | All Maps | STV","players":null},{"server_id":396,"name":"Uncletopia | Sydney | 4 | All Maps","name_short":"syd-4","host":"syd-1.au.uncletopia.com","port":27045,"enabled":true,"region":"au","cc":"au","latitude":-33.865143,"longitude":151.2099,"reserved":0,"last_update":"0001-01-01T00:00:00Z","name_a2s":"Uncletopia | Sydney | 4 | All Maps","protocol":17,"map":"koth_cascade","folder":"tf","game":"Team Fortress","app_id":440,"player_count":0,"max_players":24,"Bots":0,"server_type":"Dedicated","server_os":"Linux","password":true,"vac":true,"version":"7961495","steam_id":85568392925397958,"keywords":["cp","nocrits","nodmgspread","uncletopia"],"game_id":440,"stv_port":27046,"stv_name":"Uncletopia | Sydney | 4 | All Maps | STV","players":null},{"server_id":58,"name":"Uncletopia | Sydney | 5 | Stopwatch Beta","name_short":"syd-5","host":"syd-1.au.uncletopia.com","port":27055,"enabled":true,"region":"au","cc":"au","latitude":-33.865143,"longitude":151.2099,"reserved":0,"last_update":"0001-01-01T00:00:00Z","name_a2s":"Uncletopia | Sydney | 5 | Stopwatch Beta","protocol":17,"map":"koth_viaduct","folder":"tf","game":"Team Fortress","app_id":440,"player_count":0,"max_players":24,"Bots":0,"server_type":"Dedicated","server_os":"Linux","password":true,"vac":true,"version":"7961495","steam_id":85568392925397959,"keywords":["cp","nocrits","nodmgspread","uncletopia"],"game_id":440,"stv_port":27056,"stv_name":"Uncletopia | Sydney | 5 | Stopwatch Beta | STV","players":null},{"server_id":59,"name":"Uncletopia | Sydney | 6 | Community","name_short":"syd-6","host":"syd-1.au.uncletopia.com","port":27065,"enabled":true,"region":"au","cc":"au","latitude":-33.865143,"longitude":151.2099,"reserved":0,"last_update":"0001-01-01T00:00:00Z","name_a2s":"Uncletopia | Sydney | 6 | Community","protocol":17,"map":"workshop/koth_ramjam_rc1.ugc459778887","folder":"tf","game":"Team Fortress","app_id":440,"player_count":0,"max_players":24,"Bots":0,"server_type":"Dedicated","server_os":"Linux","password":true,"vac":true,"version":"7961495","steam_id":85568392925397960,"keywords":["cp","nocrits","nodmgspread","uncletopia"],"game_id":440,"stv_port":27066,"stv_name":"Uncletopia | Sydney | 6 | Community | STV","players":null},{"server_id":49,"name":"Uncletopia | Warsaw | 1 | All Maps","name_short":"waw-1","host":"waw-1.pl.uncletopia.com","port":27015,"enabled":true,"region":"eu","cc":"pl","latitude":52.2297,"longitude":21.017532,"reserved":0,"last_update":"0001-01-01T00:00:00Z","name_a2s":"","protocol":0,"map":"","folder":"","game":"","app_id":0,"player_count":0,"max_players":0,"Bots":0,"server_type":"","server_os":"","password":false,"vac":false,"version":"","steam_id":0,"keywords":null,"game_id":0,"stv_port":0,"stv_name":"","players":null},{"server_id":50,"name":"Uncletopia | Warsaw | 2 | All Maps","name_short":"waw-2","host":"waw-1.pl.uncletopia.com","port":27025,"enabled":true,"region":"eu","cc":"pl","latitude":52.2297,"longitude":21.017532,"reserved":0,"last_update":"0001-01-01T00:00:00Z","name_a2s":"Uncletopia | Warsaw | 2 | All Maps","protocol":17,"map":"koth_lakeside_final","folder":"tf","game":"Team Fortress","app_id":440,"player_count":0,"max_players":24,"Bots":0,"server_type":"Dedicated","server_os":"Linux","password":true,"vac":true,"version":"7961495","steam_id":85568392925397851,"keywords":["cp","nocrits","nodmgspread","uncletopia"],"game_id":440,"stv_port":27026,"stv_name":"Uncletopia | Warsaw | 2 | All Maps | STV","players":null},{"server_id":51,"name":"Uncletopia | Warsaw | 3 | All Maps","name_short":"waw-3","host":"waw-1.pl.uncletopia.com","port":27035,"enabled":true,"region":"eu","cc":"pl","latitude":52.2297,"longitude":21.017532,"reserved":0,"last_update":"0001-01-01T00:00:00Z","name_a2s":"Uncletopia | Warsaw | 3 | All Maps","protocol":17,"map":"koth_highpass","folder":"tf","game":"Team Fortress","app_id":440,"player_count":0,"max_players":24,"Bots":0,"server_type":"Dedicated","server_os":"Linux","password":true,"vac":true,"version":"7961495","steam_id":85568392925397852,"keywords":["cp","nocrits","nodmgspread","uncletopia"],"game_id":440,"stv_port":27036,"stv_name":"Uncletopia | Warsaw | 3 | All Maps | STV","players":null},{"server_id":52,"name":"Uncletopia | Warsaw | 4 | All Maps","name_short":"waw-4","host":"waw-1.pl.uncletopia.com","port":27045,"enabled":true,"region":"eu","cc":"pl","latitude":52.2297,"longitude":21.017532,"reserved":0,"last_update":"0001-01-01T00:00:00Z","name_a2s":"Uncletopia | Warsaw | 4 | All Maps","protocol":17,"map":"koth_cascade","folder":"tf","game":"Team Fortress","app_id":440,"player_count":0,"max_players":24,"Bots":0,"server_type":"Dedicated","server_os":"Linux","password":true,"vac":true,"version":"7961495","steam_id":85568392925397853,"keywords":["cp","nocrits","nodmgspread","uncletopia"],"game_id":440,"stv_port":27046,"stv_name":"Uncletopia | Warsaw | 4 | All Maps | STV","players":null},{"server_id":53,"name":"Uncletopia | Warsaw | 5 | Stopwatch Beta","name_short":"waw-5","host":"waw-1.pl.uncletopia.com","port":27055,"enabled":true,"region":"eu","cc":"pl","latitude":52.2297,"longitude":21.017532,"reserved":0,"last_update":"0001-01-01T00:00:00Z","name_a2s":"Uncletopia | Warsaw | 5 | Stopwatch Beta","protocol":17,"map":"workshop/pl_summercoast_rc8e.ugc1761528829","folder":"tf","game":"Team Fortress","app_id":440,"player_count":0,"max_players":24,"Bots":0,"server_type":"Dedicated","server_os":"Linux","password":true,"vac":true,"version":"7961495","steam_id":85568392925397854,"keywords":["nocrits","nodmgspread","payload","uncletopia"],"game_id":440,"stv_port":27056,"stv_name":"Uncletopia | Warsaw | 5 | Stopwatch Beta | STV","players":null},{"server_id":54,"name":"Uncletopia | Warsaw | 6 | Community","name_short":"waw-6","host":"waw-1.pl.uncletopia.com","port":27065,"enabled":true,"region":"eu","cc":"pl","latitude":52.2297,"longitude":21.017532,"reserved":0,"last_update":"0001-01-01T00:00:00Z","name_a2s":"Uncletopia | Warsaw | 6 | Community","protocol":17,"map":"workshop/cp_reckoner_rc6.ugc674719999","folder":"tf","game":"Team Fortress","app_id":440,"player_count":0,"max_players":24,"Bots":0,"server_type":"Dedicated","server_os":"Linux","password":true,"vac":true,"version":"7961495","steam_id":85568392925397856,"keywords":["cp","nocrits","nodmgspread","uncletopia"],"game_id":440,"stv_port":27066,"stv_name":"Uncletopia | Warsaw | 6 | Community | STV","players":null}]}