{"status":true,"message":"","result":[{"server_id":9,"name":"Uncletopia | Atlanta | 1 | All Maps","name_short":"atl-1","host":"atl-1.us.uncletopia.com","port":27015,"enabled":true,"region":"us-east","cc":"us","latitude":33.753746,"longitude":-84.38633,"reserved":0,"last_update":"0001-01-01T00:00:00Z","name_a2s":"Uncletopia | Atlanta | 1 | All Maps","protocol":17,"map":"koth_cascade","folder":"tf","game":"Team Fortress","app_id":440,"player_count":19,"max_players":24,"Bots":0,"server_type":"Dedicated","server_os":"Linux","password":true,"vac":true,"version":"7882260","steam_id":85568392924469982,"keywords":["cp","nocrits","nodmgspread","uncletopia"],"game_id":440,"stv_port":27016,"stv_name":"Uncletopia | Atlanta | 1 | All Maps | STV","players":[{"user_id":898,"name":"Nymatoid","steam_id":76561199167865978,"connected_time":106000000000,"state":"active","ping":103},{"user_id":859,"name":"uniwu - BUFF THE SPEED","steam_id":76561198864421290,"connected_time":1599000000000,"state":"active","ping":63},{"user_id":878,"name":"Mobius","steam_id":76561199121973450,"connected_time":909000000000,"state":"active","ping":76},{"user_id":847,"name":"Waddlehi","steam_id":76561198072553840,"connected_time":2106000000000,"state":"active","ping":95},{"user_id":867,"name":"the piss boiling machine","steam_id":76561198113716047,"connected_time":1191000000000,"state":"active","ping":86},{"user_id":899,"name":"P I S S","steam_id":76561199197497757,"connected_time":97000000000,"state":"active","ping":116},{"user_id":880,"name":"Buff Engineer Only Fans","steam_id":76561199379158751,"connected_time":726000000000,"state":"active","ping":95},{"user_id":606,"name":"Ashes!","steam_id":76561197998475441,"connected_time":9362000000000,"state":"active","ping":97},{"user_id":830,"name":"Trouble L. Panic","steam_id":76561197994768376,"connected_time":2415000000000,"state":"active","ping":106},{"user_id":900,"name":"juanito \u003c3","steam_id":76561198096751293,"connected_time":74000000000,"state":"active","ping":94},{"user_id":716,"name":"Jabawakai","steam_id":76561198088881254,"connected_time":6157000000000,"state":"active","ping":99},{"user_id":839,"name":"Rockhead","steam_id":76561197995196535,"connected_time":2200000000000,"state":"active","ping":96},{"user_id":901,"name":"choi","steam_id":76561198053669887,"connected_time":55000000000,"state":"active","ping":125},{"user_id":902,"name":"Literally Chaeryeong","steam_id":76561198082873880,"connected_time":52000000000,"state":"spawning","ping":94},{"user_id":622,"name":"gmele1","steam_id":76561199219013004,"connected_time":8886000000000,"state":"active","ping":132},{"user_id":771,"name":"Onyx","steam_id":76561198275349640,"connected_time":4412000000000,"state":"active","ping":148},{"user_id":868,"name":"Lamination Sensation","steam_id":76561198362916241,"connected_time":1187000000000,"state":"active","ping":105},{"user_id":883,"name":"nips slippin n slappin","steam_id":76561198051959007,"connected_time":701000000000,"state":"active","ping":100},{"user_id":884,"name":"lucin","steam_id":76561198258062078,"connected_time":674000000000,"state":"active","ping":388}]},{"server_id":104,"name":"Uncletopia | Atlanta | 2 | All Maps","name_short":"atl-2","host":"atl-1.us.uncletopia.com","port":27025,"enabled":true,"region":"us-east","cc":"us","latitude":33.753746,"longitude":-84.38633,"reserved":0,"last_update":"0001-01-01T00:00:00Z","name_a2s":"Uncletopia | Atlanta | 2 | All Maps","protocol":17,"map":"pl_borneo","folder":"tf","game":"Team Fortress","app_id":440,"player_count":24,"max_players":24,"Bots":0,"server_type":"Dedicated","server_os":"Linux","password":true,"vac":true,"version":"7882260","steam_id":85568392924469983,"keywords":["nocrits","nodmgspread","payload","uncletopia"],"game_id":440,"stv_port":27026,"stv_name":"Uncletopia | Atlanta | 2 | All Maps | STV","players":[{"user_id":254,"name":"SomeDink","steam_id":76561198114874429,"connected_time":1410000000000,"state":"active","ping":112},{"user_id":239,"name":"switch","steam_id":76561199014848255,"connected_time":1890000000000,"state":"active","ping":102},{"user_id":286,"name":"Tomaash","steam_id":76561198115542042,"connected_time":120000000000,"state":"active","ping":174},{"user_id":264,"name":"DylanZPlays","steam_id":76561199455951305,"connected_time":665000000000,"state":"active","ping":79},{"user_id":265,"name":"Reposas","steam_id":76561198058803197,"connected_time":616000000000,"state":"active","ping":95},{"user_id":262,"name":"Travorski","steam_id":76561198072493142,"connected_time":1108000000000,"state":"active","ping":129},{"user_id":266,"name":"Tri","steam_id":76561198126346050,"connected_time":588000000000,"state":"active","ping":113},{"user_id":267,"name":"trapsis","steam_id":76561198069474149,"connected_time":563000000000,"state":"active","ping":84},{"user_id":276,"name":"Snake Handler","steam_id":76561198027198306,"connected_time":320000000000,"state":"active","ping":94},{"user_id":283,"name":"just a gamer","steam_id":76561199208833695,"connected_time":154000000000,"state":"active","ping":106},{"user_id":253,"name":"Void","steam_id":76561199186496740,"connected_time":1462000000000,"state":"active","ping":124},{"user_id":257,"name":"Argon","steam_id":76561199254804349,"connected_time":1310000000000,"state":"active","ping":157},{"user_id":275,"name":"Transfem Catgirl \u003c3 (she/it)","steam_id":76561198807069433,"connected_time":323000000000,"state":"active","ping":125},{"user_id":288,"name":"basmati jarate","steam_id":76561198319442494,"connected_time":52000000000,"state":"active","ping":134},{"user_id":273,"name":"Man Man","steam_id":76561199068338634,"connected_time":364000000000,"state":"active","ping":123},{"user_id":247,"name":"Portal2Player","steam_id":76561198062870114,"connected_time":1627000000000,"state":"active","ping":126},{"user_id":277,"name":"Tskuno","steam_id":76561198129291597,"connected_time":320000000000,"state":"active","ping":101},{"user_id":278,"name":"Transfem Furry \u003c3","steam_id":76561198288036403,"connected_time":319000000000,"state":"active","ping":149},{"user_id":289,"name":"HarryjusttHarry","steam_id":76561198982810452,"connected_time":38000000000,"state":"active","ping":123},{"user_id":290,"name":"Yummy Kabobz","steam_id":76561198067661705,"connected_time":1000000000,"state":"spawning","ping":87},{"user_id":280,"name":"El Bondin","steam_id":76561198820792434,"connected_time":298000000000,"state":"active","ping":128},{"user_id":251,"name":"toastloard","steam_id":76561198368386853,"connected_time":1525000000000,"state":"active","ping":134},{"user_id":285,"name":"eve","steam_id":76561198209455624,"connected_time":135000000000,"state":"active","ping":119},{"user_id":287,"name":"blobb","steam_id":76561198950448488,"connected_time":118000000000,"state":"active","ping":108}]},{"server_id":400,"name":"Uncletopia | Atlanta | 3 | Community","name_short":"atl-3","host":"atl-1.us.uncletopia.com","port":27035,"enabled":true,"region":"us-east","cc":"us","latitude":33.753746,"longitude":-84.38633,"reserved":0,"last_update":"0001-01-01T00:00:00Z","name_a2s":"Uncletopia | Atlanta | 3 | Community","protocol":17,"map":"workshop/koth_synthetic_rc6a.ugc1549817316","folder":"tf","game":"Team Fortress","app_id":440,"player_count":0,"max_players":24,"Bots":0,"server_type":"Dedicated","server_os":"Linux","password":true,"vac":true,"version":"7882260","steam_id":85568392924515187,"keywords":["cp","nocrits","nodmgspread","uncletopia"],"game_id":440,"stv_port":27036,"stv_name":"Uncletopia | Atlanta | 3 | Community | STV","players":null},{"server_id":401,"name":"Uncletopia | Atlanta | 4 | No Payload","name_short":"atl-4","host":"atl-1.us.uncletopia.com","port":27045,"enabled":true,"region":"us-east","cc":"us","latitude":33.753746,"longitude":-84.38633,"reserved":0,"last_update":"0001-01-01T00:00:00Z","name_a2s":"","protocol":0,"map":"","folder":"","game":"","app_id":0,"player_count":0,"max_players":0,"Bots":0,"server_type":"","server_os":"","password":false,"vac":false,"version":"","steam_id":0,"keywords":null,"game_id":0,"stv_port":0,"stv_name":"","players":null},{"server_id":2,"name":"Uncletopia | Chicago | 1 | All Maps","name_short":"chi-1","host":"chi-1.us.uncletopia.com","port":27015,"enabled":true,"region":"us-central","cc":"us","latitude":41.881832,"longitude":-87.62318,"reserved":0,"last_update":"0001-01-01T00:00:00Z","name_a2s":"Uncletopia | Chicago | 1 | All Maps","protocol":17,"map":"cp_steel","folder":"tf","game":"Team Fortress","app_id":440,"player_count":21,"max_players":24,"Bots":0,"server_type":"Dedicated","server_os":"Linux","password":true,"vac":true,"version":"7882260","steam_id":85568392924469984,"keywords":["cp","nocrits","nodmgspread","uncletopia"],"game_id":440,"stv_port":27016,"stv_name":"Uncletopia | Chicago | 1 | All Maps | STV","players":[{"user_id":239,"name":"Lost","steam_id":76561198093713427,"connected_time":4716000000000,"state":"active","ping":60},{"user_id":261,"name":"YourFriendJessie #savetf2","steam_id":76561198176883097,"connected_time":3010000000000,"state":"active","ping":57},{"user_id":281,"name":"metalfan666","steam_id":76561198386344068,"connected_time":1028000000000,"state":"active","ping":75},{"user_id":277,"name":"Maverick","steam_id":76561198322829814,"connected_time":1292000000000,"state":"active","ping":76},{"user_id":293,"name":"katryna","steam_id":76561198023440304,"connected_time":71000000000,"state":"active","ping":57},{"user_id":292,"name":"noah","steam_id":76561198173310157,"connected_time":97000000000,"state":"active","ping":49},{"user_id":294,"name":"MINILEGOLAS","steam_id":76561198859362058,"connected_time":8000000000,"state":"spawning","ping":94},{"user_id":295,"name":"INFINITE","steam_id":76561197971285557,"connected_time":1000000000,"state":"spawning","ping":42},{"user_id":256,"name":"Fudge_Cake","steam_id":76561198059218167,"connected_time":3398000000000,"state":"active","ping":91},{"user_id":276,"name":"McDonald","steam_id":76561199028533497,"connected_time":1371000000000,"state":"active","ping":103},{"user_id":283,"name":"MrDarkc","steam_id":76561199233053848,"connected_time":913000000000,"state":"active","ping":90},{"user_id":280,"name":"joyeuxnoelle","steam_id":76561198062423120,"connected_time":1172000000000,"state":"active","ping":72},{"user_id":290,"name":"Ras","steam_id":76561198123546775,"connected_time":703000000000,"state":"active","ping":74},{"user_id":287,"name":"Undertime Slopper","steam_id":76561198396789061,"connected_time":792000000000,"state":"active","ping":83},{"user_id":251,"name":"Owl Pacino","steam_id":76561197979970666,"connected_time":3759000000000,"state":"active","ping":57},{"user_id":264,"name":"blob","steam_id":76561198122375328,"connected_time":2715000000000,"state":"active","ping":58},{"user_id":291,"name":"Zenela","steam_id":76561199230129805,"connected_time":521000000000,"state":"active","ping":67},{"user_id":274,"name":"Hylic","steam_id":76561199051314589,"connected_time":1565000000000,"state":"active","ping":67},{"user_id":289,"name":"Westwood","steam_id":76561199387699252,"connected_time":775000000000,"state":"active","ping":87},{"user_id":265,"name":"Dwaggy","steam_id":76561198027369555,"connected_time":2422000000000,"state":"active","ping":62},{"user_id":268,"name":"trollgenier","steam_id":76561198882404753,"connected_time":2395000000000,"state":"active","ping":81}]},{"server_id":106,"name":"Uncletopia | Chicago | 2 | All Maps","name_short":"chi-2","host":"chi-1.us.uncletopia.com","port":27025,"enabled":true,"region":"us-central","cc":"us","latitude":41.881832,"longitude":-87.62318,"reserved":0,"last_update":"0001-01-01T00:00:00Z","name_a2s":"Uncletopia | Chicago | 2 | All Maps","protocol":17,"map":"pl_pier","folder":"tf","game":"Team Fortress","app_id":440,"player_count":24,"max_players":24,"Bots":0,"server_type":"Dedicated","server_os":"Linux","password":true,"vac":true,"version":"7882260","steam_id":85568392924469985,"keywords":["nocrits","nodmgspread","payload","uncletopia"],"game_id":440,"stv_port":27026,"stv_name":"Uncletopia | Chicago | 2 | All Maps | STV","players":[{"user_id":279,"name":"PheebsyDeebsy","steam_id":76561198101509436,"connected_time":892000000000,"state":"active","ping":100},{"user_id":282,"name":"Marvelous","steam_id":76561199083888017,"connected_time":736000000000,"state":"active","ping":114},{"user_id":268,"name":"Hooked","steam_id":76561198007302139,"connected_time":1859000000000,"state":"active","ping":75},{"user_id":263,"name":"great1photo","steam_id":76561198085481933,"connected_time":2645000000000,"state":"active","ping":85},{"user_id":280,"name":"-W3E- grim10465","steam_id":76561198045698581,"connected_time":863000000000,"state":"active","ping":47},{"user_id":235,"name":"moe","steam_id":76561198929586245,"connected_time":4925000000000,"state":"active","ping":90},{"user_id":277,"name":"Aiden939","steam_id":76561198860530097,"connected_time":1257000000000,"state":"active","ping":80},{"user_id":298,"name":"Skylineclark","steam_id":76561199085019692,"connected_time":337000000000,"state":"active","ping":105},{"user_id":211,"name":"ShadowDragon0125","steam_id":76561198343849022,"connected_time":6613000000000,"state":"active","ping":75},{"user_id":281,"name":"Darkmaen","steam_id":76561198060543390,"connected_time":812000000000,"state":"active","ping":136},{"user_id":242,"name":"alset333","steam_id":76561198405345260,"connected_time":4094000000000,"state":"active","ping":59},{"user_id":299,"name":"$5 biggie bag","steam_id":76561198298310744,"connected_time":275000000000,"state":"active","ping":76},{"user_id":284,"name":"KING","steam_id":76561198122223730,"connected_time":582000000000,"state":"active","ping":69},{"user_id":264,"name":"Cap'n Short Legs","steam_id":76561198164139410,"connected_time":1985000000000,"state":"active","ping":71},{"user_id":288,"name":"H. P. Corbcraft","steam_id":76561198119470355,"connected_time":538000000000,"state":"active","ping":80},{"user_id":271,"name":"viagra addict","steam_id":76561198017705248,"connected_time":1447000000000,"state":"active","ping":46},{"user_id":297,"name":"FUSION","steam_id":76561197972659738,"connected_time":358000000000,"state":"active","ping":60},{"user_id":292,"name":"volta","steam_id":76561199214283884,"connected_time":495000000000,"state":"active","ping":100},{"user_id":289,"name":"RedSock","steam_id":76561198161243404,"connected_time":538000000000,"state":"active","ping":43},{"user_id":291,"name":"Mavrick","steam_id":76561198039678150,"connected_time":531000000000,"state":"active","ping":59},{"user_id":293,"name":"Wallem","steam_id":76561198052361822,"connected_time":486000000000,"state":"active","ping":74},{"user_id":262,"name":"Lia_Rein TTV","steam_id":76561198151569597,"connected_time":2820000000000,"state":"active","ping":159},{"user_id":248,"name":"DarthEthanBoy","steam_id":76561198441643581,"connected_time":3518000000000,"state":"active","ping":68},{"user_id":296,"name":"crabapples","steam_id":76561198075818655,"connected_time":403000000000,"state":"active","ping":62}]},{"server_id":402,"name":"Uncletopia | Chicago | 3 | All Maps","name_short":"chi-3","host":"chi-1.us.uncletopia.com","port":27035,"enabled":true,"region":"us-central","cc":"us","latitude":41.881832,"longitude":-87.62318,"reserved":0,"last_update":"0001-01-01T00:00:00Z","name_a2s":"Uncletopia | Chicago | 3 | All Maps","protocol":17,"map":"pl_swiftwater_final1","folder":"tf","game":"Team Fortress","app_id":440,"player_count":23,"max_players":24,"Bots":0,"server_type":"Dedicated","server_os":"Linux","password":true,"vac":true,"version":"7882260","steam_id":85568392924515191,"keywords":["nocrits","nodmgspread","payload","uncletopia"],"game_id":440,"stv_port":27036,"stv_name":"Uncletopia | Chicago | 3 | All Maps | STV","players":[{"user_id":337,"name":"bagel sandwich","steam_id":76561198087971968,"connected_time":1861000000000,"state":"active","ping":64},{"user_id":321,"name":"Charredgp","steam_id":76561197998827889,"connected_time":3588000000000,"state":"active","ping":52},{"user_id":263,"name":"Peaceful Chaos","steam_id":76561198087989602,"connected_time":6037000000000,"state":"active","ping":73},{"user_id":345,"name":"Tommy Pickles (Very Cool)","steam_id":76561198391261463,"connected_time":927000000000,"state":"active","ping":73},{"user_id":355,"name":"_cza","steam_id":76561198079793576,"connected_time":96000000000,"state":"active","ping":89},{"user_id":346,"name":"Jaydyn","steam_id":76561198140326797,"connected_time":869000000000,"state":"active","ping":82},{"user_id":335,"name":"A local child molester from Phu","steam_id":76561199482706643,"connected_time":2515000000000,"state":"active","ping":66},{"user_id":347,"name":"fliggoo giggoo","steam_id":76561198986534519,"connected_time":853000000000,"state":"active","ping":91},{"user_id":354,"name":"Maybe","steam_id":76561198268304564,"connected_time":368000000000,"state":"active","ping":74},{"user_id":342,"name":"Asura","steam_id":76561198197227615,"connected_time":1586000000000,"state":"active","ping":73},{"user_id":353,"name":"SliBro","steam_id":76561198218795245,"connected_time":451000000000,"state":"active","ping":160},{"user_id":343,"name":"Cheese Graffiti","steam_id":76561198046575913,"connected_time":1481000000000,"state":"active","ping":82},{"user_id":315,"name":"Siren","steam_id":76561198047395823,"connected_time":4092000000000,"state":"active","ping":83},{"user_id":339,"name":"Begrip","steam_id":76561198091990094,"connected_time":1809000000000,"state":"active","ping":70},{"user_id":318,"name":"Fluffeline","steam_id":76561198352909489,"connected_time":3841000000000,"state":"active","ping":141},{"user_id":300,"name":"Frog","steam_id":76561198170199881,"connected_time":5311000000000,"state":"active","ping":71},{"user_id":350,"name":"Famelegion","steam_id":76561198958341424,"connected_time":625000000000,"state":"active","ping":97},{"user_id":330,"name":"TheGaming13","steam_id":76561199239498966,"connected_time":3066000000000,"state":"active","ping":92},{"user_id":305,"name":"CeigeBirb","steam_id":76561198068538473,"connected_time":4975000000000,"state":"active","ping":77},{"user_id":313,"name":"Lucon","steam_id":76561198067147724,"connected_time":4400000000000,"state":"active","ping":56},{"user_id":331,"name":"I came (up)","steam_id":76561198057745131,"connected_time":3065000000000,"state":"active","ping":58},{"user_id":344,"name":"Jeff the 19th","steam_id":76561198189315491,"connected_time":1138000000000,"state":"active","ping":64},{"user_id":323,"name":"Toasted","steam_id":76561198981232201,"connected_time":3487000000000,"state":"active","ping":87}]},{"server_id":403,"name":"Uncletopia | Chicago | 4 | All Maps","name_short":"chi-4","host":"chi-1.us.uncletopia.com","port":27045,"enabled":true,"region":"us-central","cc":"us","latitude":41.881832,"longitude":-87.62318,"reserved":0,"last_update":"0001-01-01T00:00:00Z","name_a2s":"Uncletopia | Chicago | 4 | All Maps","protocol":17,"map":"pl_frontier_final","folder":"tf","game":"Team Fortress","app_id":440,"player_count":24,"max_players":24,"Bots":0,"server_type":"Dedicated","server_os":"Linux","password":true,"vac":true,"version":"7882260","steam_id":85568392924515193,"keywords":["nocrits","nodmgspread","payload","uncletopia"],"game_id":440,"stv_port":27046,"stv_name":"Uncletopia | Chicago | 4 | All Maps | STV","players":[{"user_id":175,"name":"proof","steam_id":76561199002403588,"connected_time":463000000000,"state":"active","ping":59},{"user_id":168,"name":"GuyGoom","steam_id":76561198254522178,"connected_time":632000000000,"state":"active","ping":56},{"user_id":171,"name":"demoknight tf2 moment","steam_id":76561198995564430,"connected_time":570000000000,"state":"active","ping":68},{"user_id":91,"name":"Sean Bae","steam_id":76561198036909521,"connected_time":6865000000000,"state":"active","ping":74},{"user_id":150,"name":"cxcn","steam_id":76561199215821942,"connected_time":2375000000000,"state":"active","ping":69},{"user_id":167,"name":"Heaping_Handful","steam_id":76561198120448833,"connected_time":1063000000000,"state":"active","ping":67},{"user_id":152,"name":"Bio_Optical","steam_id":76561199128084374,"connected_time":2312000000000,"state":"active","ping":65},{"user_id":158,"name":"igotmail","steam_id":76561198070631899,"connected_time":2137000000000,"state":"active","ping":102},{"user_id":131,"name":"Elora","steam_id":76561198040510572,"connected_time":4019000000000,"state":"active","ping":176},{"user_id":132,"name":"OneManEnsemble","steam_id":76561198200890163,"connected_time":4011000000000,"state":"active","ping":76},{"user_id":110,"name":"MrDarthMatt","steam_id":76561198043365882,"connected_time":5510000000000,"state":"active","ping":63},{"user_id":164,"name":"Carpetspill","steam_id":76561198240023406,"connected_time":1472000000000,"state":"active","ping":77},{"user_id":156,"name":"Spaceman","steam_id":76561198349305249,"connected_time":2219000000000,"state":"active","ping":115},{"user_id":153,"name":"Jray","steam_id":76561198831619367,"connected_time":2267000000000,"state":"active","ping":79},{"user_id":170,"name":"LUM","steam_id":76561198069976825,"connected_time":619000000000,"state":"active","ping":75},{"user_id":162,"name":"crankshaft","steam_id":76561197992798282,"connected_time":1662000000000,"state":"active","ping":100},{"user_id":172,"name":"cavelife","steam_id":76561198091369097,"connected_time":552000000000,"state":"active","ping":76},{"user_id":173,"name":"dr peppah chug!","steam_id":76561198068835693,"connected_time":543000000000,"state":"active","ping":90},{"user_id":177,"name":"money getting 1 percenter","steam_id":76561198012796388,"connected_time":423000000000,"state":"active","ping":53},{"user_id":174,"name":"nasachad","steam_id":76561198058255633,"connected_time":525000000000,"state":"active","ping":69},{"user_id":138,"name":"Scita","steam_id":76561198066861559,"connected_time":3747000000000,"state":"active","ping":77},{"user_id":124,"name":"Kng","steam_id":76561198993248203,"connected_time":4559000000000,"state":"active","ping":89},{"user_id":136,"name":"dr sex, md (sexologist)","steam_id":76561198115874625,"connected_time":3955000000000,"state":"active","ping":69},{"user_id":178,"name":"Ferruco:3","steam_id":76561198431714229,"connected_time":213000000000,"state":"active","ping":93}]},{"server_id":36,"name":"Uncletopia | Chicago | 5 | All Maps","name_short":"chi-5","host":"chi-2.us.uncletopia.com","port":27015,"enabled":true,"region":"us-central","cc":"us","latitude":41.881832,"longitude":-87.62318,"reserved":0,"last_update":"0001-01-01T00:00:00Z","name_a2s":"Uncletopia | Chicago | 5 | All Maps","protocol":17,"map":"pl_badwater","folder":"tf","game":"Team Fortress","app_id":440,"player_count":24,"max_players":24,"Bots":0,"server_type":"Dedicated","server_os":"Linux","password":true,"vac":true,"version":"7882260","steam_id":85568392924866362,"keywords":["nocrits","nodmgspread","payload","uncletopia"],"game_id":440,"stv_port":27016,"stv_name":"Uncletopia | Chicago | 5 | All Maps | STV","players":[{"user_id":172,"name":"hej","steam_id":76561197996366940,"connected_time":1939000000000,"state":"active","ping":60},{"user_id":175,"name":"MedRed™ #IATAH","steam_id":76561198002962970,"connected_time":1902000000000,"state":"active","ping":93},{"user_id":181,"name":"AlcoholicDad454","steam_id":76561198157414556,"connected_time":1159000000000,"state":"active","ping":80},{"user_id":174,"name":"tr3@d0f4","steam_id":76561198000757362,"connected_time":1904000000000,"state":"active","ping":63},{"user_id":144,"name":"ChillSasquatch","steam_id":76561198068408798,"connected_time":4127000000000,"state":"active","ping":69},{"user_id":190,"name":"SKINGRAPH","steam_id":76561198082933650,"connected_time":659000000000,"state":"active","ping":96},{"user_id":126,"name":"Lifial","steam_id":76561198271885819,"connected_time":4556000000000,"state":"active","ping":75},{"user_id":127,"name":"carrot cake","steam_id":76561198055174915,"connected_time":4553000000000,"state":"active","ping":70},{"user_id":193,"name":"Bat(Magnetized to your head)","steam_id":76561198976521735,"connected_time":187000000000,"state":"active","ping":104},{"user_id":185,"name":"Wolf Hat","steam_id":76561198099996051,"connected_time":1024000000000,"state":"active","ping":65},{"user_id":176,"name":"Plutaya","steam_id":76561198054538385,"connected_time":1882000000000,"state":"active","ping":69},{"user_id":155,"name":"soundwave | sfm comms open!","steam_id":76561198454725718,"connected_time":3247000000000,"state":"active","ping":49},{"user_id":130,"name":"Dawnstar","steam_id":76561198280876456,"connected_time":4493000000000,"state":"active","ping":81},{"user_id":180,"name":"while(1)","steam_id":76561198000876529,"connected_time":1242000000000,"state":"active","ping":60},{"user_id":187,"name":"aidan","steam_id":76561198339019147,"connected_time":889000000000,"state":"active","ping":81},{"user_id":132,"name":"blackout","steam_id":76561198101487802,"connected_time":4444000000000,"state":"active","ping":82},{"user_id":192,"name":"canadian birds","steam_id":76561198059466588,"connected_time":439000000000,"state":"active","ping":74},{"user_id":182,"name":"Null","steam_id":76561198062791227,"connected_time":1136000000000,"state":"active","ping":68},{"user_id":168,"name":"RoFrogle","steam_id":76561199078941377,"connected_time":1996000000000,"state":"active","ping":68},{"user_id":186,"name":"Cerabond","steam_id":76561199230915333,"connected_time":975000000000,"state":"active","ping":82},{"user_id":191,"name":"ghastlierest gamer","steam_id":76561198057374871,"connected_time":643000000000,"state":"active","ping":68},{"user_id":159,"name":"Get Beaned","steam_id":76561198391590820,"connected_time":3190000000000,"state":"active","ping":111},{"user_id":179,"name":"fuck","steam_id":76561198181043841,"connected_time":1522000000000,"state":"active","ping":62},{"user_id":188,"name":"FIRE WIZARD","steam_id":76561198046115688,"connected_time":875000000000,"state":"active","ping":69}]},{"server_id":37,"name":"Uncletopia | Chicago | 6 | All Maps","name_short":"chi-6","host":"chi-2.us.uncletopia.com","port":27025,"enabled":true,"region":"us-central","cc":"us","latitude":41.881832,"longitude":-87.62318,"reserved":0,"last_update":"0001-01-01T00:00:00Z","name_a2s":"Uncletopia | Chicago | 6 | All Maps","protocol":17,"map":"pl_badwater","folder":"tf","game":"Team Fortress","app_id":440,"player_count":24,"max_players":24,"Bots":0,"server_type":"Dedicated","server_os":"Linux","password":true,"vac":true,"version":"7882260","steam_id":85568392924866363,"keywords":["nocrits","nodmgspread","payload","uncletopia"],"game_id":440,"stv_port":27026,"stv_name":"Uncletopia | Chicago | 6 | All Maps | STV","players":[{"user_id":208,"name":"businessman minly","steam_id":76561199078991134,"connected_time":1919000000000,"state":"active","ping":69},{"user_id":215,"name":"kittyzombie2023 :D","steam_id":76561198094512992,"connected_time":1750000000000,"state":"active","ping":53},{"user_id":231,"name":"BoopALili","steam_id":76561198115224580,"connected_time":856000000000,"state":"active","ping":76},{"user_id":179,"name":"Joey Lemons","steam_id":76561198068104187,"connected_time":3572000000000,"state":"active","ping":45},{"user_id":199,"name":"dino","steam_id":76561198072302537,"connected_time":2300000000000,"state":"active","ping":59},{"user_id":232,"name":"RapBap Bird in Lap","steam_id":76561198105613110,"connected_time":824000000000,"state":"active","ping":69},{"user_id":175,"name":"toastman","steam_id":76561198207073088,"connected_time":4044000000000,"state":"active","ping":70},{"user_id":198,"name":"Gerald","steam_id":76561198004630011,"connected_time":2314000000000,"state":"active","ping":59},{"user_id":227,"name":"t.tv/ibbKitty∑:3","steam_id":76561198110858518,"connected_time":1237000000000,"state":"active","ping":59},{"user_id":233,"name":"scapegoat","steam_id":76561198188722751,"connected_time":824000000000,"state":"active","ping":93},{"user_id":228,"name":"Shark","steam_id":76561198219031981,"connected_time":1231000000000,"state":"active","ping":73},{"user_id":189,"name":"myg0t","steam_id":76561198398918486,"connected_time":2975000000000,"state":"active","ping":69},{"user_id":206,"name":"nori_420","steam_id":76561199117134203,"connected_time":1958000000000,"state":"active","ping":107},{"user_id":229,"name":"i hate sniper","steam_id":76561198172454407,"connected_time":1228000000000,"state":"active","ping":80},{"user_id":234,"name":"V!CT!M","steam_id":76561198962721502,"connected_time":801000000000,"state":"active","ping":71},{"user_id":195,"name":"Real (real)","steam_id":76561199059653595,"connected_time":2354000000000,"state":"active","ping":103},{"user_id":235,"name":"kiv","steam_id":76561198838223023,"connected_time":734000000000,"state":"active","ping":58},{"user_id":153,"name":"bee","steam_id":76561198178015361,"connected_time":5705000000000,"state":"active","ping":57},{"user_id":223,"name":"msay","steam_id":76561198170888029,"connected_time":1362000000000,"state":"active","ping":100},{"user_id":236,"name":"let me cook","steam_id":76561198075858067,"connected_time":701000000000,"state":"active","ping":68},{"user_id":152,"name":"--_Cook_--","steam_id":76561198080855748,"connected_time":5792000000000,"state":"active","ping":49},{"user_id":168,"name":"Wiscipline","steam_id":76561198019206178,"connected_time":5288000000000,"state":"active","ping":80},{"user_id":181,"name":"blank","steam_id":76561198105529673,"connected_time":3557000000000,"state":"active","ping":104},{"user_id":238,"name":"Orion","steam_id":76561198000418837,"connected_time":545000000000,"state":"active","ping":84}]},{"server_id":38,"name":"Uncletopia | Chicago | 7 | Stopwatch Beta","name_short":"chi-7","host":"chi-2.us.uncletopia.com","port":27035,"enabled":true,"region":"us-central","cc":"us","latitude":41.881832,"longitude":-87.62318,"reserved":0,"last_update":"0001-01-01T00:00:00Z","name_a2s":"Uncletopia | Chicago | 7 | Stopwatch Beta","protocol":17,"map":"pl_upward","folder":"tf","game":"Team Fortress","app_id":440,"player_count":0,"max_players":24,"Bots":0,"server_type":"Dedicated","server_os":"Linux","password":true,"vac":true,"version":"7882260","steam_id":85568392924866364,"keywords":["nocrits","nodmgspread","payload","uncletopia"],"game_id":440,"stv_port":27036,"stv_name":"Uncletopia | Chicago | 7 | Stopwatch Beta | STV","players":null},{"server_id":39,"name":"Uncletopia | Chicago | 8 | Community","name_short":"chi-8","host":"chi-2.us.uncletopia.com","port":27045,"enabled":true,"region":"us-central","cc":"us","latitude":41.881832,"longitude":-87.62318,"reserved":0,"last_update":"0001-01-01T00:00:00Z","name_a2s":"Uncletopia | Chicago | 8 | Community","protocol":17,"map":"workshop/cp_overgrown_rc8.ugc503939302","folder":"tf","game":"Team Fortress","app_id":440,"player_count":24,"max_players":24,"Bots":0,"server_type":"Dedicated","server_os":"Linux","password":true,"vac":true,"version":"7882260","steam_id":85568392924866365,"keywords":["cp","nocrits","nodmgspread","uncletopia"],"game_id":440,"stv_port":27046,"stv_name":"Uncletopia | Chicago | 8 | Community | STV","players":[{"user_id":34,"name":"Esteban Delsin","steam_id":76561198433519639,"connected_time":2692000000000,"state":"active","ping":99},{"user_id":49,"name":"Kyle H. McCloud","steam_id":76561198025050432,"connected_time":2208000000000,"state":"active","ping":87},{"user_id":45,"name":"Unwavering Flavor","steam_id":76561198053306065,"connected_time":2501000000000,"state":"active","ping":72},{"user_id":68,"name":"bedrockperson","steam_id":76561198131381584,"connected_time":265000000000,"state":"active","ping":67},{"user_id":24,"name":"Aeonspassed","steam_id":76561198014016451,"connected_time":3381000000000,"state":"active","ping":56},{"user_id":57,"name":"Boxofbubblewrap","steam_id":76561199229191673,"connected_time":1538000000000,"state":"active","ping":100},{"user_id":66,"name":"rican312","steam_id":76561198841770570,"connected_time":457000000000,"state":"active","ping":75},{"user_id":69,"name":"le batteur","steam_id":76561199078138661,"connected_time":184000000000,"state":"active","ping":77},{"user_id":25,"name":"Help! I'm Underwater!","steam_id":76561198030291655,"connected_time":3371000000000,"state":"active","ping":53},{"user_id":26,"name":"Ritzy","steam_id":76561198381955342,"connected_time":3361000000000,"state":"active","ping":144},{"user_id":70,"name":"Huntpk","steam_id":76561198340591674,"connected_time":161000000000,"state":"active","ping":34},{"user_id":65,"name":"Meat Mans Meat","steam_id":76561198062149455,"connected_time":616000000000,"state":"active","ping":65},{"user_id":29,"name":"AS SEEN ON TV","steam_id":76561197986051713,"connected_time":3046000000000,"state":"active","ping":75},{"user_id":31,"name":"PootisPowHAHA","steam_id":76561199023536209,"connected_time":2784000000000,"state":"active","ping":89},{"user_id":56,"name":"INVEST IN SKYNET::τRU τAO","steam_id":76561198144436132,"connected_time":1620000000000,"state":"active","ping":83},{"user_id":33,"name":"[gamers against weed] fuck","steam_id":76561198294753180,"connected_time":2780000000000,"state":"active","ping":65},{"user_id":67,"name":"sunset in miami","steam_id":76561198172732375,"connected_time":444000000000,"state":"active","ping":60},{"user_id":36,"name":"IKOVKY/TTV","steam_id":76561198138035040,"connected_time":2648000000000,"state":"active","ping":44},{"user_id":37,"name":"Kuji Katsumi TTV ♡","steam_id":76561198165615964,"connected_time":2633000000000,"state":"active","ping":83},{"user_id":64,"name":"TravelerFinis","steam_id":76561199181244690,"connected_time":789000000000,"state":"active","ping":118},{"user_id":39,"name":"caberknight tf2  (f2p-ish)","steam_id":76561199273882768,"connected_time":2598000000000,"state":"active","ping":74},{"user_id":42,"name":"ShiverShock","steam_id":76561198994768522,"connected_time":2562000000000,"state":"active","ping":86},{"user_id":48,"name":"cakgamin","steam_id":76561199088909749,"connected_time":2450000000000,"state":"active","ping":63},{"user_id":55,"name":"shake","steam_id":76561199064204750,"connected_time":1786000000000,"state":"active","ping":82}]},{"server_id":8,"name":"Uncletopia | Dallas | 1 | All Maps","name_short":"dal-1","host":"dal-1.us.uncletopia.com","port":27015,"enabled":true,"region":"us-central","cc":"us","latitude":32.779167,"longitude":-96.80889,"reserved":0,"last_update":"0001-01-01T00:00:00Z","name_a2s":"Uncletopia | Dallas | 1 | All Maps","protocol":17,"map":"pl_goldrush","folder":"tf","game":"Team Fortress","app_id":440,"player_count":24,"max_players":24,"Bots":0,"server_type":"Dedicated","server_os":"Linux","password":true,"vac":true,"version":"7882260","steam_id":85568392924469986,"keywords":["nocrits","nodmgspread","payload","uncletopia"],"game_id":440,"stv_port":27016,"stv_name":"Uncletopia | Dallas | 1 | All Maps | STV","players":[{"user_id":366,"name":"ATL1 | wire-guided","steam_id":76561198055407168,"connected_time":565000000000,"state":"active","ping":68},{"user_id":374,"name":"RushHack","steam_id":76561198161169421,"connected_time":140000000000,"state":"active","ping":83},{"user_id":370,"name":"CAR BATTERY","steam_id":76561199122915452,"connected_time":349000000000,"state":"active","ping":98},{"user_id":350,"name":"Imrgrim","steam_id":76561198135866481,"connected_time":1654000000000,"state":"active","ping":61},{"user_id":336,"name":"BamBam","steam_id":76561198063110026,"connected_time":2446000000000,"state":"active","ping":79},{"user_id":364,"name":"MintyPawz","steam_id":76561198111430103,"connected_time":614000000000,"state":"active","ping":86},{"user_id":332,"name":"Warfarin","steam_id":76561198348354629,"connected_time":3000000000000,"state":"active","ping":76},{"user_id":372,"name":"Punished \"Venom\" Snick","steam_id":76561198066566813,"connected_time":277000000000,"state":"active","ping":126},{"user_id":371,"name":"Pubby Do","steam_id":76561198072066185,"connected_time":319000000000,"state":"active","ping":86},{"user_id":358,"name":"Sup m8","steam_id":76561198081659121,"connected_time":930000000000,"state":"active","ping":35},{"user_id":351,"name":"bolainassr0","steam_id":76561199079078845,"connected_time":1625000000000,"state":"active","ping":89},{"user_id":363,"name":"A Straw","steam_id":76561199367935846,"connected_time":783000000000,"state":"active","ping":70},{"user_id":367,"name":"Spring Beans","steam_id":76561197978546259,"connected_time":473000000000,"state":"active","ping":33},{"user_id":347,"name":"Dr. Blair Chao","steam_id":76561198146027518,"connected_time":2112000000000,"state":"active","ping":86},{"user_id":368,"name":"Wiggee","steam_id":76561197972792989,"connected_time":426000000000,"state":"active","ping":48},{"user_id":356,"name":"Necron Cell","steam_id":76561198071744324,"connected_time":1018000000000,"state":"active","ping":68},{"user_id":342,"name":"Darling","steam_id":76561198127525888,"connected_time":2231000000000,"state":"active","ping":47},{"user_id":376,"name":"Harry Dongle","steam_id":76561198013805774,"connected_time":82000000000,"state":"active","ping":79},{"user_id":335,"name":"NOT Susie Deltarune (not real)","steam_id":76561199007365488,"connected_time":2478000000000,"state":"active","ping":68},{"user_id":359,"name":"ATL1 | on my hunting trip","steam_id":76561198315341646,"connected_time":927000000000,"state":"active","ping":92},{"user_id":353,"name":"Major Depression","steam_id":76561198018103878,"connected_time":1546000000000,"state":"active","ping":87},{"user_id":360,"name":"flu walrus","steam_id":76561198207940136,"connected_time":901000000000,"state":"active","ping":58},{"user_id":329,"name":"Underwear Monster","steam_id":76561198175742775,"connected_time":3202000000000,"state":"active","ping":85},{"user_id":373,"name":"CherriKat (she/her)","steam_id":76561198821297512,"connected_time":171000000000,"state":"active","ping":85}]},{"server_id":108,"name":"Uncletopia | Dallas | 2 | All Maps","name_short":"dal-2","host":"dal-1.us.uncletopia.com","port":27025,"enabled":true,"region":"us-central","cc":"us","latitude":32.779167,"longitude":-96.80889,"reserved":0,"last_update":"0001-01-01T00:00:00Z","name_a2s":"Uncletopia | Dallas | 2 | All Maps","protocol":17,"map":"pl_snowycoast","folder":"tf","game":"Team Fortress","app_id":440,"player_count":24,"max_players":24,"Bots":0,"server_type":"Dedicated","server_os":"Linux","password":true,"vac":true,"version":"7882260","steam_id":85568392924469988,"keywords":["nocrits","nodmgspread","payload","uncletopia"],"game_id":440,"stv_port":27026,"stv_name":"Uncletopia | Dallas | 2 | All Maps | STV","players":[{"user_id":156,"name":"Seshagrantch","steam_id":76561198112033660,"connected_time":606000000000,"state":"active","ping":62},{"user_id":94,"name":"TheGhostThatWas","steam_id":76561198055836483,"connected_time":7700000000000,"state":"active","ping":81},{"user_id":145,"name":"Note","steam_id":76561198408747483,"connected_time":1684000000000,"state":"active","ping":60},{"user_id":103,"name":"The World's Softest Sandwich","steam_id":76561198015577707,"connected_time":6209000000000,"state":"active","ping":75},{"user_id":25,"name":"Fresh Lychee","steam_id":76561198045399559,"connected_time":13089000000000,"state":"active","ping":77},{"user_id":157,"name":"tropis","steam_id":76561198067365603,"connected_time":448000000000,"state":"active","ping":54},{"user_id":110,"name":"Arc","steam_id":76561198057246982,"connected_time":5166000000000,"state":"active","ping":55},{"user_id":131,"name":"An Unhappy Clown","steam_id":76561198175516514,"connected_time":4110000000000,"state":"active","ping":46},{"user_id":136,"name":"Emder","steam_id":76561198260747931,"connected_time":3214000000000,"state":"active","ping":81},{"user_id":39,"name":"Bullwinkle J. Moose","steam_id":76561198075977196,"connected_time":11104000000000,"state":"active","ping":56},{"user_id":158,"name":"Jeugh","steam_id":76561198073498865,"connected_time":393000000000,"state":"active","ping":103},{"user_id":154,"name":"cass","steam_id":76561198074502046,"connected_time":1051000000000,"state":"active","ping":122},{"user_id":127,"name":"Ꝛhίᵰⱷ","steam_id":76561197993123461,"connected_time":4471000000000,"state":"active","ping":88},{"user_id":146,"name":"post traumatic swag disorder","steam_id":76561198093105234,"connected_time":1674000000000,"state":"active","ping":73},{"user_id":151,"name":"Doomagedden","steam_id":76561198272589475,"connected_time":1354000000000,"state":"active","ping":59},{"user_id":160,"name":"sunny","steam_id":76561198069380992,"connected_time":144000000000,"state":"active","ping":52},{"user_id":161,"name":"BigBubble42","steam_id":76561198136286123,"connected_time":103000000000,"state":"active","ping":28},{"user_id":144,"name":"DragonHeart","steam_id":76561198013245625,"connected_time":1705000000000,"state":"active","ping":70},{"user_id":159,"name":"Mellou","steam_id":76561198212048740,"connected_time":194000000000,"state":"active","ping":52},{"user_id":51,"name":"Hulkminecraft3","steam_id":76561199130252428,"connected_time":10865000000000,"state":"active","ping":80},{"user_id":57,"name":"Lolxdloldx","steam_id":76561198136887125,"connected_time":10684000000000,"state":"active","ping":101},{"user_id":153,"name":"white woman","steam_id":76561199116679777,"connected_time":1069000000000,"state":"active","ping":73},{"user_id":123,"name":"Hottodoggu","steam_id":76561198084080712,"connected_time":4620000000000,"state":"active","ping":82},{"user_id":142,"name":"Alkimia","steam_id":76561198385763137,"connected_time":2597000000000,"state":"active","ping":178}]},{"server_id":5,"name":"Uncletopia | Frankfurt | 1 | All Maps","name_short":"frk-1","host":"frk-1.de.uncletopia.com","port":27015,"enabled":true,"region":"eu","cc":"de","latitude":50.110924,"longitude":8.682127,"reserved":0,"last_update":"0001-01-01T00:00:00Z","name_a2s":"Uncletopia | Frankfurt | 1 | All Maps","protocol":17,"map":"pl_badwater","folder":"tf","game":"Team Fortress","app_id":440,"player_count":24,"max_players":24,"Bots":0,"server_type":"Dedicated","server_os":"Linux","password":true,"vac":true,"version":"7882260","steam_id":85568392924469989,"keywords":["nocrits","nodmgspread","payload","uncletopia"],"game_id":440,"stv_port":27016,"stv_name":"Uncletopia | Frankfurt | 1 | All Maps | STV","players":[{"user_id":532,"name":"the indomitable human spirit","steam_id":76561198718760200,"connected_time":1697000000000,"state":"active","ping":60},{"user_id":538,"name":"GhostBoy","steam_id":76561198185277877,"connected_time":1027000000000,"state":"active","ping":81},{"user_id":552,"name":"poopoocum","steam_id":76561198180641206,"connected_time":146000000000,"state":"active","ping":58},{"user_id":551,"name":"I am piss man","steam_id":76561198039209685,"connected_time":189000000000,"state":"active","ping":52},{"user_id":545,"name":"swagmaster9000","steam_id":76561198232259356,"connected_time":585000000000,"state":"active","ping":74},{"user_id":553,"name":"Pefor","steam_id":76561199477114157,"connected_time":134000000000,"state":"active","ping":133},{"user_id":550,"name":"BuzzBees ❤","steam_id":76561198101502273,"connected_time":254000000000,"state":"active","ping":71},{"user_id":533,"name":"fregaropa","steam_id":76561198150806166,"connected_time":1514000000000,"state":"active","ping":82},{"user_id":525,"name":"[P-roc] Cmm Bert","steam_id":76561198016658674,"connected_time":1981000000000,"state":"active","ping":72},{"user_id":448,"name":"s a i","steam_id":76561197970379754,"connected_time":6428000000000,"state":"active","ping":58},{"user_id":543,"name":"Aquatical","steam_id":76561198097333170,"connected_time":610000000000,"state":"active","ping":98},{"user_id":503,"name":"stefanbejenari","steam_id":76561199466718294,"connected_time":3155000000000,"state":"active","ping":77},{"user_id":520,"name":"Doriian","steam_id":76561198071438810,"connected_time":2159000000000,"state":"active","ping":75},{"user_id":527,"name":"kluri","steam_id":76561198084518962,"connected_time":1958000000000,"state":"active","ping":73},{"user_id":547,"name":"KittyKate ❤","steam_id":76561198116340817,"connected_time":566000000000,"state":"active","ping":61},{"user_id":548,"name":"BlinkedUp","steam_id":76561198249985618,"connected_time":560000000000,"state":"active","ping":62},{"user_id":522,"name":"Verculum","steam_id":76561198894912634,"connected_time":2123000000000,"state":"active","ping":114},{"user_id":529,"name":"Cahl","steam_id":76561198980863125,"connected_time":1907000000000,"state":"active","ping":60},{"user_id":535,"name":"Mr.Schnittlauch","steam_id":76561198295868113,"connected_time":1175000000000,"state":"active","ping":46},{"user_id":540,"name":"$t@lker_Tim","steam_id":76561198963658042,"connected_time":883000000000,"state":"active","ping":115},{"user_id":541,"name":"Insain Bolt!","steam_id":76561198025687726,"connected_time":875000000000,"state":"active","ping":64},{"user_id":492,"name":"ptsd","steam_id":76561199382587543,"connected_time":3474000000000,"state":"active","ping":59},{"user_id":515,"name":"leminsc8","steam_id":76561198825084995,"connected_time":2382000000000,"state":"active","ping":37},{"user_id":512,"name":"maxharmony","steam_id":76561198233819688,"connected_time":2606000000000,"state":"active","ping":89}]},{"server_id":110,"name":"Uncletopia | Frankfurt | 2 | All Maps","name_short":"frk-2","host":"frk-1.de.uncletopia.com","port":27025,"enabled":true,"region":"eu","cc":"de","latitude":50.110924,"longitude":8.682127,"reserved":0,"last_update":"0001-01-01T00:00:00Z","name_a2s":"Uncletopia | Frankfurt | 2 | All Maps","protocol":17,"map":"cp_dustbowl","folder":"tf","game":"Team Fortress","app_id":440,"player_count":24,"max_players":24,"Bots":0,"server_type":"Dedicated","server_os":"Linux","password":true,"vac":true,"version":"7882260","steam_id":85568392924469990,"keywords":["cp","nocrits","nodmgspread","uncletopia"],"game_id":440,"stv_port":27026,"stv_name":"Uncletopia | Frankfurt | 2 | All Maps | STV","players":[{"user_id":357,"name":"MrLroy","steam_id":76561199053452683,"connected_time":7052000000000,"state":"active","ping":70},{"user_id":412,"name":"EastmoreRandoms.","steam_id":76561198048921203,"connected_time":4625000000000,"state":"active","ping":61},{"user_id":405,"name":"finbar","steam_id":76561198056812396,"connected_time":4866000000000,"state":"active","ping":76},{"user_id":464,"name":"Andrzej Konieczny","steam_id":76561198087715921,"connected_time":1940000000000,"state":"active","ping":61},{"user_id":493,"name":"Just Sly","steam_id":76561198070137469,"connected_time":141000000000,"state":"active","ping":89},{"user_id":474,"name":"One Hop Dis Time *BWRAB*","steam_id":76561198146081601,"connected_time":1265000000000,"state":"active","ping":45},{"user_id":481,"name":"Valdis","steam_id":76561198057340489,"connected_time":854000000000,"state":"active","ping":47},{"user_id":391,"name":"supercharger832","steam_id":76561198871408515,"connected_time":5204000000000,"state":"active","ping":67},{"user_id":466,"name":"bossievossie","steam_id":76561198836337543,"connected_time":1887000000000,"state":"active","ping":75},{"user_id":484,"name":"Blobbaz","steam_id":76561198031076278,"connected_time":730000000000,"state":"active","ping":68},{"user_id":368,"name":"Gray","steam_id":76561198185977442,"connected_time":6606000000000,"state":"active","ping":100},{"user_id":468,"name":"leverposteifantomet","steam_id":76561198057225852,"connected_time":1832000000000,"state":"active","ping":66},{"user_id":492,"name":"AnalBypass1989","steam_id":76561198052356557,"connected_time":329000000000,"state":"active","ping":89},{"user_id":415,"name":"Hazisher","steam_id":76561199244861836,"connected_time":4566000000000,"state":"active","ping":121},{"user_id":410,"name":"Fizz","steam_id":76561197994814990,"connected_time":4810000000000,"state":"active","ping":71},{"user_id":470,"name":"Brage","steam_id":76561198111623044,"connected_time":1740000000000,"state":"active","ping":89},{"user_id":478,"name":"Messiah of Vibe","steam_id":76561198873411211,"connected_time":1055000000000,"state":"active","ping":170},{"user_id":407,"name":"Syd","steam_id":76561198020515027,"connected_time":4861000000000,"state":"active","ping":68},{"user_id":488,"name":"Witch","steam_id":76561198212059683,"connected_time":663000000000,"state":"active","ping":68},{"user_id":266,"name":"Waltcha","steam_id":76561198007691468,"connected_time":13182000000000,"state":"active","ping":64},{"user_id":486,"name":"Tomfool","steam_id":76561197993256481,"connected_time":688000000000,"state":"active","ping":73},{"user_id":353,"name":"SVNSS","steam_id":76561198802056171,"connected_time":7570000000000,"state":"active","ping":60},{"user_id":487,"name":"bad farter","steam_id":76561198261853441,"connected_time":678000000000,"state":"active","ping":60},{"user_id":490,"name":"CoolGuestMan","steam_id":76561198152273613,"connected_time":640000000000,"state":"active","ping":38}]},{"server_id":308,"name":"Uncletopia | Frankfurt | 3 | All Maps","name_short":"frk-3","host":"frk-1.de.uncletopia.com","port":27035,"enabled":true,"region":"eu","cc":"de","latitude":50.110924,"longitude":8.682127,"reserved":0,"last_update":"0001-01-01T00:00:00Z","name_a2s":"Uncletopia | Frankfurt | 3 | All Maps","protocol":17,"map":"ctf_sawmill","folder":"tf","game":"Team Fortress","app_id":440,"player_count":18,"max_players":24,"Bots":0,"server_type":"Dedicated","server_os":"Linux","password":true,"vac":true,"version":"7882260","steam_id":85568392924504274,"keywords":["ctf","nocrits","nodmgspread","uncletopia"],"game_id":440,"stv_port":27036,"stv_name":"Uncletopia | Frankfurt | 3 | All Maps | STV","players":[{"user_id":671,"name":"NoLongerSwiming","steam_id":76561199408731222,"connected_time":150000000000,"state":"active","ping":70},{"user_id":588,"name":"1couver","steam_id":76561198168553215,"connected_time":6057000000000,"state":"active","ping":89},{"user_id":667,"name":"B-17 FLYING FORTRESS","steam_id":76561199239974737,"connected_time":361000000000,"state":"active","ping":89},{"user_id":659,"name":"mlody jimmy","steam_id":76561199487292009,"connected_time":636000000000,"state":"active","ping":76},{"user_id":646,"name":"remi, she wrote.","steam_id":76561198044045655,"connected_time":1619000000000,"state":"active","ping":85},{"user_id":643,"name":"SudPad","steam_id":76561198312204253,"connected_time":1719000000000,"state":"active","ping":102},{"user_id":660,"name":"Barry Nottingham","steam_id":76561198089472878,"connected_time":632000000000,"state":"active","ping":50},{"user_id":593,"name":"a bullet","steam_id":76561198809248362,"connected_time":5924000000000,"state":"active","ping":85},{"user_id":656,"name":"kamp","steam_id":76561198068937285,"connected_time":924000000000,"state":"active","ping":47},{"user_id":584,"name":"xValio","steam_id":76561198810336151,"connected_time":6587000000000,"state":"active","ping":74},{"user_id":662,"name":"Kowakum","steam_id":76561197998125950,"connected_time":611000000000,"state":"active","ping":112},{"user_id":583,"name":"Papel","steam_id":76561199198176879,"connected_time":6606000000000,"state":"active","ping":58},{"user_id":615,"name":"arcticcu","steam_id":76561198002435882,"connected_time":4280000000000,"state":"active","ping":96},{"user_id":657,"name":"georgiev316","steam_id":76561199476007892,"connected_time":766000000000,"state":"active","ping":73},{"user_id":665,"name":"Diggelenburg","steam_id":76561198217311180,"connected_time":558000000000,"state":"active","ping":70},{"user_id":663,"name":"Dr.Cranium","steam_id":76561197992726926,"connected_time":605000000000,"state":"active","ping":109},{"user_id":664,"name":"Stümpy","steam_id":76561198255904077,"connected_time":600000000000,"state":"active","ping":61},{"user_id":670,"name":"Da Gus","steam_id":76561198435032627,"connected_time":199000000000,"state":"active","ping":88}]},{"server_id":309,"name":"Uncletopia | Frankfurt | 4 | All Maps","name_short":"frk-4","host":"frk-1.de.uncletopia.com","port":27045,"enabled":true,"region":"eu","cc":"de","latitude":50.110924,"longitude":8.682127,"reserved":0,"last_update":"0001-01-01T00:00:00Z","name_a2s":"Uncletopia | Frankfurt | 4 | All Maps","protocol":17,"map":"pl_upward","folder":"tf","game":"Team Fortress","app_id":440,"player_count":12,"max_players":24,"Bots":0,"server_type":"Dedicated","server_os":"Linux","password":true,"vac":true,"version":"7882260","steam_id":85568392924504275,"keywords":["nocrits","nodmgspread","payload","uncletopia"],"game_id":440,"stv_port":27046,"stv_name":"Uncletopia | Frankfurt | 4 | All Maps | STV","players":[{"user_id":469,"name":"Foreskin Gamer","steam_id":76561198283106341,"connected_time":303000000000,"state":"active","ping":57},{"user_id":458,"name":"Elkabat","steam_id":76561198150017277,"connected_time":1318000000000,"state":"active","ping":55},{"user_id":470,"name":"Dr.Nefario","steam_id":76561198874586020,"connected_time":244000000000,"state":"active","ping":66},{"user_id":468,"name":"hennerz","steam_id":76561199062586342,"connected_time":336000000000,"state":"active","ping":74},{"user_id":471,"name":"R","steam_id":76561199379233899,"connected_time":237000000000,"state":"active","ping":102},{"user_id":472,"name":"Osmo","steam_id":76561199286764992,"connected_time":230000000000,"state":"active","ping":74},{"user_id":473,"name":"minespweper","steam_id":76561199096919345,"connected_time":220000000000,"state":"active","ping":82},{"user_id":452,"name":"Chillrend | #SaveTF2","steam_id":76561198452963141,"connected_time":2025000000000,"state":"active","ping":74},{"user_id":356,"name":"sunshine (he/him)","steam_id":76561198084597975,"connected_time":8839000000000,"state":"active","ping":66},{"user_id":460,"name":"Luppi van Puppi","steam_id":76561198055986745,"connected_time":1315000000000,"state":"active","ping":57},{"user_id":463,"name":"Myrmodion","steam_id":76561198054746247,"connected_time":889000000000,"state":"active","ping":51},{"user_id":465,"name":"Zune","steam_id":76561198119382708,"connected_time":793000000000,"state":"active","ping":99}]},{"server_id":310,"name":"Uncletopia | Frankfurt | 5 | All Maps","name_short":"frk-5","host":"frk-1.de.uncletopia.com","port":27055,"enabled":true,"region":"eu","cc":"de","latitude":50.110924,"longitude":8.682127,"reserved":0,"last_update":"0001-01-01T00:00:00Z","name_a2s":"Uncletopia | Frankfurt | 5 | All Maps","protocol":17,"map":"pl_badwater","folder":"tf","game":"Team Fortress","app_id":440,"player_count":17,"max_players":24,"Bots":0,"server_type":"Dedicated","server_os":"Linux","password":true,"vac":true,"version":"7882260","steam_id":85568392924504277,"keywords":["nocrits","nodmgspread","payload","uncletopia"],"game_id":440,"stv_port":27056,"stv_name":"Uncletopia | Frankfurt | 5 | All Maps | STV","players":[{"user_id":512,"name":"FoOzTV","steam_id":76561197998636728,"connected_time":89000000000,"state":"active","ping":72},{"user_id":470,"name":"Popop","steam_id":76561198004793795,"connected_time":3451000000000,"state":"active","ping":59},{"user_id":509,"name":"_Starlight_","steam_id":76561197993885738,"connected_time":168000000000,"state":"active","ping":68},{"user_id":476,"name":"Master Of Noob","steam_id":76561198217926783,"connected_time":2567000000000,"state":"active","ping":73},{"user_id":477,"name":"Jucatron","steam_id":76561198044259577,"connected_time":2560000000000,"state":"active","ping":88},{"user_id":496,"name":"Monterey Dick Cheese","steam_id":76561197981636663,"connected_time":1316000000000,"state":"active","ping":67},{"user_id":510,"name":"DOMAIN","steam_id":76561199095640319,"connected_time":102000000000,"state":"active","ping":86},{"user_id":504,"name":"BOT Tøfler","steam_id":76561198070606923,"connected_time":561000000000,"state":"active","ping":95},{"user_id":505,"name":"Bailey's","steam_id":76561198034562837,"connected_time":545000000000,"state":"active","ping":64},{"user_id":490,"name":"Alpaca","steam_id":76561198029839079,"connected_time":1907000000000,"state":"active","ping":55},{"user_id":483,"name":"WATANG!","steam_id":76561198040478926,"connected_time":2402000000000,"state":"active","ping":76},{"user_id":481,"name":"Penis Contortionist","steam_id":76561198073663784,"connected_time":2484000000000,"state":"active","ping":52},{"user_id":511,"name":"Umbrella Corporation","steam_id":76561197970242110,"connected_time":99000000000,"state":"active","ping":143},{"user_id":513,"name":"[T]aKer","steam_id":76561198001778013,"connected_time":78000000000,"state":"active","ping":58},{"user_id":463,"name":"K.O.wal","steam_id":76561198317737261,"connected_time":3656000000000,"state":"active","ping":63},{"user_id":514,"name":"Nifi","steam_id":76561198102682566,"connected_time":78000000000,"state":"active","ping":63},{"user_id":491,"name":"誰かが見ている","steam_id":76561198834913692,"connected_time":1869000000000,"state":"active","ping":68}]},{"server_id":311,"name":"Uncletopia | Frankfurt | 6 | All Maps","name_short":"frk-6","host":"frk-1.de.uncletopia.com","port":27065,"enabled":true,"region":"eu","cc":"de","latitude":50.110924,"longitude":8.682127,"reserved":0,"last_update":"0001-01-01T00:00:00Z","name_a2s":"Uncletopia | Frankfurt | 6 | All Maps","protocol":17,"map":"pl_badwater","folder":"tf","game":"Team Fortress","app_id":440,"player_count":22,"max_players":24,"Bots":0,"server_type":"Dedicated","server_os":"Linux","password":true,"vac":true,"version":"7882260","steam_id":85568392924504278,"keywords":["nocrits","nodmgspread","payload","uncletopia"],"game_id":440,"stv_port":27066,"stv_name":"Uncletopia | Frankfurt | 6 | All Maps | STV","players":[{"user_id":382,"name":"KaasKrans","steam_id":76561198240451972,"connected_time":537000000000,"state":"active","ping":61},{"user_id":352,"name":"GuSkand","steam_id":76561198043775605,"connected_time":2082000000000,"state":"active","ping":86},{"user_id":384,"name":"Zina Tv","steam_id":76561198116530769,"connected_time":377000000000,"state":"active","ping":85},{"user_id":379,"name":"Buddy","steam_id":76561198050185582,"connected_time":808000000000,"state":"active","ping":65},{"user_id":385,"name":"Vratis","steam_id":76561198062957725,"connected_time":300000000000,"state":"active","ping":71},{"user_id":368,"name":"Cosmetic brain","steam_id":76561198055936410,"connected_time":1363000000000,"state":"active","ping":85},{"user_id":273,"name":"Ink in veins","steam_id":76561199082262091,"connected_time":5524000000000,"state":"active","ping":79},{"user_id":390,"name":"snsmac","steam_id":76561198082821185,"connected_time":14000000000,"state":"active","ping":347},{"user_id":391,"name":"Burpman","steam_id":76561198022897937,"connected_time":7000000000,"state":"spawning","ping":219},{"user_id":383,"name":"Pyrolander","steam_id":76561198050785450,"connected_time":528000000000,"state":"active","ping":53},{"user_id":387,"name":"Nobody","steam_id":76561198151116796,"connected_time":260000000000,"state":"active","ping":80},{"user_id":388,"name":"Marckal","steam_id":76561199044292961,"connected_time":241000000000,"state":"active","ping":69},{"user_id":389,"name":"POU cherry","steam_id":76561199006915718,"connected_time":230000000000,"state":"active","ping":72},{"user_id":332,"name":"Pacyfista Feminista Frutarianin","steam_id":76561198435883762,"connected_time":3201000000000,"state":"active","ping":89},{"user_id":325,"name":"Pumpkin Pie","steam_id":76561198115230959,"connected_time":3864000000000,"state":"active","ping":81},{"user_id":370,"name":"SpilledMilk","steam_id":76561198174123971,"connected_time":1358000000000,"state":"active","ping":57},{"user_id":371,"name":"Chargable_water","steam_id":76561199190556009,"connected_time":1337000000000,"state":"active","ping":169},{"user_id":367,"name":"dopamine enjoyer","steam_id":76561198140591983,"connected_time":1409000000000,"state":"active","ping":87},{"user_id":376,"name":"♂ Dungeon Master ♂","steam_id":76561198106441033,"connected_time":946000000000,"state":"active","ping":87},{"user_id":365,"name":"󠁳⁧⁧ Kruthal","steam_id":76561198245726582,"connected_time":1611000000000,"state":"active","ping":74},{"user_id":362,"name":"Sexy Pika","steam_id":76561198165742983,"connected_time":1794000000000,"state":"active","ping":69},{"user_id":381,"name":"Stigurna","steam_id":76561198063906822,"connected_time":694000000000,"state":"active","ping":95}]},{"server_id":23,"name":"Uncletopia | Frankfurt | 7 | Stopwatch Beta","name_short":"frk-7","host":"frk-1.de.uncletopia.com","port":27075,"enabled":true,"region":"eu","cc":"de","latitude":50.110924,"longitude":8.682127,"reserved":0,"last_update":"0001-01-01T00:00:00Z","name_a2s":"Uncletopia | Frankfurt | 7 | Stopwatch Beta","protocol":17,"map":"pl_swiftwater_final1","folder":"tf","game":"Team Fortress","app_id":440,"player_count":0,"max_players":24,"Bots":0,"server_type":"Dedicated","server_os":"Linux","password":true,"vac":true,"version":"7882260","steam_id":85568392924742827,"keywords":["nocrits","nodmgspread","payload","uncletopia"],"game_id":440,"stv_port":27076,"stv_name":"Uncletopia | Frankfurt | 7 | Stopwatch Beta | STV","players":null},{"server_id":24,"name":"Uncletopia | Frankfurt | 8 | Community","name_short":"frk-8","host":"frk-1.de.uncletopia.com","port":27085,"enabled":true,"region":"eu","cc":"de","latitude":50.110924,"longitude":8.682127,"reserved":0,"last_update":"0001-01-01T00:00:00Z","name_a2s":"Uncletopia | Frankfurt | 8 | Community","protocol":17,"map":"workshop/koth_kemptown_rc1.ugc767410655","folder":"tf","game":"Team Fortress","app_id":440,"player_count":0,"max_players":24,"Bots":0,"server_type":"Dedicated","server_os":"Linux","password":true,"vac":true,"version":"7882260","steam_id":85568392924742828,"keywords":["cp","nocrits","nodmgspread","uncletopia"],"game_id":440,"stv_port":27086,"stv_name":"Uncletopia | Frankfurt | 8 | Community | STV","players":null},{"server_id":202,"name":"Uncletopia | Hong Kong | 1 | All Maps","name_short":"hgk-1","host":"hgk-1.hk.uncletopia.com","port":27015,"enabled":true,"region":"asia","cc":"hk","latitude":22.302711,"longitude":114.177216,"reserved":0,"last_update":"0001-01-01T00:00:00Z","name_a2s":"Uncletopia | Hong Kong | 1 | All Maps","protocol":17,"map":"pl_badwater","folder":"tf","game":"Team Fortress","app_id":440,"player_count":0,"max_players":24,"Bots":0,"server_type":"Dedicated","server_os":"Linux","password":true,"vac":true,"version":"7882260","steam_id":85568392924494504,"keywords":["nocrits","nodmgspread","payload","uncletopia"],"game_id":440,"stv_port":27016,"stv_name":"Uncletopia | Hong Kong | 1 | All Maps | STV","players":null},{"server_id":1,"name":"Uncletopia | Los Angeles | 1 | All Maps","name_short":"lax-1","host":"lax-1.us.uncletopia.com","port":27015,"enabled":true,"region":"us-west","cc":"us","latitude":33.94279,"longitude":-118.41004,"reserved":0,"last_update":"0001-01-01T00:00:00Z","name_a2s":"Uncletopia | Los Angeles | 1 | All Maps","protocol":17,"map":"pl_swiftwater_final1","folder":"tf","game":"Team Fortress","app_id":440,"player_count":24,"max_players":24,"Bots":0,"server_type":"Dedicated","server_os":"Linux","password":true,"vac":true,"version":"7882260","steam_id":85568392924469991,"keywords":["nocrits","nodmgspread","payload","uncletopia"],"game_id":440,"stv_port":27016,"stv_name":"Uncletopia | Los Angeles | 1 | All Maps | STV","players":[{"user_id":286,"name":"Imitation Caucasian","steam_id":76561198320536166,"connected_time":3188000000000,"state":"active","ping":67},{"user_id":307,"name":"An00bis","steam_id":76561198044084508,"connected_time":1278000000000,"state":"active","ping":46},{"user_id":308,"name":"INTRUDERALERTREDSPYINTHEBASE","steam_id":76561198990902905,"connected_time":1244000000000,"state":"active","ping":39},{"user_id":239,"name":"Meet The Kazoo","steam_id":76561199229748300,"connected_time":7430000000000,"state":"active","ping":54},{"user_id":311,"name":"Appahandler","steam_id":76561198063850720,"connected_time":155000000000,"state":"active","ping":52},{"user_id":291,"name":"Why Me...","steam_id":76561199124019937,"connected_time":2505000000000,"state":"active","ping":70},{"user_id":306,"name":"bebo","steam_id":76561198385085005,"connected_time":1454000000000,"state":"active","ping":55},{"user_id":309,"name":"doughboy","steam_id":76561198219012928,"connected_time":1155000000000,"state":"active","ping":49},{"user_id":298,"name":"vapelord supreme","steam_id":76561198100463985,"connected_time":2200000000000,"state":"active","ping":141},{"user_id":310,"name":"Potato Knishes","steam_id":76561198063539547,"connected_time":882000000000,"state":"active","ping":86},{"user_id":221,"name":"Neophyte","steam_id":76561198027183394,"connected_time":9153000000000,"state":"active","ping":90},{"user_id":301,"name":"the biggest bird","steam_id":76561198361999761,"connected_time":2085000000000,"state":"active","ping":51},{"user_id":225,"name":"jayzak24","steam_id":76561198354267509,"connected_time":8597000000000,"state":"active","ping":53},{"user_id":279,"name":"Sailor","steam_id":76561199081983517,"connected_time":3811000000000,"state":"active","ping":78},{"user_id":288,"name":"HideOnTate","steam_id":76561198209880837,"connected_time":2952000000000,"state":"active","ping":77},{"user_id":166,"name":"Snoopy","steam_id":76561198273735974,"connected_time":12789000000000,"state":"active","ping":83},{"user_id":297,"name":"UneditedAndy","steam_id":76561198982544947,"connected_time":2214000000000,"state":"active","ping":54},{"user_id":205,"name":"lasky","steam_id":76561198017030029,"connected_time":9751000000000,"state":"active","ping":67},{"user_id":304,"name":"Elfy","steam_id":76561199166448617,"connected_time":1713000000000,"state":"active","ping":77},{"user_id":312,"name":"-L","steam_id":76561198046074220,"connected_time":132000000000,"state":"active","ping":41},{"user_id":284,"name":"kelvin","steam_id":76561198121215313,"connected_time":3400000000000,"state":"active","ping":47},{"user_id":299,"name":"Heinz-Harald Frentzen","steam_id":76561199002203593,"connected_time":2199000000000,"state":"active","ping":102},{"user_id":303,"name":"Ockulus","steam_id":76561199069638460,"connected_time":1817000000000,"state":"active","ping":52},{"user_id":236,"name":"PrimerChase","steam_id":76561198378826131,"connected_time":8200000000000,"state":"active","ping":110}]},{"server_id":112,"name":"Uncletopia | Los Angeles | 2 | All Maps","name_short":"lax-2","host":"lax-1.us.uncletopia.com","port":27025,"enabled":true,"region":"us-west","cc":"us","latitude":33.94279,"longitude":-118.41004,"reserved":0,"last_update":"0001-01-01T00:00:00Z","name_a2s":"Uncletopia | Los Angeles | 2 | All Maps","protocol":17,"map":"ctf_turbine","folder":"tf","game":"Team Fortress","app_id":440,"player_count":24,"max_players":24,"Bots":0,"server_type":"Dedicated","server_os":"Linux","password":true,"vac":true,"version":"7882260","steam_id":85568392924469992,"keywords":["ctf","nocrits","nodmgspread","uncletopia"],"game_id":440,"stv_port":27026,"stv_name":"Uncletopia | Los Angeles | 2 | All Maps | STV","players":[{"user_id":46,"name":"YahYeeterson","steam_id":76561198120480906,"connected_time":847000000000,"state":"active","ping":86},{"user_id":33,"name":"i cant aim","steam_id":76561198065873462,"connected_time":1316000000000,"state":"active","ping":45},{"user_id":16,"name":"Saber","steam_id":76561199030547855,"connected_time":2184000000000,"state":"active","ping":55},{"user_id":38,"name":"Interstellis fan","steam_id":76561199486155880,"connected_time":1131000000000,"state":"active","ping":85},{"user_id":17,"name":"asm_ghost","steam_id":76561199205363547,"connected_time":2165000000000,"state":"active","ping":68},{"user_id":18,"name":"biggers","steam_id":76561199099061813,"connected_time":2164000000000,"state":"active","ping":66},{"user_id":20,"name":"SlitherDoodle","steam_id":76561198000275473,"connected_time":2010000000000,"state":"active","ping":62},{"user_id":36,"name":"Gary P","steam_id":76561198149108488,"connected_time":1195000000000,"state":"active","ping":85},{"user_id":56,"name":"NinjaZebra123","steam_id":76561199057849611,"connected_time":370000000000,"state":"active","ping":65},{"user_id":57,"name":"Greskrendtregk","steam_id":76561197969553142,"connected_time":163000000000,"state":"active","ping":80},{"user_id":24,"name":"johnman gooberguy","steam_id":76561199014859764,"connected_time":1790000000000,"state":"active","ping":70},{"user_id":34,"name":"A UsedNom","steam_id":76561198402832756,"connected_time":1302000000000,"state":"active","ping":43},{"user_id":54,"name":"Ronnie Pickering!","steam_id":76561198041842118,"connected_time":533000000000,"state":"active","ping":52},{"user_id":32,"name":"a cat plushie","steam_id":76561198080046542,"connected_time":1343000000000,"state":"active","ping":66},{"user_id":40,"name":"Mr. Flaregun","steam_id":76561198165834369,"connected_time":1076000000000,"state":"active","ping":57},{"user_id":31,"name":"Ok then","steam_id":76561198891914787,"connected_time":1394000000000,"state":"active","ping":86},{"user_id":35,"name":"catch and claim","steam_id":76561198042913843,"connected_time":1281000000000,"state":"active","ping":89},{"user_id":37,"name":"Kid named download","steam_id":76561199192074448,"connected_time":1154000000000,"state":"active","ping":133},{"user_id":41,"name":"Vaudeville Villain","steam_id":76561199212093339,"connected_time":1022000000000,"state":"active","ping":117},{"user_id":53,"name":"MDMA","steam_id":76561198155990611,"connected_time":558000000000,"state":"active","ping":59},{"user_id":49,"name":"big fish","steam_id":76561198186479818,"connected_time":716000000000,"state":"active","ping":59},{"user_id":44,"name":"wtfxid","steam_id":76561198377797212,"connected_time":900000000000,"state":"active","ping":36},{"user_id":50,"name":"cringeass nae-nae girl","steam_id":76561198108753857,"connected_time":636000000000,"state":"active","ping":80},{"user_id":51,"name":"Bub","steam_id":76561198059791574,"connected_time":625000000000,"state":"active","ping":88}]},{"server_id":324,"name":"Uncletopia | Los Angeles | 3 | All Maps","name_short":"lax-3","host":"lax-1.us.uncletopia.com","port":27035,"enabled":true,"region":"us-west","cc":"us","latitude":33.94279,"longitude":-118.41004,"reserved":0,"last_update":"0001-01-01T00:00:00Z","name_a2s":"Uncletopia | Los Angeles | 3 | All Maps","protocol":17,"map":"pl_pier","folder":"tf","game":"Team Fortress","app_id":440,"player_count":0,"max_players":24,"Bots":0,"server_type":"Dedicated","server_os":"Linux","password":true,"vac":true,"version":"7882260","steam_id":85568392924510198,"keywords":["nocrits","nodmgspread","payload","uncletopia"],"game_id":440,"stv_port":27036,"stv_name":"Uncletopia | Los Angeles | 3 | All Maps | STV","players":null},{"server_id":25,"name":"Uncletopia | Los Angeles | 4 | Stopwatch Beta","name_short":"lax-4","host":"lax-1.us.uncletopia.com","port":27045,"enabled":true,"region":"us-west","cc":"us","latitude":33.94279,"longitude":-118.41004,"reserved":0,"last_update":"0001-01-01T00:00:00Z","name_a2s":"Uncletopia | Los Angeles | 4 | Stopwatch Beta","protocol":17,"map":"koth_viaduct","folder":"tf","game":"Team Fortress","app_id":440,"player_count":0,"max_players":24,"Bots":0,"server_type":"Dedicated","server_os":"Linux","password":true,"vac":true,"version":"7882260","steam_id":85568392924510199,"keywords":["cp","nocrits","nodmgspread","uncletopia"],"game_id":440,"stv_port":27046,"stv_name":"Uncletopia | Los Angeles | 4 | Stopwatch Beta | STV","players":null},{"server_id":11,"name":"Uncletopia | London | 1 | All Maps","name_short":"lon-1","host":"lon-1.uk.uncletopia.com","port":27015,"enabled":true,"region":"eu","cc":"gb","latitude":51.509865,"longitude":-0.118092,"reserved":0,"last_update":"0001-01-01T00:00:00Z","name_a2s":"Uncletopia | London | 1 | All Maps","protocol":17,"map":"pl_snowycoast","folder":"tf","game":"Team Fortress","app_id":440,"player_count":24,"max_players":24,"Bots":0,"server_type":"Dedicated","server_os":"Linux","password":true,"vac":true,"version":"7882260","steam_id":85568392924367362,"keywords":["nocrits","nodmgspread","payload","uncletopia"],"game_id":440,"stv_port":27016,"stv_name":"Uncletopia | London | 1 | All Maps | STV","players":[{"user_id":741,"name":"😈 COCKDESTROYER 😈","steam_id":76561198042846999,"connected_time":4635000000000,"state":"active","ping":75},{"user_id":791,"name":"CarBombEnthusiast","steam_id":76561199448185434,"connected_time":212000000000,"state":"active","ping":71},{"user_id":770,"name":"Egor Pomidor","steam_id":76561199175688390,"connected_time":2489000000000,"state":"active","ping":87},{"user_id":749,"name":"SERIAL_CODE","steam_id":76561197981488663,"connected_time":4077000000000,"state":"active","ping":59},{"user_id":746,"name":"Faustino","steam_id":76561198061771785,"connected_time":4384000000000,"state":"active","ping":74},{"user_id":776,"name":"Fish","steam_id":76561198152128484,"connected_time":1050000000000,"state":"active","ping":48},{"user_id":792,"name":"Kes","steam_id":76561198095288832,"connected_time":198000000000,"state":"active","ping":48},{"user_id":786,"name":"Antiparticle #SaveTF2","steam_id":76561197990545681,"connected_time":364000000000,"state":"active","ping":59},{"user_id":793,"name":"Seail_M","steam_id":76561198002405605,"connected_time":197000000000,"state":"active","ping":64},{"user_id":761,"name":"Andy","steam_id":76561198046918834,"connected_time":2772000000000,"state":"active","ping":65},{"user_id":739,"name":"froglids","steam_id":76561198045466919,"connected_time":5190000000000,"state":"active","ping":69},{"user_id":751,"name":"0lloe","steam_id":76561198070861443,"connected_time":3773000000000,"state":"active","ping":52},{"user_id":762,"name":"Oak","steam_id":76561198067315672,"connected_time":2768000000000,"state":"active","ping":58},{"user_id":788,"name":"Zero-Five","steam_id":76561198046468600,"connected_time":333000000000,"state":"active","ping":133},{"user_id":789,"name":"Max Power","steam_id":76561198019269089,"connected_time":325000000000,"state":"active","ping":60},{"user_id":782,"name":"Cookies and Bakies","steam_id":76561198017442928,"connected_time":712000000000,"state":"active","ping":70},{"user_id":758,"name":"Seizure Salad","steam_id":76561198406747803,"connected_time":3122000000000,"state":"active","ping":56},{"user_id":763,"name":"denizmik","steam_id":76561198975735360,"connected_time":2761000000000,"state":"active","ping":106},{"user_id":726,"name":"le big mac","steam_id":76561199026378253,"connected_time":5724000000000,"state":"active","ping":61},{"user_id":745,"name":"fence_","steam_id":76561198150386379,"connected_time":4480000000000,"state":"active","ping":47},{"user_id":774,"name":"Norret Gantier","steam_id":76561198170062453,"connected_time":1591000000000,"state":"active","ping":93},{"user_id":777,"name":"I Did Not Kill My Wife","steam_id":76561198531978435,"connected_time":997000000000,"state":"active","ping":85},{"user_id":798,"name":"Fart Goblin","steam_id":76561198072147068,"connected_time":79000000000,"state":"active","ping":77},{"user_id":795,"name":"4ever Jerk05","steam_id":76561198066000941,"connected_time":186000000000,"state":"active","ping":69}]},{"server_id":114,"name":"Uncletopia | London | 2 | All Maps","name_short":"lon-2","host":"lon-1.uk.uncletopia.com","port":27025,"enabled":true,"region":"eu","cc":"gb","latitude":51.509865,"longitude":-0.118092,"reserved":0,"last_update":"0001-01-01T00:00:00Z","name_a2s":"Uncletopia | London | 2 | All Maps","protocol":17,"map":"ctf_sawmill","folder":"tf","game":"Team Fortress","app_id":440,"player_count":22,"max_players":24,"Bots":0,"server_type":"Dedicated","server_os":"Linux","password":true,"vac":true,"version":"7882260","steam_id":85568392924470941,"keywords":["ctf","nocrits","nodmgspread","uncletopia"],"game_id":440,"stv_port":27026,"stv_name":"Uncletopia | London | 2 | All Maps | STV","players":[{"user_id":94,"name":"Makłowicz","steam_id":76561198281831506,"connected_time":459000000000,"state":"active","ping":88},{"user_id":109,"name":"PP_master69420","steam_id":76561199019913910,"connected_time":16000000000,"state":"active","ping":85},{"user_id":50,"name":"Monkeytonk","steam_id":76561198081151851,"connected_time":2654000000000,"state":"active","ping":35},{"user_id":68,"name":"(2)THE COLLECTIVE","steam_id":76561198303232001,"connected_time":2187000000000,"state":"active","ping":56},{"user_id":75,"name":"Plep","steam_id":76561198840259819,"connected_time":1716000000000,"state":"active","ping":53},{"user_id":104,"name":"coldwar121947","steam_id":76561199387219377,"connected_time":239000000000,"state":"active","ping":109},{"user_id":92,"name":"Vince","steam_id":76561199103000131,"connected_time":747000000000,"state":"active","ping":32},{"user_id":49,"name":"Gentlemann of Scotland","steam_id":76561198073941805,"connected_time":2671000000000,"state":"active","ping":56},{"user_id":103,"name":"It's time","steam_id":76561198061197114,"connected_time":296000000000,"state":"active","ping":78},{"user_id":78,"name":"poliakov.noam","steam_id":76561199259322961,"connected_time":1493000000000,"state":"active","ping":103},{"user_id":53,"name":"Babadaboopi","steam_id":76561198084466775,"connected_time":2576000000000,"state":"active","ping":49},{"user_id":82,"name":"hallu","steam_id":76561198198581079,"connected_time":1334000000000,"state":"active","ping":72},{"user_id":84,"name":"1 toke 4 mars bars","steam_id":76561198056460000,"connected_time":1178000000000,"state":"active","ping":47},{"user_id":85,"name":"man in da club","steam_id":76561198090580368,"connected_time":1139000000000,"state":"active","ping":53},{"user_id":90,"name":"they'r called cheTOES for a rea","steam_id":76561199438332812,"connected_time":892000000000,"state":"active","ping":114},{"user_id":106,"name":"Elix","steam_id":76561199072306920,"connected_time":155000000000,"state":"active","ping":90},{"user_id":96,"name":"DJ L3G3ND","steam_id":76561198186112647,"connected_time":424000000000,"state":"active","ping":59},{"user_id":89,"name":"12Adam12","steam_id":76561198037882443,"connected_time":1033000000000,"state":"active","ping":65},{"user_id":63,"name":"(1)The Collective","steam_id":76561198112689672,"connected_time":2321000000000,"state":"active","ping":39},{"user_id":64,"name":"The Collective","steam_id":76561198988363799,"connected_time":2257000000000,"state":"active","ping":60},{"user_id":107,"name":"Purpurea","steam_id":76561198075376419,"connected_time":139000000000,"state":"active","ping":53},{"user_id":108,"name":"skilltissues","steam_id":76561198025828664,"connected_time":128000000000,"state":"active","ping":57}]},{"server_id":320,"name":"Uncletopia | London | 3 | All Maps","name_short":"lon-3","host":"lon-1.uk.uncletopia.com","port":27035,"enabled":true,"region":"eu","cc":"gb","latitude":51.509865,"longitude":-0.118092,"reserved":0,"last_update":"0001-01-01T00:00:00Z","name_a2s":"Uncletopia | London | 3 | All Maps","protocol":17,"map":"cp_process_final","folder":"tf","game":"Team Fortress","app_id":440,"player_count":24,"max_players":24,"Bots":0,"server_type":"Dedicated","server_os":"Linux","password":true,"vac":true,"version":"7882260","steam_id":85568392924510192,"keywords":["cp","nocrits","nodmgspread","uncletopia"],"game_id":440,"stv_port":27036,"stv_name":"Uncletopia | London | 3 | All Maps | STV","players":[{"user_id":199,"name":"thia","steam_id":76561198186366599,"connected_time":1443000000000,"state":"active","ping":82},{"user_id":169,"name":"Envy","steam_id":76561198132723219,"connected_time":4715000000000,"state":"active","ping":106},{"user_id":196,"name":"Elsuedi","steam_id":76561198074722832,"connected_time":1902000000000,"state":"active","ping":60},{"user_id":124,"name":"Miss Bari","steam_id":76561198365286092,"connected_time":8391000000000,"state":"active","ping":37},{"user_id":185,"name":"LarsInABox","steam_id":76561198028329262,"connected_time":3448000000000,"state":"active","ping":64},{"user_id":123,"name":"Jon","steam_id":76561199380849468,"connected_time":8430000000000,"state":"active","ping":62},{"user_id":195,"name":"Tegnerud","steam_id":76561198214185612,"connected_time":1945000000000,"state":"active","ping":72},{"user_id":166,"name":"Son Goku","steam_id":76561199383437138,"connected_time":4998000000000,"state":"active","ping":125},{"user_id":186,"name":"Spurt","steam_id":76561198078523852,"connected_time":3439000000000,"state":"active","ping":50},{"user_id":212,"name":"Dr.Sees [F2P]","steam_id":76561199219233587,"connected_time":329000000000,"state":"active","ping":77},{"user_id":205,"name":"avalon","steam_id":76561198003212528,"connected_time":1263000000000,"state":"active","ping":60},{"user_id":204,"name":"Serton♝","steam_id":76561198011061126,"connected_time":1269000000000,"state":"active","ping":75},{"user_id":192,"name":"chess club manager","steam_id":76561198011047413,"connected_time":2782000000000,"state":"active","ping":85},{"user_id":194,"name":"vlad","steam_id":76561199003712788,"connected_time":2153000000000,"state":"active","ping":52},{"user_id":198,"name":"alex jones gaming","steam_id":76561199090730414,"connected_time":1547000000000,"state":"active","ping":100},{"user_id":183,"name":"frosty","steam_id":76561198094560834,"connected_time":3518000000000,"state":"active","ping":52},{"user_id":206,"name":"Janner","steam_id":76561198127045282,"connected_time":1237000000000,"state":"active","ping":45},{"user_id":210,"name":"etc","steam_id":76561197998394797,"connected_time":833000000000,"state":"active","ping":47},{"user_id":175,"name":"Sylvanas","steam_id":76561198154904165,"connected_time":4630000000000,"state":"active","ping":108},{"user_id":211,"name":"dotdotdot","steam_id":76561198057628751,"connected_time":428000000000,"state":"active","ping":61},{"user_id":213,"name":"Fat Pigeon","steam_id":76561198817940142,"connected_time":212000000000,"state":"active","ping":59},{"user_id":179,"name":"Kahvi","steam_id":76561198723244199,"connected_time":4485000000000,"state":"active","ping":77},{"user_id":189,"name":"Lyncurion","steam_id":76561199260022725,"connected_time":2946000000000,"state":"active","ping":89},{"user_id":207,"name":"BenteBent","steam_id":76561198297920637,"connected_time":1198000000000,"state":"active","ping":38}]},{"server_id":321,"name":"Uncletopia | London | 4 | All Maps","name_short":"lon-4","host":"lon-1.uk.uncletopia.com","port":27045,"enabled":true,"region":"eu","cc":"gb","latitude":51.509865,"longitude":-0.118092,"reserved":0,"last_update":"0001-01-01T00:00:00Z","name_a2s":"Uncletopia | London | 4 | All Maps","protocol":17,"map":"pl_upward","folder":"tf","game":"Team Fortress","app_id":440,"player_count":23,"max_players":24,"Bots":0,"server_type":"Dedicated","server_os":"Linux","password":true,"vac":true,"version":"7882260","steam_id":85568392924510193,"keywords":["nocrits","nodmgspread","payload","uncletopia"],"game_id":440,"stv_port":27046,"stv_name":"Uncletopia | London | 4 | All Maps | STV","players":[{"user_id":581,"name":"i put rocks in your mattress","steam_id":76561198072892783,"connected_time":5178000000000,"state":"active","ping":60},{"user_id":642,"name":"dancle une","steam_id":76561197968945306,"connected_time":705000000000,"state":"active","ping":69},{"user_id":631,"name":"Sneezy Anus","steam_id":76561198044081333,"connected_time":1076000000000,"state":"active","ping":76},{"user_id":632,"name":"Hexagon","steam_id":76561198151205758,"connected_time":1062000000000,"state":"active","ping":55},{"user_id":641,"name":"spaghettisaucerer","steam_id":76561198145133200,"connected_time":727000000000,"state":"active","ping":50},{"user_id":646,"name":"Liamish11","steam_id":76561198176235318,"connected_time":350000000000,"state":"active","ping":100},{"user_id":622,"name":"Big Al","steam_id":76561198079585198,"connected_time":2589000000000,"state":"active","ping":52},{"user_id":625,"name":"Christmas Ham","steam_id":76561198119601623,"connected_time":1954000000000,"state":"active","ping":55},{"user_id":615,"name":"Operable2694","steam_id":76561199486377532,"connected_time":3039000000000,"state":"active","ping":61},{"user_id":626,"name":"BazzarBaz","steam_id":76561198823420149,"connected_time":1813000000000,"state":"active","ping":61},{"user_id":616,"name":"bp","steam_id":76561198353083018,"connected_time":3033000000000,"state":"active","ping":59},{"user_id":620,"name":"Walrus","steam_id":76561198063217868,"connected_time":2697000000000,"state":"active","ping":50},{"user_id":645,"name":"Djkitkat","steam_id":76561199003498866,"connected_time":475000000000,"state":"active","ping":54},{"user_id":647,"name":"Lethal","steam_id":76561198452042648,"connected_time":31000000000,"state":"active","ping":71},{"user_id":621,"name":"DrExplosive","steam_id":76561198063678579,"connected_time":2679000000000,"state":"active","ping":37},{"user_id":619,"name":"slorp","steam_id":76561198239927434,"connected_time":2821000000000,"state":"active","ping":89},{"user_id":639,"name":"Furno","steam_id":76561197999723047,"connected_time":826000000000,"state":"active","ping":46},{"user_id":636,"name":"Mr. Mundy","steam_id":76561198132008918,"connected_time":1011000000000,"state":"active","ping":79},{"user_id":640,"name":"SynthBox3","steam_id":76561199094075745,"connected_time":757000000000,"state":"active","ping":101},{"user_id":603,"name":"Spliffendor","steam_id":76561198144020209,"connected_time":3642000000000,"state":"active","ping":48},{"user_id":623,"name":"gabagool","steam_id":76561198307111838,"connected_time":2576000000000,"state":"active","ping":31},{"user_id":592,"name":"♂ Animan ♂ Studios ♂","steam_id":76561198308302932,"connected_time":4981000000000,"state":"active","ping":98},{"user_id":593,"name":"Invoker-sama","steam_id":76561198128470403,"connected_time":4981000000000,"state":"active","ping":107}]},{"server_id":21,"name":"Uncletopia | London | 5 | All Maps","name_short":"lon-5","host":"lon-1.uk.uncletopia.com","port":27055,"enabled":true,"region":"eu","cc":"gb","latitude":51.509865,"longitude":-0.118092,"reserved":0,"last_update":"0001-01-01T00:00:00Z","name_a2s":"Uncletopia | London | 5 | All Maps","protocol":17,"map":"cp_metalworks","folder":"tf","game":"Team Fortress","app_id":440,"player_count":20,"max_players":24,"Bots":0,"server_type":"Dedicated","server_os":"Linux","password":true,"vac":true,"version":"7882260","steam_id":85568392924742829,"keywords":["cp","nocrits","nodmgspread","uncletopia"],"game_id":440,"stv_port":27056,"stv_name":"Uncletopia | London | 5 | All Maps | STV","players":[{"user_id":678,"name":"A stripper","steam_id":76561198034865891,"connected_time":1479000000000,"state":"spawning","ping":60},{"user_id":668,"name":"Skittles","steam_id":76561198024077569,"connected_time":2022000000000,"state":"spawning","ping":82},{"user_id":664,"name":"Mi Manchi","steam_id":76561198171573129,"connected_time":2325000000000,"state":"spawning","ping":117},{"user_id":674,"name":"Zarden","steam_id":76561198080638451,"connected_time":1680000000000,"state":"spawning","ping":93},{"user_id":683,"name":"Teecho","steam_id":76561197995269610,"connected_time":679000000000,"state":"spawning","ping":72},{"user_id":675,"name":"penis gaming","steam_id":76561198086132840,"connected_time":1640000000000,"state":"spawning","ping":90},{"user_id":616,"name":"Pilaarius","steam_id":76561198120273212,"connected_time":6268000000000,"state":"spawning","ping":182},{"user_id":621,"name":"flr","steam_id":76561198249327786,"connected_time":6001000000000,"state":"spawning","ping":144},{"user_id":667,"name":"sareena","steam_id":76561198810194062,"connected_time":2097000000000,"state":"spawning","ping":141},{"user_id":665,"name":"xavier","steam_id":76561198076494034,"connected_time":2324000000000,"state":"spawning","ping":96},{"user_id":684,"name":"I am on the TF2 Scoreboard...","steam_id":76561198043850884,"connected_time":107000000000,"state":"spawning","ping":51},{"user_id":666,"name":"Vershal Smershal","steam_id":76561198116223995,"connected_time":2272000000000,"state":"spawning","ping":101},{"user_id":649,"name":"MozPango","steam_id":76561198083556891,"connected_time":3878000000000,"state":"spawning","ping":112},{"user_id":617,"name":"Bajas","steam_id":76561198179339326,"connected_time":6164000000000,"state":"spawning","ping":153},{"user_id":608,"name":"tiny carrots with big ambitions","steam_id":76561198069649097,"connected_time":7271000000000,"state":"connecting","ping":92},{"user_id":661,"name":"united chunk","steam_id":76561199017850298,"connected_time":2782000000000,"state":"spawning","ping":124},{"user_id":676,"name":"r06u3","steam_id":76561198254099253,"connected_time":1623000000000,"state":"spawning","ping":308},{"user_id":635,"name":"SPONGE","steam_id":76561198040933472,"connected_time":5300000000000,"state":"spawning","ping":128},{"user_id":682,"name":"Klunkerino","steam_id":76561197971081655,"connected_time":844000000000,"state":"spawning","ping":99},{"user_id":652,"name":"Rock..","steam_id":76561198004641963,"connected_time":3861000000000,"state":"spawning","ping":134}]},{"server_id":22,"name":"Uncletopia | London | 6 | All Maps","name_short":"lon-6","host":"lon-1.uk.uncletopia.com","port":27065,"enabled":true,"region":"eu","cc":"gb","latitude":51.509865,"longitude":-0.118092,"reserved":0,"last_update":"0001-01-01T00:00:00Z","name_a2s":"Uncletopia | London | 6 | All Maps","protocol":17,"map":"koth_suijin","folder":"tf","game":"Team Fortress","app_id":440,"player_count":24,"max_players":24,"Bots":0,"server_type":"Dedicated","server_os":"Linux","password":true,"vac":true,"version":"7882260","steam_id":85568392924742830,"keywords":["cp","nocrits","nodmgspread","uncletopia"],"game_id":440,"stv_port":27066,"stv_name":"Uncletopia | London | 6 | All Maps | STV","players":[{"user_id":485,"name":"Xanshi","steam_id":76561198152392309,"connected_time":1618000000000,"state":"active","ping":45},{"user_id":495,"name":"teodor the magic dragon","steam_id":76561198136362697,"connected_time":606000000000,"state":"active","ping":81},{"user_id":493,"name":"Wattsy","steam_id":76561199143306500,"connected_time":766000000000,"state":"active","ping":64},{"user_id":459,"name":"the_Qcumber","steam_id":76561199152515819,"connected_time":3200000000000,"state":"active","ping":71},{"user_id":479,"name":"StingyLettuce","steam_id":76561199010337406,"connected_time":2261000000000,"state":"active","ping":117},{"user_id":491,"name":"Faris174","steam_id":76561198090538315,"connected_time":788000000000,"state":"active","ping":132},{"user_id":481,"name":"Trademark™","steam_id":76561198150079417,"connected_time":1858000000000,"state":"active","ping":43},{"user_id":488,"name":"kamu","steam_id":76561198367337443,"connected_time":1121000000000,"state":"active","ping":104},{"user_id":472,"name":"Glitch","steam_id":76561198801335846,"connected_time":2640000000000,"state":"active","ping":39},{"user_id":475,"name":"CEO of Pen Island","steam_id":76561198037212191,"connected_time":2541000000000,"state":"active","ping":60},{"user_id":437,"name":"Bego","steam_id":76561199093369711,"connected_time":3775000000000,"state":"active","ping":93},{"user_id":438,"name":"Alyosha","steam_id":76561198032771167,"connected_time":3747000000000,"state":"active","ping":87},{"user_id":496,"name":"Badusernames","steam_id":76561198060698610,"connected_time":543000000000,"state":"active","ping":69},{"user_id":440,"name":"BoBunny McGlitter","steam_id":76561198057403817,"connected_time":3696000000000,"state":"active","ping":69},{"user_id":489,"name":"P00TIS","steam_id":76561199239780769,"connected_time":1072000000000,"state":"active","ping":84},{"user_id":484,"name":"Eggcracker","steam_id":76561199274850641,"connected_time":1663000000000,"state":"active","ping":79},{"user_id":443,"name":"Mental","steam_id":76561198057117092,"connected_time":3665000000000,"state":"active","ping":60},{"user_id":477,"name":"Warrez the Emu","steam_id":76561198080840887,"connected_time":2505000000000,"state":"active","ping":58},{"user_id":492,"name":"Milosz52","steam_id":76561199060940204,"connected_time":786000000000,"state":"active","ping":85},{"user_id":494,"name":"midlpsyzl47","steam_id":76561199475972637,"connected_time":692000000000,"state":"active","ping":66},{"user_id":454,"name":"Daan77","steam_id":76561198129940468,"connected_time":3371000000000,"state":"active","ping":72},{"user_id":480,"name":"N.M.E","steam_id":76561198012351470,"connected_time":1965000000000,"state":"active","ping":46},{"user_id":466,"name":"chugger beef","steam_id":76561198372130358,"connected_time":2869000000000,"state":"active","ping":49},{"user_id":487,"name":"Rayen","steam_id":76561198414934028,"connected_time":1364000000000,"state":"active","ping":513}]},{"server_id":40,"name":"Uncletopia | London | 7 | No Payload","name_short":"lon-7","host":"lon-1.uk.uncletopia.com","port":27075,"enabled":true,"region":"eu","cc":"gb","latitude":51.509865,"longitude":-0.118092,"reserved":0,"last_update":"0001-01-01T00:00:00Z","name_a2s":"Uncletopia | London | 7 | No Payload","protocol":17,"map":"ctf_well","folder":"tf","game":"Team Fortress","app_id":440,"player_count":20,"max_players":24,"Bots":0,"server_type":"Dedicated","server_os":"Linux","password":true,"vac":true,"version":"7882260","steam_id":85568392924964314,"keywords":["ctf","nocrits","nodmgspread","uncletopia"],"game_id":440,"stv_port":27076,"stv_name":"Uncletopia | London | 7 | No Payload | STV","players":[{"user_id":437,"name":"siema","steam_id":76561198033698248,"connected_time":1724000000000,"state":"active","ping":101},{"user_id":428,"name":"niandits","steam_id":76561198419798900,"connected_time":2854000000000,"state":"active","ping":140},{"user_id":459,"name":"stonemonkey","steam_id":76561199478378377,"connected_time":291000000000,"state":"active","ping":53},{"user_id":438,"name":"Stern","steam_id":76561198065421312,"connected_time":1674000000000,"state":"active","ping":44},{"user_id":434,"name":"The Daniella","steam_id":76561198023075547,"connected_time":2210000000000,"state":"active","ping":60},{"user_id":439,"name":"Xpload","steam_id":76561198188505089,"connected_time":1670000000000,"state":"active","ping":35},{"user_id":398,"name":"Rook","steam_id":76561197995204779,"connected_time":4546000000000,"state":"active","ping":42},{"user_id":435,"name":"Some Guy","steam_id":76561198137335527,"connected_time":2208000000000,"state":"active","ping":53},{"user_id":429,"name":"FNF","steam_id":76561199151422826,"connected_time":2836000000000,"state":"active","ping":121},{"user_id":440,"name":"Möppy #savetf2","steam_id":76561198020555530,"connected_time":1665000000000,"state":"active","ping":45},{"user_id":403,"name":"Frosty","steam_id":76561199055987798,"connected_time":4233000000000,"state":"active","ping":72},{"user_id":427,"name":"The Meatiest Balls","steam_id":76561198982155864,"connected_time":2906000000000,"state":"active","ping":85},{"user_id":441,"name":"demolition2n3","steam_id":76561198356060442,"connected_time":1665000000000,"state":"active","ping":39},{"user_id":442,"name":"Derpyyy","steam_id":76561198108754919,"connected_time":1584000000000,"state":"active","ping":31},{"user_id":389,"name":"Urfangonultasadana","steam_id":76561199389286151,"connected_time":5220000000000,"state":"active","ping":98},{"user_id":443,"name":"MrBanana","steam_id":76561198116021623,"connected_time":1515000000000,"state":"active","ping":60},{"user_id":422,"name":"Orbit","steam_id":76561198242999878,"connected_time":3141000000000,"state":"active","ping":55},{"user_id":445,"name":"dansal","steam_id":76561197997042510,"connected_time":1311000000000,"state":"active","ping":157},{"user_id":383,"name":"M2rtRa","steam_id":76561198111036466,"connected_time":5562000000000,"state":"active","ping":75},{"user_id":457,"name":"BenchOhBoi","steam_id":76561198089687243,"connected_time":438000000000,"state":"active","ping":100}]},{"server_id":41,"name":"Uncletopia | London | 8 | Community","name_short":"lon-8","host":"lon-1.uk.uncletopia.com","port":27085,"enabled":true,"region":"eu","cc":"gb","latitude":51.509865,"longitude":-0.118092,"reserved":0,"last_update":"0001-01-01T00:00:00Z","name_a2s":"Uncletopia | London | 8 | Community","protocol":17,"map":"workshop/koth_slaughter_rc1.ugc1712845210","folder":"tf","game":"Team Fortress","app_id":440,"player_count":0,"max_players":24,"Bots":0,"server_type":"Dedicated","server_os":"Linux","password":true,"vac":true,"version":"7882260","steam_id":85568392924964315,"keywords":["cp","nocrits","nodmgspread","uncletopia"],"game_id":440,"stv_port":27086,"stv_name":"Uncletopia | London | 8 | Community | STV","players":null},{"server_id":300,"name":"Uncletopia | Montréal | 1 | All Maps","name_short":"mtl-1","host":"mtl-1.ca.uncletopia.com","port":27015,"enabled":true,"region":"us-east","cc":"ca","latitude":45.50889,"longitude":-73.56167,"reserved":0,"last_update":"0001-01-01T00:00:00Z","name_a2s":"Uncletopia | Montréal | 1 | All Maps","protocol":17,"map":"pl_swiftwater_final1","folder":"tf","game":"Team Fortress","app_id":440,"player_count":0,"max_players":24,"Bots":0,"server_type":"Dedicated","server_os":"Linux","password":true,"vac":true,"version":"7882260","steam_id":85568392924500087,"keywords":["nocrits","nodmgspread","payload","uncletopia"],"game_id":440,"stv_port":27016,"stv_name":"Uncletopia | Montréal | 1 | All Maps | STV","players":null},{"server_id":301,"name":"Uncletopia | Montréal | 2 | All Maps","name_short":"mtl-2","host":"mtl-1.ca.uncletopia.com","port":27025,"enabled":true,"region":"us-east","cc":"ca","latitude":45.50889,"longitude":-73.56167,"reserved":0,"last_update":"0001-01-01T00:00:00Z","name_a2s":"Uncletopia | Montréal | 2 | All Maps","protocol":17,"map":"pl_swiftwater_final1","folder":"tf","game":"Team Fortress","app_id":440,"player_count":0,"max_players":24,"Bots":0,"server_type":"Dedicated","server_os":"Linux","password":true,"vac":true,"version":"7882260","steam_id":85568392924500088,"keywords":["nocrits","nodmgspread","payload","uncletopia"],"game_id":440,"stv_port":27026,"stv_name":"Uncletopia | Montréal | 2 | All Maps | STV","players":null},{"server_id":302,"name":"Uncletopia | Montréal | 3 | All Maps","name_short":"mtl-3","host":"mtl-1.ca.uncletopia.com","port":27035,"enabled":true,"region":"us-east","cc":"ca","latitude":45.50889,"longitude":-73.56167,"reserved":0,"last_update":"0001-01-01T00:00:00Z","name_a2s":"Uncletopia | Montréal | 3 | All Maps","protocol":17,"map":"koth_highpass","folder":"tf","game":"Team Fortress","app_id":440,"player_count":0,"max_players":24,"Bots":0,"server_type":"Dedicated","server_os":"Linux","password":true,"vac":true,"version":"7882260","steam_id":85568392924500089,"keywords":["cp","nocrits","nodmgspread","uncletopia"],"game_id":440,"stv_port":27036,"stv_name":"Uncletopia | Montréal | 3 | All Maps | STV","players":null},{"server_id":303,"name":"Uncletopia | Montréal | 4 | No Payload","name_short":"mtl-4","host":"mtl-1.ca.uncletopia.com","port":27045,"enabled":true,"region":"us-east","cc":"ca","latitude":45.50889,"longitude":-73.56167,"reserved":0,"last_update":"0001-01-01T00:00:00Z","name_a2s":"Uncletopia | Montréal | 4 | No Payload","protocol":17,"map":"koth_highpass","folder":"tf","game":"Team Fortress","app_id":440,"player_count":0,"max_players":24,"Bots":0,"server_type":"Dedicated","server_os":"Linux","password":true,"vac":true,"version":"7882260","steam_id":85568392924500090,"keywords":["cp","nocrits","nodmgspread","uncletopia"],"game_id":440,"stv_port":27046,"stv_name":"Uncletopia | Montréal | 4 | No Payload | STV","players":null},{"server_id":13,"name":"Uncletopia | New York City | 1 | All Maps","name_short":"nyc-1","host":"nyc-1.us.uncletopia.com","port":27015,"enabled":true,"region":"us-east","cc":"us","latitude":40.73061,"longitude":-73.93524,"reserved":0,"last_update":"0001-01-01T00:00:00Z","name_a2s":"Uncletopia | New York City | 1 | All Maps","protocol":17,"map":"pl_barnblitz","folder":"tf","game":"Team Fortress","app_id":440,"player_count":22,"max_players":24,"Bots":0,"server_type":"Dedicated","server_os":"Linux","password":true,"vac":true,"version":"7882260","steam_id":85568392924469993,"keywords":["nocrits","nodmgspread","payload","uncletopia"],"game_id":440,"stv_port":27016,"stv_name":"Uncletopia | New York City | 1 | All Maps | STV","players":[{"user_id":91,"name":"CRAZY engineer","steam_id":76561198887937902,"connected_time":2899000000000,"state":"active","ping":60},{"user_id":114,"name":"lizardman","steam_id":76561199029030831,"connected_time":1275000000000,"state":"active","ping":54},{"user_id":108,"name":"Bee","steam_id":76561198074681324,"connected_time":1363000000000,"state":"active","ping":46},{"user_id":126,"name":"bring back the goddamn mcrib","steam_id":76561198326083509,"connected_time":123000000000,"state":"active","ping":67},{"user_id":58,"name":"Periculosum PhD in Funny","steam_id":76561198123370914,"connected_time":3669000000000,"state":"active","ping":88},{"user_id":106,"name":"Urbanzpinapple","steam_id":76561198115426938,"connected_time":1714000000000,"state":"active","ping":78},{"user_id":88,"name":"sailor","steam_id":76561198091015050,"connected_time":2978000000000,"state":"active","ping":60},{"user_id":127,"name":"Sim","steam_id":76561198119227922,"connected_time":98000000000,"state":"active","ping":71},{"user_id":124,"name":"Reflector","steam_id":76561198078999855,"connected_time":266000000000,"state":"active","ping":74},{"user_id":99,"name":"TheMrMan","steam_id":76561198072304288,"connected_time":2579000000000,"state":"active","ping":69},{"user_id":125,"name":"Strew","steam_id":76561198004433145,"connected_time":226000000000,"state":"active","ping":44},{"user_id":100,"name":"pabloramirez1998@gmail.com","steam_id":76561198969675306,"connected_time":2568000000000,"state":"active","ping":46},{"user_id":92,"name":"PikaG10","steam_id":76561198179817077,"connected_time":2858000000000,"state":"active","ping":78},{"user_id":65,"name":"gmaay","steam_id":76561199104911185,"connected_time":3508000000000,"state":"active","ping":57},{"user_id":128,"name":"Abaddon","steam_id":76561198030992243,"connected_time":61000000000,"state":"active","ping":46},{"user_id":120,"name":"Lost CS player","steam_id":76561198892387723,"connected_time":1036000000000,"state":"active","ping":58},{"user_id":110,"name":"File","steam_id":76561198332576336,"connected_time":1347000000000,"state":"active","ping":48},{"user_id":118,"name":"former billionaire","steam_id":76561198070380404,"connected_time":1134000000000,"state":"active","ping":53},{"user_id":116,"name":"BrainCell-Hazard","steam_id":76561199038566105,"connected_time":1163000000000,"state":"active","ping":116},{"user_id":115,"name":"Zero","steam_id":76561198033384990,"connected_time":1247000000000,"state":"active","ping":42},{"user_id":105,"name":"saib","steam_id":76561198966980576,"connected_time":1885000000000,"state":"active","ping":43},{"user_id":87,"name":"SHADY SWEATER SALESMAN","steam_id":76561198014616865,"connected_time":3135000000000,"state":"active","ping":49}]},{"server_id":14,"name":"Uncletopia | New York City | 2 | All Maps","name_short":"nyc-2","host":"nyc-1.us.uncletopia.com","port":27025,"enabled":true,"region":"us-east","cc":"us","latitude":40.73061,"longitude":-73.93524,"reserved":0,"last_update":"0001-01-01T00:00:00Z","name_a2s":"Uncletopia | New York City | 2 | All Maps","protocol":17,"map":"cp_dustbowl","folder":"tf","game":"Team Fortress","app_id":440,"player_count":24,"max_players":24,"Bots":0,"server_type":"Dedicated","server_os":"Linux","password":true,"vac":true,"version":"7882260","steam_id":85568392924469994,"keywords":["cp","nocrits","nodmgspread","uncletopia"],"game_id":440,"stv_port":27026,"stv_name":"Uncletopia | New York City | 2 | All Maps | STV","players":[{"user_id":90,"name":"TheJuiceCrew","steam_id":76561198109073254,"connected_time":1551000000000,"state":"active","ping":76},{"user_id":89,"name":"Levi","steam_id":76561198154916862,"connected_time":1596000000000,"state":"active","ping":71},{"user_id":81,"name":"Iman","steam_id":76561198063677510,"connected_time":2533000000000,"state":"active","ping":65},{"user_id":94,"name":"all_classics","steam_id":76561198012738913,"connected_time":1105000000000,"state":"active","ping":68},{"user_id":93,"name":"KFC rat","steam_id":76561198132759016,"connected_time":1170000000000,"state":"active","ping":69},{"user_id":95,"name":"big idea","steam_id":76561198799740059,"connected_time":1072000000000,"state":"active","ping":59},{"user_id":110,"name":"A_Malebolgia","steam_id":76561198097722818,"connected_time":252000000000,"state":"active","ping":84},{"user_id":77,"name":"ShibaInuLord","steam_id":76561198285267410,"connected_time":2698000000000,"state":"active","ping":60},{"user_id":96,"name":"totally nuts","steam_id":76561198072856511,"connected_time":1060000000000,"state":"active","ping":56},{"user_id":68,"name":"ChoiBoi9001","steam_id":76561199401392691,"connected_time":4596000000000,"state":"active","ping":72},{"user_id":97,"name":"Gibby","steam_id":76561199336569123,"connected_time":1047000000000,"state":"active","ping":178},{"user_id":103,"name":"AudioMedic","steam_id":76561198333939032,"connected_time":652000000000,"state":"active","ping":55},{"user_id":78,"name":"vv","steam_id":76561198134813102,"connected_time":2665000000000,"state":"active","ping":55},{"user_id":87,"name":"Cosmic Torgue","steam_id":76561198828724945,"connected_time":2012000000000,"state":"active","ping":89},{"user_id":109,"name":"Jamiroquai","steam_id":76561198119033986,"connected_time":303000000000,"state":"active","ping":45},{"user_id":72,"name":"Evil_Elephant","steam_id":76561199055338631,"connected_time":3118000000000,"state":"active","ping":93},{"user_id":37,"name":"Auto_Correct","steam_id":76561198254988078,"connected_time":5915000000000,"state":"active","ping":60},{"user_id":98,"name":"pinch of potassium chlorate","steam_id":76561199278373059,"connected_time":1014000000000,"state":"active","ping":69},{"user_id":108,"name":"CrunchCisco","steam_id":76561199162724832,"connected_time":355000000000,"state":"active","ping":83},{"user_id":111,"name":"that fat croc from donkey kong","steam_id":76561198159172495,"connected_time":228000000000,"state":"active","ping":130},{"user_id":100,"name":"Mops","steam_id":76561198058213741,"connected_time":995000000000,"state":"active","ping":46},{"user_id":63,"name":"Major Woody","steam_id":76561198835541533,"connected_time":4926000000000,"state":"active","ping":50},{"user_id":112,"name":"Mr. Durian","steam_id":76561198093813212,"connected_time":202000000000,"state":"active","ping":65},{"user_id":102,"name":"Bluekiwi1099","steam_id":76561198969079090,"connected_time":956000000000,"state":"active","ping":90}]},{"server_id":15,"name":"Uncletopia | New York City | 3 | Stopwatch Beta","name_short":"nyc-3","host":"nyc-1.us.uncletopia.com","port":27035,"enabled":true,"region":"us-east","cc":"us","latitude":40.73061,"longitude":-73.93524,"reserved":0,"last_update":"0001-01-01T00:00:00Z","name_a2s":"Uncletopia | New York City | 3 | Stopwatch Beta","protocol":17,"map":"pl_borneo","folder":"tf","game":"Team Fortress","app_id":440,"player_count":0,"max_players":24,"Bots":0,"server_type":"Dedicated","server_os":"Linux","password":true,"vac":true,"version":"7882260","steam_id":85568392924742820,"keywords":["nocrits","nodmgspread","payload","uncletopia"],"game_id":440,"stv_port":27036,"stv_name":"Uncletopia | New York City | 3 | Stopwatch Beta | STV","players":null},{"server_id":16,"name":"Uncletopia | New York City | 4 | Community","name_short":"nyc-4","host":"nyc-1.us.uncletopia.com","port":27045,"enabled":true,"region":"us-east","cc":"us","latitude":40.73061,"longitude":-73.93524,"reserved":0,"last_update":"0001-01-01T00:00:00Z","name_a2s":"Uncletopia | New York City | 4 | Community","protocol":17,"map":"workshop/cp_snowbase_b18.ugc2081770490","folder":"tf","game":"Team Fortress","app_id":440,"player_count":7,"max_players":24,"Bots":0,"server_type":"Dedicated","server_os":"Linux","password":true,"vac":true,"version":"7882260","steam_id":85568392924742821,"keywords":["cp","nocrits","nodmgspread","uncletopia"],"game_id":440,"stv_port":27046,"stv_name":"Uncletopia | New York City | 4 | Community | STV","players":[{"user_id":262,"name":"Senor_Quacken","steam_id":76561199406231932,"connected_time":917000000000,"state":"active","ping":91},{"user_id":264,"name":"༘ ⋆˚🎧Caffeine☕*˖°","steam_id":76561199259309294,"connected_time":635000000000,"state":"active","ping":84},{"user_id":261,"name":"nfseskimo","steam_id":76561198078745666,"connected_time":1111000000000,"state":"active","ping":102},{"user_id":265,"name":"Belmore","steam_id":76561198009355231,"connected_time":631000000000,"state":"active","ping":126},{"user_id":267,"name":"JelloMotion","steam_id":76561198045892038,"connected_time":401000000000,"state":"active","ping":64},{"user_id":258,"name":"the clown","steam_id":76561198295516858,"connected_time":1747000000000,"state":"active","ping":44},{"user_id":256,"name":"fish","steam_id":76561198229957260,"connected_time":2085000000000,"state":"active","ping":65}]},{"server_id":142,"name":"Uncletopia | São Paulo | 1 | All Maps","name_short":"sao-1","host":"sao-1.br.uncletopia.com","port":27015,"enabled":true,"region":"sa","cc":"br","latitude":-23.533773,"longitude":-46.62529,"reserved":0,"last_update":"0001-01-01T00:00:00Z","name_a2s":"Uncletopia | São Paulo | 1 | All Maps","protocol":17,"map":"koth_cascade","folder":"tf","game":"Team Fortress","app_id":440,"player_count":0,"max_players":24,"Bots":0,"server_type":"Dedicated","server_os":"Linux","password":true,"vac":true,"version":"7882260","steam_id":85568392924469996,"keywords":["cp","nocrits","nodmgspread","uncletopia"],"game_id":440,"stv_port":27016,"stv_name":"Uncletopia | São Paulo | 1 | All Maps | STV","players":null},{"server_id":143,"name":"Uncletopia | São Paulo | 2 | All Maps","name_short":"sao-2","host":"sao-2.br.uncletopia.com","port":27015,"enabled":true,"region":"sa","cc":"br","latitude":-23.533773,"longitude":-46.62529,"reserved":0,"last_update":"0001-01-01T00:00:00Z","name_a2s":"Uncletopia | São Paulo | 2 | All Maps","protocol":17,"map":"cp_process_final","folder":"tf","game":"Team Fortress","app_id":440,"player_count":13,"max_players":24,"Bots":0,"server_type":"Dedicated","server_os":"Linux","password":true,"vac":true,"version":"7882260","steam_id":85568392924485349,"keywords":["cp","nocrits","nodmgspread","uncletopia"],"game_id":440,"stv_port":27016,"stv_name":"Uncletopia | São Paulo | 2 | All Maps | STV","players":[{"user_id":321,"name":"starm0nster","steam_id":76561199016975635,"connected_time":628000000000,"state":"active","ping":44},{"user_id":249,"name":"Tou_Matt","steam_id":76561198898317327,"connected_time":6041000000000,"state":"active","ping":45},{"user_id":302,"name":"Limonero","steam_id":76561198965926235,"connected_time":1892000000000,"state":"active","ping":74},{"user_id":330,"name":"Mørdi","steam_id":76561198108156179,"connected_time":105000000000,"state":"active","ping":83},{"user_id":250,"name":"Tio KillerParty","steam_id":76561198067918814,"connected_time":6024000000000,"state":"active","ping":54},{"user_id":326,"name":"tutu","steam_id":76561199273622771,"connected_time":397000000000,"state":"active","ping":74},{"user_id":332,"name":"Mister Robot","steam_id":76561198251320860,"connected_time":50000000000,"state":"active","ping":59},{"user_id":329,"name":"VIGBID","steam_id":76561198312467713,"connected_time":225000000000,"state":"active","ping":48},{"user_id":333,"name":"Luxuria","steam_id":76561198832195686,"connected_time":20000000000,"state":"active","ping":57},{"user_id":319,"name":"Arthus","steam_id":76561198804971542,"connected_time":777000000000,"state":"active","ping":79},{"user_id":301,"name":"jr_","steam_id":76561198313937899,"connected_time":1989000000000,"state":"active","ping":52},{"user_id":223,"name":"Kamikaze Soldier#SaveTF2","steam_id":76561198860370749,"connected_time":7965000000000,"state":"active","ping":49},{"user_id":267,"name":"DiL","steam_id":76561198088033609,"connected_time":4722000000000,"state":"active","ping":38}]},{"server_id":7,"name":"Uncletopia | Seattle | 1 | All Maps","name_short":"sea-1","host":"sea-1.us.uncletopia.com","port":27015,"enabled":true,"region":"us-west","cc":"us","latitude":47.608013,"longitude":-122.33517,"reserved":0,"last_update":"0001-01-01T00:00:00Z","name_a2s":"Uncletopia | Seattle | 1 | All Maps","protocol":17,"map":"pl_swiftwater_final1","folder":"tf","game":"Team Fortress","app_id":440,"player_count":24,"max_players":24,"Bots":0,"server_type":"Dedicated","server_os":"Linux","password":true,"vac":true,"version":"7882260","steam_id":85568392924469997,"keywords":["nocrits","nodmgspread","payload","uncletopia"],"game_id":440,"stv_port":27016,"stv_name":"Uncletopia | Seattle | 1 | All Maps | STV","players":[{"user_id":164,"name":"Dimple #TF2Center","steam_id":76561198980324190,"connected_time":2344000000000,"state":"active","ping":48},{"user_id":183,"name":"BirdScruff","steam_id":76561198349249196,"connected_time":833000000000,"state":"active","ping":124},{"user_id":192,"name":"Jacob Hornberger 2016","steam_id":76561198204549723,"connected_time":532000000000,"state":"active","ping":116},{"user_id":184,"name":"lolgamer247","steam_id":76561198974645534,"connected_time":813000000000,"state":"active","ping":72},{"user_id":190,"name":"slude","steam_id":76561198065700596,"connected_time":625000000000,"state":"active","ping":116},{"user_id":142,"name":"ejschild745","steam_id":76561199013388867,"connected_time":4332000000000,"state":"active","ping":72},{"user_id":163,"name":"stewish","steam_id":76561199067882406,"connected_time":2348000000000,"state":"active","ping":96},{"user_id":107,"name":"ZEKKER","steam_id":76561197967968980,"connected_time":7427000000000,"state":"active","ping":50},{"user_id":185,"name":"Tyler\u0026Fingers","steam_id":76561198085154485,"connected_time":764000000000,"state":"active","ping":138},{"user_id":177,"name":"hosewater","steam_id":76561198023383126,"connected_time":1342000000000,"state":"active","ping":53},{"user_id":115,"name":"lili","steam_id":76561199391478575,"connected_time":6985000000000,"state":"active","ping":68},{"user_id":186,"name":"CuckBait","steam_id":76561198153861317,"connected_time":759000000000,"state":"active","ping":66},{"user_id":137,"name":"exephur","steam_id":76561198135763234,"connected_time":4396000000000,"state":"active","ping":62},{"user_id":191,"name":"Mike Bean Burritos","steam_id":76561198173430607,"connected_time":615000000000,"state":"active","ping":50},{"user_id":182,"name":"lynks disease no sound","steam_id":76561198043465434,"connected_time":1043000000000,"state":"active","ping":73},{"user_id":165,"name":"Jacob Highrise","steam_id":76561198346327753,"connected_time":2340000000000,"state":"active","ping":67},{"user_id":174,"name":"Little Linguine","steam_id":76561198816986370,"connected_time":1945000000000,"state":"active","ping":58},{"user_id":179,"name":"steve","steam_id":76561198207881077,"connected_time":1159000000000,"state":"active","ping":100},{"user_id":188,"name":"IIThaGawdII","steam_id":76561198188682374,"connected_time":688000000000,"state":"active","ping":124},{"user_id":146,"name":"Mr. Bean","steam_id":76561198146240309,"connected_time":4278000000000,"state":"active","ping":75},{"user_id":172,"name":"Lucile","steam_id":76561198041889138,"connected_time":2000000000000,"state":"active","ping":71},{"user_id":193,"name":"Scut","steam_id":76561198973734291,"connected_time":148000000000,"state":"active","ping":70},{"user_id":178,"name":"Quarter Cheese","steam_id":76561198115814588,"connected_time":1295000000000,"state":"active","ping":50},{"user_id":167,"name":"forest (italian)","steam_id":76561198157960257,"connected_time":2217000000000,"state":"active","ping":44}]},{"server_id":119,"name":"Uncletopia | Seattle | 2 | All Maps","name_short":"sea-2","host":"sea-1.us.uncletopia.com","port":27025,"enabled":true,"region":"us-west","cc":"us","latitude":47.608013,"longitude":-122.33517,"reserved":0,"last_update":"0001-01-01T00:00:00Z","name_a2s":"Uncletopia | Seattle | 2 | All Maps","protocol":17,"map":"koth_cascade","folder":"tf","game":"Team Fortress","app_id":440,"player_count":0,"max_players":24,"Bots":0,"server_type":"Dedicated","server_os":"Linux","password":true,"vac":true,"version":"7882260","steam_id":85568392924469998,"keywords":["cp","nocrits","nodmgspread","uncletopia"],"game_id":440,"stv_port":27026,"stv_name":"Uncletopia | Seattle | 2 | All Maps | STV","players":null},{"server_id":406,"name":"Uncletopia | Seattle | 3 | Stopwatch Beta","name_short":"sea-3","host":"sea-1.us.uncletopia.com","port":27035,"enabled":true,"region":"us-west","cc":"us","latitude":47.608013,"longitude":-122.33517,"reserved":0,"last_update":"0001-01-01T00:00:00Z","name_a2s":"Uncletopia | Seattle | 3 | Stopwatch Beta","protocol":17,"map":"koth_viaduct","folder":"tf","game":"Team Fortress","app_id":440,"player_count":0,"max_players":24,"Bots":0,"server_type":"Dedicated","server_os":"Linux","password":true,"vac":true,"version":"7882260","steam_id":85568392924515217,"keywords":["cp","nocrits","nodmgspread","uncletopia"],"game_id":440,"stv_port":27036,"stv_name":"Uncletopia | Seattle | 3 | Stopwatch Beta | STV","players":null},{"server_id":17,"name":"Uncletopia | San Francisco | 1 | All Maps","name_short":"sfo-1","host":"sfo-1.us.uncletopia.com","port":27015,"enabled":true,"region":"us-west","cc":"us","latitude":37.77397,"longitude":-122.4313,"reserved":0,"last_update":"0001-01-01T00:00:00Z","name_a2s":"Uncletopia | San Francisco | 1 | All Maps","protocol":17,"map":"pl_barnblitz","folder":"tf","game":"Team Fortress","app_id":440,"player_count":0,"max_players":24,"Bots":0,"server_type":"Dedicated","server_os":"Linux","password":true,"vac":true,"version":"7882260","steam_id":85568392924469999,"keywords":["nocrits","nodmgspread","payload","uncletopia"],"game_id":440,"stv_port":27016,"stv_name":"Uncletopia | San Francisco | 1 | All Maps | STV","players":null},{"server_id":18,"name":"Uncletopia | San Francisco | 2 | All Maps","name_short":"sfo-2","host":"sfo-1.us.uncletopia.com","port":27025,"enabled":true,"region":"us-west","cc":"us","latitude":37.77397,"longitude":-122.4313,"reserved":0,"last_update":"0001-01-01T00:00:00Z","name_a2s":"Uncletopia | San Francisco | 2 | All Maps","protocol":17,"map":"pl_borneo","folder":"tf","game":"Team Fortress","app_id":440,"player_count":1,"max_players":24,"Bots":0,"server_type":"Dedicated","server_os":"Linux","password":true,"vac":true,"version":"7882260","steam_id":85568392924470000,"keywords":["nocrits","nodmgspread","payload","uncletopia"],"game_id":440,"stv_port":27026,"stv_name":"Uncletopia | San Francisco | 2 | All Maps | STV","players":[{"user_id":11,"name":"Caspian","steam_id":76561199041466962,"connected_time":439000000000,"state":"active","ping":54}]},{"server_id":19,"name":"Uncletopia | San Francisco | 3 | Stopwatch Beta","name_short":"sfo-3","host":"sfo-1.us.uncletopia.com","port":27035,"enabled":true,"region":"us-west","cc":"us","latitude":37.77397,"longitude":-122.4313,"reserved":0,"last_update":"0001-01-01T00:00:00Z","name_a2s":"Uncletopia | San Francisco | 3 | Stopwatch Beta","protocol":17,"map":"pl_snowycoast","folder":"tf","game":"Team Fortress","app_id":440,"player_count":0,"max_players":24,"Bots":0,"server_type":"Dedicated","server_os":"Linux","password":true,"vac":true,"version":"7882260","steam_id":85568392924742824,"keywords":["nocrits","nodmgspread","payload","uncletopia"],"game_id":440,"stv_port":27036,"stv_name":"Uncletopia | San Francisco | 3 | Stopwatch Beta | STV","players":null},{"server_id":20,"name":"Uncletopia | San Francisco | 4 | Community","name_short":"sfo-4","host":"sfo-1.us.uncletopia.com","port":27045,"enabled":true,"region":"us-west","cc":"us","latitude":37.77397,"longitude":-122.4313,"reserved":0,"last_update":"0001-01-01T00:00:00Z","name_a2s":"Uncletopia | San Francisco | 4 | Community","protocol":17,"map":"workshop/koth_kemptown_rc1.ugc767410655","folder":"tf","game":"Team Fortress","app_id":440,"player_count":24,"max_players":24,"Bots":0,"server_type":"Dedicated","server_os":"Linux","password":true,"vac":true,"version":"7882260","steam_id":85568392924742826,"keywords":["cp","nocrits","nodmgspread","uncletopia"],"game_id":440,"stv_port":27046,"stv_name":"Uncletopia | San Francisco | 4 | Community | STV","players":[{"user_id":31,"name":"Acro Banwagon","steam_id":76561198092451804,"connected_time":6075000000000,"state":"active","ping":107},{"user_id":148,"name":"ThisDOT","steam_id":76561199011823773,"connected_time":333000000000,"state":"active","ping":60},{"user_id":106,"name":"ray","steam_id":76561198018181064,"connected_time":2802000000000,"state":"active","ping":93},{"user_id":71,"name":"achoo","steam_id":76561198009091066,"connected_time":4548000000000,"state":"active","ping":61},{"user_id":151,"name":"air²","steam_id":76561198318855276,"connected_time":99000000000,"state":"active","ping":133},{"user_id":143,"name":"Bottle","steam_id":76561198170190655,"connected_time":679000000000,"state":"active","ping":75},{"user_id":131,"name":"MintyFreshMentos","steam_id":76561198839944799,"connected_time":1569000000000,"state":"active","ping":51},{"user_id":72,"name":"WitchyPorcupine","steam_id":76561198271676310,"connected_time":4544000000000,"state":"active","ping":63},{"user_id":149,"name":"LocalShowerShitter","steam_id":76561198984737182,"connected_time":255000000000,"state":"active","ping":84},{"user_id":136,"name":"Dongus","steam_id":76561197979056451,"connected_time":1229000000000,"state":"active","ping":64},{"user_id":150,"name":"Madeline (She/Her)","steam_id":76561198336551859,"connected_time":161000000000,"state":"active","ping":37},{"user_id":152,"name":"Xyverle","steam_id":76561198799726415,"connected_time":45000000000,"state":"spawning","ping":226},{"user_id":99,"name":"oo","steam_id":76561198119626492,"connected_time":3570000000000,"state":"active","ping":107},{"user_id":138,"name":"Macro","steam_id":76561199442846226,"connected_time":896000000000,"state":"active","ping":109},{"user_id":144,"name":"Lemontap","steam_id":76561198064304141,"connected_time":614000000000,"state":"active","ping":53},{"user_id":146,"name":"WhackyOrc","steam_id":76561199470020355,"connected_time":495000000000,"state":"active","ping":114},{"user_id":101,"name":"Good Mudkip","steam_id":76561198439784449,"connected_time":3564000000000,"state":"active","ping":79},{"user_id":130,"name":"KnightOfGames","steam_id":76561198080460659,"connected_time":1611000000000,"state":"active","ping":94},{"user_id":121,"name":"(0.0)","steam_id":76561198217747041,"connected_time":2046000000000,"state":"active","ping":56},{"user_id":124,"name":"miguelrodriguez2013","steam_id":76561198269253587,"connected_time":1898000000000,"state":"active","ping":45},{"user_id":111,"name":"Geram","steam_id":76561198061979840,"connected_time":2595000000000,"state":"active","ping":60},{"user_id":153,"name":"Rustyorion","steam_id":76561198439186347,"connected_time":40000000000,"state":"active","ping":72},{"user_id":54,"name":"Tom Crúaich","steam_id":76561197999439911,"connected_time":5346000000000,"state":"active","ping":81},{"user_id":140,"name":"Not Ghostie","steam_id":76561198068686762,"connected_time":857000000000,"state":"active","ping":112}]},{"server_id":141,"name":"Uncletopia | Sydney | 1 | All Maps","name_short":"syd-1","host":"syd-1.au.uncletopia.com","port":27015,"enabled":true,"region":"au","cc":"au","latitude":-33.865143,"longitude":151.2099,"reserved":0,"last_update":"0001-01-01T00:00:00Z","name_a2s":"Uncletopia | Sydney | 1 | All Maps","protocol":17,"map":"cp_altitude","folder":"tf","game":"Team Fortress","app_id":440,"player_count":0,"max_players":24,"Bots":0,"server_type":"Dedicated","server_os":"Linux","password":true,"vac":true,"version":"7882260","steam_id":85568392924470001,"keywords":["cp","nocrits","nodmgspread","uncletopia"],"game_id":440,"stv_port":27016,"stv_name":"Uncletopia | Sydney | 1 | All Maps | STV","players":null},{"server_id":123,"name":"Uncletopia | Sydney | 2 | All Maps","name_short":"syd-2","host":"syd-1.au.uncletopia.com","port":27025,"enabled":true,"region":"au","cc":"au","latitude":-33.865143,"longitude":151.2099,"reserved":0,"last_update":"0001-01-01T00:00:00Z","name_a2s":"Uncletopia | Sydney | 2 | All Maps","protocol":17,"map":"cp_snakewater_final1","folder":"tf","game":"Team Fortress","app_id":440,"player_count":0,"max_players":24,"Bots":0,"server_type":"Dedicated","server_os":"Linux","password":true,"vac":true,"version":"7882260","steam_id":85568392924470002,"keywords":["cp","nocrits","nodmgspread","uncletopia"],"game_id":440,"stv_port":27026,"stv_name":"Uncletopia | Sydney | 2 | All Maps | STV","players":null},{"server_id":395,"name":"Uncletopia | Sydney | 3 | All Maps","name_short":"syd-3","host":"syd-1.au.uncletopia.com","port":27035,"enabled":true,"region":"au","cc":"au","latitude":-33.865143,"longitude":151.2099,"reserved":0,"last_update":"0001-01-01T00:00:00Z","name_a2s":"Uncletopia | Sydney | 3 | All Maps","protocol":17,"map":"pl_badwater","folder":"tf","game":"Team Fortress","app_id":440,"player_count":0,"max_players":24,"Bots":0,"server_type":"Dedicated","server_os":"Linux","password":true,"vac":true,"version":"7882260","steam_id":85568392925194467,"keywords":["nocrits","nodmgspread","payload","uncletopia"],"game_id":440,"stv_port":27036,"stv_name":"Uncletopia | Sydney | 3 | All Maps | STV","players":null},{"server_id":396,"name":"Uncletopia | Sydney | 4 | All Maps","name_short":"syd-4","host":"syd-1.au.uncletopia.com","port":27045,"enabled":true,"region":"au","cc":"au","latitude":-33.865143,"longitude":151.2099,"reserved":0,"last_update":"0001-01-01T00:00:00Z","name_a2s":"Uncletopia | Sydney | 4 | All Maps","protocol":17,"map":"cp_altitude","folder":"tf","game":"Team Fortress","app_id":440,"player_count":0,"max_players":24,"Bots":0,"server_type":"Dedicated","server_os":"Linux","password":true,"vac":true,"version":"7882260","steam_id":85568392925397958,"keywords":["cp","nocrits","nodmgspread","uncletopia"],"game_id":440,"stv_port":27046,"stv_name":"Uncletopia | Sydney | 4 | All Maps | STV","players":null},{"server_id":58,"name":"Uncletopia | Sydney | 5 | Stopwatch Beta","name_short":"syd-5","host":"syd-1.au.uncletopia.com","port":27055,"enabled":true,"region":"au","cc":"au","latitude":-33.865143,"longitude":151.2099,"reserved":0,"last_update":"0001-01-01T00:00:00Z","name_a2s":"Uncletopia | Sydney | 5 | Stopwatch Beta","protocol":17,"map":"koth_viaduct","folder":"tf","game":"Team Fortress","app_id":440,"player_count":0,"max_players":24,"Bots":0,"server_type":"Dedicated","server_os":"Linux","password":true,"vac":true,"version":"7882260","steam_id":85568392925397959,"keywords":["cp","nocrits","nodmgspread","uncletopia"],"game_id":440,"stv_port":27056,"stv_name":"Uncletopia | Sydney | 5 | Stopwatch Beta | STV","players":null},{"server_id":59,"name":"Uncletopia | Sydney | 6 | Community","name_short":"syd-6","host":"syd-1.au.uncletopia.com","port":27065,"enabled":true,"region":"au","cc":"au","latitude":-33.865143,"longitude":151.2099,"reserved":0,"last_update":"0001-01-01T00:00:00Z","name_a2s":"Uncletopia | Sydney | 6 | Community","protocol":17,"map":"pl_upward","folder":"tf","game":"Team Fortress","app_id":440,"player_count":0,"max_players":24,"Bots":0,"server_type":"Dedicated","server_os":"Linux","password":true,"vac":true,"version":"7882260","steam_id":85568392925397960,"keywords":["nocrits","nodmgspread","payload","uncletopia"],"game_id":440,"stv_port":27066,"stv_name":"Uncletopia | Sydney | 6 | Community | STV","players":null},{"server_id":49,"name":"Uncletopia | Warsaw | 1 | All Maps","name_short":"waw-1","host":"waw-1.pl.uncletopia.com","port":27015,"enabled":true,"region":"eu","cc":"pl","latitude":52.2297,"longitude":21.017532,"reserved":0,"last_update":"0001-01-01T00:00:00Z","name_a2s":"","protocol":0,"map":"","folder":"","game":"","app_id":0,"player_count":0,"max_players":0,"Bots":0,"server_type":"","server_os":"","password":false,"vac":false,"version":"","steam_id":0,"keywords":null,"game_id":0,"stv_port":0,"stv_name":"","players":null},{"server_id":50,"name":"Uncletopia | Warsaw | 2 | All Maps","name_short":"waw-2","host":"waw-1.pl.uncletopia.com","port":27025,"enabled":true,"region":"eu","cc":"pl","latitude":52.2297,"longitude":21.017532,"reserved":0,"last_update":"0001-01-01T00:00:00Z","name_a2s":"Uncletopia | Warsaw | 2 | All Maps","protocol":17,"map":"koth_viaduct","folder":"tf","game":"Team Fortress","app_id":440,"player_count":0,"max_players":24,"Bots":0,"server_type":"Dedicated","server_os":"Linux","password":true,"vac":true,"version":"7882260","steam_id":85568392925397851,"keywords":["cp","nocrits","nodmgspread","uncletopia"],"game_id":440,"stv_port":27026,"stv_name":"Uncletopia | Warsaw | 2 | All Maps | STV","players":null},{"server_id":51,"name":"Uncletopia | Warsaw | 3 | All Maps","name_short":"waw-3","host":"waw-1.pl.uncletopia.com","port":27035,"enabled":true,"region":"eu","cc":"pl","latitude":52.2297,"longitude":21.017532,"reserved":0,"last_update":"0001-01-01T00:00:00Z","name_a2s":"Uncletopia | Warsaw | 3 | All Maps","protocol":17,"map":"koth_lakeside_final","folder":"tf","game":"Team Fortress","app_id":440,"player_count":0,"max_players":24,"Bots":0,"server_type":"Dedicated","server_os":"Linux","password":true,"vac":true,"version":"7882260","steam_id":85568392925397852,"keywords":["cp","nocrits","nodmgspread","uncletopia"],"game_id":440,"stv_port":27036,"stv_name":"Uncletopia | Warsaw | 3 | All Maps | STV","players":null},{"server_id":52,"name":"Uncletopia | Warsaw | 4 | All Maps","name_short":"waw-4","host":"waw-1.pl.uncletopia.com","port":27045,"enabled":true,"region":"eu","cc":"pl","latitude":52.2297,"longitude":21.017532,"reserved":0,"last_update":"0001-01-01T00:00:00Z","name_a2s":"Uncletopia | Warsaw | 4 | All Maps","protocol":17,"map":"koth_cascade","folder":"tf","game":"Team Fortress","app_id":440,"player_count":0,"max_players":24,"Bots":0,"server_type":"Dedicated","server_os":"Linux","password":true,"vac":true,"version":"7882260","steam_id":85568392925397853,"keywords":["cp","nocrits","nodmgspread","uncletopia"],"game_id":440,"stv_port":27046,"stv_name":"Uncletopia | Warsaw | 4 | All Maps | STV","players":null},{"server_id":53,"name":"Uncletopia | Warsaw | 5 | Stopwatch Beta","name_short":"waw-5","host":"waw-1.pl.uncletopia.com","port":27055,"enabled":true,"region":"eu","cc":"pl","latitude":52.2297,"longitude":21.017532,"reserved":0,"last_update":"0001-01-01T00:00:00Z","name_a2s":"Uncletopia | Warsaw | 5 | Stopwatch Beta","protocol":17,"map":"workshop/koth_ramjam_rc1.ugc459778887","folder":"tf","game":"Team Fortress","app_id":440,"player_count":0,"max_players":24,"Bots":0,"server_type":"Dedicated","server_os":"Linux","password":true,"vac":true,"version":"7882260","steam_id":85568392925397854,"keywords":["cp","nocrits","nodmgspread","uncletopia"],"game_id":440,"stv_port":27056,"stv_name":"Uncletopia | Warsaw | 5 | Stopwatch Beta | STV","players":null},{"server_id":54,"name":"Uncletopia | Warsaw | 6 | Community","name_short":"waw-6","host":"waw-1.pl.uncletopia.com","port":27065,"enabled":true,"region":"eu","cc":"pl","latitude":52.2297,"longitude":21.017532,"reserved":0,"last_update":"0001-01-01T00:00:00Z","name_a2s":"Uncletopia | Warsaw | 6 | Community","protocol":17,"map":"workshop/cp_reckoner_rc6.ugc674719999","folder":"tf","game":"Team Fortress","app_id":440,"player_count":0,"max_players":24,"Bots":0,"server_type":"Dedicated","server_os":"Linux","password":true,"vac":true,"version":"7882260","steam_id":85568392925397856,"keywords":["cp","nocrits","nodmgspread","uncletopia"],"game_id":440,"stv_port":27066,"stv_name":"Uncletopia | Warsaw | 6 | Community | STV","players":null}]}