{"status":true,"message":"","result":[{"server_id":2,"name":"Uncletopia | Chicago | 1 | All Maps","name_short":"chi-1","host":"chi-1.us.uncletopia.com","port":27015,"enabled":true,"region":"us-central","cc":"us","latitude":41.881832,"longitude":-87.62318,"reserved":0,"last_update":"0001-01-01T00:00:00Z","name_a2s":"Uncletopia | Chicago | 1 | All Maps","protocol":17,"map":"pl_barnblitz","folder":"tf","game":"Team Fortress","app_id":440,"player_count":23,"max_players":24,"Bots":0,"server_type":"Dedicated","server_os":"Linux","password":true,"vac":true,"version":"7932396","steam_id":85568392924469984,"keywords":["nocrits","nodmgspread","payload","uncletopia"],"game_id":440,"stv_port":27016,"stv_name":"Uncletopia | Chicago | 1 | All Maps | STV","players":[{"user_id":465,"name":"Gliglamesh","steam_id":76561198058221449,"connected_time":2520000000000,"state":"active","ping":57},{"user_id":436,"name":"mOoOoOoO","steam_id":76561198145615363,"connected_time":4973000000000,"state":"active","ping":103},{"user_id":441,"name":"Maverick","steam_id":76561198322829814,"connected_time":4365000000000,"state":"active","ping":73},{"user_id":480,"name":"root beer enthusiast","steam_id":76561198124791670,"connected_time":1369000000000,"state":"active","ping":58},{"user_id":478,"name":"cheese burger","steam_id":76561198999217575,"connected_time":1548000000000,"state":"active","ping":63},{"user_id":448,"name":"4 life","steam_id":76561198175961598,"connected_time":3624000000000,"state":"active","ping":113},{"user_id":487,"name":"VOICES IN MY HEAD","steam_id":76561198357238486,"connected_time":294000000000,"state":"active","ping":60},{"user_id":415,"name":"TenkoTenko","steam_id":76561199134895220,"connected_time":7364000000000,"state":"active","ping":75},{"user_id":472,"name":"Chaos","steam_id":76561199068325065,"connected_time":1862000000000,"state":"active","ping":98},{"user_id":481,"name":"El G√ºey","steam_id":76561197970450546,"connected_time":1278000000000,"state":"active","ping":114},{"user_id":485,"name":"Obelisk","steam_id":76561198049416866,"connected_time":841000000000,"state":"active","ping":83},{"user_id":490,"name":"jello_hey","steam_id":76561199176327650,"connected_time":8000000000,"state":"active","ping":70},{"user_id":456,"name":"kat","steam_id":76561198099191938,"connected_time":2995000000000,"state":"active","ping":51},{"user_id":483,"name":"gary","steam_id":76561198140226890,"connected_time":1036000000000,"state":"active","ping":56},{"user_id":473,"name":"Obama","steam_id":76561198194065283,"connected_time":1861000000000,"state":"active","ping":101},{"user_id":484,"name":"haikranok","steam_id":76561198084885479,"connected_time":896000000000,"state":"active","ping":88},{"user_id":447,"name":"Walmus","steam_id":76561198111416393,"connected_time":3643000000000,"state":"active","ping":83},{"user_id":422,"name":"gIBBY","steam_id":76561198080099598,"connected_time":6350000000000,"state":"active","ping":49},{"user_id":467,"name":"blob","steam_id":76561198122375328,"connected_time":2477000000000,"state":"active","ping":60},{"user_id":433,"name":"aiden","steam_id":76561198449527009,"connected_time":5000000000000,"state":"active","ping":109},{"user_id":486,"name":"Fatpoob","steam_id":76561198056730096,"connected_time":689000000000,"state":"active","ping":61},{"user_id":489,"name":"‚ô•Bunny‚ô•Slut‚ô•","steam_id":76561198206376851,"connected_time":60000000000,"state":"active","ping":87},{"user_id":461,"name":"Goblin (Real)","steam_id":76561199160926985,"connected_time":2975000000000,"state":"active","ping":74}]},{"server_id":106,"name":"Uncletopia | Chicago | 2 | All Maps","name_short":"chi-2","host":"chi-1.us.uncletopia.com","port":27025,"enabled":true,"region":"us-central","cc":"us","latitude":41.881832,"longitude":-87.62318,"reserved":0,"last_update":"0001-01-01T00:00:00Z","name_a2s":"Uncletopia | Chicago | 2 | All Maps","protocol":17,"map":"cp_dustbowl","folder":"tf","game":"Team Fortress","app_id":440,"player_count":24,"max_players":24,"Bots":0,"server_type":"Dedicated","server_os":"Linux","password":true,"vac":true,"version":"7932396","steam_id":85568392924469985,"keywords":["cp","nocrits","nodmgspread","uncletopia"],"game_id":440,"stv_port":27026,"stv_name":"Uncletopia | Chicago | 2 | All Maps | STV","players":[{"user_id":292,"name":"Just Chuck","steam_id":76561198121697504,"connected_time":877000000000,"state":"active","ping":69},{"user_id":290,"name":"greg club","steam_id":76561198370506193,"connected_time":961000000000,"state":"active","ping":57},{"user_id":261,"name":"spherewithahat","steam_id":76561199122192660,"connected_time":2200000000000,"state":"active","ping":75},{"user_id":229,"name":"professional bodyshooter","steam_id":76561199200442395,"connected_time":4526000000000,"state":"active","ping":168},{"user_id":257,"name":"izzydex","steam_id":76561199101531034,"connected_time":2266000000000,"state":"active","ping":60},{"user_id":274,"name":"King Spaghetti","steam_id":76561198027067890,"connected_time":1523000000000,"state":"active","ping":55},{"user_id":197,"name":"·ìÄ‚Ä∏·ìÇ","steam_id":76561198046055673,"connected_time":6953000000000,"state":"active","ping":73},{"user_id":263,"name":"Loaf","steam_id":76561198446378419,"connected_time":2151000000000,"state":"active","ping":81},{"user_id":298,"name":"ATL1 | SparkStorm","steam_id":76561198095817025,"connected_time":435000000000,"state":"active","ping":48},{"user_id":286,"name":"The Power","steam_id":76561198060566884,"connected_time":1180000000000,"state":"active","ping":139},{"user_id":281,"name":"Hope","steam_id":76561199201900779,"connected_time":1198000000000,"state":"active","ping":72},{"user_id":282,"name":"Lorberry","steam_id":76561198023706058,"connected_time":1196000000000,"state":"active","ping":39},{"user_id":296,"name":"RaixaR","steam_id":76561198025289430,"connected_time":734000000000,"state":"active","ping":75},{"user_id":268,"name":"Oaky Loafs","steam_id":76561198317179010,"connected_time":1636000000000,"state":"active","ping":106},{"user_id":224,"name":"thatguy_luigi","steam_id":76561198968055462,"connected_time":4701000000000,"state":"active","ping":100},{"user_id":283,"name":"daemon","steam_id":76561198001541433,"connected_time":1195000000000,"state":"active","ping":52},{"user_id":293,"name":"xiPoison","steam_id":76561198064961659,"connected_time":831000000000,"state":"active","ping":60},{"user_id":246,"name":"Lightish Red","steam_id":76561198060879701,"connected_time":3858000000000,"state":"active","ping":46},{"user_id":288,"name":"TDOB","steam_id":76561198062701904,"connected_time":1144000000000,"state":"active","ping":71},{"user_id":294,"name":"Jfrvl Gvl","steam_id":76561199013465852,"connected_time":814000000000,"state":"active","ping":66},{"user_id":285,"name":"MrVegasAguitar","steam_id":76561198084466946,"connected_time":1191000000000,"state":"active","ping":85},{"user_id":259,"name":"donkers","steam_id":76561198989603984,"connected_time":2261000000000,"state":"active","ping":63},{"user_id":291,"name":"mac_cheese","steam_id":76561198071334162,"connected_time":955000000000,"state":"active","ping":92},{"user_id":297,"name":"Brown_Dream","steam_id":76561198975766145,"connected_time":586000000000,"state":"active","ping":85}]},{"server_id":402,"name":"Uncletopia | Chicago | 3 | All Maps","name_short":"chi-3","host":"chi-1.us.uncletopia.com","port":27035,"enabled":true,"region":"us-central","cc":"us","latitude":41.881832,"longitude":-87.62318,"reserved":0,"last_update":"0001-01-01T00:00:00Z","name_a2s":"Uncletopia | Chicago | 3 | All Maps","protocol":17,"map":"cp_altitude","folder":"tf","game":"Team Fortress","app_id":440,"player_count":14,"max_players":24,"Bots":0,"server_type":"Dedicated","server_os":"Linux","password":true,"vac":true,"version":"7932396","steam_id":85568392924515191,"keywords":["cp","nocrits","nodmgspread","uncletopia"],"game_id":440,"stv_port":27036,"stv_name":"Uncletopia | Chicago | 3 | All Maps | STV","players":[{"user_id":17,"name":"Wild_Rumpus","steam_id":76561198066393719,"connected_time":1396000000000,"state":"active","ping":57},{"user_id":18,"name":"draco","steam_id":76561198196769297,"connected_time":1298000000000,"state":"active","ping":60},{"user_id":20,"name":"Mini","steam_id":76561199416910731,"connected_time":692000000000,"state":"active","ping":55},{"user_id":21,"name":"Hulk Hogan Gaming","steam_id":76561199013166433,"connected_time":490000000000,"state":"active","ping":64},{"user_id":22,"name":"Clone#67","steam_id":76561198010238457,"connected_time":355000000000,"state":"active","ping":69},{"user_id":23,"name":"üÖúüÖîüÖîüÖöüÖ¢üÖ£üÖî\ufffd\ufffd\ufffd","steam_id":76561197999748343,"connected_time":280000000000,"state":"active","ping":61},{"user_id":24,"name":"ktaeoh -fg","steam_id":76561198300888156,"connected_time":243000000000,"state":"active","ping":96},{"user_id":25,"name":"sagejay","steam_id":76561198118149530,"connected_time":237000000000,"state":"active","ping":59},{"user_id":26,"name":"BlackheartKyurem","steam_id":76561198088842813,"connected_time":173000000000,"state":"active","ping":74},{"user_id":27,"name":"Mad Masks","steam_id":76561198165944911,"connected_time":50000000000,"state":"active","ping":85},{"user_id":28,"name":"Turboconoco","steam_id":76561199123741609,"connected_time":41000000000,"state":"spawning","ping":59},{"user_id":29,"name":"XRen10","steam_id":76561199226365046,"connected_time":37000000000,"state":"active","ping":235},{"user_id":30,"name":"Owl Lord","steam_id":76561198327069834,"connected_time":30000000000,"state":"spawning","ping":60},{"user_id":31,"name":"Crow guy","steam_id":76561199001914734,"connected_time":29000000000,"state":"spawning","ping":151}]},{"server_id":403,"name":"Uncletopia | Chicago | 4 | All Maps","name_short":"chi-4","host":"chi-1.us.uncletopia.com","port":27045,"enabled":true,"region":"us-central","cc":"us","latitude":41.881832,"longitude":-87.62318,"reserved":0,"last_update":"0001-01-01T00:00:00Z","name_a2s":"Uncletopia | Chicago | 4 | All Maps","protocol":17,"map":"pl_swiftwater_final1","folder":"tf","game":"Team Fortress","app_id":440,"player_count":25,"max_players":24,"Bots":0,"server_type":"Dedicated","server_os":"Linux","password":true,"vac":true,"version":"7932396","steam_id":85568392924515193,"keywords":["nocrits","nodmgspread","payload","uncletopia"],"game_id":440,"stv_port":27046,"stv_name":"Uncletopia | Chicago | 4 | All Maps | STV","players":[{"user_id":314,"name":"Eraserhead Baby","steam_id":76561198010968514,"connected_time":1690000000000,"state":"active","ping":86},{"user_id":238,"name":"INVEST IN SKYNET::get rich","steam_id":76561198144436132,"connected_time":6986000000000,"state":"active","ping":82},{"user_id":194,"name":"ThatGamingKiwi","steam_id":76561199170522237,"connected_time":11384000000000,"state":"active","ping":78},{"user_id":346,"name":"Dr.BiohunterPHD","steam_id":76561198047023365,"connected_time":528000000000,"state":"active","ping":88},{"user_id":332,"name":"Stranger in a Strange Land","steam_id":76561198049843671,"connected_time":1077000000000,"state":"active","ping":60},{"user_id":225,"name":"uhooter","steam_id":76561198007829078,"connected_time":7839000000000,"state":"active","ping":52},{"user_id":356,"name":"Boomerish","steam_id":76561198083946878,"connected_time":249000000000,"state":"connecting","ping":0},{"user_id":278,"name":"Lili Rouxxx","steam_id":76561198000522179,"connected_time":4066000000000,"state":"active","ping":80},{"user_id":348,"name":"Ghoulenoir","steam_id":76561198074314573,"connected_time":520000000000,"state":"active","ping":46},{"user_id":344,"name":"Blood Gal","steam_id":76561198850484924,"connected_time":554000000000,"state":"active","ping":40},{"user_id":345,"name":"raybryan2008","steam_id":76561199465495736,"connected_time":540000000000,"state":"active","ping":89},{"user_id":347,"name":"ooblz","steam_id":76561198361326855,"connected_time":527000000000,"state":"active","ping":53},{"user_id":349,"name":"Barmy","steam_id":76561198111626352,"connected_time":519000000000,"state":"active","ping":91},{"user_id":336,"name":"B·µ¢g B‚Çí‚Çõ‚Çõ","steam_id":76561198090271815,"connected_time":748000000000,"state":"active","ping":127},{"user_id":350,"name":"big ol' buford","steam_id":76561198290675957,"connected_time":492000000000,"state":"active","ping":59},{"user_id":355,"name":"M","steam_id":76561198286792807,"connected_time":286000000000,"state":"active","ping":74},{"user_id":283,"name":"pro skater 3 remake when","steam_id":76561198103496593,"connected_time":3815000000000,"state":"active","ping":61},{"user_id":357,"name":"Speedboat","steam_id":76561198094841559,"connected_time":243000000000,"state":"active","ping":54},{"user_id":304,"name":"MY LOVE DRIPS IN RED","steam_id":76561198072179483,"connected_time":2336000000000,"state":"active","ping":90},{"user_id":352,"name":"Acolyte Of Pain","steam_id":76561198143094194,"connected_time":478000000000,"state":"active","ping":70},{"user_id":358,"name":"Sicko Mode (Chris Pratt Cover)","steam_id":76561198315786174,"connected_time":218000000000,"state":"active","ping":71},{"user_id":353,"name":"wendyslaughter","steam_id":76561198984399777,"connected_time":475000000000,"state":"active","ping":116},{"user_id":295,"name":"Awenova","steam_id":76561198322928940,"connected_time":2952000000000,"state":"active","ping":62},{"user_id":209,"name":"Ringo x Seiran","steam_id":76561198357437908,"connected_time":9142000000000,"state":"active","ping":71},{"user_id":354,"name":"Rustys_Revenge","steam_id":76561198269414024,"connected_time":419000000000,"state":"active","ping":104}]},{"server_id":36,"name":"Uncletopia | Chicago | 5 | All Maps","name_short":"chi-5","host":"chi-2.us.uncletopia.com","port":27015,"enabled":true,"region":"us-central","cc":"us","latitude":41.881832,"longitude":-87.62318,"reserved":0,"last_update":"0001-01-01T00:00:00Z","name_a2s":"Uncletopia | Chicago | 5 | All Maps","protocol":17,"map":"pl_badwater","folder":"tf","game":"Team Fortress","app_id":440,"player_count":24,"max_players":24,"Bots":0,"server_type":"Dedicated","server_os":"Linux","password":true,"vac":true,"version":"7932396","steam_id":85568392924866362,"keywords":["nocrits","nodmgspread","payload","uncletopia"],"game_id":440,"stv_port":27016,"stv_name":"Uncletopia | Chicago | 5 | All Maps | STV","players":[{"user_id":27,"name":"Varie","steam_id":76561199454930210,"connected_time":1777000000000,"state":"active","ping":78},{"user_id":40,"name":"lil hog","steam_id":76561199230929836,"connected_time":920000000000,"state":"active","ping":80},{"user_id":10,"name":"thisisnotaustin","steam_id":76561198074463510,"connected_time":3499000000000,"state":"active","ping":56},{"user_id":28,"name":"guppy","steam_id":76561198041380190,"connected_time":1766000000000,"state":"active","ping":85},{"user_id":26,"name":"Chezaus","steam_id":76561198317397837,"connected_time":1918000000000,"state":"active","ping":79},{"user_id":29,"name":"Invis","steam_id":76561198054546884,"connected_time":1754000000000,"state":"active","ping":60},{"user_id":67,"name":"Idontknowdem56k.net","steam_id":76561198404564240,"connected_time":65000000000,"state":"active","ping":68},{"user_id":33,"name":"Dask","steam_id":76561198043385839,"connected_time":1274000000000,"state":"active","ping":48},{"user_id":66,"name":"‚ù§To Lazy‚ù§","steam_id":76561198164211904,"connected_time":267000000000,"state":"active","ping":127},{"user_id":34,"name":"The Ghost of Jay Leno","steam_id":76561198058938897,"connected_time":1268000000000,"state":"active","ping":67},{"user_id":61,"name":"Mburesh","steam_id":76561198137460717,"connected_time":374000000000,"state":"active","ping":55},{"user_id":41,"name":"SCARRING THE HOES (i am lonely)","steam_id":76561198397009880,"connected_time":913000000000,"state":"active","ping":66},{"user_id":59,"name":"Moonman327","steam_id":76561197992616059,"connected_time":456000000000,"state":"active","ping":71},{"user_id":38,"name":"Doob","steam_id":76561199088573055,"connected_time":1064000000000,"state":"active","ping":86},{"user_id":39,"name":"hannah1","steam_id":76561198094801861,"connected_time":1044000000000,"state":"active","ping":60},{"user_id":43,"name":"Mr. Soupman","steam_id":76561198021649598,"connected_time":876000000000,"state":"active","ping":62},{"user_id":45,"name":"Flubby","steam_id":76561198069171252,"connected_time":839000000000,"state":"active","ping":60},{"user_id":60,"name":"R√∂ntgen","steam_id":76561197993492325,"connected_time":430000000000,"state":"active","ping":97},{"user_id":47,"name":"Yam Jazzy Jim","steam_id":76561198000788950,"connected_time":830000000000,"state":"active","ping":60},{"user_id":48,"name":"DJ-Whatchya #rEtiReD","steam_id":76561198060355298,"connected_time":811000000000,"state":"active","ping":87},{"user_id":49,"name":"MilkyFrenchToast","steam_id":76561198099281433,"connected_time":799000000000,"state":"active","ping":46},{"user_id":52,"name":"Albino Jellyfish","steam_id":76561198208561097,"connected_time":764000000000,"state":"active","ping":68},{"user_id":58,"name":"xX_HimboSwallower_Xx","steam_id":76561198016029965,"connected_time":488000000000,"state":"active","ping":69},{"user_id":63,"name":"I can smell you.","steam_id":76561199007079402,"connected_time":323000000000,"state":"active","ping":66}]},{"server_id":37,"name":"Uncletopia | Chicago | 6 | All Maps","name_short":"chi-6","host":"chi-2.us.uncletopia.com","port":27025,"enabled":true,"region":"us-central","cc":"us","latitude":41.881832,"longitude":-87.62318,"reserved":0,"last_update":"0001-01-01T00:00:00Z","name_a2s":"Uncletopia | Chicago | 6 | All Maps","protocol":17,"map":"koth_lakeside_final","folder":"tf","game":"Team Fortress","app_id":440,"player_count":0,"max_players":24,"Bots":0,"server_type":"Dedicated","server_os":"Linux","password":true,"vac":true,"version":"7932396","steam_id":85568392924866363,"keywords":["cp","nocrits","nodmgspread","uncletopia"],"game_id":440,"stv_port":27026,"stv_name":"Uncletopia | Chicago | 6 | All Maps | STV","players":null},{"server_id":38,"name":"Uncletopia | Chicago | 7 | Stopwatch Beta","name_short":"chi-7","host":"chi-2.us.uncletopia.com","port":27035,"enabled":true,"region":"us-central","cc":"us","latitude":41.881832,"longitude":-87.62318,"reserved":0,"last_update":"0001-01-01T00:00:00Z","name_a2s":"Uncletopia | Chicago | 7 | Stopwatch Beta","protocol":17,"map":"pl_borneo","folder":"tf","game":"Team Fortress","app_id":440,"player_count":0,"max_players":24,"Bots":0,"server_type":"Dedicated","server_os":"Linux","password":true,"vac":true,"version":"7932396","steam_id":85568392924866364,"keywords":["nocrits","nodmgspread","payload","uncletopia"],"game_id":440,"stv_port":27036,"stv_name":"Uncletopia | Chicago | 7 | Stopwatch Beta | STV","players":null},{"server_id":39,"name":"Uncletopia | Chicago | 8 | Community","name_short":"chi-8","host":"chi-2.us.uncletopia.com","port":27045,"enabled":true,"region":"us-central","cc":"us","latitude":41.881832,"longitude":-87.62318,"reserved":0,"last_update":"0001-01-01T00:00:00Z","name_a2s":"Uncletopia | Chicago | 8 | Community","protocol":17,"map":"workshop/cp_sulfur_rc2.ugc619869471","folder":"tf","game":"Team Fortress","app_id":440,"player_count":24,"max_players":24,"Bots":0,"server_type":"Dedicated","server_os":"Linux","password":true,"vac":true,"version":"7932396","steam_id":85568392924866365,"keywords":["cp","nocrits","nodmgspread","uncletopia"],"game_id":440,"stv_port":27046,"stv_name":"Uncletopia | Chicago | 8 | Community | STV","players":[{"user_id":272,"name":"Dareka","steam_id":76561198371183174,"connected_time":1456000000000,"state":"active","ping":196},{"user_id":291,"name":"Toto","steam_id":76561198132069378,"connected_time":673000000000,"state":"active","ping":69},{"user_id":202,"name":"Snowy Squill","steam_id":76561198073504207,"connected_time":4326000000000,"state":"active","ping":164},{"user_id":266,"name":"Ninten","steam_id":76561198131409710,"connected_time":1737000000000,"state":"active","ping":66},{"user_id":238,"name":"Abra","steam_id":76561198007616630,"connected_time":2853000000000,"state":"active","ping":69},{"user_id":270,"name":"Verse","steam_id":76561198996078605,"connected_time":1603000000000,"state":"active","ping":65},{"user_id":240,"name":"aj brown but less sensitive","steam_id":76561197993524097,"connected_time":2791000000000,"state":"active","ping":86},{"user_id":273,"name":"Glazed","steam_id":76561198043020404,"connected_time":1447000000000,"state":"active","ping":93},{"user_id":294,"name":"OG Penguin","steam_id":76561199240575933,"connected_time":320000000000,"state":"active","ping":109},{"user_id":257,"name":"bojack from the show bojack hor","steam_id":76561198053006712,"connected_time":2160000000000,"state":"active","ping":64},{"user_id":293,"name":"Lily \u003c3","steam_id":76561198836447617,"connected_time":496000000000,"state":"active","ping":69},{"user_id":134,"name":"cozy","steam_id":76561199044037628,"connected_time":10195000000000,"state":"active","ping":73},{"user_id":282,"name":"mrappledumb","steam_id":76561199133590774,"connected_time":939000000000,"state":"active","ping":87},{"user_id":295,"name":"portal","steam_id":76561198094569952,"connected_time":117000000000,"state":"active","ping":133},{"user_id":243,"name":"dabes","steam_id":76561198008003551,"connected_time":2729000000000,"state":"active","ping":57},{"user_id":292,"name":"PaintingSky","steam_id":76561198315973318,"connected_time":669000000000,"state":"active","ping":72},{"user_id":227,"name":"Mephistopheles","steam_id":76561198253731826,"connected_time":3315000000000,"state":"active","ping":104},{"user_id":276,"name":"Potato","steam_id":76561198115677693,"connected_time":1430000000000,"state":"active","ping":57},{"user_id":268,"name":"Chimi","steam_id":76561198067800540,"connected_time":1664000000000,"state":"active","ping":75},{"user_id":262,"name":"yaldabaoth","steam_id":76561198084606869,"connected_time":2032000000000,"state":"active","ping":49},{"user_id":201,"name":"Frimpimy","steam_id":76561198142605675,"connected_time":4487000000000,"state":"active","ping":62},{"user_id":277,"name":"Tostinuim","steam_id":76561198415483382,"connected_time":1364000000000,"state":"active","ping":56},{"user_id":269,"name":"Dad 2","steam_id":76561198138546187,"connected_time":1646000000000,"state":"active","ping":66},{"user_id":253,"name":"Paisley James","steam_id":76561197962950946,"connected_time":2491000000000,"state":"active","ping":60}]},{"server_id":8,"name":"Uncletopia | Dallas | 1 | All Maps","name_short":"dal-1","host":"dal-1.us.uncletopia.com","port":27015,"enabled":true,"region":"us-central","cc":"us","latitude":32.779167,"longitude":-96.80889,"reserved":0,"last_update":"0001-01-01T00:00:00Z","name_a2s":"Uncletopia | Dallas | 1 | All Maps","protocol":17,"map":"cp_powerhouse","folder":"tf","game":"Team Fortress","app_id":440,"player_count":21,"max_players":24,"Bots":0,"server_type":"Dedicated","server_os":"Linux","password":true,"vac":true,"version":"7932396","steam_id":85568392924469986,"keywords":["cp","nocrits","nodmgspread","uncletopia"],"game_id":440,"stv_port":27016,"stv_name":"Uncletopia | Dallas | 1 | All Maps | STV","players":[{"user_id":302,"name":"sciencenerd42","steam_id":76561198274563320,"connected_time":953000000000,"state":"active","ping":68},{"user_id":282,"name":"girthmilk","steam_id":76561198054799782,"connected_time":1274000000000,"state":"active","ping":79},{"user_id":334,"name":"nyaaa","steam_id":76561198400058665,"connected_time":180000000000,"state":"active","ping":86},{"user_id":176,"name":"FI LO","steam_id":76561198976530881,"connected_time":5106000000000,"state":"active","ping":60},{"user_id":280,"name":"Space Magic","steam_id":76561199006292310,"connected_time":1290000000000,"state":"active","ping":79},{"user_id":338,"name":"FanaticSalt","steam_id":76561199380123059,"connected_time":118000000000,"state":"active","ping":44},{"user_id":247,"name":"SuppressedBarrel","steam_id":76561198032336504,"connected_time":2137000000000,"state":"active","ping":41},{"user_id":260,"name":"Doofenshmirtz Evil Inc.","steam_id":76561198439793697,"connected_time":1723000000000,"state":"active","ping":91},{"user_id":340,"name":"Zen56","steam_id":76561198074554894,"connected_time":47000000000,"state":"active","ping":74},{"user_id":336,"name":"bingabooga","steam_id":76561198101057741,"connected_time":157000000000,"state":"active","ping":45},{"user_id":283,"name":"aiming with drawing tablet","steam_id":76561198397662124,"connected_time":1256000000000,"state":"active","ping":60},{"user_id":337,"name":"iUseDvorak","steam_id":76561198064439037,"connected_time":146000000000,"state":"active","ping":63},{"user_id":194,"name":"ProfPorker","steam_id":76561198084211940,"connected_time":4070000000000,"state":"active","ping":78},{"user_id":316,"name":"HOMESHAKE","steam_id":76561198045144546,"connected_time":712000000000,"state":"active","ping":89},{"user_id":253,"name":"Marvelous","steam_id":76561199083888017,"connected_time":1969000000000,"state":"active","ping":80},{"user_id":311,"name":"soltuno","steam_id":76561198074430565,"connected_time":836000000000,"state":"active","ping":101},{"user_id":314,"name":"Ruby Gillman","steam_id":76561198366299848,"connected_time":773000000000,"state":"active","ping":69},{"user_id":323,"name":"Green Apple","steam_id":76561198441077398,"connected_time":501000000000,"state":"active","ping":44},{"user_id":319,"name":"corned beef","steam_id":76561199366782761,"connected_time":559000000000,"state":"active","ping":145},{"user_id":276,"name":"Hector Salamanca","steam_id":76561199103213955,"connected_time":1386000000000,"state":"active","ping":102},{"user_id":294,"name":"Optimore","steam_id":76561198047662990,"connected_time":1166000000000,"state":"active","ping":74}]},{"server_id":108,"name":"Uncletopia | Dallas | 2 | All Maps","name_short":"dal-2","host":"dal-1.us.uncletopia.com","port":27025,"enabled":true,"region":"us-central","cc":"us","latitude":32.779167,"longitude":-96.80889,"reserved":0,"last_update":"0001-01-01T00:00:00Z","name_a2s":"Uncletopia | Dallas | 2 | All Maps","protocol":17,"map":"pl_pier","folder":"tf","game":"Team Fortress","app_id":440,"player_count":24,"max_players":24,"Bots":0,"server_type":"Dedicated","server_os":"Linux","password":true,"vac":true,"version":"7932396","steam_id":85568392924469988,"keywords":["nocrits","nodmgspread","payload","uncletopia"],"game_id":440,"stv_port":27026,"stv_name":"Uncletopia | Dallas | 2 | All Maps | STV","players":[{"user_id":219,"name":"Peepster","steam_id":76561198297854733,"connected_time":3763000000000,"state":"active","ping":89},{"user_id":318,"name":"poke_ravi","steam_id":76561198006619886,"connected_time":2025000000000,"state":"active","ping":95},{"user_id":133,"name":"Moonflower ‚ú¶","steam_id":76561198191782483,"connected_time":5833000000000,"state":"active","ping":48},{"user_id":329,"name":"SoundKitKiller","steam_id":76561198053535873,"connected_time":1717000000000,"state":"active","ping":105},{"user_id":347,"name":"ChozoChorizo","steam_id":76561198272609196,"connected_time":664000000000,"state":"active","ping":63},{"user_id":352,"name":"2ndWhiterunGuard","steam_id":76561198105382714,"connected_time":361000000000,"state":"active","ping":74},{"user_id":314,"name":"ash","steam_id":76561198127890645,"connected_time":2627000000000,"state":"active","ping":76},{"user_id":356,"name":"LeeMFDagger","steam_id":76561198177572257,"connected_time":321000000000,"state":"active","ping":81},{"user_id":225,"name":"Kirby.exe","steam_id":76561198242714582,"connected_time":3656000000000,"state":"active","ping":50},{"user_id":231,"name":"Catto_Maddo","steam_id":76561199233131990,"connected_time":3532000000000,"state":"active","ping":96},{"user_id":348,"name":"uncle grandpa gaming","steam_id":76561198063024859,"connected_time":579000000000,"state":"active","ping":101},{"user_id":332,"name":"LILGI4THAW","steam_id":76561198403803842,"connected_time":1709000000000,"state":"active","ping":104},{"user_id":342,"name":"Dot.","steam_id":76561198149463984,"connected_time":1445000000000,"state":"active","ping":66},{"user_id":141,"name":"artichoke","steam_id":76561198980994364,"connected_time":5255000000000,"state":"active","ping":148},{"user_id":110,"name":"l4d2 marshall","steam_id":76561198042570322,"connected_time":7705000000000,"state":"active","ping":76},{"user_id":353,"name":"The Spanked Monkey","steam_id":76561198128293111,"connected_time":359000000000,"state":"active","ping":83},{"user_id":354,"name":"dave","steam_id":76561198135961731,"connected_time":346000000000,"state":"active","ping":59},{"user_id":360,"name":"superbad","steam_id":76561198065913973,"connected_time":145000000000,"state":"active","ping":73},{"user_id":361,"name":"Saucy Boy","steam_id":76561198178332031,"connected_time":119000000000,"state":"active","ping":95},{"user_id":327,"name":"THGAwesome","steam_id":76561198162847218,"connected_time":1822000000000,"state":"active","ping":86},{"user_id":312,"name":"David De Bergerac","steam_id":76561198010306294,"connected_time":2680000000000,"state":"active","ping":84},{"user_id":111,"name":"Makina","steam_id":76561198057475567,"connected_time":7701000000000,"state":"active","ping":85},{"user_id":351,"name":"pudl","steam_id":76561198043726592,"connected_time":543000000000,"state":"active","ping":45},{"user_id":355,"name":"Sanamsam1","steam_id":76561198051890899,"connected_time":346000000000,"state":"active","ping":76}]},{"server_id":5,"name":"Uncletopia | Frankfurt | 1 | All Maps","name_short":"frk-1","host":"frk-1.de.uncletopia.com","port":27015,"enabled":true,"region":"eu","cc":"de","latitude":50.110924,"longitude":8.682127,"reserved":0,"last_update":"0001-01-01T00:00:00Z","name_a2s":"Uncletopia | Frankfurt | 1 | All Maps","protocol":17,"map":"pl_frontier_final","folder":"tf","game":"Team Fortress","app_id":440,"player_count":16,"max_players":24,"Bots":0,"server_type":"Dedicated","server_os":"Linux","password":true,"vac":true,"version":"7932396","steam_id":85568392924469989,"keywords":["nocrits","nodmgspread","payload","uncletopia"],"game_id":440,"stv_port":27016,"stv_name":"Uncletopia | Frankfurt | 1 | All Maps | STV","players":[{"user_id":554,"name":"mob","steam_id":76561198099696876,"connected_time":194000000000,"state":"active","ping":64},{"user_id":539,"name":"MoonDroid","steam_id":76561198023027016,"connected_time":1977000000000,"state":"active","ping":35},{"user_id":561,"name":"smegma male","steam_id":76561198101978330,"connected_time":150000000000,"state":"active","ping":58},{"user_id":482,"name":"Carrotcracker","steam_id":76561198034862396,"connected_time":6586000000000,"state":"active","ping":69},{"user_id":555,"name":"C.H.E.R.E.P.","steam_id":76561198026938595,"connected_time":188000000000,"state":"active","ping":76},{"user_id":474,"name":"zoinks!","steam_id":76561198068645362,"connected_time":6786000000000,"state":"active","ping":56},{"user_id":556,"name":"Mata_FM","steam_id":76561198044824504,"connected_time":185000000000,"state":"active","ping":58},{"user_id":562,"name":"Curlew","steam_id":76561198075884540,"connected_time":113000000000,"state":"active","ping":106},{"user_id":545,"name":"Rigby","steam_id":76561198021552128,"connected_time":1094000000000,"state":"active","ping":106},{"user_id":557,"name":"Chen","steam_id":76561198440363619,"connected_time":183000000000,"state":"active","ping":45},{"user_id":558,"name":"ff:ff:ff:ff:ff:ff","steam_id":76561198072122983,"connected_time":181000000000,"state":"active","ping":60},{"user_id":550,"name":"cat","steam_id":76561198832231975,"connected_time":470000000000,"state":"active","ping":90},{"user_id":559,"name":"Mido","steam_id":76561198014315688,"connected_time":180000000000,"state":"active","ping":60},{"user_id":560,"name":"I'm a chad, I play with 60hz.","steam_id":76561199233979726,"connected_time":173000000000,"state":"active","ping":77},{"user_id":506,"name":"Paladin","steam_id":76561198042593027,"connected_time":4690000000000,"state":"active","ping":87},{"user_id":538,"name":"Dr snuggles","steam_id":76561198151918102,"connected_time":1993000000000,"state":"active","ping":86}]},{"server_id":110,"name":"Uncletopia | Frankfurt | 2 | All Maps","name_short":"frk-2","host":"frk-1.de.uncletopia.com","port":27025,"enabled":true,"region":"eu","cc":"de","latitude":50.110924,"longitude":8.682127,"reserved":0,"last_update":"0001-01-01T00:00:00Z","name_a2s":"Uncletopia | Frankfurt | 2 | All Maps","protocol":17,"map":"pl_goldrush","folder":"tf","game":"Team Fortress","app_id":440,"player_count":23,"max_players":24,"Bots":0,"server_type":"Dedicated","server_os":"Linux","password":true,"vac":true,"version":"7932396","steam_id":85568392924469990,"keywords":["nocrits","nodmgspread","payload","uncletopia"],"game_id":440,"stv_port":27026,"stv_name":"Uncletopia | Frankfurt | 2 | All Maps | STV","players":[{"user_id":195,"name":"god dem rocket!","steam_id":76561198031553979,"connected_time":168000000000,"state":"active","ping":74},{"user_id":176,"name":"Finn","steam_id":76561198112456809,"connected_time":1545000000000,"state":"active","ping":58},{"user_id":161,"name":"Grey","steam_id":76561198187190267,"connected_time":2929000000000,"state":"active","ping":46},{"user_id":200,"name":"LIGHTWEIGHT BABY","steam_id":76561198002761980,"connected_time":6000000000,"state":"spawning","ping":58},{"user_id":190,"name":"peace of sheet","steam_id":76561197997323419,"connected_time":814000000000,"state":"active","ping":60},{"user_id":193,"name":"Foo.","steam_id":76561198000013666,"connected_time":711000000000,"state":"active","ping":49},{"user_id":181,"name":"Burpman","steam_id":76561198022897937,"connected_time":956000000000,"state":"active","ping":63},{"user_id":187,"name":"Kaishakunin","steam_id":76561198028123874,"connected_time":835000000000,"state":"active","ping":86},{"user_id":147,"name":"snork","steam_id":76561198138386260,"connected_time":4565000000000,"state":"active","ping":61},{"user_id":189,"name":"hananamanna","steam_id":76561198006570285,"connected_time":815000000000,"state":"active","ping":114},{"user_id":179,"name":"(UA) DDeadlyWeapŒ©n","steam_id":76561198167802435,"connected_time":1081000000000,"state":"active","ping":94},{"user_id":155,"name":"Asmodeus","steam_id":76561198283156425,"connected_time":3801000000000,"state":"active","ping":65},{"user_id":153,"name":"Lyncurion","steam_id":76561199260022725,"connected_time":4128000000000,"state":"active","ping":74},{"user_id":170,"name":"PP_master69420","steam_id":76561199019913910,"connected_time":2295000000000,"state":"active","ping":75},{"user_id":175,"name":"Tonne","steam_id":76561197970856766,"connected_time":1675000000000,"state":"active","ping":57},{"user_id":191,"name":"willus212","steam_id":76561199182615246,"connected_time":797000000000,"state":"active","ping":93},{"user_id":197,"name":"cuddle","steam_id":76561198805181599,"connected_time":123000000000,"state":"active","ping":65},{"user_id":198,"name":"Zax","steam_id":76561198311575521,"connected_time":122000000000,"state":"active","ping":77},{"user_id":199,"name":"The Mayo Man","steam_id":76561197995377425,"connected_time":115000000000,"state":"active","ping":158},{"user_id":138,"name":"finbar","steam_id":76561198056812396,"connected_time":5487000000000,"state":"active","ping":86},{"user_id":194,"name":"w+m1","steam_id":76561198010428082,"connected_time":229000000000,"state":"active","ping":83},{"user_id":196,"name":"Liko","steam_id":76561197994660517,"connected_time":156000000000,"state":"active","ping":81}]},{"server_id":308,"name":"Uncletopia | Frankfurt | 3 | All Maps","name_short":"frk-3","host":"frk-1.de.uncletopia.com","port":27035,"enabled":true,"region":"eu","cc":"de","latitude":50.110924,"longitude":8.682127,"reserved":0,"last_update":"0001-01-01T00:00:00Z","name_a2s":"Uncletopia | Frankfurt | 3 | All Maps","protocol":17,"map":"koth_cascade","folder":"tf","game":"Team Fortress","app_id":440,"player_count":0,"max_players":24,"Bots":0,"server_type":"Dedicated","server_os":"Linux","password":true,"vac":true,"version":"7932396","steam_id":85568392924504274,"keywords":["cp","nocrits","nodmgspread","uncletopia"],"game_id":440,"stv_port":27036,"stv_name":"Uncletopia | Frankfurt | 3 | All Maps | STV","players":null},{"server_id":309,"name":"Uncletopia | Frankfurt | 4 | All Maps","name_short":"frk-4","host":"frk-1.de.uncletopia.com","port":27045,"enabled":true,"region":"eu","cc":"de","latitude":50.110924,"longitude":8.682127,"reserved":0,"last_update":"0001-01-01T00:00:00Z","name_a2s":"Uncletopia | Frankfurt | 4 | All Maps","protocol":17,"map":"koth_lakeside_final","folder":"tf","game":"Team Fortress","app_id":440,"player_count":0,"max_players":24,"Bots":0,"server_type":"Dedicated","server_os":"Linux","password":true,"vac":true,"version":"7932396","steam_id":85568392924504275,"keywords":["cp","nocrits","nodmgspread","uncletopia"],"game_id":440,"stv_port":27046,"stv_name":"Uncletopia | Frankfurt | 4 | All Maps | STV","players":null},{"server_id":310,"name":"Uncletopia | Frankfurt | 5 | All Maps","name_short":"frk-5","host":"frk-1.de.uncletopia.com","port":27055,"enabled":true,"region":"eu","cc":"de","latitude":50.110924,"longitude":8.682127,"reserved":0,"last_update":"0001-01-01T00:00:00Z","name_a2s":"Uncletopia | Frankfurt | 5 | All Maps","protocol":17,"map":"pl_barnblitz","folder":"tf","game":"Team Fortress","app_id":440,"player_count":5,"max_players":24,"Bots":0,"server_type":"Dedicated","server_os":"Linux","password":true,"vac":true,"version":"7932396","steam_id":85568392924504277,"keywords":["nocrits","nodmgspread","payload","uncletopia"],"game_id":440,"stv_port":27056,"stv_name":"Uncletopia | Frankfurt | 5 | All Maps | STV","players":[{"user_id":192,"name":"Chris Pratt","steam_id":76561198189553021,"connected_time":1415000000000,"state":"active","ping":60},{"user_id":191,"name":"GodzillaDylan","steam_id":76561199087992885,"connected_time":1512000000000,"state":"active","ping":206},{"user_id":193,"name":"nakedpee","steam_id":76561198064345980,"connected_time":1356000000000,"state":"active","ping":75},{"user_id":197,"name":"Skinhead","steam_id":76561198119535442,"connected_time":131000000000,"state":"active","ping":72},{"user_id":196,"name":"FanFish","steam_id":76561199389558024,"connected_time":767000000000,"state":"active","ping":69}]},{"server_id":311,"name":"Uncletopia | Frankfurt | 6 | All Maps","name_short":"frk-6","host":"frk-1.de.uncletopia.com","port":27065,"enabled":true,"region":"eu","cc":"de","latitude":50.110924,"longitude":8.682127,"reserved":0,"last_update":"0001-01-01T00:00:00Z","name_a2s":"Uncletopia | Frankfurt | 6 | All Maps","protocol":17,"map":"cp_altitude","folder":"tf","game":"Team Fortress","app_id":440,"player_count":22,"max_players":24,"Bots":0,"server_type":"Dedicated","server_os":"Linux","password":true,"vac":true,"version":"7932396","steam_id":85568392924504278,"keywords":["cp","nocrits","nodmgspread","uncletopia"],"game_id":440,"stv_port":27066,"stv_name":"Uncletopia | Frankfurt | 6 | All Maps | STV","players":[{"user_id":164,"name":"Charles Darwin","steam_id":76561197973496139,"connected_time":17000000000,"state":"spawning","ping":59},{"user_id":135,"name":"pyro gaming","steam_id":76561198087970118,"connected_time":1283000000000,"state":"active","ping":59},{"user_id":143,"name":"quack","steam_id":76561198121003465,"connected_time":766000000000,"state":"active","ping":63},{"user_id":136,"name":"Doctor Medic","steam_id":76561198100957443,"connected_time":1275000000000,"state":"active","ping":74},{"user_id":158,"name":"WAU","steam_id":76561198052486330,"connected_time":187000000000,"state":"active","ping":45},{"user_id":160,"name":"Mike Ehrmantraut","steam_id":76561198164783481,"connected_time":173000000000,"state":"active","ping":86},{"user_id":141,"name":"EœáSpecula","steam_id":76561198040669766,"connected_time":1035000000000,"state":"active","ping":98},{"user_id":145,"name":"AwterSix","steam_id":76561198042561678,"connected_time":737000000000,"state":"active","ping":58},{"user_id":162,"name":"Carol Olston","steam_id":76561198080257273,"connected_time":138000000000,"state":"active","ping":50},{"user_id":148,"name":"Flohr","steam_id":76561198191948841,"connected_time":598000000000,"state":"active","ping":54},{"user_id":120,"name":"The Bucket","steam_id":76561199131973613,"connected_time":1727000000000,"state":"active","ping":107},{"user_id":149,"name":"Lale","steam_id":76561198117918349,"connected_time":587000000000,"state":"active","ping":73},{"user_id":150,"name":"‚Ä†ùî•e œâoo","steam_id":76561198929808815,"connected_time":584000000000,"state":"active","ping":55},{"user_id":165,"name":"S ü…™·¥òE…¥O Ä","steam_id":76561197967931911,"connected_time":1000000000,"state":"spawning","ping":87},{"user_id":159,"name":"_420_StopItDudeCmon","steam_id":76561197997146481,"connected_time":186000000000,"state":"active","ping":56},{"user_id":163,"name":"Ë™∞„Åã„ÅåË¶ã„Å¶„ÅÑ„Çã","steam_id":76561198834913692,"connected_time":117000000000,"state":"active","ping":61},{"user_id":131,"name":"globalize","steam_id":76561197984243498,"connected_time":1473000000000,"state":"active","ping":81},{"user_id":154,"name":"No Electricity","steam_id":76561198289709400,"connected_time":409000000000,"state":"active","ping":127},{"user_id":126,"name":"ABbott_","steam_id":76561198030528873,"connected_time":1595000000000,"state":"active","ping":72},{"user_id":128,"name":"elmstJP ‚Ç™ F4.exe","steam_id":76561197997909480,"connected_time":1570000000000,"state":"active","ping":75},{"user_id":129,"name":"F4.exe","steam_id":76561198278822807,"connected_time":1560000000000,"state":"active","ping":58},{"user_id":157,"name":"Malik794","steam_id":76561198967164437,"connected_time":341000000000,"state":"active","ping":100}]},{"server_id":23,"name":"Uncletopia | Frankfurt | 7 | Stopwatch Beta","name_short":"frk-7","host":"frk-1.de.uncletopia.com","port":27075,"enabled":true,"region":"eu","cc":"de","latitude":50.110924,"longitude":8.682127,"reserved":0,"last_update":"0001-01-01T00:00:00Z","name_a2s":"Uncletopia | Frankfurt | 7 | Stopwatch Beta","protocol":17,"map":"pl_snowycoast","folder":"tf","game":"Team Fortress","app_id":440,"player_count":0,"max_players":24,"Bots":0,"server_type":"Dedicated","server_os":"Linux","password":true,"vac":true,"version":"7932396","steam_id":85568392924742827,"keywords":["nocrits","nodmgspread","payload","uncletopia"],"game_id":440,"stv_port":27076,"stv_name":"Uncletopia | Frankfurt | 7 | Stopwatch Beta | STV","players":null},{"server_id":24,"name":"Uncletopia | Frankfurt | 8 | Community","name_short":"frk-8","host":"frk-1.de.uncletopia.com","port":27085,"enabled":true,"region":"eu","cc":"de","latitude":50.110924,"longitude":8.682127,"reserved":0,"last_update":"0001-01-01T00:00:00Z","name_a2s":"Uncletopia | Frankfurt | 8 | Community","protocol":17,"map":"workshop/koth_bagel_rc6.ugc2514036946","folder":"tf","game":"Team Fortress","app_id":440,"player_count":0,"max_players":24,"Bots":0,"server_type":"Dedicated","server_os":"Linux","password":true,"vac":true,"version":"7932396","steam_id":85568392924742828,"keywords":["cp","nocrits","nodmgspread","uncletopia"],"game_id":440,"stv_port":27086,"stv_name":"Uncletopia | Frankfurt | 8 | Community | STV","players":null},{"server_id":202,"name":"Uncletopia | Hong Kong | 1 | All Maps","name_short":"hgk-1","host":"hgk-1.hk.uncletopia.com","port":27015,"enabled":true,"region":"asia","cc":"hk","latitude":22.302711,"longitude":114.177216,"reserved":0,"last_update":"0001-01-01T00:00:00Z","name_a2s":"Uncletopia | Hong Kong | 1 | All Maps","protocol":17,"map":"koth_lakeside_final","folder":"tf","game":"Team Fortress","app_id":440,"player_count":0,"max_players":24,"Bots":0,"server_type":"Dedicated","server_os":"Linux","password":true,"vac":true,"version":"7932396","steam_id":85568392924494504,"keywords":["cp","nocrits","nodmgspread","uncletopia"],"game_id":440,"stv_port":27016,"stv_name":"Uncletopia | Hong Kong | 1 | All Maps | STV","players":null},{"server_id":1,"name":"Uncletopia | Los Angeles | 1 | All Maps","name_short":"lax-1","host":"lax-1.us.uncletopia.com","port":27015,"enabled":true,"region":"us-west","cc":"us","latitude":33.94279,"longitude":-118.41004,"reserved":0,"last_update":"0001-01-01T00:00:00Z","name_a2s":"Uncletopia | Los Angeles | 1 | All Maps","protocol":17,"map":"cp_sunshine","folder":"tf","game":"Team Fortress","app_id":440,"player_count":0,"max_players":24,"Bots":0,"server_type":"Dedicated","server_os":"Linux","password":true,"vac":true,"version":"7932396","steam_id":85568392924469991,"keywords":["cp","nocrits","nodmgspread","uncletopia"],"game_id":440,"stv_port":27016,"stv_name":"Uncletopia | Los Angeles | 1 | All Maps | STV","players":null},{"server_id":112,"name":"Uncletopia | Los Angeles | 2 | All Maps","name_short":"lax-2","host":"lax-1.us.uncletopia.com","port":27025,"enabled":true,"region":"us-west","cc":"us","latitude":33.94279,"longitude":-118.41004,"reserved":0,"last_update":"0001-01-01T00:00:00Z","name_a2s":"Uncletopia | Los Angeles | 2 | All Maps","protocol":17,"map":"pl_barnblitz","folder":"tf","game":"Team Fortress","app_id":440,"player_count":23,"max_players":24,"Bots":0,"server_type":"Dedicated","server_os":"Linux","password":true,"vac":true,"version":"7932396","steam_id":85568392924469992,"keywords":["nocrits","nodmgspread","payload","uncletopia"],"game_id":440,"stv_port":27026,"stv_name":"Uncletopia | Los Angeles | 2 | All Maps | STV","players":[{"user_id":103,"name":"„ÄéA Sentient Durian„Äè","steam_id":76561198131212243,"connected_time":1120000000000,"state":"active","ping":58},{"user_id":80,"name":"not_a_bot742","steam_id":76561199490243754,"connected_time":3261000000000,"state":"active","ping":114},{"user_id":109,"name":"steelzepplin","steam_id":76561197993182335,"connected_time":702000000000,"state":"active","ping":103},{"user_id":75,"name":"usedhalfcart","steam_id":76561198072621852,"connected_time":3556000000000,"state":"active","ping":80},{"user_id":64,"name":"Ockulus","steam_id":76561199069638460,"connected_time":4049000000000,"state":"active","ping":53},{"user_id":52,"name":"el wokismo","steam_id":76561198058617608,"connected_time":4434000000000,"state":"active","ping":45},{"user_id":110,"name":"M3L","steam_id":76561199474189433,"connected_time":699000000000,"state":"active","ping":115},{"user_id":86,"name":"spurious george","steam_id":76561198043558709,"connected_time":2227000000000,"state":"active","ping":75},{"user_id":65,"name":"Slogly","steam_id":76561198057242179,"connected_time":4018000000000,"state":"active","ping":57},{"user_id":100,"name":"Michael Fettuccine","steam_id":76561198056953903,"connected_time":1302000000000,"state":"active","ping":46},{"user_id":85,"name":"Skinny pete","steam_id":76561198801608576,"connected_time":2491000000000,"state":"active","ping":82},{"user_id":104,"name":"Rectangle","steam_id":76561198429572676,"connected_time":1098000000000,"state":"active","ping":109},{"user_id":112,"name":"Magic","steam_id":76561198354674755,"connected_time":631000000000,"state":"active","ping":105},{"user_id":90,"name":"Dubious Adubio","steam_id":76561198442369067,"connected_time":1928000000000,"state":"active","ping":97},{"user_id":101,"name":"lemonjack","steam_id":76561198277380277,"connected_time":1291000000000,"state":"active","ping":54},{"user_id":29,"name":"madei","steam_id":76561198164460801,"connected_time":5622000000000,"state":"active","ping":71},{"user_id":93,"name":"you but a little bit smellier","steam_id":76561198119433809,"connected_time":1854000000000,"state":"active","ping":58},{"user_id":113,"name":"too many fives","steam_id":76561198128465482,"connected_time":630000000000,"state":"active","ping":122},{"user_id":84,"name":"Maniac9","steam_id":76561197960530967,"connected_time":2557000000000,"state":"active","ping":45},{"user_id":107,"name":"Underscorn","steam_id":76561198374209415,"connected_time":1063000000000,"state":"active","ping":90},{"user_id":55,"name":"t.tv/asl4n","steam_id":76561198126546221,"connected_time":4279000000000,"state":"active","ping":35},{"user_id":114,"name":"DiGiorno's Pizza","steam_id":76561198142244035,"connected_time":357000000000,"state":"active","ping":108},{"user_id":63,"name":"bobbymcbobington","steam_id":76561199089411172,"connected_time":4072000000000,"state":"active","ping":136}]},{"server_id":324,"name":"Uncletopia | Los Angeles | 3 | All Maps","name_short":"lax-3","host":"lax-1.us.uncletopia.com","port":27035,"enabled":true,"region":"us-west","cc":"us","latitude":33.94279,"longitude":-118.41004,"reserved":0,"last_update":"0001-01-01T00:00:00Z","name_a2s":"Uncletopia | Los Angeles | 3 | All Maps","protocol":17,"map":"pl_borneo","folder":"tf","game":"Team Fortress","app_id":440,"player_count":24,"max_players":24,"Bots":0,"server_type":"Dedicated","server_os":"Linux","password":true,"vac":true,"version":"7932396","steam_id":85568392924510198,"keywords":["nocrits","nodmgspread","payload","uncletopia"],"game_id":440,"stv_port":27036,"stv_name":"Uncletopia | Los Angeles | 3 | All Maps | STV","players":[{"user_id":144,"name":"Cinnifox","steam_id":76561198068773971,"connected_time":1487000000000,"state":"active","ping":111},{"user_id":148,"name":"Post-It Paige","steam_id":76561198294059159,"connected_time":1126000000000,"state":"active","ping":108},{"user_id":160,"name":"blank","steam_id":76561198105529673,"connected_time":765000000000,"state":"active","ping":41},{"user_id":164,"name":"Deputy Dog","steam_id":76561197960441667,"connected_time":279000000000,"state":"active","ping":85},{"user_id":169,"name":"cool beans","steam_id":76561198321591685,"connected_time":29000000000,"state":"active","ping":120},{"user_id":161,"name":"shae2007","steam_id":76561199442299675,"connected_time":726000000000,"state":"active","ping":110},{"user_id":162,"name":"El Bozo","steam_id":76561198010370396,"connected_time":570000000000,"state":"active","ping":103},{"user_id":154,"name":"NewGuy","steam_id":76561198968058652,"connected_time":918000000000,"state":"active","ping":78},{"user_id":153,"name":"‚Ä∫‚Ä∫ Invisible Man","steam_id":76561198218719943,"connected_time":922000000000,"state":"active","ping":43},{"user_id":138,"name":"I am a nihilist","steam_id":76561199286164903,"connected_time":2073000000000,"state":"active","ping":82},{"user_id":122,"name":"Boxcars","steam_id":76561198120978767,"connected_time":3606000000000,"state":"active","ping":52},{"user_id":118,"name":"ungr8t","steam_id":76561198063521721,"connected_time":3868000000000,"state":"active","ping":86},{"user_id":131,"name":"Shalom","steam_id":76561198410005222,"connected_time":2579000000000,"state":"active","ping":90},{"user_id":141,"name":"MERCHANT","steam_id":76561198210010549,"connected_time":1900000000000,"state":"active","ping":73},{"user_id":140,"name":"Brigadier Brownie","steam_id":76561198040852898,"connected_time":1982000000000,"state":"active","ping":55},{"user_id":165,"name":"wunga","steam_id":76561198062074001,"connected_time":276000000000,"state":"active","ping":119},{"user_id":163,"name":"Spaceman","steam_id":76561198349305249,"connected_time":303000000000,"state":"active","ping":84},{"user_id":156,"name":"Person Man","steam_id":76561198293857963,"connected_time":890000000000,"state":"active","ping":64},{"user_id":168,"name":"Laxoloni","steam_id":76561199197045700,"connected_time":124000000000,"state":"active","ping":79},{"user_id":108,"name":"br0gi3","steam_id":76561198159236166,"connected_time":4305000000000,"state":"active","ping":106},{"user_id":128,"name":"Prototype1642","steam_id":76561199304113982,"connected_time":3135000000000,"state":"active","ping":77},{"user_id":158,"name":"Œ¥","steam_id":76561198046278452,"connected_time":839000000000,"state":"active","ping":85},{"user_id":126,"name":"SanitysEdge","steam_id":76561198130732813,"connected_time":3263000000000,"state":"active","ping":48},{"user_id":167,"name":"Blitzy","steam_id":76561198149472890,"connected_time":274000000000,"state":"active","ping":95}]},{"server_id":25,"name":"Uncletopia | Los Angeles | 4 | Stopwatch Beta","name_short":"lax-4","host":"lax-1.us.uncletopia.com","port":27045,"enabled":true,"region":"us-west","cc":"us","latitude":33.94279,"longitude":-118.41004,"reserved":0,"last_update":"0001-01-01T00:00:00Z","name_a2s":"Uncletopia | Los Angeles | 4 | Stopwatch Beta","protocol":17,"map":"cp_altitude","folder":"tf","game":"Team Fortress","app_id":440,"player_count":0,"max_players":24,"Bots":0,"server_type":"Dedicated","server_os":"Linux","password":true,"vac":true,"version":"7932396","steam_id":85568392924510199,"keywords":["cp","nocrits","nodmgspread","uncletopia"],"game_id":440,"stv_port":27046,"stv_name":"Uncletopia | Los Angeles | 4 | Stopwatch Beta | STV","players":null},{"server_id":11,"name":"Uncletopia | London | 1 | All Maps","name_short":"lon-1","host":"lon-1.uk.uncletopia.com","port":27015,"enabled":true,"region":"eu","cc":"gb","latitude":51.509865,"longitude":-0.118092,"reserved":0,"last_update":"0001-01-01T00:00:00Z","name_a2s":"Uncletopia | London | 1 | All Maps","protocol":17,"map":"cp_sunshine","folder":"tf","game":"Team Fortress","app_id":440,"player_count":19,"max_players":24,"Bots":0,"server_type":"Dedicated","server_os":"Linux","password":true,"vac":true,"version":"7932396","steam_id":85568392924367362,"keywords":["cp","nocrits","nodmgspread","uncletopia"],"game_id":440,"stv_port":27016,"stv_name":"Uncletopia | London | 1 | All Maps | STV","players":[{"user_id":378,"name":"AWildTamim","steam_id":76561198048060652,"connected_time":1331000000000,"state":"active","ping":40},{"user_id":398,"name":"Minimi","steam_id":76561198873850443,"connected_time":369000000000,"state":"active","ping":45},{"user_id":400,"name":"worm with a fat ass","steam_id":76561198170026338,"connected_time":49000000000,"state":"active","ping":70},{"user_id":298,"name":"Just Navlis","steam_id":76561198090479609,"connected_time":9879000000000,"state":"active","ping":49},{"user_id":388,"name":"Bounter","steam_id":76561198072614188,"connected_time":791000000000,"state":"active","ping":73},{"user_id":389,"name":"halow","steam_id":76561198061505163,"connected_time":767000000000,"state":"active","ping":93},{"user_id":381,"name":"mohammed","steam_id":76561198156087581,"connected_time":1268000000000,"state":"active","ping":79},{"user_id":397,"name":"bonk","steam_id":76561198953939723,"connected_time":540000000000,"state":"active","ping":105},{"user_id":363,"name":"flappi","steam_id":76561198072892783,"connected_time":2933000000000,"state":"active","ping":60},{"user_id":386,"name":"MagPootis","steam_id":76561198157065778,"connected_time":889000000000,"state":"active","ping":62},{"user_id":391,"name":"Redkiller","steam_id":76561199453655288,"connected_time":738000000000,"state":"active","ping":127},{"user_id":370,"name":"BenteBent","steam_id":76561198297920637,"connected_time":2430000000000,"state":"active","ping":26},{"user_id":382,"name":"osidron","steam_id":76561198393213543,"connected_time":1261000000000,"state":"active","ping":101},{"user_id":376,"name":"Hildreth","steam_id":76561197995254867,"connected_time":1427000000000,"state":"active","ping":30},{"user_id":373,"name":"Pyrotechnist","steam_id":76561198014709230,"connected_time":2224000000000,"state":"active","ping":84},{"user_id":394,"name":"sora","steam_id":76561198096547662,"connected_time":670000000000,"state":"active","ping":49},{"user_id":392,"name":"yuno appreciator","steam_id":76561198083286511,"connected_time":735000000000,"state":"active","ping":40},{"user_id":328,"name":"dec","steam_id":76561198009660168,"connected_time":6911000000000,"state":"active","ping":45},{"user_id":393,"name":"C11H15NO2","steam_id":76561198066146016,"connected_time":729000000000,"state":"active","ping":70}]},{"server_id":114,"name":"Uncletopia | London | 2 | All Maps","name_short":"lon-2","host":"lon-1.uk.uncletopia.com","port":27025,"enabled":true,"region":"eu","cc":"gb","latitude":51.509865,"longitude":-0.118092,"reserved":0,"last_update":"0001-01-01T00:00:00Z","name_a2s":"Uncletopia | London | 2 | All Maps","protocol":17,"map":"pl_frontier_final","folder":"tf","game":"Team Fortress","app_id":440,"player_count":24,"max_players":24,"Bots":0,"server_type":"Dedicated","server_os":"Linux","password":true,"vac":true,"version":"7932396","steam_id":85568392924470941,"keywords":["nocrits","nodmgspread","payload","uncletopia"],"game_id":440,"stv_port":27026,"stv_name":"Uncletopia | London | 2 | All Maps | STV","players":[{"user_id":297,"name":"Neco-arc Astolfo","steam_id":76561198989682540,"connected_time":1001000000000,"state":"active","ping":50},{"user_id":290,"name":"Maximilian1359","steam_id":76561198152439608,"connected_time":1258000000000,"state":"active","ping":64},{"user_id":298,"name":"‚ò≠TheDevilsEye‚ò≠","steam_id":76561198017379398,"connected_time":981000000000,"state":"active","ping":84},{"user_id":271,"name":"Flying Squirrel","steam_id":76561198005202791,"connected_time":3067000000000,"state":"active","ping":72},{"user_id":275,"name":"SpacePig","steam_id":76561198044662873,"connected_time":2917000000000,"state":"active","ping":101},{"user_id":295,"name":"Sixie","steam_id":76561198251675360,"connected_time":1014000000000,"state":"active","ping":50},{"user_id":200,"name":"Omyskull","steam_id":76561198131711758,"connected_time":5144000000000,"state":"active","ping":68},{"user_id":234,"name":"Finn","steam_id":76561198179960193,"connected_time":4368000000000,"state":"active","ping":36},{"user_id":305,"name":"_Starlight_","steam_id":76561197993885738,"connected_time":890000000000,"state":"active","ping":88},{"user_id":191,"name":"Shadow the Hedgehog","steam_id":76561198032936750,"connected_time":6001000000000,"state":"active","ping":93},{"user_id":287,"name":"ArmedWithWings","steam_id":76561198154615474,"connected_time":1289000000000,"state":"active","ping":87},{"user_id":300,"name":"Lempii","steam_id":76561198433507634,"connected_time":979000000000,"state":"active","ping":94},{"user_id":307,"name":"bebeda blacked out","steam_id":76561198277943630,"connected_time":764000000000,"state":"active","ping":69},{"user_id":306,"name":"kanka","steam_id":76561198116530769,"connected_time":772000000000,"state":"active","ping":310},{"user_id":292,"name":"L3ONNE","steam_id":76561198308893829,"connected_time":1209000000000,"state":"active","ping":33},{"user_id":274,"name":"leminsc8","steam_id":76561198825084995,"connected_time":2932000000000,"state":"active","ping":52},{"user_id":308,"name":"j0ntte","steam_id":76561198271782392,"connected_time":375000000000,"state":"active","ping":94},{"user_id":266,"name":"sushii","steam_id":76561198297987372,"connected_time":3300000000000,"state":"active","ping":46},{"user_id":301,"name":"lit","steam_id":76561198164806677,"connected_time":975000000000,"state":"active","ping":88},{"user_id":302,"name":"KaasKrans","steam_id":76561198240451972,"connected_time":968000000000,"state":"active","ping":58},{"user_id":309,"name":"bowchika wowa #SlavaUkraine","steam_id":76561198159564550,"connected_time":75000000000,"state":"active","ping":70},{"user_id":296,"name":"H-say","steam_id":76561198177400362,"connected_time":1013000000000,"state":"active","ping":98},{"user_id":236,"name":"sarii ‚òÜ","steam_id":76561199155102111,"connected_time":4319000000000,"state":"active","ping":73},{"user_id":304,"name":"papi im hungary(((","steam_id":76561198183949987,"connected_time":944000000000,"state":"active","ping":58}]},{"server_id":320,"name":"Uncletopia | London | 3 | All Maps","name_short":"lon-3","host":"lon-1.uk.uncletopia.com","port":27035,"enabled":true,"region":"eu","cc":"gb","latitude":51.509865,"longitude":-0.118092,"reserved":0,"last_update":"0001-01-01T00:00:00Z","name_a2s":"Uncletopia | London | 3 | All Maps","protocol":17,"map":"cp_metalworks","folder":"tf","game":"Team Fortress","app_id":440,"player_count":23,"max_players":24,"Bots":0,"server_type":"Dedicated","server_os":"Linux","password":true,"vac":true,"version":"7932396","steam_id":85568392924510192,"keywords":["cp","nocrits","nodmgspread","uncletopia"],"game_id":440,"stv_port":27036,"stv_name":"Uncletopia | London | 3 | All Maps | STV","players":[{"user_id":312,"name":"Sky Tree","steam_id":76561198027103242,"connected_time":307000000000,"state":"active","ping":105},{"user_id":291,"name":"Sir Sammie","steam_id":76561198329808137,"connected_time":1383000000000,"state":"active","ping":46},{"user_id":286,"name":"nemelex","steam_id":76561198958005865,"connected_time":1636000000000,"state":"active","ping":60},{"user_id":287,"name":"Cataleptic","steam_id":76561197997966949,"connected_time":1629000000000,"state":"active","ping":56},{"user_id":313,"name":"Laurie","steam_id":76561198082951750,"connected_time":282000000000,"state":"active","ping":48},{"user_id":288,"name":"TomNoSocks","steam_id":76561198114071046,"connected_time":1595000000000,"state":"active","ping":63},{"user_id":265,"name":"Silvestro","steam_id":76561198021660066,"connected_time":3286000000000,"state":"active","ping":83},{"user_id":264,"name":":3","steam_id":76561198169471853,"connected_time":3306000000000,"state":"active","ping":42},{"user_id":302,"name":"akakez","steam_id":76561198095432821,"connected_time":532000000000,"state":"active","ping":120},{"user_id":316,"name":"Dr.Sees [F2P]","steam_id":76561199219233587,"connected_time":165000000000,"state":"active","ping":78},{"user_id":289,"name":"The Nostalgia Critic","steam_id":76561198360395476,"connected_time":1593000000000,"state":"active","ping":33},{"user_id":295,"name":"Moth","steam_id":76561199101130105,"connected_time":1065000000000,"state":"active","ping":149},{"user_id":297,"name":"Bobo","steam_id":76561198052308399,"connected_time":735000000000,"state":"active","ping":68},{"user_id":303,"name":"Trash","steam_id":76561198084969924,"connected_time":525000000000,"state":"active","ping":58},{"user_id":300,"name":"Tomfool","steam_id":76561197993256481,"connected_time":641000000000,"state":"active","ping":84},{"user_id":314,"name":"ScudFXX","steam_id":76561198136603848,"connected_time":245000000000,"state":"active","ping":62},{"user_id":304,"name":"shh... tiny carrots r sleeping","steam_id":76561198069649097,"connected_time":517000000000,"state":"active","ping":61},{"user_id":305,"name":"FirePenguin","steam_id":76561198151468340,"connected_time":503000000000,"state":"active","ping":30},{"user_id":306,"name":"Townsend And Sons","steam_id":76561199072698153,"connected_time":483000000000,"state":"active","ping":68},{"user_id":307,"name":"Vince","steam_id":76561199103000131,"connected_time":463000000000,"state":"active","ping":45},{"user_id":309,"name":"(R34 gaming) lung cancer","steam_id":76561199236179641,"connected_time":439000000000,"state":"active","ping":87},{"user_id":255,"name":"Maldom","steam_id":76561198000687053,"connected_time":4075000000000,"state":"active","ping":59},{"user_id":311,"name":"Lag","steam_id":76561198159360376,"connected_time":436000000000,"state":"active","ping":48}]},{"server_id":321,"name":"Uncletopia | London | 4 | All Maps","name_short":"lon-4","host":"lon-1.uk.uncletopia.com","port":27045,"enabled":true,"region":"eu","cc":"gb","latitude":51.509865,"longitude":-0.118092,"reserved":0,"last_update":"0001-01-01T00:00:00Z","name_a2s":"Uncletopia | London | 4 | All Maps","protocol":17,"map":"cp_altitude","folder":"tf","game":"Team Fortress","app_id":440,"player_count":4,"max_players":24,"Bots":0,"server_type":"Dedicated","server_os":"Linux","password":true,"vac":true,"version":"7932396","steam_id":85568392924510193,"keywords":["cp","nocrits","nodmgspread","uncletopia"],"game_id":440,"stv_port":27046,"stv_name":"Uncletopia | London | 4 | All Maps | STV","players":[{"user_id":448,"name":"Grand Admiral Thrawn","steam_id":76561198302019412,"connected_time":708000000000,"state":"active","ping":58},{"user_id":449,"name":"[supernova]]","steam_id":76561198837442777,"connected_time":662000000000,"state":"active","ping":59},{"user_id":450,"name":"N.","steam_id":76561198017274851,"connected_time":423000000000,"state":"active","ping":30},{"user_id":421,"name":"ran is running","steam_id":76561199443185667,"connected_time":2035000000000,"state":"active","ping":116}]},{"server_id":21,"name":"Uncletopia | London | 5 | All Maps","name_short":"lon-5","host":"lon-1.uk.uncletopia.com","port":27055,"enabled":true,"region":"eu","cc":"gb","latitude":51.509865,"longitude":-0.118092,"reserved":0,"last_update":"0001-01-01T00:00:00Z","name_a2s":"Uncletopia | London | 5 | All Maps","protocol":17,"map":"pl_upward","folder":"tf","game":"Team Fortress","app_id":440,"player_count":23,"max_players":24,"Bots":0,"server_type":"Dedicated","server_os":"Linux","password":true,"vac":true,"version":"7932396","steam_id":85568392924742829,"keywords":["nocrits","nodmgspread","payload","uncletopia"],"game_id":440,"stv_port":27056,"stv_name":"Uncletopia | London | 5 | All Maps | STV","players":[{"user_id":487,"name":"mohemmedmokhter2005","steam_id":76561199197650506,"connected_time":3531000000000,"state":"active","ping":106},{"user_id":525,"name":"going bananas","steam_id":76561199480942903,"connected_time":874000000000,"state":"active","ping":75},{"user_id":511,"name":"Udinese Dion","steam_id":76561198067931573,"connected_time":1672000000000,"state":"active","ping":56},{"user_id":474,"name":"N.M.E","steam_id":76561198012351470,"connected_time":4706000000000,"state":"active","ping":37},{"user_id":504,"name":"MK-Ultra Violence","steam_id":76561198081328238,"connected_time":2143000000000,"state":"active","ping":76},{"user_id":489,"name":"Fandovec03","steam_id":76561198252567650,"connected_time":3450000000000,"state":"active","ping":60},{"user_id":501,"name":"Appa","steam_id":76561198967570064,"connected_time":2385000000000,"state":"active","ping":156},{"user_id":514,"name":"Bobirulez","steam_id":76561198009125458,"connected_time":1641000000000,"state":"active","ping":69},{"user_id":515,"name":"‚ôÇ Dungeon Master ‚ôÇ","steam_id":76561198106441033,"connected_time":1638000000000,"state":"active","ping":97},{"user_id":490,"name":"glyph","steam_id":76561197980736364,"connected_time":3439000000000,"state":"active","ping":90},{"user_id":530,"name":"AndyChan_","steam_id":76561198875392592,"connected_time":409000000000,"state":"active","ping":130},{"user_id":506,"name":"Dog ?","steam_id":76561198347020945,"connected_time":2074000000000,"state":"active","ping":91},{"user_id":528,"name":"pyrogames","steam_id":76561198204620491,"connected_time":692000000000,"state":"active","ping":36},{"user_id":485,"name":"Will","steam_id":76561198173329977,"connected_time":3642000000000,"state":"active","ping":56},{"user_id":404,"name":"xTheDarkLight","steam_id":76561198239128298,"connected_time":9384000000000,"state":"active","ping":62},{"user_id":531,"name":"idenburg","steam_id":76561198063574956,"connected_time":218000000000,"state":"active","ping":48},{"user_id":529,"name":"MovingIsOverRated","steam_id":76561198385633292,"connected_time":434000000000,"state":"active","ping":177},{"user_id":503,"name":"Bagarre Zulu","steam_id":76561198040976484,"connected_time":2324000000000,"state":"active","ping":81},{"user_id":524,"name":"Ankle Dane","steam_id":76561198134378108,"connected_time":896000000000,"state":"active","ping":81},{"user_id":469,"name":"Valoxi","steam_id":76561197995042938,"connected_time":4842000000000,"state":"active","ping":66},{"user_id":527,"name":"lactose father","steam_id":76561199408853457,"connected_time":871000000000,"state":"active","ping":86},{"user_id":518,"name":"Larry Penus","steam_id":76561198207546233,"connected_time":1606000000000,"state":"active","ping":45},{"user_id":521,"name":"Osqq :s","steam_id":76561198075465106,"connected_time":1565000000000,"state":"active","ping":89}]},{"server_id":22,"name":"Uncletopia | London | 6 | All Maps","name_short":"lon-6","host":"lon-1.uk.uncletopia.com","port":27065,"enabled":true,"region":"eu","cc":"gb","latitude":51.509865,"longitude":-0.118092,"reserved":0,"last_update":"0001-01-01T00:00:00Z","name_a2s":"Uncletopia | London | 6 | All Maps","protocol":17,"map":"pl_rumford_event","folder":"tf","game":"Team Fortress","app_id":440,"player_count":23,"max_players":24,"Bots":0,"server_type":"Dedicated","server_os":"Linux","password":true,"vac":true,"version":"7932396","steam_id":85568392924742830,"keywords":["nocrits","nodmgspread","payload","uncletopia"],"game_id":440,"stv_port":27066,"stv_name":"Uncletopia | London | 6 | All Maps | STV","players":[{"user_id":381,"name":"Vershal Smershal","steam_id":76561198116223995,"connected_time":1735000000000,"state":"active","ping":54},{"user_id":409,"name":"Gen","steam_id":76561198021775885,"connected_time":523000000000,"state":"active","ping":45},{"user_id":360,"name":"Parmenides","steam_id":76561198079849761,"connected_time":2861000000000,"state":"active","ping":51},{"user_id":393,"name":"FishNachoz","steam_id":76561198026519426,"connected_time":880000000000,"state":"active","ping":51},{"user_id":406,"name":"8 Ball","steam_id":76561197960988736,"connected_time":559000000000,"state":"active","ping":45},{"user_id":371,"name":"killerdiam","steam_id":76561198806422317,"connected_time":2255000000000,"state":"active","ping":42},{"user_id":414,"name":"Lubrsi","steam_id":76561198040208195,"connected_time":349000000000,"state":"active","ping":51},{"user_id":380,"name":"xavier","steam_id":76561198076494034,"connected_time":1754000000000,"state":"active","ping":43},{"user_id":407,"name":"wal","steam_id":76561198066043883,"connected_time":558000000000,"state":"active","ping":48},{"user_id":401,"name":"Tort","steam_id":76561198329646769,"connected_time":612000000000,"state":"active","ping":55},{"user_id":408,"name":"Naix","steam_id":76561198053893077,"connected_time":530000000000,"state":"active","ping":54},{"user_id":377,"name":"kee.wun","steam_id":76561198025293098,"connected_time":1885000000000,"state":"active","ping":57},{"user_id":412,"name":"ThaumielAT","steam_id":76561199488559560,"connected_time":474000000000,"state":"active","ping":94},{"user_id":403,"name":"[T]aKer","steam_id":76561198001778013,"connected_time":595000000000,"state":"active","ping":46},{"user_id":410,"name":"Dylanxp300","steam_id":76561198271974937,"connected_time":509000000000,"state":"active","ping":132},{"user_id":404,"name":"UltraJacob2020","steam_id":76561198075083396,"connected_time":592000000000,"state":"active","ping":53},{"user_id":389,"name":"DR4GONF1RE_18","steam_id":76561198821717786,"connected_time":1173000000000,"state":"active","ping":82},{"user_id":357,"name":"Sir P. P. Cumsalot","steam_id":76561198006549800,"connected_time":3445000000000,"state":"active","ping":134},{"user_id":399,"name":"CrankShaft","steam_id":76561197970750813,"connected_time":644000000000,"state":"active","ping":122},{"user_id":398,"name":"Puss in Boots","steam_id":76561198211599767,"connected_time":755000000000,"state":"active","ping":51},{"user_id":413,"name":"Patriot Pills","steam_id":76561198381647349,"connected_time":463000000000,"state":"active","ping":162},{"user_id":411,"name":"Raine","steam_id":76561198072629555,"connected_time":487000000000,"state":"active","ping":53},{"user_id":387,"name":"Peep","steam_id":76561198132508552,"connected_time":1630000000000,"state":"active","ping":47}]},{"server_id":40,"name":"Uncletopia | London | 7 | No Payload","name_short":"lon-7","host":"lon-1.uk.uncletopia.com","port":27075,"enabled":true,"region":"eu","cc":"gb","latitude":51.509865,"longitude":-0.118092,"reserved":0,"last_update":"0001-01-01T00:00:00Z","name_a2s":"Uncletopia | London | 7 | No Payload","protocol":17,"map":"cp_altitude","folder":"tf","game":"Team Fortress","app_id":440,"player_count":4,"max_players":24,"Bots":0,"server_type":"Dedicated","server_os":"Linux","password":true,"vac":true,"version":"7932396","steam_id":85568392924964314,"keywords":["cp","nocrits","nodmgspread","uncletopia"],"game_id":440,"stv_port":27076,"stv_name":"Uncletopia | London | 7 | No Payload | STV","players":[{"user_id":747,"name":"AnalBypass1989","steam_id":76561198052356557,"connected_time":3431000000000,"state":"active","ping":74},{"user_id":771,"name":"Eidolon","steam_id":76561198043919565,"connected_time":1233000000000,"state":"active","ping":57},{"user_id":744,"name":"Hyper_Madness","steam_id":76561199401306942,"connected_time":3842000000000,"state":"active","ping":164},{"user_id":768,"name":"Government Hooker","steam_id":76561198005361358,"connected_time":1423000000000,"state":"active","ping":30}]},{"server_id":41,"name":"Uncletopia | London | 8 | Community","name_short":"lon-8","host":"lon-1.uk.uncletopia.com","port":27085,"enabled":true,"region":"eu","cc":"gb","latitude":51.509865,"longitude":-0.118092,"reserved":0,"last_update":"0001-01-01T00:00:00Z","name_a2s":"Uncletopia | London | 8 | Community","protocol":17,"map":"workshop/koth_synthetic_rc6a.ugc1549817316","folder":"tf","game":"Team Fortress","app_id":440,"player_count":0,"max_players":24,"Bots":0,"server_type":"Dedicated","server_os":"Linux","password":true,"vac":true,"version":"7932396","steam_id":85568392924964315,"keywords":["cp","nocrits","nodmgspread","uncletopia"],"game_id":440,"stv_port":27086,"stv_name":"Uncletopia | London | 8 | Community | STV","players":null},{"server_id":300,"name":"Uncletopia | Montr√©al | 1 | All Maps","name_short":"mtl-1","host":"mtl-1.ca.uncletopia.com","port":27015,"enabled":true,"region":"us-east","cc":"ca","latitude":45.50889,"longitude":-73.56167,"reserved":0,"last_update":"0001-01-01T00:00:00Z","name_a2s":"Uncletopia | Montr√©al | 1 | All Maps","protocol":17,"map":"pl_swiftwater_final1","folder":"tf","game":"Team Fortress","app_id":440,"player_count":0,"max_players":24,"Bots":0,"server_type":"Dedicated","server_os":"Linux","password":true,"vac":true,"version":"7932396","steam_id":85568392924500087,"keywords":["nocrits","nodmgspread","payload","uncletopia"],"game_id":440,"stv_port":27016,"stv_name":"Uncletopia | Montr√©al | 1 | All Maps | STV","players":null},{"server_id":301,"name":"Uncletopia | Montr√©al | 2 | All Maps","name_short":"mtl-2","host":"mtl-1.ca.uncletopia.com","port":27025,"enabled":true,"region":"us-east","cc":"ca","latitude":45.50889,"longitude":-73.56167,"reserved":0,"last_update":"0001-01-01T00:00:00Z","name_a2s":"Uncletopia | Montr√©al | 2 | All Maps","protocol":17,"map":"koth_lakeside_final","folder":"tf","game":"Team Fortress","app_id":440,"player_count":0,"max_players":24,"Bots":0,"server_type":"Dedicated","server_os":"Linux","password":true,"vac":true,"version":"7932396","steam_id":85568392924500088,"keywords":["cp","nocrits","nodmgspread","uncletopia"],"game_id":440,"stv_port":27026,"stv_name":"Uncletopia | Montr√©al | 2 | All Maps | STV","players":null},{"server_id":302,"name":"Uncletopia | Montr√©al | 3 | All Maps","name_short":"mtl-3","host":"mtl-1.ca.uncletopia.com","port":27035,"enabled":true,"region":"us-east","cc":"ca","latitude":45.50889,"longitude":-73.56167,"reserved":0,"last_update":"0001-01-01T00:00:00Z","name_a2s":"Uncletopia | Montr√©al | 3 | All Maps","protocol":17,"map":"cp_process_final","folder":"tf","game":"Team Fortress","app_id":440,"player_count":0,"max_players":24,"Bots":0,"server_type":"Dedicated","server_os":"Linux","password":true,"vac":true,"version":"7932396","steam_id":85568392924500089,"keywords":["cp","nocrits","nodmgspread","uncletopia"],"game_id":440,"stv_port":27036,"stv_name":"Uncletopia | Montr√©al | 3 | All Maps | STV","players":null},{"server_id":303,"name":"Uncletopia | Montr√©al | 4 | No Payload","name_short":"mtl-4","host":"mtl-1.ca.uncletopia.com","port":27045,"enabled":true,"region":"us-east","cc":"ca","latitude":45.50889,"longitude":-73.56167,"reserved":0,"last_update":"0001-01-01T00:00:00Z","name_a2s":"Uncletopia | Montr√©al | 4 | No Payload","protocol":17,"map":"koth_brazil","folder":"tf","game":"Team Fortress","app_id":440,"player_count":0,"max_players":24,"Bots":0,"server_type":"Dedicated","server_os":"Linux","password":true,"vac":true,"version":"7932396","steam_id":85568392924500090,"keywords":["cp","nocrits","nodmgspread","uncletopia"],"game_id":440,"stv_port":27046,"stv_name":"Uncletopia | Montr√©al | 4 | No Payload | STV","players":null},{"server_id":13,"name":"Uncletopia | New York City | 1 | All Maps","name_short":"nyc-1","host":"nyc-1.us.uncletopia.com","port":27015,"enabled":true,"region":"us-east","cc":"us","latitude":40.73061,"longitude":-73.93524,"reserved":0,"last_update":"0001-01-01T00:00:00Z","name_a2s":"Uncletopia | New York City | 1 | All Maps","protocol":17,"map":"pl_borneo","folder":"tf","game":"Team Fortress","app_id":440,"player_count":24,"max_players":24,"Bots":0,"server_type":"Dedicated","server_os":"Linux","password":true,"vac":true,"version":"7932396","steam_id":85568392924469993,"keywords":["nocrits","nodmgspread","payload","uncletopia"],"game_id":440,"stv_port":27016,"stv_name":"Uncletopia | New York City | 1 | All Maps | STV","players":[{"user_id":98,"name":"Walmart Employee","steam_id":76561198840373909,"connected_time":1035000000000,"state":"active","ping":97},{"user_id":101,"name":"Exio","steam_id":76561198218639325,"connected_time":915000000000,"state":"active","ping":65},{"user_id":63,"name":"Galactic Grass","steam_id":76561198097983927,"connected_time":4923000000000,"state":"active","ping":89},{"user_id":99,"name":"Broadway Rose","steam_id":76561198046083342,"connected_time":1032000000000,"state":"active","ping":38},{"user_id":108,"name":"Bee","steam_id":76561198074681324,"connected_time":23000000000,"state":"active","ping":46},{"user_id":90,"name":"SentiuntReus","steam_id":76561198208788677,"connected_time":2503000000000,"state":"active","ping":55},{"user_id":16,"name":"‚àáTEARS","steam_id":76561198740347952,"connected_time":7183000000000,"state":"active","ping":62},{"user_id":86,"name":"Siren","steam_id":76561198047395823,"connected_time":2878000000000,"state":"active","ping":92},{"user_id":100,"name":"helen keller","steam_id":76561197979870540,"connected_time":966000000000,"state":"active","ping":60},{"user_id":107,"name":"the pigeonkicker","steam_id":76561199078815637,"connected_time":169000000000,"state":"active","ping":58},{"user_id":93,"name":"Vibe Check","steam_id":76561198087326826,"connected_time":1061000000000,"state":"active","ping":66},{"user_id":95,"name":"TopHatWearingKoala","steam_id":76561198068192599,"connected_time":1058000000000,"state":"active","ping":72},{"user_id":61,"name":"Ôº¢ÔΩÅÔΩéÔΩÅÔΩéÔΩÅ Ôº´ÔΩïÔΩìÔΩà","steam_id":76561198144939374,"connected_time":5178000000000,"state":"active","ping":90},{"user_id":43,"name":"Al Cabone","steam_id":76561198956823243,"connected_time":6373000000000,"state":"active","ping":59},{"user_id":84,"name":"Nedia","steam_id":76561199483271655,"connected_time":3009000000000,"state":"active","ping":70},{"user_id":85,"name":"Keymaster","steam_id":76561198881514228,"connected_time":2936000000000,"state":"active","ping":62},{"user_id":44,"name":"GOLDIE","steam_id":76561199375258674,"connected_time":6327000000000,"state":"active","ping":109},{"user_id":102,"name":"State from Jake Farm","steam_id":76561199057309626,"connected_time":893000000000,"state":"active","ping":74},{"user_id":74,"name":"Porcupine's Revenge!","steam_id":76561199121615234,"connected_time":4033000000000,"state":"active","ping":41},{"user_id":81,"name":"com lag","steam_id":76561198019019392,"connected_time":3584000000000,"state":"active","ping":70},{"user_id":105,"name":"breathingtrees","steam_id":76561198118931690,"connected_time":575000000000,"state":"active","ping":52},{"user_id":38,"name":"acid","steam_id":76561198055855408,"connected_time":6620000000000,"state":"active","ping":62},{"user_id":106,"name":"cyberas","steam_id":76561198257092290,"connected_time":574000000000,"state":"active","ping":66},{"user_id":97,"name":"HeavyMettleDick","steam_id":76561198001925087,"connected_time":1056000000000,"state":"active","ping":85}]},{"server_id":14,"name":"Uncletopia | New York City | 2 | All Maps","name_short":"nyc-2","host":"nyc-1.us.uncletopia.com","port":27025,"enabled":true,"region":"us-east","cc":"us","latitude":40.73061,"longitude":-73.93524,"reserved":0,"last_update":"0001-01-01T00:00:00Z","name_a2s":"Uncletopia | New York City | 2 | All Maps","protocol":17,"map":"koth_lakeside_final","folder":"tf","game":"Team Fortress","app_id":440,"player_count":7,"max_players":24,"Bots":0,"server_type":"Dedicated","server_os":"Linux","password":true,"vac":true,"version":"7932396","steam_id":85568392924469994,"keywords":["cp","nocrits","nodmgspread","uncletopia"],"game_id":440,"stv_port":27026,"stv_name":"Uncletopia | New York City | 2 | All Maps | STV","players":[{"user_id":21,"name":"Everything personal mate","steam_id":76561198959653084,"connected_time":564000000000,"state":"active","ping":148},{"user_id":22,"name":"Fart_Scout_Main","steam_id":76561199121698622,"connected_time":520000000000,"state":"active","ping":145},{"user_id":27,"name":"Cube","steam_id":76561199021614213,"connected_time":52000000000,"state":"active","ping":151},{"user_id":24,"name":"Neltron","steam_id":76561199383809027,"connected_time":267000000000,"state":"active","ping":62},{"user_id":25,"name":"Ginger Jesus","steam_id":76561198052386458,"connected_time":212000000000,"state":"active","ping":32},{"user_id":26,"name":"PurpleProton","steam_id":76561198097403938,"connected_time":179000000000,"state":"active","ping":54},{"user_id":28,"name":"Jiggs","steam_id":76561198435222286,"connected_time":19000000000,"state":"spawning","ping":73}]},{"server_id":15,"name":"Uncletopia | New York City | 3 | Stopwatch Beta","name_short":"nyc-3","host":"nyc-1.us.uncletopia.com","port":27035,"enabled":true,"region":"us-east","cc":"us","latitude":40.73061,"longitude":-73.93524,"reserved":0,"last_update":"0001-01-01T00:00:00Z","name_a2s":"Uncletopia | New York City | 3 | Stopwatch Beta","protocol":17,"map":"cp_granary","folder":"tf","game":"Team Fortress","app_id":440,"player_count":0,"max_players":24,"Bots":0,"server_type":"Dedicated","server_os":"Linux","password":true,"vac":true,"version":"7932396","steam_id":85568392924742820,"keywords":["cp","nocrits","nodmgspread","uncletopia"],"game_id":440,"stv_port":27036,"stv_name":"Uncletopia | New York City | 3 | Stopwatch Beta | STV","players":null},{"server_id":16,"name":"Uncletopia | New York City | 4 | Community","name_short":"nyc-4","host":"nyc-1.us.uncletopia.com","port":27045,"enabled":true,"region":"us-east","cc":"us","latitude":40.73061,"longitude":-73.93524,"reserved":0,"last_update":"0001-01-01T00:00:00Z","name_a2s":"Uncletopia | New York City | 4 | Community","protocol":17,"map":"workshop/cp_bruhstbowl_b6.ugc2878604990","folder":"tf","game":"Team Fortress","app_id":440,"player_count":0,"max_players":24,"Bots":0,"server_type":"Dedicated","server_os":"Linux","password":true,"vac":true,"version":"7932396","steam_id":85568392924742821,"keywords":["cp","nocrits","nodmgspread","uncletopia"],"game_id":440,"stv_port":27046,"stv_name":"Uncletopia | New York City | 4 | Community | STV","players":null},{"server_id":142,"name":"Uncletopia | S√£o Paulo | 1 | All Maps","name_short":"sao-1","host":"sao-1.br.uncletopia.com","port":27015,"enabled":true,"region":"sa","cc":"br","latitude":-23.533773,"longitude":-46.62529,"reserved":0,"last_update":"0001-01-01T00:00:00Z","name_a2s":"Uncletopia | S√£o Paulo | 1 | All Maps","protocol":17,"map":"pl_snowycoast","folder":"tf","game":"Team Fortress","app_id":440,"player_count":0,"max_players":24,"Bots":0,"server_type":"Dedicated","server_os":"Linux","password":true,"vac":true,"version":"7932396","steam_id":85568392924469996,"keywords":["nocrits","nodmgspread","payload","uncletopia"],"game_id":440,"stv_port":27016,"stv_name":"Uncletopia | S√£o Paulo | 1 | All Maps | STV","players":null},{"server_id":143,"name":"Uncletopia | S√£o Paulo | 2 | All Maps","name_short":"sao-2","host":"sao-2.br.uncletopia.com","port":27015,"enabled":true,"region":"sa","cc":"br","latitude":-23.533773,"longitude":-46.62529,"reserved":0,"last_update":"0001-01-01T00:00:00Z","name_a2s":"Uncletopia | S√£o Paulo | 2 | All Maps","protocol":17,"map":"pl_swiftwater_final1","folder":"tf","game":"Team Fortress","app_id":440,"player_count":0,"max_players":24,"Bots":0,"server_type":"Dedicated","server_os":"Linux","password":true,"vac":true,"version":"7932396","steam_id":85568392924485349,"keywords":["nocrits","nodmgspread","payload","uncletopia"],"game_id":440,"stv_port":27016,"stv_name":"Uncletopia | S√£o Paulo | 2 | All Maps | STV","players":null},{"server_id":7,"name":"Uncletopia | Seattle | 1 | All Maps","name_short":"sea-1","host":"sea-1.us.uncletopia.com","port":27015,"enabled":true,"region":"us-west","cc":"us","latitude":47.608013,"longitude":-122.33517,"reserved":0,"last_update":"0001-01-01T00:00:00Z","name_a2s":"Uncletopia | Seattle | 1 | All Maps","protocol":17,"map":"cp_dustbowl","folder":"tf","game":"Team Fortress","app_id":440,"player_count":22,"max_players":24,"Bots":0,"server_type":"Dedicated","server_os":"Linux","password":true,"vac":true,"version":"7932396","steam_id":85568392924469997,"keywords":["cp","nocrits","nodmgspread","uncletopia"],"game_id":440,"stv_port":27016,"stv_name":"Uncletopia | Seattle | 1 | All Maps | STV","players":[{"user_id":403,"name":"PS2","steam_id":76561198108799902,"connected_time":2980000000000,"state":"active","ping":119},{"user_id":404,"name":"Xrath","steam_id":76561198220741860,"connected_time":2946000000000,"state":"active","ping":115},{"user_id":428,"name":"Vincent Van Bro","steam_id":76561197966919802,"connected_time":369000000000,"state":"active","ping":58},{"user_id":412,"name":"O","steam_id":76561198450073779,"connected_time":2233000000000,"state":"active","ping":52},{"user_id":436,"name":"Onepunchkid","steam_id":76561199235127610,"connected_time":23000000000,"state":"spawning","ping":63},{"user_id":415,"name":"jubanya","steam_id":76561198830921046,"connected_time":1628000000000,"state":"active","ping":107},{"user_id":409,"name":"Shark Sandwich","steam_id":76561198025007938,"connected_time":2291000000000,"state":"active","ping":56},{"user_id":435,"name":"ShadowNinja1246","steam_id":76561198828770220,"connected_time":125000000000,"state":"active","ping":61},{"user_id":402,"name":"SneakyJayMLP","steam_id":76561198969565685,"connected_time":3000000000000,"state":"active","ping":130},{"user_id":377,"name":"What are you doing?!","steam_id":76561198405248691,"connected_time":5197000000000,"state":"active","ping":75},{"user_id":422,"name":"OctraSource","steam_id":76561198193630455,"connected_time":953000000000,"state":"active","ping":101},{"user_id":386,"name":"Confirmed Bachelor","steam_id":76561198441041496,"connected_time":4207000000000,"state":"active","ping":55},{"user_id":429,"name":"cargo","steam_id":76561198965511236,"connected_time":352000000000,"state":"active","ping":75},{"user_id":433,"name":"Mormon Discoball","steam_id":76561198028006216,"connected_time":240000000000,"state":"active","ping":73},{"user_id":423,"name":"Moonlily","steam_id":76561198852670061,"connected_time":778000000000,"state":"active","ping":52},{"user_id":437,"name":"Carno","steam_id":76561198337613346,"connected_time":20000000000,"state":"spawning","ping":126},{"user_id":369,"name":"jacix3 [silly doggie :3]","steam_id":76561198205004165,"connected_time":6226000000000,"state":"active","ping":57},{"user_id":390,"name":"Dogg wader","steam_id":76561199090314340,"connected_time":3984000000000,"state":"active","ping":64},{"user_id":434,"name":"freedom staff","steam_id":76561199123218315,"connected_time":239000000000,"state":"active","ping":127},{"user_id":396,"name":"aisu","steam_id":76561198043768507,"connected_time":3310000000000,"state":"active","ping":88},{"user_id":427,"name":"Greskrendtregk","steam_id":76561197969553142,"connected_time":373000000000,"state":"active","ping":51},{"user_id":424,"name":"Daz","steam_id":76561198041431938,"connected_time":729000000000,"state":"active","ping":53}]},{"server_id":119,"name":"Uncletopia | Seattle | 2 | All Maps","name_short":"sea-2","host":"sea-1.us.uncletopia.com","port":27025,"enabled":true,"region":"us-west","cc":"us","latitude":47.608013,"longitude":-122.33517,"reserved":0,"last_update":"0001-01-01T00:00:00Z","name_a2s":"Uncletopia | Seattle | 2 | All Maps","protocol":17,"map":"cp_snakewater_final1","folder":"tf","game":"Team Fortress","app_id":440,"player_count":0,"max_players":24,"Bots":0,"server_type":"Dedicated","server_os":"Linux","password":true,"vac":true,"version":"7932396","steam_id":85568392924469998,"keywords":["cp","nocrits","nodmgspread","uncletopia"],"game_id":440,"stv_port":27026,"stv_name":"Uncletopia | Seattle | 2 | All Maps | STV","players":null},{"server_id":406,"name":"Uncletopia | Seattle | 3 | Stopwatch Beta","name_short":"sea-3","host":"sea-1.us.uncletopia.com","port":27035,"enabled":true,"region":"us-west","cc":"us","latitude":47.608013,"longitude":-122.33517,"reserved":0,"last_update":"0001-01-01T00:00:00Z","name_a2s":"Uncletopia | Seattle | 3 | Stopwatch Beta","protocol":17,"map":"workshop/koth_product_final.ugc454272353","folder":"tf","game":"Team Fortress","app_id":440,"player_count":0,"max_players":24,"Bots":0,"server_type":"Dedicated","server_os":"Linux","password":true,"vac":true,"version":"7932396","steam_id":85568392924515217,"keywords":["cp","nocrits","nodmgspread","uncletopia"],"game_id":440,"stv_port":27036,"stv_name":"Uncletopia | Seattle | 3 | Stopwatch Beta | STV","players":null},{"server_id":17,"name":"Uncletopia | San Francisco | 1 | All Maps","name_short":"sfo-1","host":"sfo-1.us.uncletopia.com","port":27015,"enabled":true,"region":"us-west","cc":"us","latitude":37.77397,"longitude":-122.4313,"reserved":0,"last_update":"0001-01-01T00:00:00Z","name_a2s":"Uncletopia | San Francisco | 1 | All Maps","protocol":17,"map":"koth_highpass","folder":"tf","game":"Team Fortress","app_id":440,"player_count":0,"max_players":24,"Bots":0,"server_type":"Dedicated","server_os":"Linux","password":true,"vac":true,"version":"7932396","steam_id":85568392924469999,"keywords":["cp","nocrits","nodmgspread","uncletopia"],"game_id":440,"stv_port":27016,"stv_name":"Uncletopia | San Francisco | 1 | All Maps | STV","players":null},{"server_id":18,"name":"Uncletopia | San Francisco | 2 | All Maps","name_short":"sfo-2","host":"sfo-1.us.uncletopia.com","port":27025,"enabled":true,"region":"us-west","cc":"us","latitude":37.77397,"longitude":-122.4313,"reserved":0,"last_update":"0001-01-01T00:00:00Z","name_a2s":"Uncletopia | San Francisco | 2 | All Maps","protocol":17,"map":"pl_barnblitz","folder":"tf","game":"Team Fortress","app_id":440,"player_count":0,"max_players":24,"Bots":0,"server_type":"Dedicated","server_os":"Linux","password":true,"vac":true,"version":"7932396","steam_id":85568392924470000,"keywords":["nocrits","nodmgspread","payload","uncletopia"],"game_id":440,"stv_port":27026,"stv_name":"Uncletopia | San Francisco | 2 | All Maps | STV","players":null},{"server_id":19,"name":"Uncletopia | San Francisco | 3 | Stopwatch Beta","name_short":"sfo-3","host":"sfo-1.us.uncletopia.com","port":27035,"enabled":true,"region":"us-west","cc":"us","latitude":37.77397,"longitude":-122.4313,"reserved":0,"last_update":"0001-01-01T00:00:00Z","name_a2s":"Uncletopia | San Francisco | 3 | Stopwatch Beta","protocol":17,"map":"pl_borneo","folder":"tf","game":"Team Fortress","app_id":440,"player_count":0,"max_players":24,"Bots":0,"server_type":"Dedicated","server_os":"Linux","password":true,"vac":true,"version":"7932396","steam_id":85568392924742824,"keywords":["nocrits","nodmgspread","payload","uncletopia"],"game_id":440,"stv_port":27036,"stv_name":"Uncletopia | San Francisco | 3 | Stopwatch Beta | STV","players":null},{"server_id":20,"name":"Uncletopia | San Francisco | 4 | Community","name_short":"sfo-4","host":"sfo-1.us.uncletopia.com","port":27045,"enabled":true,"region":"us-west","cc":"us","latitude":37.77397,"longitude":-122.4313,"reserved":0,"last_update":"0001-01-01T00:00:00Z","name_a2s":"Uncletopia | San Francisco | 4 | Community","protocol":17,"map":"workshop/cp_alloy_rc3.ugc592805587","folder":"tf","game":"Team Fortress","app_id":440,"player_count":0,"max_players":24,"Bots":0,"server_type":"Dedicated","server_os":"Linux","password":true,"vac":true,"version":"7932396","steam_id":85568392924742826,"keywords":["cp","nocrits","nodmgspread","uncletopia"],"game_id":440,"stv_port":27046,"stv_name":"Uncletopia | San Francisco | 4 | Community | STV","players":null},{"server_id":141,"name":"Uncletopia | Sydney | 1 | All Maps","name_short":"syd-1","host":"syd-1.au.uncletopia.com","port":27015,"enabled":true,"region":"au","cc":"au","latitude":-33.865143,"longitude":151.2099,"reserved":0,"last_update":"0001-01-01T00:00:00Z","name_a2s":"Uncletopia | Sydney | 1 | All Maps","protocol":17,"map":"pl_pier","folder":"tf","game":"Team Fortress","app_id":440,"player_count":0,"max_players":24,"Bots":0,"server_type":"Dedicated","server_os":"Linux","password":true,"vac":true,"version":"7932396","steam_id":85568392924470001,"keywords":["nocrits","nodmgspread","payload","uncletopia"],"game_id":440,"stv_port":27016,"stv_name":"Uncletopia | Sydney | 1 | All Maps | STV","players":null},{"server_id":123,"name":"Uncletopia | Sydney | 2 | All Maps","name_short":"syd-2","host":"syd-1.au.uncletopia.com","port":27025,"enabled":true,"region":"au","cc":"au","latitude":-33.865143,"longitude":151.2099,"reserved":0,"last_update":"0001-01-01T00:00:00Z","name_a2s":"Uncletopia | Sydney | 2 | All Maps","protocol":17,"map":"koth_lakeside_final","folder":"tf","game":"Team Fortress","app_id":440,"player_count":0,"max_players":24,"Bots":0,"server_type":"Dedicated","server_os":"Linux","password":true,"vac":true,"version":"7932396","steam_id":85568392924470002,"keywords":["cp","nocrits","nodmgspread","uncletopia"],"game_id":440,"stv_port":27026,"stv_name":"Uncletopia | Sydney | 2 | All Maps | STV","players":null},{"server_id":395,"name":"Uncletopia | Sydney | 3 | All Maps","name_short":"syd-3","host":"syd-1.au.uncletopia.com","port":27035,"enabled":true,"region":"au","cc":"au","latitude":-33.865143,"longitude":151.2099,"reserved":0,"last_update":"0001-01-01T00:00:00Z","name_a2s":"Uncletopia | Sydney | 3 | All Maps","protocol":17,"map":"pl_barnblitz","folder":"tf","game":"Team Fortress","app_id":440,"player_count":0,"max_players":24,"Bots":0,"server_type":"Dedicated","server_os":"Linux","password":true,"vac":true,"version":"7932396","steam_id":85568392925194467,"keywords":["nocrits","nodmgspread","payload","uncletopia"],"game_id":440,"stv_port":27036,"stv_name":"Uncletopia | Sydney | 3 | All Maps | STV","players":null},{"server_id":396,"name":"Uncletopia | Sydney | 4 | All Maps","name_short":"syd-4","host":"syd-1.au.uncletopia.com","port":27045,"enabled":true,"region":"au","cc":"au","latitude":-33.865143,"longitude":151.2099,"reserved":0,"last_update":"0001-01-01T00:00:00Z","name_a2s":"Uncletopia | Sydney | 4 | All Maps","protocol":17,"map":"pl_pier","folder":"tf","game":"Team Fortress","app_id":440,"player_count":0,"max_players":24,"Bots":0,"server_type":"Dedicated","server_os":"Linux","password":true,"vac":true,"version":"7932396","steam_id":85568392925397958,"keywords":["nocrits","nodmgspread","payload","uncletopia"],"game_id":440,"stv_port":27046,"stv_name":"Uncletopia | Sydney | 4 | All Maps | STV","players":null},{"server_id":58,"name":"Uncletopia | Sydney | 5 | Stopwatch Beta","name_short":"syd-5","host":"syd-1.au.uncletopia.com","port":27055,"enabled":true,"region":"au","cc":"au","latitude":-33.865143,"longitude":151.2099,"reserved":0,"last_update":"0001-01-01T00:00:00Z","name_a2s":"Uncletopia | Sydney | 5 | Stopwatch Beta","protocol":17,"map":"pl_borneo","folder":"tf","game":"Team Fortress","app_id":440,"player_count":0,"max_players":24,"Bots":0,"server_type":"Dedicated","server_os":"Linux","password":true,"vac":true,"version":"7932396","steam_id":85568392925397959,"keywords":["nocrits","nodmgspread","payload","uncletopia"],"game_id":440,"stv_port":27056,"stv_name":"Uncletopia | Sydney | 5 | Stopwatch Beta | STV","players":null},{"server_id":59,"name":"Uncletopia | Sydney | 6 | Community","name_short":"syd-6","host":"syd-1.au.uncletopia.com","port":27065,"enabled":true,"region":"au","cc":"au","latitude":-33.865143,"longitude":151.2099,"reserved":0,"last_update":"0001-01-01T00:00:00Z","name_a2s":"Uncletopia | Sydney | 6 | Community","protocol":17,"map":"pl_badwater","folder":"tf","game":"Team Fortress","app_id":440,"player_count":0,"max_players":24,"Bots":0,"server_type":"Dedicated","server_os":"Linux","password":true,"vac":true,"version":"7932396","steam_id":85568392925397960,"keywords":["nocrits","nodmgspread","payload","uncletopia"],"game_id":440,"stv_port":27066,"stv_name":"Uncletopia | Sydney | 6 | Community | STV","players":null},{"server_id":49,"name":"Uncletopia | Warsaw | 1 | All Maps","name_short":"waw-1","host":"waw-1.pl.uncletopia.com","port":27015,"enabled":true,"region":"eu","cc":"pl","latitude":52.2297,"longitude":21.017532,"reserved":0,"last_update":"0001-01-01T00:00:00Z","name_a2s":"","protocol":0,"map":"","folder":"","game":"","app_id":0,"player_count":0,"max_players":0,"Bots":0,"server_type":"","server_os":"","password":false,"vac":false,"version":"","steam_id":0,"keywords":null,"game_id":0,"stv_port":0,"stv_name":"","players":null},{"server_id":50,"name":"Uncletopia | Warsaw | 2 | All Maps","name_short":"waw-2","host":"waw-1.pl.uncletopia.com","port":27025,"enabled":true,"region":"eu","cc":"pl","latitude":52.2297,"longitude":21.017532,"reserved":0,"last_update":"0001-01-01T00:00:00Z","name_a2s":"Uncletopia | Warsaw | 2 | All Maps","protocol":17,"map":"cp_metalworks","folder":"tf","game":"Team Fortress","app_id":440,"player_count":0,"max_players":24,"Bots":0,"server_type":"Dedicated","server_os":"Linux","password":true,"vac":true,"version":"7932396","steam_id":85568392925397851,"keywords":["cp","nocrits","nodmgspread","uncletopia"],"game_id":440,"stv_port":27026,"stv_name":"Uncletopia | Warsaw | 2 | All Maps | STV","players":null},{"server_id":51,"name":"Uncletopia | Warsaw | 3 | All Maps","name_short":"waw-3","host":"waw-1.pl.uncletopia.com","port":27035,"enabled":true,"region":"eu","cc":"pl","latitude":52.2297,"longitude":21.017532,"reserved":0,"last_update":"0001-01-01T00:00:00Z","name_a2s":"Uncletopia | Warsaw | 3 | All Maps","protocol":17,"map":"cp_process_final","folder":"tf","game":"Team Fortress","app_id":440,"player_count":0,"max_players":24,"Bots":0,"server_type":"Dedicated","server_os":"Linux","password":true,"vac":true,"version":"7932396","steam_id":85568392925397852,"keywords":["cp","nocrits","nodmgspread","uncletopia"],"game_id":440,"stv_port":27036,"stv_name":"Uncletopia | Warsaw | 3 | All Maps | STV","players":null},{"server_id":52,"name":"Uncletopia | Warsaw | 4 | All Maps","name_short":"waw-4","host":"waw-1.pl.uncletopia.com","port":27045,"enabled":true,"region":"eu","cc":"pl","latitude":52.2297,"longitude":21.017532,"reserved":0,"last_update":"0001-01-01T00:00:00Z","name_a2s":"Uncletopia | Warsaw | 4 | All Maps","protocol":17,"map":"pl_barnblitz","folder":"tf","game":"Team Fortress","app_id":440,"player_count":0,"max_players":24,"Bots":0,"server_type":"Dedicated","server_os":"Linux","password":true,"vac":true,"version":"7932396","steam_id":85568392925397853,"keywords":["nocrits","nodmgspread","payload","uncletopia"],"game_id":440,"stv_port":27046,"stv_name":"Uncletopia | Warsaw | 4 | All Maps | STV","players":null},{"server_id":53,"name":"Uncletopia | Warsaw | 5 | Stopwatch Beta","name_short":"waw-5","host":"waw-1.pl.uncletopia.com","port":27055,"enabled":true,"region":"eu","cc":"pl","latitude":52.2297,"longitude":21.017532,"reserved":0,"last_update":"0001-01-01T00:00:00Z","name_a2s":"Uncletopia | Warsaw | 5 | Stopwatch Beta","protocol":17,"map":"workshop/koth_product_final.ugc454272353","folder":"tf","game":"Team Fortress","app_id":440,"player_count":0,"max_players":24,"Bots":0,"server_type":"Dedicated","server_os":"Linux","password":true,"vac":true,"version":"7932396","steam_id":85568392925397854,"keywords":["cp","nocrits","nodmgspread","uncletopia"],"game_id":440,"stv_port":27056,"stv_name":"Uncletopia | Warsaw | 5 | Stopwatch Beta | STV","players":null},{"server_id":54,"name":"Uncletopia | Warsaw | 6 | Community","name_short":"waw-6","host":"waw-1.pl.uncletopia.com","port":27065,"enabled":true,"region":"eu","cc":"pl","latitude":52.2297,"longitude":21.017532,"reserved":0,"last_update":"0001-01-01T00:00:00Z","name_a2s":"Uncletopia | Warsaw | 6 | Community","protocol":17,"map":"workshop/koth_product_final.ugc454272353","folder":"tf","game":"Team Fortress","app_id":440,"player_count":0,"max_players":24,"Bots":0,"server_type":"Dedicated","server_os":"Linux","password":true,"vac":true,"version":"7932396","steam_id":85568392925397856,"keywords":["cp","nocrits","nodmgspread","uncletopia"],"game_id":440,"stv_port":27066,"stv_name":"Uncletopia | Warsaw | 6 | Community | STV","players":null}]}