{"status":true,"message":"","result":[{"server_id":9,"name":"Uncletopia | Atlanta | 1 | All Maps","name_short":"atl-1","host":"atl-1.us.uncletopia.com","port":27015,"enabled":true,"region":"us-east","cc":"us","latitude":33.753746,"longitude":-84.38633,"reserved":0,"last_update":"0001-01-01T00:00:00Z","name_a2s":"Uncletopia | Atlanta | 1 | All Maps","protocol":17,"map":"pl_badwater","folder":"tf","game":"Team Fortress","app_id":440,"player_count":23,"max_players":24,"Bots":0,"server_type":"Dedicated","server_os":"Linux","password":true,"vac":true,"version":"7961495","steam_id":85568392924469982,"keywords":["nocrits","nodmgspread","payload","uncletopia"],"game_id":440,"stv_port":27016,"stv_name":"Uncletopia | Atlanta | 1 | All Maps | STV","players":[{"user_id":239,"name":"frank","steam_id":76561198137777483,"connected_time":1298000000000,"state":"active","ping":82},{"user_id":211,"name":"lu","steam_id":76561198080731872,"connected_time":3988000000000,"state":"active","ping":74},{"user_id":212,"name":"PinkLemonade","steam_id":76561198799286228,"connected_time":3455000000000,"state":"active","ping":66},{"user_id":223,"name":"e0e0","steam_id":76561198293839750,"connected_time":2382000000000,"state":"active","ping":63},{"user_id":196,"name":"lynt","steam_id":76561198988333976,"connected_time":4840000000000,"state":"active","ping":47},{"user_id":190,"name":"(∩'-´)⊃ Sapphic Lesbian Yu","steam_id":76561199500664171,"connected_time":5957000000000,"state":"active","ping":48},{"user_id":195,"name":"Immoral Boi","steam_id":76561198069551646,"connected_time":5253000000000,"state":"active","ping":59},{"user_id":219,"name":"Oopsie Daisy ❋","steam_id":76561198042144492,"connected_time":3053000000000,"state":"active","ping":45},{"user_id":228,"name":"Erchius (she/her)","steam_id":76561198256892300,"connected_time":1623000000000,"state":"active","ping":46},{"user_id":213,"name":"Nyle","steam_id":76561198045652639,"connected_time":3451000000000,"state":"active","ping":118},{"user_id":254,"name":"Oxygen User","steam_id":76561199111975528,"connected_time":701000000000,"state":"active","ping":60},{"user_id":240,"name":"Kuri","steam_id":76561199037050183,"connected_time":1226000000000,"state":"active","ping":84},{"user_id":255,"name":"SuperQuinnGame","steam_id":76561199090274835,"connected_time":512000000000,"state":"active","ping":121},{"user_id":202,"name":"Tmiracle","steam_id":76561198052375275,"connected_time":4255000000000,"state":"active","ping":113},{"user_id":229,"name":"krabby","steam_id":76561199072773402,"connected_time":1523000000000,"state":"active","ping":63},{"user_id":258,"name":"Tyco","steam_id":76561197978414167,"connected_time":181000000000,"state":"active","ping":59},{"user_id":225,"name":"Owtk","steam_id":76561198362380245,"connected_time":2131000000000,"state":"active","ping":167},{"user_id":227,"name":"Wingm4n","steam_id":76561198064127012,"connected_time":1674000000000,"state":"active","ping":47},{"user_id":203,"name":"Motreir","steam_id":76561198151717946,"connected_time":4245000000000,"state":"active","ping":85},{"user_id":241,"name":"Ashes!","steam_id":76561197998475441,"connected_time":1124000000000,"state":"active","ping":71},{"user_id":259,"name":"ar","steam_id":76561199223389284,"connected_time":169000000000,"state":"active","ping":76},{"user_id":238,"name":"andyiscolorless","steam_id":76561199239870921,"connected_time":1331000000000,"state":"active","ping":133},{"user_id":201,"name":"Frost ♥","steam_id":76561198168870617,"connected_time":4406000000000,"state":"active","ping":76}]},{"server_id":104,"name":"Uncletopia | Atlanta | 2 | All Maps","name_short":"atl-2","host":"atl-1.us.uncletopia.com","port":27025,"enabled":true,"region":"us-east","cc":"us","latitude":33.753746,"longitude":-84.38633,"reserved":0,"last_update":"0001-01-01T00:00:00Z","name_a2s":"Uncletopia | Atlanta | 2 | All Maps","protocol":17,"map":"pl_badwater","folder":"tf","game":"Team Fortress","app_id":440,"player_count":25,"max_players":24,"Bots":0,"server_type":"Dedicated","server_os":"Linux","password":true,"vac":true,"version":"7961495","steam_id":85568392924469983,"keywords":["nocrits","nodmgspread","payload","uncletopia"],"game_id":440,"stv_port":27026,"stv_name":"Uncletopia | Atlanta | 2 | All Maps | STV","players":[{"user_id":33,"name":"Peengus","steam_id":76561199091953940,"connected_time":5187000000000,"state":"active","ping":59},{"user_id":35,"name":"TheForgotenFaun","steam_id":76561199004700412,"connected_time":4892000000000,"state":"active","ping":96},{"user_id":100,"name":"atigdng","steam_id":76561199342154280,"connected_time":951000000000,"state":"active","ping":50},{"user_id":87,"name":"Some random dude","steam_id":76561199477705792,"connected_time":1849000000000,"state":"active","ping":92},{"user_id":80,"name":"tack","steam_id":76561198408477421,"connected_time":2516000000000,"state":"active","ping":70},{"user_id":44,"name":"Varie","steam_id":76561199454930210,"connected_time":4116000000000,"state":"active","ping":76},{"user_id":95,"name":"RedCo","steam_id":76561198335366889,"connected_time":1019000000000,"state":"active","ping":40},{"user_id":96,"name":"simply","steam_id":76561198215728721,"connected_time":1007000000000,"state":"active","ping":50},{"user_id":43,"name":"meep merp","steam_id":76561198012843005,"connected_time":4143000000000,"state":"active","ping":115},{"user_id":97,"name":"pafijohn","steam_id":76561198002535190,"connected_time":999000000000,"state":"active","ping":104},{"user_id":98,"name":"KBoneski ♡","steam_id":76561198307409065,"connected_time":980000000000,"state":"active","ping":68},{"user_id":118,"name":"Erez The Espeon","steam_id":76561198128155673,"connected_time":602000000000,"state":"active","ping":43},{"user_id":116,"name":"floppy muppet","steam_id":76561198003076261,"connected_time":677000000000,"state":"active","ping":69},{"user_id":68,"name":"Knockonwood0","steam_id":76561198062635137,"connected_time":3451000000000,"state":"active","ping":89},{"user_id":91,"name":"mz.maggie4","steam_id":76561198866614956,"connected_time":1439000000000,"state":"active","ping":50},{"user_id":88,"name":"Lee?","steam_id":76561199060892634,"connected_time":1720000000000,"state":"active","ping":64},{"user_id":55,"name":"HOG         RIDER","steam_id":76561198040787741,"connected_time":3856000000000,"state":"active","ping":65},{"user_id":56,"name":"lucin","steam_id":76561198258062078,"connected_time":3838000000000,"state":"active","ping":60},{"user_id":60,"name":"King","steam_id":76561198039763676,"connected_time":3765000000000,"state":"active","ping":58},{"user_id":90,"name":"minecraft","steam_id":76561198104345201,"connected_time":1457000000000,"state":"active","ping":64},{"user_id":127,"name":"Dr. Virus","steam_id":76561198045723452,"connected_time":373000000000,"state":"active","ping":55},{"user_id":63,"name":"Spring Beans","steam_id":76561197978546259,"connected_time":3663000000000,"state":"active","ping":59},{"user_id":66,"name":"Mervis","steam_id":76561198018237537,"connected_time":3610000000000,"state":"active","ping":63},{"user_id":93,"name":"kalesalad","steam_id":76561198202339421,"connected_time":1118000000000,"state":"active","ping":95},{"user_id":148,"name":"GLG.Liz","steam_id":76561198021957956,"connected_time":12000000000,"state":"spawning","ping":103}]},{"server_id":400,"name":"Uncletopia | Atlanta | 3 | Stopwatch","name_short":"atl-3","host":"atl-1.us.uncletopia.com","port":27035,"enabled":true,"region":"us-east","cc":"us","latitude":33.753746,"longitude":-84.38633,"reserved":0,"last_update":"0001-01-01T00:00:00Z","name_a2s":"Uncletopia | Atlanta | 3 | Stopwatch","protocol":17,"map":"workshop/koth_product_final.ugc454272353","folder":"tf","game":"Team Fortress","app_id":440,"player_count":0,"max_players":24,"Bots":0,"server_type":"Dedicated","server_os":"Linux","password":true,"vac":true,"version":"7961495","steam_id":85568392924515187,"keywords":["cp","nocrits","nodmgspread","uncletopia"],"game_id":440,"stv_port":27036,"stv_name":"Uncletopia | Atlanta | 3 | Stopwatch | STV","players":null},{"server_id":401,"name":"Uncletopia | Atlanta | 4 | Community","name_short":"atl-4","host":"atl-1.us.uncletopia.com","port":27045,"enabled":true,"region":"us-east","cc":"us","latitude":33.753746,"longitude":-84.38633,"reserved":0,"last_update":"0001-01-01T00:00:00Z","name_a2s":"Uncletopia | Atlanta | 4 | Community","protocol":17,"map":"workshop/cp_glassworks_rc7a.ugc454118349","folder":"tf","game":"Team Fortress","app_id":440,"player_count":0,"max_players":24,"Bots":0,"server_type":"Dedicated","server_os":"Linux","password":true,"vac":true,"version":"7961495","steam_id":85568392924515188,"keywords":["cp","nocrits","nodmgspread","uncletopia"],"game_id":440,"stv_port":27046,"stv_name":"Uncletopia | Atlanta | 4 | Community | STV","players":null},{"server_id":2,"name":"Uncletopia | Chicago | 1 | All Maps","name_short":"chi-1","host":"chi-1.us.uncletopia.com","port":27015,"enabled":true,"region":"us-central","cc":"us","latitude":41.881832,"longitude":-87.62318,"reserved":0,"last_update":"0001-01-01T00:00:00Z","name_a2s":"Uncletopia | Chicago | 1 | All Maps","protocol":17,"map":"pl_swiftwater_final1","folder":"tf","game":"Team Fortress","app_id":440,"player_count":24,"max_players":24,"Bots":0,"server_type":"Dedicated","server_os":"Linux","password":true,"vac":true,"version":"7961495","steam_id":85568392924469984,"keywords":["nocrits","nodmgspread","payload","uncletopia"],"game_id":440,"stv_port":27016,"stv_name":"Uncletopia | Chicago | 1 | All Maps | STV","players":[{"user_id":273,"name":"kermitcreeper(ZAZA)","steam_id":76561199222829972,"connected_time":1380000000000,"state":"active","ping":52},{"user_id":257,"name":"None of that $9.99 bullshit","steam_id":76561198116169903,"connected_time":3005000000000,"state":"active","ping":46},{"user_id":244,"name":"Vorco","steam_id":76561197996937734,"connected_time":4247000000000,"state":"active","ping":64},{"user_id":291,"name":"kite","steam_id":76561198346516392,"connected_time":23000000000,"state":"active","ping":64},{"user_id":267,"name":"subdromeda","steam_id":76561198884351860,"connected_time":1782000000000,"state":"active","ping":60},{"user_id":288,"name":"Chadmander","steam_id":76561197974136337,"connected_time":465000000000,"state":"active","ping":37},{"user_id":283,"name":"colorblindwizardlvl5","steam_id":76561199208988804,"connected_time":733000000000,"state":"active","ping":46},{"user_id":249,"name":"Kitt(eh)  ∑:3","steam_id":76561198110858518,"connected_time":3603000000000,"state":"active","ping":66},{"user_id":286,"name":"Terry Crews from Brooklyn 99","steam_id":76561198357806819,"connected_time":541000000000,"state":"active","ping":77},{"user_id":274,"name":"Satchamo","steam_id":76561198012968239,"connected_time":1190000000000,"state":"active","ping":70},{"user_id":237,"name":"crushy spike ceiling","steam_id":76561198241793002,"connected_time":4479000000000,"state":"active","ping":52},{"user_id":256,"name":"Lia_Rein TTV","steam_id":76561198151569597,"connected_time":3031000000000,"state":"active","ping":144},{"user_id":255,"name":"dantheman","steam_id":76561199486390813,"connected_time":3053000000000,"state":"active","ping":78},{"user_id":239,"name":"chen","steam_id":76561198064872330,"connected_time":4438000000000,"state":"active","ping":93},{"user_id":290,"name":"Capt. Dominator","steam_id":76561197961154630,"connected_time":165000000000,"state":"active","ping":67},{"user_id":285,"name":"green bean","steam_id":76561198113099204,"connected_time":680000000000,"state":"active","ping":80},{"user_id":280,"name":"MaDeuce","steam_id":76561198110732835,"connected_time":782000000000,"state":"active","ping":125},{"user_id":281,"name":"Orange Triangle","steam_id":76561198320498182,"connected_time":750000000000,"state":"active","ping":45},{"user_id":270,"name":"DeepLarkem","steam_id":76561198823247730,"connected_time":1607000000000,"state":"active","ping":107},{"user_id":287,"name":"Rukks","steam_id":76561197993918954,"connected_time":500000000000,"state":"active","ping":91},{"user_id":289,"name":"Ninety","steam_id":76561198114257183,"connected_time":390000000000,"state":"active","ping":51},{"user_id":284,"name":"Wayan","steam_id":76561198354695464,"connected_time":705000000000,"state":"active","ping":59},{"user_id":266,"name":"Stacks63bs","steam_id":76561198067797130,"connected_time":1817000000000,"state":"active","ping":70},{"user_id":272,"name":"Iceflame","steam_id":76561198067164658,"connected_time":1478000000000,"state":"active","ping":74}]},{"server_id":106,"name":"Uncletopia | Chicago | 2 | All Maps","name_short":"chi-2","host":"chi-1.us.uncletopia.com","port":27025,"enabled":true,"region":"us-central","cc":"us","latitude":41.881832,"longitude":-87.62318,"reserved":0,"last_update":"0001-01-01T00:00:00Z","name_a2s":"Uncletopia | Chicago | 2 | All Maps","protocol":17,"map":"pl_barnblitz","folder":"tf","game":"Team Fortress","app_id":440,"player_count":24,"max_players":24,"Bots":0,"server_type":"Dedicated","server_os":"Linux","password":true,"vac":true,"version":"7961495","steam_id":85568392924469985,"keywords":["nocrits","nodmgspread","payload","uncletopia"],"game_id":440,"stv_port":27026,"stv_name":"Uncletopia | Chicago | 2 | All Maps | STV","players":[{"user_id":163,"name":"SirCleric","steam_id":76561198353556457,"connected_time":943000000000,"state":"active","ping":65},{"user_id":130,"name":"rstrom","steam_id":76561197961225022,"connected_time":2420000000000,"state":"active","ping":64},{"user_id":161,"name":"Lord.nata69","steam_id":76561198239933094,"connected_time":1010000000000,"state":"active","ping":46},{"user_id":159,"name":"SPYCHECK ME","steam_id":76561198980994364,"connected_time":1308000000000,"state":"active","ping":88},{"user_id":162,"name":"Blaze","steam_id":76561198043797702,"connected_time":993000000000,"state":"active","ping":48},{"user_id":175,"name":"1989 Mazda RX-7 FC3S","steam_id":76561198436383373,"connected_time":19000000000,"state":"spawning","ping":141},{"user_id":164,"name":"Cam","steam_id":76561198139174433,"connected_time":919000000000,"state":"active","ping":88},{"user_id":131,"name":"msands","steam_id":76561198968244574,"connected_time":2415000000000,"state":"active","ping":52},{"user_id":132,"name":"I'm a Fungi","steam_id":76561198061507741,"connected_time":2392000000000,"state":"active","ping":48},{"user_id":166,"name":"6 abs","steam_id":76561198048220355,"connected_time":869000000000,"state":"active","ping":95},{"user_id":103,"name":"ahem?","steam_id":76561198420227358,"connected_time":6750000000000,"state":"active","ping":76},{"user_id":134,"name":"MedRed™ #IATAH","steam_id":76561198002962970,"connected_time":2329000000000,"state":"active","ping":100},{"user_id":135,"name":"BiggFoot","steam_id":76561197998605599,"connected_time":2325000000000,"state":"active","ping":66},{"user_id":173,"name":"SWISS!","steam_id":76561198271971252,"connected_time":663000000000,"state":"active","ping":75},{"user_id":121,"name":"Draekonik","steam_id":76561198327492856,"connected_time":4140000000000,"state":"active","ping":64},{"user_id":138,"name":"HollowMajin","steam_id":76561198122399227,"connected_time":2256000000000,"state":"active","ping":52},{"user_id":144,"name":"Toottoot","steam_id":76561197992404836,"connected_time":1954000000000,"state":"active","ping":39},{"user_id":105,"name":"brisky","steam_id":76561198869675719,"connected_time":6346000000000,"state":"active","ping":73},{"user_id":167,"name":"Dance4gravy","steam_id":76561198007325113,"connected_time":845000000000,"state":"active","ping":58},{"user_id":174,"name":"TheoLynwood","steam_id":76561198079596878,"connected_time":195000000000,"state":"active","ping":56},{"user_id":169,"name":"DanielGarka","steam_id":76561198302972656,"connected_time":828000000000,"state":"active","ping":147},{"user_id":149,"name":"Spyfall","steam_id":76561198081729993,"connected_time":1925000000000,"state":"active","ping":54},{"user_id":152,"name":"No, this is Patrick","steam_id":76561198058776774,"connected_time":1909000000000,"state":"active","ping":47},{"user_id":171,"name":"Ozald","steam_id":76561199092019322,"connected_time":817000000000,"state":"active","ping":76}]},{"server_id":402,"name":"Uncletopia | Chicago | 3 | All Maps","name_short":"chi-3","host":"chi-1.us.uncletopia.com","port":27035,"enabled":true,"region":"us-central","cc":"us","latitude":41.881832,"longitude":-87.62318,"reserved":0,"last_update":"0001-01-01T00:00:00Z","name_a2s":"Uncletopia | Chicago | 3 | All Maps","protocol":17,"map":"pl_pier","folder":"tf","game":"Team Fortress","app_id":440,"player_count":24,"max_players":24,"Bots":0,"server_type":"Dedicated","server_os":"Linux","password":true,"vac":true,"version":"7961495","steam_id":85568392924515191,"keywords":["nocrits","nodmgspread","payload","uncletopia"],"game_id":440,"stv_port":27036,"stv_name":"Uncletopia | Chicago | 3 | All Maps | STV","players":[{"user_id":151,"name":"Wikki94","steam_id":76561198002259122,"connected_time":289000000000,"state":"active","ping":102},{"user_id":147,"name":"Goober","steam_id":76561198105930089,"connected_time":811000000000,"state":"active","ping":73},{"user_id":73,"name":"The World's Softest Sandwich","steam_id":76561198015577707,"connected_time":5390000000000,"state":"active","ping":83},{"user_id":102,"name":"Fresh Lychee","steam_id":76561198045399559,"connected_time":3275000000000,"state":"active","ping":56},{"user_id":116,"name":"vom","steam_id":76561198070311363,"connected_time":2919000000000,"state":"active","ping":59},{"user_id":103,"name":"wendigo","steam_id":76561197994528974,"connected_time":3233000000000,"state":"active","ping":87},{"user_id":145,"name":"Civokat","steam_id":76561198389885427,"connected_time":1172000000000,"state":"active","ping":105},{"user_id":149,"name":"poopybutt420","steam_id":76561199000805315,"connected_time":609000000000,"state":"active","ping":86},{"user_id":130,"name":"jr933368","steam_id":76561199507931052,"connected_time":1779000000000,"state":"active","ping":104},{"user_id":144,"name":"Wild_Rumpus","steam_id":76561198066393719,"connected_time":1267000000000,"state":"active","ping":52},{"user_id":131,"name":"kjc105","steam_id":76561198880364422,"connected_time":1763000000000,"state":"active","ping":63},{"user_id":143,"name":"Poppet","steam_id":76561198012301951,"connected_time":1354000000000,"state":"active","ping":69},{"user_id":59,"name":"Mint Jelly","steam_id":76561197991286751,"connected_time":6421000000000,"state":"active","ping":46},{"user_id":146,"name":"bane","steam_id":76561198196769297,"connected_time":1015000000000,"state":"active","ping":59},{"user_id":137,"name":"aphexjh","steam_id":76561197985854658,"connected_time":1482000000000,"state":"active","ping":45},{"user_id":93,"name":"Daehypeels","steam_id":76561198268981599,"connected_time":3978000000000,"state":"active","ping":52},{"user_id":128,"name":"Mocha","steam_id":76561198368999744,"connected_time":1854000000000,"state":"active","ping":64},{"user_id":107,"name":"The CEO of cement","steam_id":76561199107177460,"connected_time":3109000000000,"state":"active","ping":90},{"user_id":84,"name":"ZBaldTop","steam_id":76561199396318132,"connected_time":4442000000000,"state":"active","ping":59},{"user_id":150,"name":"SwauseTV","steam_id":76561198119679320,"connected_time":578000000000,"state":"active","ping":59},{"user_id":138,"name":"templeoftoke420","steam_id":76561198000300472,"connected_time":1469000000000,"state":"active","ping":56},{"user_id":148,"name":"the sledgehammer train","steam_id":76561198053967778,"connected_time":773000000000,"state":"active","ping":64},{"user_id":134,"name":"FlameShake","steam_id":76561198084021005,"connected_time":1664000000000,"state":"active","ping":66},{"user_id":135,"name":"The Idiot","steam_id":76561198049837377,"connected_time":1661000000000,"state":"active","ping":53}]},{"server_id":403,"name":"Uncletopia | Chicago | 4 | All Maps","name_short":"chi-4","host":"chi-1.us.uncletopia.com","port":27045,"enabled":true,"region":"us-central","cc":"us","latitude":41.881832,"longitude":-87.62318,"reserved":0,"last_update":"0001-01-01T00:00:00Z","name_a2s":"Uncletopia | Chicago | 4 | All Maps","protocol":17,"map":"pl_barnblitz","folder":"tf","game":"Team Fortress","app_id":440,"player_count":1,"max_players":24,"Bots":0,"server_type":"Dedicated","server_os":"Linux","password":true,"vac":true,"version":"7961495","steam_id":85568392924515193,"keywords":["nocrits","nodmgspread","payload","uncletopia"],"game_id":440,"stv_port":27046,"stv_name":"Uncletopia | Chicago | 4 | All Maps | STV","players":[{"user_id":13,"name":"Blade Racer","steam_id":76561198155896703,"connected_time":15000000000,"state":"active","ping":63}]},{"server_id":36,"name":"Uncletopia | Chicago | 5 | All Maps","name_short":"chi-5","host":"chi-2.us.uncletopia.com","port":27015,"enabled":true,"region":"us-central","cc":"us","latitude":41.881832,"longitude":-87.62318,"reserved":0,"last_update":"0001-01-01T00:00:00Z","name_a2s":"Uncletopia | Chicago | 5 | All Maps","protocol":17,"map":"pl_borneo","folder":"tf","game":"Team Fortress","app_id":440,"player_count":24,"max_players":24,"Bots":0,"server_type":"Dedicated","server_os":"Linux","password":true,"vac":true,"version":"7961495","steam_id":85568392924866362,"keywords":["nocrits","nodmgspread","payload","uncletopia"],"game_id":440,"stv_port":27016,"stv_name":"Uncletopia | Chicago | 5 | All Maps | STV","players":[{"user_id":250,"name":"Ratlympics Gold Medalist","steam_id":76561198064981004,"connected_time":2863000000000,"state":"active","ping":56},{"user_id":291,"name":"Sean","steam_id":76561198892489967,"connected_time":203000000000,"state":"active","ping":74},{"user_id":277,"name":"Rhutebeer","steam_id":76561198018302761,"connected_time":1499000000000,"state":"active","ping":93},{"user_id":294,"name":"chilis baby back ribs","steam_id":76561198813516435,"connected_time":60000000000,"state":"active","ping":102},{"user_id":262,"name":"The All-Seeing Tim","steam_id":76561198075510786,"connected_time":2124000000000,"state":"active","ping":68},{"user_id":227,"name":"caleb","steam_id":76561198119306966,"connected_time":4571000000000,"state":"active","ping":112},{"user_id":253,"name":"E4Estrogen","steam_id":76561198085813708,"connected_time":2333000000000,"state":"active","ping":60},{"user_id":233,"name":"dadgummit","steam_id":76561198005806915,"connected_time":4278000000000,"state":"active","ping":65},{"user_id":263,"name":"Sneed-poster","steam_id":76561198206198937,"connected_time":2106000000000,"state":"active","ping":63},{"user_id":286,"name":"Career","steam_id":76561198028542212,"connected_time":794000000000,"state":"active","ping":76},{"user_id":290,"name":"astrobob911","steam_id":76561199099110654,"connected_time":300000000000,"state":"active","ping":71},{"user_id":280,"name":"Sunflower","steam_id":76561198081223793,"connected_time":1153000000000,"state":"active","ping":52},{"user_id":224,"name":"josh","steam_id":76561198092176972,"connected_time":4703000000000,"state":"active","ping":76},{"user_id":270,"name":"RollingCow","steam_id":76561198067114237,"connected_time":1893000000000,"state":"active","ping":78},{"user_id":289,"name":"CLASHER WIZ","steam_id":76561198079026982,"connected_time":335000000000,"state":"active","ping":92},{"user_id":293,"name":"...","steam_id":76561198054390505,"connected_time":144000000000,"state":"active","ping":46},{"user_id":273,"name":"not a good idea","steam_id":76561198032259680,"connected_time":1678000000000,"state":"active","ping":77},{"user_id":274,"name":"Green Icicle","steam_id":76561198069624529,"connected_time":1642000000000,"state":"active","ping":76},{"user_id":287,"name":"FlareAethyr_","steam_id":76561198104793402,"connected_time":474000000000,"state":"active","ping":53},{"user_id":285,"name":"supreme champion","steam_id":76561198072112905,"connected_time":831000000000,"state":"active","ping":65},{"user_id":282,"name":"StretchySnail59","steam_id":76561198073535005,"connected_time":1027000000000,"state":"active","ping":56},{"user_id":232,"name":"Master Of Whales","steam_id":76561198349104889,"connected_time":4451000000000,"state":"active","ping":97},{"user_id":269,"name":"gatorbelt","steam_id":76561198145784505,"connected_time":1951000000000,"state":"active","ping":106},{"user_id":267,"name":"on my backup mouse","steam_id":76561198072179483,"connected_time":2068000000000,"state":"active","ping":97}]},{"server_id":37,"name":"Uncletopia | Chicago | 6 | All Maps","name_short":"chi-6","host":"chi-2.us.uncletopia.com","port":27025,"enabled":true,"region":"us-central","cc":"us","latitude":41.881832,"longitude":-87.62318,"reserved":0,"last_update":"0001-01-01T00:00:00Z","name_a2s":"Uncletopia | Chicago | 6 | All Maps","protocol":17,"map":"cp_sunshine","folder":"tf","game":"Team Fortress","app_id":440,"player_count":24,"max_players":24,"Bots":0,"server_type":"Dedicated","server_os":"Linux","password":true,"vac":true,"version":"7961495","steam_id":85568392924866363,"keywords":["cp","nocrits","nodmgspread","uncletopia"],"game_id":440,"stv_port":27026,"stv_name":"Uncletopia | Chicago | 6 | All Maps | STV","players":[{"user_id":406,"name":"Mad Villain Sultan","steam_id":76561198447852406,"connected_time":1245000000000,"state":"active","ping":70},{"user_id":410,"name":"Moonlighter","steam_id":76561198325526945,"connected_time":1111000000000,"state":"active","ping":54},{"user_id":425,"name":"terrapieseven","steam_id":76561198072062415,"connected_time":181000000000,"state":"active","ping":87},{"user_id":405,"name":"Scuba Steve","steam_id":76561198313018251,"connected_time":1308000000000,"state":"active","ping":74},{"user_id":415,"name":"the","steam_id":76561198016826181,"connected_time":971000000000,"state":"active","ping":72},{"user_id":409,"name":"101_the_Robot","steam_id":76561198331039848,"connected_time":1220000000000,"state":"active","ping":86},{"user_id":383,"name":"Cbv isifjfofienentlgod","steam_id":76561198304661367,"connected_time":2770000000000,"state":"active","ping":72},{"user_id":423,"name":"nhbiker","steam_id":76561198081277675,"connected_time":301000000000,"state":"active","ping":60},{"user_id":424,"name":"emerge","steam_id":76561198186882891,"connected_time":285000000000,"state":"active","ping":66},{"user_id":399,"name":"That's So Raven! [Dexgod]","steam_id":76561198017130786,"connected_time":2034000000000,"state":"active","ping":64},{"user_id":386,"name":"Hawkborne","steam_id":76561198107249245,"connected_time":2720000000000,"state":"active","ping":66},{"user_id":354,"name":"Earballs","steam_id":76561198002601490,"connected_time":3614000000000,"state":"active","ping":48},{"user_id":421,"name":"Hertz","steam_id":76561198245322982,"connected_time":408000000000,"state":"active","ping":51},{"user_id":419,"name":"yourlocalforecast","steam_id":76561198042243083,"connected_time":791000000000,"state":"active","ping":74},{"user_id":426,"name":"Kedata","steam_id":76561198047750050,"connected_time":176000000000,"state":"active","ping":45},{"user_id":331,"name":"gregor","steam_id":76561198057076267,"connected_time":4945000000000,"state":"active","ping":78},{"user_id":413,"name":"Elizabeth_TBL","steam_id":76561198201807437,"connected_time":1016000000000,"state":"active","ping":183},{"user_id":389,"name":"heavy weapons guy","steam_id":76561198272972548,"connected_time":2700000000000,"state":"active","ping":124},{"user_id":414,"name":"GruntRule","steam_id":76561198039987143,"connected_time":984000000000,"state":"active","ping":74},{"user_id":416,"name":"azufelt","steam_id":76561199259331226,"connected_time":949000000000,"state":"active","ping":60},{"user_id":422,"name":"Rawhide Kobayashi","steam_id":76561198067051062,"connected_time":393000000000,"state":"active","ping":44},{"user_id":417,"name":"MoistyS0ck","steam_id":76561198978135009,"connected_time":948000000000,"state":"active","ping":64},{"user_id":370,"name":"YOU WHAT?!","steam_id":76561198418679471,"connected_time":3379000000000,"state":"active","ping":60},{"user_id":418,"name":"Elon Tusk","steam_id":76561198977359400,"connected_time":946000000000,"state":"active","ping":61}]},{"server_id":38,"name":"Uncletopia | Chicago | 7 | Stopwatch","name_short":"chi-7","host":"chi-2.us.uncletopia.com","port":27035,"enabled":true,"region":"us-central","cc":"us","latitude":41.881832,"longitude":-87.62318,"reserved":0,"last_update":"0001-01-01T00:00:00Z","name_a2s":"Uncletopia | Chicago | 7 | Stopwatch","protocol":17,"map":"pl_borneo","folder":"tf","game":"Team Fortress","app_id":440,"player_count":0,"max_players":24,"Bots":0,"server_type":"Dedicated","server_os":"Linux","password":true,"vac":true,"version":"7961495","steam_id":85568392924866364,"keywords":["nocrits","nodmgspread","payload","uncletopia"],"game_id":440,"stv_port":27036,"stv_name":"Uncletopia | Chicago | 7 | Stopwatch | STV","players":null},{"server_id":39,"name":"Uncletopia | Chicago | 8 | Community","name_short":"chi-8","host":"chi-2.us.uncletopia.com","port":27045,"enabled":true,"region":"us-central","cc":"us","latitude":41.881832,"longitude":-87.62318,"reserved":0,"last_update":"0001-01-01T00:00:00Z","name_a2s":"Uncletopia | Chicago | 8 | Community","protocol":17,"map":"workshop/koth_slaughter_rc1.ugc1712845210","folder":"tf","game":"Team Fortress","app_id":440,"player_count":0,"max_players":24,"Bots":0,"server_type":"Dedicated","server_os":"Linux","password":true,"vac":true,"version":"7961495","steam_id":85568392924866365,"keywords":["cp","nocrits","nodmgspread","uncletopia"],"game_id":440,"stv_port":27046,"stv_name":"Uncletopia | Chicago | 8 | Community | STV","players":null},{"server_id":8,"name":"Uncletopia | Dallas | 1 | All Maps","name_short":"dal-1","host":"dal-1.us.uncletopia.com","port":27015,"enabled":true,"region":"us-central","cc":"us","latitude":32.779167,"longitude":-96.80889,"reserved":0,"last_update":"0001-01-01T00:00:00Z","name_a2s":"Uncletopia | Dallas | 1 | All Maps","protocol":17,"map":"pl_upward","folder":"tf","game":"Team Fortress","app_id":440,"player_count":24,"max_players":24,"Bots":0,"server_type":"Dedicated","server_os":"Linux","password":true,"vac":true,"version":"7961495","steam_id":85568392924469986,"keywords":["nocrits","nodmgspread","payload","uncletopia"],"game_id":440,"stv_port":27016,"stv_name":"Uncletopia | Dallas | 1 | All Maps | STV","players":[{"user_id":12,"name":"DoctorZer0","steam_id":76561199109330187,"connected_time":4148000000000,"state":"active","ping":70},{"user_id":13,"name":"Dot-JASON","steam_id":76561198990298757,"connected_time":4124000000000,"state":"active","ping":84},{"user_id":25,"name":"Trash Rat","steam_id":76561199439460519,"connected_time":1309000000000,"state":"active","ping":78},{"user_id":50,"name":"Tinkertacos","steam_id":76561199145815798,"connected_time":433000000000,"state":"active","ping":38},{"user_id":33,"name":"Imanub","steam_id":76561199004541513,"connected_time":965000000000,"state":"active","ping":86},{"user_id":27,"name":"Lolxdloldx","steam_id":76561198136887125,"connected_time":1274000000000,"state":"active","ping":78},{"user_id":23,"name":"Chicken_Teriyaki","steam_id":76561199387433577,"connected_time":1464000000000,"state":"active","ping":48},{"user_id":30,"name":"cremeoner","steam_id":76561198372332251,"connected_time":1048000000000,"state":"active","ping":76},{"user_id":36,"name":"Crazy Dave!","steam_id":76561198951414566,"connected_time":757000000000,"state":"active","ping":86},{"user_id":52,"name":"Tired°","steam_id":76561198072620682,"connected_time":424000000000,"state":"active","ping":90},{"user_id":34,"name":"Sprite Enjoyer","steam_id":76561199371277079,"connected_time":869000000000,"state":"active","ping":75},{"user_id":49,"name":"crouch2004","steam_id":76561198085429828,"connected_time":448000000000,"state":"active","ping":92},{"user_id":38,"name":"yerky","steam_id":76561198370431307,"connected_time":690000000000,"state":"active","ping":76},{"user_id":42,"name":"baja blast in stores june 1st","steam_id":76561198132803810,"connected_time":559000000000,"state":"active","ping":61},{"user_id":43,"name":"baseba8311","steam_id":76561198327711144,"connected_time":552000000000,"state":"active","ping":97},{"user_id":44,"name":"sim0n","steam_id":76561198198137847,"connected_time":546000000000,"state":"active","ping":89},{"user_id":45,"name":"manbug","steam_id":76561198169219561,"connected_time":545000000000,"state":"active","ping":74},{"user_id":46,"name":"Lain","steam_id":76561198029303534,"connected_time":530000000000,"state":"active","ping":71},{"user_id":53,"name":"QuesaDiaz","steam_id":76561198355667850,"connected_time":417000000000,"state":"active","ping":79},{"user_id":54,"name":"The True Novice","steam_id":76561198049248309,"connected_time":397000000000,"state":"active","ping":46},{"user_id":60,"name":"Lord Scrubling","steam_id":76561198263744445,"connected_time":39000000000,"state":"active","ping":52},{"user_id":56,"name":"engineer gaming","steam_id":76561198035341418,"connected_time":312000000000,"state":"active","ping":84},{"user_id":59,"name":"Bottom Trans Cowgirl","steam_id":76561198304239680,"connected_time":167000000000,"state":"active","ping":76}]},{"server_id":108,"name":"Uncletopia | Dallas | 2 | All Maps","name_short":"dal-2","host":"dal-1.us.uncletopia.com","port":27025,"enabled":true,"region":"us-central","cc":"us","latitude":32.779167,"longitude":-96.80889,"reserved":0,"last_update":"0001-01-01T00:00:00Z","name_a2s":"Uncletopia | Dallas | 2 | All Maps","protocol":17,"map":"cp_dustbowl","folder":"tf","game":"Team Fortress","app_id":440,"player_count":24,"max_players":24,"Bots":0,"server_type":"Dedicated","server_os":"Linux","password":true,"vac":true,"version":"7961495","steam_id":85568392924469988,"keywords":["cp","nocrits","nodmgspread","uncletopia"],"game_id":440,"stv_port":27026,"stv_name":"Uncletopia | Dallas | 2 | All Maps | STV","players":[{"user_id":57,"name":"Sam","steam_id":76561198012364798,"connected_time":3698000000000,"state":"active","ping":74},{"user_id":101,"name":"what the fuck is an adverb","steam_id":76561199026721822,"connected_time":131000000000,"state":"active","ping":85},{"user_id":87,"name":"♥ STEE ♥","steam_id":76561198030495003,"connected_time":1323000000000,"state":"active","ping":63},{"user_id":82,"name":"Wounded","steam_id":76561199440954924,"connected_time":1815000000000,"state":"active","ping":100},{"user_id":55,"name":"The Sydney Sleeper Itself","steam_id":76561198180251763,"connected_time":3831000000000,"state":"active","ping":45},{"user_id":89,"name":"Sex Monster","steam_id":76561199426920744,"connected_time":1290000000000,"state":"active","ping":199},{"user_id":81,"name":"L-","steam_id":76561198046074220,"connected_time":1856000000000,"state":"active","ping":77},{"user_id":61,"name":"info","steam_id":76561198119354946,"connected_time":3579000000000,"state":"active","ping":159},{"user_id":104,"name":"Commissar","steam_id":76561198137223253,"connected_time":65000000000,"state":"active","ping":52},{"user_id":103,"name":"pyrotechnic","steam_id":76561198043558709,"connected_time":70000000000,"state":"active","ping":98},{"user_id":20,"name":"\u003c3","steam_id":76561198196829267,"connected_time":5276000000000,"state":"active","ping":77},{"user_id":92,"name":"what da tuna","steam_id":76561199204728099,"connected_time":1249000000000,"state":"active","ping":59},{"user_id":62,"name":"Lylith!!!","steam_id":76561198386687546,"connected_time":3571000000000,"state":"active","ping":69},{"user_id":102,"name":"Vibin","steam_id":76561199259591944,"connected_time":116000000000,"state":"active","ping":89},{"user_id":94,"name":"Coke","steam_id":76561199083035892,"connected_time":1205000000000,"state":"active","ping":74},{"user_id":63,"name":"Yoru","steam_id":76561198119698950,"connected_time":3415000000000,"state":"active","ping":124},{"user_id":100,"name":"An Engineer","steam_id":76561198110381643,"connected_time":310000000000,"state":"active","ping":48},{"user_id":98,"name":"TheSausageSwiper","steam_id":76561198972869845,"connected_time":450000000000,"state":"active","ping":119},{"user_id":77,"name":"Sucsubot","steam_id":76561198106456128,"connected_time":2400000000000,"state":"active","ping":75},{"user_id":105,"name":"Proplayer3185","steam_id":76561198802781989,"connected_time":10000000000,"state":"spawning","ping":73},{"user_id":56,"name":"dog","steam_id":76561198263873491,"connected_time":3817000000000,"state":"active","ping":61},{"user_id":93,"name":"HaloStarz","steam_id":76561199221412803,"connected_time":1213000000000,"state":"active","ping":110},{"user_id":79,"name":"Joejee","steam_id":76561199122423976,"connected_time":2294000000000,"state":"active","ping":160},{"user_id":95,"name":"ono","steam_id":76561198024377986,"connected_time":1197000000000,"state":"active","ping":77}]},{"server_id":404,"name":"Uncletopia | Dallas | 3 | All Maps","name_short":"dal-3","host":"dal-1.us.uncletopia.com","port":27035,"enabled":true,"region":"us-central","cc":"us","latitude":32.779167,"longitude":-96.80889,"reserved":0,"last_update":"0001-01-01T00:00:00Z","name_a2s":"Uncletopia | Dallas | 3 | All Maps","protocol":17,"map":"cp_sunshine","folder":"tf","game":"Team Fortress","app_id":440,"player_count":0,"max_players":24,"Bots":0,"server_type":"Dedicated","server_os":"Linux","password":true,"vac":true,"version":"7961495","steam_id":85568392924515219,"keywords":["cp","nocrits","nodmgspread","uncletopia"],"game_id":440,"stv_port":27036,"stv_name":"Uncletopia | Dallas | 3 | All Maps | STV","players":null},{"server_id":405,"name":"Uncletopia | Dallas | 4 | Community","name_short":"dal-4","host":"dal-1.us.uncletopia.com","port":27045,"enabled":true,"region":"us-central","cc":"us","latitude":32.779167,"longitude":-96.80889,"reserved":0,"last_update":"0001-01-01T00:00:00Z","name_a2s":"Uncletopia | Dallas | 4 | Community","protocol":17,"map":"workshop/koth_synthetic_rc6a.ugc1549817316","folder":"tf","game":"Team Fortress","app_id":440,"player_count":0,"max_players":24,"Bots":0,"server_type":"Dedicated","server_os":"Linux","password":true,"vac":true,"version":"7961495","steam_id":85568392924515220,"keywords":["cp","nocrits","nodmgspread","uncletopia"],"game_id":440,"stv_port":27046,"stv_name":"Uncletopia | Dallas | 4 | Community | STV","players":null},{"server_id":5,"name":"Uncletopia | Frankfurt | 1 | All Maps","name_short":"frk-1","host":"frk-1.de.uncletopia.com","port":27015,"enabled":true,"region":"eu","cc":"de","latitude":50.110924,"longitude":8.682127,"reserved":0,"last_update":"0001-01-01T00:00:00Z","name_a2s":"Uncletopia | Frankfurt | 1 | All Maps","protocol":17,"map":"pl_frontier_final","folder":"tf","game":"Team Fortress","app_id":440,"player_count":22,"max_players":24,"Bots":0,"server_type":"Dedicated","server_os":"Linux","password":true,"vac":true,"version":"7961495","steam_id":85568392924469989,"keywords":["nocrits","nodmgspread","payload","uncletopia"],"game_id":440,"stv_port":27016,"stv_name":"Uncletopia | Frankfurt | 1 | All Maps | STV","players":[{"user_id":603,"name":"noah","steam_id":76561198099457089,"connected_time":655000000000,"state":"active","ping":79},{"user_id":598,"name":"compact disc","steam_id":76561198154677956,"connected_time":750000000000,"state":"active","ping":60},{"user_id":604,"name":"TonyGappa","steam_id":76561197969011707,"connected_time":617000000000,"state":"active","ping":45},{"user_id":589,"name":"Lowqualitybeans","steam_id":76561198069405114,"connected_time":1690000000000,"state":"active","ping":60},{"user_id":562,"name":"KaasKrans","steam_id":76561198240451972,"connected_time":2766000000000,"state":"active","ping":48},{"user_id":574,"name":"PENGUN","steam_id":76561199015156956,"connected_time":2493000000000,"state":"active","ping":99},{"user_id":585,"name":"dop","steam_id":76561199043447608,"connected_time":1767000000000,"state":"active","ping":126},{"user_id":593,"name":"ko","steam_id":76561198010098129,"connected_time":1303000000000,"state":"active","ping":58},{"user_id":581,"name":"Inžinerijos vadybininkas","steam_id":76561199036432051,"connected_time":1891000000000,"state":"active","ping":68},{"user_id":597,"name":"Archbishop of Banterbury","steam_id":76561198274438729,"connected_time":794000000000,"state":"active","ping":50},{"user_id":595,"name":"Skeletros","steam_id":76561198130969152,"connected_time":1088000000000,"state":"active","ping":126},{"user_id":570,"name":"dwarf man","steam_id":76561199501952182,"connected_time":2684000000000,"state":"active","ping":67},{"user_id":552,"name":"Unemployed Gaming","steam_id":76561198982674420,"connected_time":3533000000000,"state":"active","ping":66},{"user_id":566,"name":"netWauzi","steam_id":76561198007229483,"connected_time":2719000000000,"state":"active","ping":46},{"user_id":605,"name":"Gangwolf","steam_id":76561198043868575,"connected_time":597000000000,"state":"active","ping":50},{"user_id":599,"name":"SoaCrow","steam_id":76561198069420717,"connected_time":736000000000,"state":"active","ping":52},{"user_id":584,"name":"swag messiah","steam_id":76561199171950648,"connected_time":1846000000000,"state":"active","ping":101},{"user_id":601,"name":"blazeeight","steam_id":76561198159456502,"connected_time":694000000000,"state":"active","ping":64},{"user_id":602,"name":"Ptahotep","steam_id":76561198008708645,"connected_time":688000000000,"state":"active","ping":45},{"user_id":606,"name":"Mr. Cheesey","steam_id":76561198153462183,"connected_time":570000000000,"state":"active","ping":153},{"user_id":614,"name":"zdr","steam_id":76561198191074514,"connected_time":166000000000,"state":"active","ping":64},{"user_id":616,"name":"Volter","steam_id":76561198190304115,"connected_time":165000000000,"state":"active","ping":75}]},{"server_id":110,"name":"Uncletopia | Frankfurt | 2 | All Maps","name_short":"frk-2","host":"frk-1.de.uncletopia.com","port":27025,"enabled":true,"region":"eu","cc":"de","latitude":50.110924,"longitude":8.682127,"reserved":0,"last_update":"0001-01-01T00:00:00Z","name_a2s":"Uncletopia | Frankfurt | 2 | All Maps","protocol":17,"map":"cp_sunshine","folder":"tf","game":"Team Fortress","app_id":440,"player_count":24,"max_players":24,"Bots":0,"server_type":"Dedicated","server_os":"Linux","password":true,"vac":true,"version":"7961495","steam_id":85568392924469990,"keywords":["cp","nocrits","nodmgspread","uncletopia"],"game_id":440,"stv_port":27026,"stv_name":"Uncletopia | Frankfurt | 2 | All Maps | STV","players":[{"user_id":528,"name":"galaxy","steam_id":76561198164819022,"connected_time":914000000000,"state":"active","ping":53},{"user_id":502,"name":"Vershal Smershal","steam_id":76561198116223995,"connected_time":2220000000000,"state":"active","ping":59},{"user_id":487,"name":"Sippie","steam_id":76561198130393388,"connected_time":3722000000000,"state":"active","ping":58},{"user_id":537,"name":"Civilian","steam_id":76561199217529645,"connected_time":112000000000,"state":"active","ping":84},{"user_id":529,"name":"General Grievous","steam_id":76561198087800030,"connected_time":891000000000,"state":"active","ping":45},{"user_id":519,"name":"Domcxz","steam_id":76561198291703984,"connected_time":1402000000000,"state":"active","ping":60},{"user_id":520,"name":"totis","steam_id":76561198968410569,"connected_time":1386000000000,"state":"active","ping":95},{"user_id":464,"name":"JohnTraveltime","steam_id":76561199244281754,"connected_time":5093000000000,"state":"active","ping":57},{"user_id":521,"name":"一龙马","steam_id":76561198364121077,"connected_time":1376000000000,"state":"active","ping":73},{"user_id":499,"name":"Leviticus Cornwall","steam_id":76561197993702685,"connected_time":2253000000000,"state":"active","ping":82},{"user_id":479,"name":"✪Beer☭","steam_id":76561198129884760,"connected_time":3974000000000,"state":"active","ping":67},{"user_id":522,"name":"emer","steam_id":76561198001420975,"connected_time":1371000000000,"state":"active","ping":107},{"user_id":538,"name":"Lorenzo Lovers","steam_id":76561198073973581,"connected_time":104000000000,"state":"active","ping":81},{"user_id":535,"name":"jovi_","steam_id":76561198449280552,"connected_time":265000000000,"state":"active","ping":63},{"user_id":493,"name":"Fucking_Scum","steam_id":76561198413973533,"connected_time":3300000000000,"state":"active","ping":62},{"user_id":495,"name":"gagalak","steam_id":76561198089979108,"connected_time":2836000000000,"state":"active","ping":116},{"user_id":534,"name":"Bobirulez","steam_id":76561198009125458,"connected_time":416000000000,"state":"active","ping":74},{"user_id":507,"name":"Egor Pomidor","steam_id":76561199175688390,"connected_time":2162000000000,"state":"active","ping":75},{"user_id":532,"name":"Georman Forge","steam_id":76561198256504605,"connected_time":466000000000,"state":"active","ping":49},{"user_id":515,"name":"Lyncurion","steam_id":76561199260022725,"connected_time":1811000000000,"state":"active","ping":68},{"user_id":518,"name":"cuddles","steam_id":76561198805181599,"connected_time":1414000000000,"state":"active","ping":67},{"user_id":386,"name":"orange","steam_id":76561198153181940,"connected_time":9399000000000,"state":"active","ping":66},{"user_id":539,"name":"CiVillain","steam_id":76561198059617732,"connected_time":66000000000,"state":"active","ping":60},{"user_id":527,"name":"Mr. Hunts","steam_id":76561197981910397,"connected_time":1133000000000,"state":"active","ping":73}]},{"server_id":308,"name":"Uncletopia | Frankfurt | 3 | All Maps","name_short":"frk-3","host":"frk-1.de.uncletopia.com","port":27035,"enabled":true,"region":"eu","cc":"de","latitude":50.110924,"longitude":8.682127,"reserved":0,"last_update":"0001-01-01T00:00:00Z","name_a2s":"Uncletopia | Frankfurt | 3 | All Maps","protocol":17,"map":"pl_barnblitz","folder":"tf","game":"Team Fortress","app_id":440,"player_count":24,"max_players":24,"Bots":0,"server_type":"Dedicated","server_os":"Linux","password":true,"vac":true,"version":"7961495","steam_id":85568392924504274,"keywords":["nocrits","nodmgspread","payload","uncletopia"],"game_id":440,"stv_port":27036,"stv_name":"Uncletopia | Frankfurt | 3 | All Maps | STV","players":[{"user_id":316,"name":"glyph","steam_id":76561197980736364,"connected_time":154000000000,"state":"active","ping":76},{"user_id":293,"name":"Xoriss","steam_id":76561198045892147,"connected_time":1275000000000,"state":"active","ping":72},{"user_id":290,"name":"_Chelik_","steam_id":76561199076069284,"connected_time":1424000000000,"state":"active","ping":123},{"user_id":317,"name":"The_W@rden","steam_id":76561198869898598,"connected_time":140000000000,"state":"active","ping":150},{"user_id":315,"name":"bolszewicka kurwa","steam_id":76561199203687925,"connected_time":171000000000,"state":"active","ping":74},{"user_id":314,"name":"Davido01","steam_id":76561198089406245,"connected_time":187000000000,"state":"active","ping":55},{"user_id":240,"name":"Efeca","steam_id":76561198018923829,"connected_time":5524000000000,"state":"active","ping":64},{"user_id":302,"name":"iirvas","steam_id":76561198095979063,"connected_time":644000000000,"state":"active","ping":68},{"user_id":291,"name":"joachym","steam_id":76561198428579761,"connected_time":1411000000000,"state":"active","ping":56},{"user_id":277,"name":"AzureTestament","steam_id":76561198147007440,"connected_time":2175000000000,"state":"active","ping":79},{"user_id":313,"name":"Stranger","steam_id":76561198099440793,"connected_time":231000000000,"state":"active","ping":72},{"user_id":256,"name":"aisu","steam_id":76561198043768507,"connected_time":3828000000000,"state":"active","ping":178},{"user_id":311,"name":"cof","steam_id":76561199128417805,"connected_time":357000000000,"state":"active","ping":59},{"user_id":304,"name":"blurst of times","steam_id":76561197972325640,"connected_time":633000000000,"state":"active","ping":51},{"user_id":305,"name":"Five Finger Discount","steam_id":76561197994556857,"connected_time":626000000000,"state":"active","ping":63},{"user_id":284,"name":"MR BUBBLES","steam_id":76561198019005259,"connected_time":2098000000000,"state":"active","ping":91},{"user_id":275,"name":"Mr.Shpee","steam_id":76561198158701474,"connected_time":2232000000000,"state":"active","ping":75},{"user_id":306,"name":"Speggs","steam_id":76561198258554274,"connected_time":602000000000,"state":"active","ping":84},{"user_id":297,"name":"Dark","steam_id":76561199162752036,"connected_time":824000000000,"state":"active","ping":58},{"user_id":312,"name":"KittyKate ❤","steam_id":76561198116340817,"connected_time":310000000000,"state":"active","ping":64},{"user_id":296,"name":"cop killer","steam_id":76561198039966198,"connected_time":837000000000,"state":"active","ping":66},{"user_id":287,"name":"Hellheim_Prime","steam_id":76561198379799377,"connected_time":1852000000000,"state":"active","ping":93},{"user_id":295,"name":"IxTrex","steam_id":76561198069231001,"connected_time":883000000000,"state":"active","ping":46},{"user_id":308,"name":"Danne :)","steam_id":76561198162213905,"connected_time":583000000000,"state":"active","ping":66}]},{"server_id":309,"name":"Uncletopia | Frankfurt | 4 | All Maps","name_short":"frk-4","host":"frk-1.de.uncletopia.com","port":27045,"enabled":true,"region":"eu","cc":"de","latitude":50.110924,"longitude":8.682127,"reserved":0,"last_update":"0001-01-01T00:00:00Z","name_a2s":"Uncletopia | Frankfurt | 4 | All Maps","protocol":17,"map":"pl_upward","folder":"tf","game":"Team Fortress","app_id":440,"player_count":24,"max_players":24,"Bots":0,"server_type":"Dedicated","server_os":"Linux","password":true,"vac":true,"version":"7961495","steam_id":85568392924504275,"keywords":["nocrits","nodmgspread","payload","uncletopia"],"game_id":440,"stv_port":27046,"stv_name":"Uncletopia | Frankfurt | 4 | All Maps | STV","players":[{"user_id":415,"name":"Skyrider of Spaceways","steam_id":76561197991678236,"connected_time":3516000000000,"state":"active","ping":135},{"user_id":448,"name":"Mr. Voice","steam_id":76561198121649244,"connected_time":1690000000000,"state":"active","ping":45},{"user_id":455,"name":"kelm","steam_id":76561198027166144,"connected_time":1266000000000,"state":"active","ping":81},{"user_id":418,"name":"JustItalianHam","steam_id":76561198202237959,"connected_time":3366000000000,"state":"active","ping":72},{"user_id":423,"name":"Hexagon","steam_id":76561198151205758,"connected_time":3190000000000,"state":"active","ping":58},{"user_id":441,"name":"alfus","steam_id":76561198071003109,"connected_time":2207000000000,"state":"active","ping":59},{"user_id":420,"name":"Retz","steam_id":76561198252830166,"connected_time":3283000000000,"state":"active","ping":70},{"user_id":459,"name":"Not A Fake Uncletopia Server","steam_id":76561198152871288,"connected_time":998000000000,"state":"active","ping":65},{"user_id":454,"name":"hmm yes","steam_id":76561198170322809,"connected_time":1319000000000,"state":"active","ping":47},{"user_id":424,"name":"[aiming with a tablet] FLXY","steam_id":76561198254679263,"connected_time":3164000000000,"state":"active","ping":54},{"user_id":469,"name":"Chappi","steam_id":76561198075512843,"connected_time":341000000000,"state":"active","ping":79},{"user_id":468,"name":"NALA","steam_id":76561198039806469,"connected_time":361000000000,"state":"active","ping":71},{"user_id":443,"name":"Falafel","steam_id":76561198043344845,"connected_time":2194000000000,"state":"active","ping":58},{"user_id":463,"name":"Violent_Raccoons","steam_id":76561199006002337,"connected_time":461000000000,"state":"active","ping":59},{"user_id":464,"name":"kluri","steam_id":76561198084518962,"connected_time":452000000000,"state":"active","ping":71},{"user_id":467,"name":"Techpriest Mosk","steam_id":76561198808788406,"connected_time":385000000000,"state":"active","ping":74},{"user_id":435,"name":"Bread","steam_id":76561198040142466,"connected_time":2829000000000,"state":"active","ping":81},{"user_id":446,"name":"KEYMASTER","steam_id":76561199053214638,"connected_time":1981000000000,"state":"active","ping":69},{"user_id":430,"name":"BLÅHAJ","steam_id":76561199353672293,"connected_time":3132000000000,"state":"active","ping":73},{"user_id":414,"name":"snake","steam_id":76561198077822932,"connected_time":3668000000000,"state":"active","ping":57},{"user_id":431,"name":"Nick","steam_id":76561198036109469,"connected_time":3130000000000,"state":"active","ping":78},{"user_id":432,"name":"loli generator","steam_id":76561198279621400,"connected_time":3111000000000,"state":"active","ping":108},{"user_id":452,"name":"Qwaden","steam_id":76561198881784698,"connected_time":1490000000000,"state":"active","ping":68},{"user_id":457,"name":"Demo Sharpe","steam_id":76561198261001389,"connected_time":1158000000000,"state":"active","ping":46}]},{"server_id":310,"name":"Uncletopia | Frankfurt | 5 | All Maps","name_short":"frk-5","host":"frk-1.de.uncletopia.com","port":27055,"enabled":true,"region":"eu","cc":"de","latitude":50.110924,"longitude":8.682127,"reserved":0,"last_update":"0001-01-01T00:00:00Z","name_a2s":"Uncletopia | Frankfurt | 5 | All Maps","protocol":17,"map":"cp_freight_final1","folder":"tf","game":"Team Fortress","app_id":440,"player_count":24,"max_players":24,"Bots":0,"server_type":"Dedicated","server_os":"Linux","password":true,"vac":true,"version":"7961495","steam_id":85568392924504277,"keywords":["cp","nocrits","nodmgspread","uncletopia"],"game_id":440,"stv_port":27056,"stv_name":"Uncletopia | Frankfurt | 5 | All Maps | STV","players":[{"user_id":418,"name":"Rimx","steam_id":76561198053034840,"connected_time":2141000000000,"state":"active","ping":76},{"user_id":455,"name":"R","steam_id":76561198025434244,"connected_time":73000000000,"state":"active","ping":59},{"user_id":449,"name":"Tails8521","steam_id":76561198051747164,"connected_time":357000000000,"state":"active","ping":59},{"user_id":394,"name":"Ransu","steam_id":76561198211750823,"connected_time":3631000000000,"state":"active","ping":78},{"user_id":367,"name":"Nejt","steam_id":76561199264515158,"connected_time":5469000000000,"state":"active","ping":53},{"user_id":443,"name":"Ardello","steam_id":76561198864484125,"connected_time":661000000000,"state":"active","ping":82},{"user_id":451,"name":"Соляной хаск","steam_id":76561198181087086,"connected_time":271000000000,"state":"active","ping":112},{"user_id":438,"name":"TheMightyJar","steam_id":76561198273041041,"connected_time":816000000000,"state":"active","ping":53},{"user_id":452,"name":"Padd","steam_id":76561198345331768,"connected_time":262000000000,"state":"active","ping":61},{"user_id":427,"name":"monky","steam_id":76561198262152748,"connected_time":1440000000000,"state":"active","ping":59},{"user_id":458,"name":"PROFILE NAME","steam_id":76561198180056982,"connected_time":15000000000,"state":"active","ping":70},{"user_id":445,"name":"install gentoo","steam_id":76561198185257982,"connected_time":601000000000,"state":"active","ping":78},{"user_id":444,"name":"Jesus","steam_id":76561198055998828,"connected_time":655000000000,"state":"active","ping":49},{"user_id":437,"name":"Frazzle","steam_id":76561198262577951,"connected_time":829000000000,"state":"active","ping":75},{"user_id":448,"name":"Sandvich","steam_id":76561199079493666,"connected_time":479000000000,"state":"active","ping":76},{"user_id":356,"name":"lugi","steam_id":76561198026903673,"connected_time":6158000000000,"state":"active","ping":55},{"user_id":456,"name":"virgin gaming","steam_id":76561199038154024,"connected_time":33000000000,"state":"active","ping":86},{"user_id":417,"name":"Toasty5050","steam_id":76561198073540881,"connected_time":2279000000000,"state":"active","ping":44},{"user_id":453,"name":"Glada Snickaren","steam_id":76561198019037458,"connected_time":232000000000,"state":"active","ping":60},{"user_id":376,"name":"tired","steam_id":76561198046838168,"connected_time":5258000000000,"state":"active","ping":45},{"user_id":454,"name":"P","steam_id":76561198399390201,"connected_time":186000000000,"state":"active","ping":80},{"user_id":410,"name":"Kriofty","steam_id":76561198811696536,"connected_time":3045000000000,"state":"active","ping":90},{"user_id":457,"name":"★poyo★","steam_id":76561198150078959,"connected_time":29000000000,"state":"spawning","ping":78},{"user_id":414,"name":"Flarp von Karma","steam_id":76561198043855292,"connected_time":2648000000000,"state":"active","ping":59}]},{"server_id":311,"name":"Uncletopia | Frankfurt | 6 | All Maps","name_short":"frk-6","host":"frk-1.de.uncletopia.com","port":27065,"enabled":true,"region":"eu","cc":"de","latitude":50.110924,"longitude":8.682127,"reserved":0,"last_update":"0001-01-01T00:00:00Z","name_a2s":"Uncletopia | Frankfurt | 6 | All Maps","protocol":17,"map":"cp_altitude","folder":"tf","game":"Team Fortress","app_id":440,"player_count":24,"max_players":24,"Bots":0,"server_type":"Dedicated","server_os":"Linux","password":true,"vac":true,"version":"7961495","steam_id":85568392924504278,"keywords":["cp","nocrits","nodmgspread","uncletopia"],"game_id":440,"stv_port":27066,"stv_name":"Uncletopia | Frankfurt | 6 | All Maps | STV","players":[{"user_id":135,"name":"I Love Filtered Water","steam_id":76561198016042113,"connected_time":1267000000000,"state":"active","ping":65},{"user_id":97,"name":"EVAP","steam_id":76561198341258458,"connected_time":3407000000000,"state":"active","ping":67},{"user_id":74,"name":"shadow39344","steam_id":76561198090639618,"connected_time":4179000000000,"state":"active","ping":55},{"user_id":73,"name":"Ink in veins","steam_id":76561199082262091,"connected_time":4229000000000,"state":"active","ping":66},{"user_id":133,"name":"Ixsus\u003c3","steam_id":76561198094756869,"connected_time":1281000000000,"state":"active","ping":60},{"user_id":76,"name":"Scrooge Mc Clunk","steam_id":76561198885945084,"connected_time":4135000000000,"state":"active","ping":34},{"user_id":151,"name":"alice","steam_id":76561198269200388,"connected_time":220000000000,"state":"active","ping":75},{"user_id":152,"name":"golfmastr","steam_id":76561198993144124,"connected_time":199000000000,"state":"active","ping":67},{"user_id":117,"name":"Crome_BOX","steam_id":76561198189948415,"connected_time":2001000000000,"state":"active","ping":67},{"user_id":138,"name":"Rez","steam_id":76561198410598772,"connected_time":1225000000000,"state":"active","ping":47},{"user_id":140,"name":"breadbear \u003c3","steam_id":76561198036895007,"connected_time":1207000000000,"state":"active","ping":79},{"user_id":126,"name":"bruh","steam_id":76561197993922244,"connected_time":1410000000000,"state":"active","ping":58},{"user_id":153,"name":"Tyren","steam_id":76561198993747516,"connected_time":144000000000,"state":"active","ping":67},{"user_id":119,"name":"Pestilence","steam_id":76561198140938904,"connected_time":1922000000000,"state":"active","ping":59},{"user_id":102,"name":"SGT Angel","steam_id":76561197971585796,"connected_time":3170000000000,"state":"active","ping":49},{"user_id":87,"name":"Springfield Crack","steam_id":76561198044818161,"connected_time":3855000000000,"state":"active","ping":107},{"user_id":147,"name":"Qwerty","steam_id":76561198023525894,"connected_time":804000000000,"state":"active","ping":74},{"user_id":142,"name":"Avoonix","steam_id":76561198186954897,"connected_time":1182000000000,"state":"active","ping":90},{"user_id":150,"name":"G_raff","steam_id":76561199048512726,"connected_time":497000000000,"state":"active","ping":76},{"user_id":92,"name":"GMsU | Rebikas","steam_id":76561198077053764,"connected_time":3636000000000,"state":"active","ping":47},{"user_id":130,"name":"Technic","steam_id":76561198128096130,"connected_time":1339000000000,"state":"active","ping":50},{"user_id":123,"name":"Grimm","steam_id":76561198044684227,"connected_time":1536000000000,"state":"active","ping":56},{"user_id":144,"name":"Dellty","steam_id":76561198173944065,"connected_time":1078000000000,"state":"active","ping":60},{"user_id":111,"name":"GMsU | Acoul","steam_id":76561198229222992,"connected_time":2327000000000,"state":"active","ping":46}]},{"server_id":23,"name":"Uncletopia | Frankfurt | 7 | Stopwatch","name_short":"frk-7","host":"frk-1.de.uncletopia.com","port":27075,"enabled":true,"region":"eu","cc":"de","latitude":50.110924,"longitude":8.682127,"reserved":0,"last_update":"0001-01-01T00:00:00Z","name_a2s":"Uncletopia | Frankfurt | 7 | Stopwatch","protocol":17,"map":"cp_sunshine","folder":"tf","game":"Team Fortress","app_id":440,"player_count":0,"max_players":24,"Bots":0,"server_type":"Dedicated","server_os":"Linux","password":true,"vac":true,"version":"7961495","steam_id":85568392924742827,"keywords":["cp","nocrits","nodmgspread","uncletopia"],"game_id":440,"stv_port":27076,"stv_name":"Uncletopia | Frankfurt | 7 | Stopwatch | STV","players":null},{"server_id":24,"name":"Uncletopia | Frankfurt | 8 | Community","name_short":"frk-8","host":"frk-1.de.uncletopia.com","port":27085,"enabled":true,"region":"eu","cc":"de","latitude":50.110924,"longitude":8.682127,"reserved":0,"last_update":"0001-01-01T00:00:00Z","name_a2s":"Uncletopia | Frankfurt | 8 | Community","protocol":17,"map":"workshop/koth_synthetic_rc6a.ugc1549817316","folder":"tf","game":"Team Fortress","app_id":440,"player_count":0,"max_players":24,"Bots":0,"server_type":"Dedicated","server_os":"Linux","password":true,"vac":true,"version":"7961495","steam_id":85568392924742828,"keywords":["cp","nocrits","nodmgspread","uncletopia"],"game_id":440,"stv_port":27086,"stv_name":"Uncletopia | Frankfurt | 8 | Community | STV","players":null},{"server_id":202,"name":"Uncletopia | Hong Kong | 1 | All Maps","name_short":"hgk-1","host":"hgk-1.hk.uncletopia.com","port":27015,"enabled":true,"region":"asia","cc":"hk","latitude":22.302711,"longitude":114.177216,"reserved":0,"last_update":"0001-01-01T00:00:00Z","name_a2s":"Uncletopia | Hong Kong | 1 | All Maps","protocol":17,"map":"pl_frontier_final","folder":"tf","game":"Team Fortress","app_id":440,"player_count":0,"max_players":24,"Bots":0,"server_type":"Dedicated","server_os":"Linux","password":true,"vac":true,"version":"7961495","steam_id":85568392924494504,"keywords":["nocrits","nodmgspread","payload","uncletopia"],"game_id":440,"stv_port":27016,"stv_name":"Uncletopia | Hong Kong | 1 | All Maps | STV","players":null},{"server_id":1,"name":"Uncletopia | Los Angeles | 1 | All Maps","name_short":"lax-1","host":"lax-1.us.uncletopia.com","port":27015,"enabled":true,"region":"us-west","cc":"us","latitude":33.94279,"longitude":-118.41004,"reserved":0,"last_update":"0001-01-01T00:00:00Z","name_a2s":"Uncletopia | Los Angeles | 1 | All Maps","protocol":17,"map":"cp_snakewater_final1","folder":"tf","game":"Team Fortress","app_id":440,"player_count":0,"max_players":24,"Bots":0,"server_type":"Dedicated","server_os":"Linux","password":true,"vac":true,"version":"7961495","steam_id":85568392924469991,"keywords":["cp","nocrits","nodmgspread","uncletopia"],"game_id":440,"stv_port":27016,"stv_name":"Uncletopia | Los Angeles | 1 | All Maps | STV","players":null},{"server_id":112,"name":"Uncletopia | Los Angeles | 2 | All Maps","name_short":"lax-2","host":"lax-1.us.uncletopia.com","port":27025,"enabled":true,"region":"us-west","cc":"us","latitude":33.94279,"longitude":-118.41004,"reserved":0,"last_update":"0001-01-01T00:00:00Z","name_a2s":"Uncletopia | Los Angeles | 2 | All Maps","protocol":17,"map":"cp_process_final","folder":"tf","game":"Team Fortress","app_id":440,"player_count":0,"max_players":24,"Bots":0,"server_type":"Dedicated","server_os":"Linux","password":true,"vac":true,"version":"7961495","steam_id":85568392924469992,"keywords":["cp","nocrits","nodmgspread","uncletopia"],"game_id":440,"stv_port":27026,"stv_name":"Uncletopia | Los Angeles | 2 | All Maps | STV","players":null},{"server_id":324,"name":"Uncletopia | Los Angeles | 3 | All Maps","name_short":"lax-3","host":"lax-1.us.uncletopia.com","port":27035,"enabled":true,"region":"us-west","cc":"us","latitude":33.94279,"longitude":-118.41004,"reserved":0,"last_update":"0001-01-01T00:00:00Z","name_a2s":"Uncletopia | Los Angeles | 3 | All Maps","protocol":17,"map":"pl_swiftwater_final1","folder":"tf","game":"Team Fortress","app_id":440,"player_count":0,"max_players":24,"Bots":0,"server_type":"Dedicated","server_os":"Linux","password":true,"vac":true,"version":"7961495","steam_id":85568392924510198,"keywords":["nocrits","nodmgspread","payload","uncletopia"],"game_id":440,"stv_port":27036,"stv_name":"Uncletopia | Los Angeles | 3 | All Maps | STV","players":null},{"server_id":25,"name":"Uncletopia | Los Angeles | 4 | Stopwatch","name_short":"lax-4","host":"lax-1.us.uncletopia.com","port":27045,"enabled":true,"region":"us-west","cc":"us","latitude":33.94279,"longitude":-118.41004,"reserved":0,"last_update":"0001-01-01T00:00:00Z","name_a2s":"Uncletopia | Los Angeles | 4 | Stopwatch","protocol":17,"map":"pl_upward","folder":"tf","game":"Team Fortress","app_id":440,"player_count":0,"max_players":24,"Bots":0,"server_type":"Dedicated","server_os":"Linux","password":true,"vac":true,"version":"7961495","steam_id":85568392924510199,"keywords":["nocrits","nodmgspread","payload","uncletopia"],"game_id":440,"stv_port":27046,"stv_name":"Uncletopia | Los Angeles | 4 | Stopwatch | STV","players":null},{"server_id":11,"name":"Uncletopia | London | 1 | All Maps","name_short":"lon-1","host":"lon-1.uk.uncletopia.com","port":27015,"enabled":true,"region":"eu","cc":"gb","latitude":51.509865,"longitude":-0.118092,"reserved":0,"last_update":"0001-01-01T00:00:00Z","name_a2s":"Uncletopia | London | 1 | All Maps","protocol":17,"map":"pl_borneo","folder":"tf","game":"Team Fortress","app_id":440,"player_count":24,"max_players":24,"Bots":0,"server_type":"Dedicated","server_os":"Linux","password":true,"vac":true,"version":"7961495","steam_id":85568392924367362,"keywords":["nocrits","nodmgspread","payload","uncletopia"],"game_id":440,"stv_port":27016,"stv_name":"Uncletopia | London | 1 | All Maps | STV","players":[{"user_id":433,"name":"Healix","steam_id":76561198130270161,"connected_time":128000000000,"state":"active","ping":58},{"user_id":176,"name":"Anri Okita's Massive Milkers","steam_id":76561199186352720,"connected_time":21214000000000,"state":"active","ping":65},{"user_id":386,"name":"mag̶p̶i̶e ✿","steam_id":76561198797266244,"connected_time":5376000000000,"state":"active","ping":79},{"user_id":402,"name":"Lyra","steam_id":76561198043601838,"connected_time":3958000000000,"state":"active","ping":60},{"user_id":408,"name":"Çodar","steam_id":76561198235518444,"connected_time":2921000000000,"state":"active","ping":39},{"user_id":341,"name":"Ozzie","steam_id":76561197992915315,"connected_time":8830000000000,"state":"active","ping":77},{"user_id":428,"name":"ber","steam_id":76561197993892057,"connected_time":1031000000000,"state":"active","ping":90},{"user_id":414,"name":"Archer","steam_id":76561197994239444,"connected_time":2305000000000,"state":"active","ping":102},{"user_id":364,"name":"joemonster","steam_id":76561199057953617,"connected_time":6093000000000,"state":"active","ping":74},{"user_id":419,"name":"Minus-Abinus","steam_id":76561199383437138,"connected_time":2195000000000,"state":"active","ping":120},{"user_id":392,"name":"cactopus","steam_id":76561198837919828,"connected_time":5132000000000,"state":"active","ping":133},{"user_id":432,"name":"TomNoSocks","steam_id":76561198114071046,"connected_time":362000000000,"state":"active","ping":50},{"user_id":429,"name":"ashley","steam_id":76561198448551449,"connected_time":783000000000,"state":"active","ping":39},{"user_id":426,"name":"hitbox criminal","steam_id":76561198079277466,"connected_time":1538000000000,"state":"active","ping":74},{"user_id":418,"name":"Niyaah","steam_id":76561198110209191,"connected_time":2208000000000,"state":"active","ping":63},{"user_id":422,"name":"cactusj4","steam_id":76561199243398487,"connected_time":2051000000000,"state":"active","ping":57},{"user_id":427,"name":"SKY_","steam_id":76561198080980508,"connected_time":1446000000000,"state":"active","ping":54},{"user_id":385,"name":"Interview C","steam_id":76561199012566222,"connected_time":5463000000000,"state":"active","ping":63},{"user_id":405,"name":"Richard nixon roleplayer","steam_id":76561198236015392,"connected_time":3217000000000,"state":"active","ping":115},{"user_id":391,"name":"sword machine","steam_id":76561198895235231,"connected_time":5155000000000,"state":"active","ping":59},{"user_id":379,"name":"jüri","steam_id":76561198107460765,"connected_time":5748000000000,"state":"active","ping":47},{"user_id":431,"name":"waahh im baby gugu gaga im cry","steam_id":76561198190583242,"connected_time":554000000000,"state":"active","ping":95},{"user_id":227,"name":"whimsy.","steam_id":76561198878171763,"connected_time":17618000000000,"state":"active","ping":49},{"user_id":413,"name":"⚧aura⚧","steam_id":76561198066258544,"connected_time":2329000000000,"state":"active","ping":63}]},{"server_id":114,"name":"Uncletopia | London | 2 | All Maps","name_short":"lon-2","host":"lon-1.uk.uncletopia.com","port":27025,"enabled":true,"region":"eu","cc":"gb","latitude":51.509865,"longitude":-0.118092,"reserved":0,"last_update":"0001-01-01T00:00:00Z","name_a2s":"Uncletopia | London | 2 | All Maps","protocol":17,"map":"pl_swiftwater_final1","folder":"tf","game":"Team Fortress","app_id":440,"player_count":23,"max_players":24,"Bots":0,"server_type":"Dedicated","server_os":"Linux","password":true,"vac":true,"version":"7961495","steam_id":85568392924470941,"keywords":["nocrits","nodmgspread","payload","uncletopia"],"game_id":440,"stv_port":27026,"stv_name":"Uncletopia | London | 2 | All Maps | STV","players":[{"user_id":436,"name":"md","steam_id":76561198012687415,"connected_time":1057000000000,"state":"active","ping":36},{"user_id":392,"name":"Triploon","steam_id":76561198173304074,"connected_time":3479000000000,"state":"active","ping":48},{"user_id":419,"name":"Zerfesh","steam_id":76561198117534358,"connected_time":1672000000000,"state":"active","ping":96},{"user_id":402,"name":"TheLivingBoombox","steam_id":76561199225802945,"connected_time":2912000000000,"state":"active","ping":75},{"user_id":370,"name":"free back real estate","steam_id":76561197999437155,"connected_time":5690000000000,"state":"active","ping":41},{"user_id":428,"name":"SirVitek","steam_id":76561198142961758,"connected_time":1148000000000,"state":"active","ping":51},{"user_id":444,"name":"mercenarypit","steam_id":76561198161935108,"connected_time":108000000000,"state":"active","ping":60},{"user_id":430,"name":"Dr. No Name","steam_id":76561198058656869,"connected_time":1106000000000,"state":"active","ping":128},{"user_id":441,"name":"Fingortar","steam_id":76561198277143302,"connected_time":545000000000,"state":"active","ping":79},{"user_id":411,"name":"[EXDr]Specky","steam_id":76561198302518477,"connected_time":2209000000000,"state":"active","ping":43},{"user_id":421,"name":"Олексій | UA","steam_id":76561198802594676,"connected_time":1552000000000,"state":"active","ping":63},{"user_id":394,"name":"Boil em mash em","steam_id":76561198026508026,"connected_time":3472000000000,"state":"active","ping":64},{"user_id":439,"name":"overpriced pitogyro","steam_id":76561199103991437,"connected_time":743000000000,"state":"active","ping":97},{"user_id":424,"name":"Rubi","steam_id":76561198139410003,"connected_time":1405000000000,"state":"active","ping":62},{"user_id":442,"name":"Michael","steam_id":76561198003146906,"connected_time":432000000000,"state":"active","ping":50},{"user_id":413,"name":"Milca_11","steam_id":76561198848650365,"connected_time":2114000000000,"state":"active","ping":106},{"user_id":443,"name":"fl1p","steam_id":76561198148565659,"connected_time":427000000000,"state":"active","ping":74},{"user_id":377,"name":"DocTwoEight","steam_id":76561198153488940,"connected_time":5137000000000,"state":"active","ping":75},{"user_id":412,"name":"r","steam_id":76561198239927434,"connected_time":2209000000000,"state":"active","ping":74},{"user_id":434,"name":"J R","steam_id":76561198165487366,"connected_time":1099000000000,"state":"active","ping":63},{"user_id":435,"name":"The_voices","steam_id":76561199095701143,"connected_time":1088000000000,"state":"active","ping":60},{"user_id":438,"name":"tea for trees too","steam_id":76561198131031404,"connected_time":928000000000,"state":"active","ping":96},{"user_id":425,"name":"Makaron","steam_id":76561198312358590,"connected_time":1347000000000,"state":"active","ping":89}]},{"server_id":320,"name":"Uncletopia | London | 3 | All Maps","name_short":"lon-3","host":"lon-1.uk.uncletopia.com","port":27035,"enabled":true,"region":"eu","cc":"gb","latitude":51.509865,"longitude":-0.118092,"reserved":0,"last_update":"0001-01-01T00:00:00Z","name_a2s":"Uncletopia | London | 3 | All Maps","protocol":17,"map":"pl_swiftwater_final1","folder":"tf","game":"Team Fortress","app_id":440,"player_count":23,"max_players":24,"Bots":0,"server_type":"Dedicated","server_os":"Linux","password":true,"vac":true,"version":"7961495","steam_id":85568392924510192,"keywords":["nocrits","nodmgspread","payload","uncletopia"],"game_id":440,"stv_port":27036,"stv_name":"Uncletopia | London | 3 | All Maps | STV","players":[{"user_id":447,"name":"cool guy","steam_id":76561199244543995,"connected_time":212000000000,"state":"active","ping":69},{"user_id":423,"name":"honzajspv","steam_id":76561198434476343,"connected_time":1800000000000,"state":"active","ping":54},{"user_id":416,"name":"Dezalt","steam_id":76561198154866092,"connected_time":1958000000000,"state":"active","ping":61},{"user_id":430,"name":"Hey, I´m Andy!","steam_id":76561198060337777,"connected_time":1098000000000,"state":"active","ping":69},{"user_id":396,"name":"Solid Snake holding a pepsi","steam_id":76561198348396493,"connected_time":3307000000000,"state":"active","ping":43},{"user_id":425,"name":"Nyoom","steam_id":76561198054585002,"connected_time":1701000000000,"state":"active","ping":51},{"user_id":401,"name":"skai","steam_id":76561198184881255,"connected_time":3046000000000,"state":"active","ping":63},{"user_id":442,"name":"Oak","steam_id":76561198067315672,"connected_time":764000000000,"state":"active","ping":49},{"user_id":448,"name":"mercenarypit","steam_id":76561198161935108,"connected_time":108000000000,"state":"connecting","ping":0},{"user_id":443,"name":"THEYAREINTHEWALLS","steam_id":76561198299161888,"connected_time":731000000000,"state":"active","ping":68},{"user_id":444,"name":"E² FTH","steam_id":76561198066287815,"connected_time":637000000000,"state":"active","ping":111},{"user_id":428,"name":"ROX","steam_id":76561198272289320,"connected_time":1277000000000,"state":"active","ping":48},{"user_id":399,"name":"Spajro","steam_id":76561198257383813,"connected_time":3065000000000,"state":"active","ping":60},{"user_id":433,"name":"Bobo","steam_id":76561198052308399,"connected_time":1069000000000,"state":"active","ping":58},{"user_id":435,"name":"guru{Hari}","steam_id":76561197997001681,"connected_time":1016000000000,"state":"active","ping":74},{"user_id":436,"name":"sponge1974","steam_id":76561198021182357,"connected_time":997000000000,"state":"active","ping":39},{"user_id":415,"name":"Fearly","steam_id":76561198798684016,"connected_time":1979000000000,"state":"active","ping":45},{"user_id":438,"name":"Kaek","steam_id":76561197960283484,"connected_time":938000000000,"state":"active","ping":83},{"user_id":418,"name":"Kaibz","steam_id":76561197975012611,"connected_time":1927000000000,"state":"active","ping":42},{"user_id":422,"name":"PAX","steam_id":76561198046692146,"connected_time":1836000000000,"state":"active","ping":70},{"user_id":439,"name":"Twik","steam_id":76561198023835056,"connected_time":923000000000,"state":"active","ping":68},{"user_id":449,"name":"Nollette","steam_id":76561198213738080,"connected_time":94000000000,"state":"active","ping":44},{"user_id":400,"name":"Plep","steam_id":76561198840259819,"connected_time":3065000000000,"state":"active","ping":58}]},{"server_id":321,"name":"Uncletopia | London | 4 | All Maps","name_short":"lon-4","host":"lon-1.uk.uncletopia.com","port":27045,"enabled":true,"region":"eu","cc":"gb","latitude":51.509865,"longitude":-0.118092,"reserved":0,"last_update":"0001-01-01T00:00:00Z","name_a2s":"Uncletopia | London | 4 | All Maps","protocol":17,"map":"pl_badwater","folder":"tf","game":"Team Fortress","app_id":440,"player_count":24,"max_players":24,"Bots":0,"server_type":"Dedicated","server_os":"Linux","password":true,"vac":true,"version":"7961495","steam_id":85568392924510193,"keywords":["nocrits","nodmgspread","payload","uncletopia"],"game_id":440,"stv_port":27046,"stv_name":"Uncletopia | London | 4 | All Maps | STV","players":[{"user_id":679,"name":"Hoxton","steam_id":76561198129209505,"connected_time":24000000000,"state":"active","ping":76},{"user_id":586,"name":"sv_MrGibbs","steam_id":76561198114071972,"connected_time":4902000000000,"state":"active","ping":45},{"user_id":631,"name":"night.s","steam_id":76561198326287823,"connected_time":3295000000000,"state":"active","ping":75},{"user_id":674,"name":"3","steam_id":76561198280507478,"connected_time":324000000000,"state":"active","ping":60},{"user_id":643,"name":"Rodia","steam_id":76561197968293161,"connected_time":2385000000000,"state":"active","ping":76},{"user_id":596,"name":"Femboy -UwU-","steam_id":76561198083425408,"connected_time":4728000000000,"state":"active","ping":45},{"user_id":636,"name":"Coac","steam_id":76561198085265740,"connected_time":3161000000000,"state":"active","ping":70},{"user_id":627,"name":"kastanomata","steam_id":76561198271832763,"connected_time":3360000000000,"state":"active","ping":69},{"user_id":677,"name":"dog?","steam_id":76561199232839385,"connected_time":121000000000,"state":"active","ping":98},{"user_id":660,"name":"Razef","steam_id":76561198030309484,"connected_time":1482000000000,"state":"active","ping":38},{"user_id":635,"name":"A Pigeon","steam_id":76561198114090555,"connected_time":3178000000000,"state":"active","ping":84},{"user_id":644,"name":"DXD Tech","steam_id":76561198358379587,"connected_time":2294000000000,"state":"active","ping":61},{"user_id":623,"name":"akakez","steam_id":76561198095432821,"connected_time":3405000000000,"state":"active","ping":111},{"user_id":675,"name":"Nag","steam_id":76561197970488206,"connected_time":321000000000,"state":"active","ping":73},{"user_id":668,"name":"maniac-baker","steam_id":76561198076966730,"connected_time":1133000000000,"state":"active","ping":40},{"user_id":678,"name":"M23","steam_id":76561198307432777,"connected_time":115000000000,"state":"active","ping":64},{"user_id":680,"name":"Reject humanity, Return to husk","steam_id":76561198173218318,"connected_time":7000000000,"state":"spawning","ping":475},{"user_id":657,"name":"Damaged","steam_id":76561198273394258,"connected_time":1913000000000,"state":"active","ping":43},{"user_id":658,"name":"Maybe","steam_id":76561198274455278,"connected_time":1887000000000,"state":"active","ping":66},{"user_id":626,"name":"CaptainMac","steam_id":76561198273156139,"connected_time":3363000000000,"state":"active","ping":46},{"user_id":669,"name":"Pip","steam_id":76561198049587565,"connected_time":965000000000,"state":"active","ping":39},{"user_id":625,"name":"Sugardaddy_pep","steam_id":76561198807512589,"connected_time":3388000000000,"state":"active","ping":76},{"user_id":676,"name":"GUMBO","steam_id":76561198183949987,"connected_time":319000000000,"state":"active","ping":52},{"user_id":633,"name":"Lance Corporal Boiled Egg","steam_id":76561197989717358,"connected_time":3260000000000,"state":"active","ping":45}]},{"server_id":21,"name":"Uncletopia | London | 5 | All Maps","name_short":"lon-5","host":"lon-1.uk.uncletopia.com","port":27055,"enabled":true,"region":"eu","cc":"gb","latitude":51.509865,"longitude":-0.118092,"reserved":0,"last_update":"0001-01-01T00:00:00Z","name_a2s":"Uncletopia | London | 5 | All Maps","protocol":17,"map":"cp_steel","folder":"tf","game":"Team Fortress","app_id":440,"player_count":23,"max_players":24,"Bots":0,"server_type":"Dedicated","server_os":"Linux","password":true,"vac":true,"version":"7961495","steam_id":85568392924742829,"keywords":["cp","nocrits","nodmgspread","uncletopia"],"game_id":440,"stv_port":27056,"stv_name":"Uncletopia | London | 5 | All Maps | STV","players":[{"user_id":188,"name":"the lorax","steam_id":76561199180176442,"connected_time":928000000000,"state":"active","ping":74},{"user_id":196,"name":"nug","steam_id":76561198055396568,"connected_time":524000000000,"state":"active","ping":57},{"user_id":148,"name":"Ullr","steam_id":76561198140547483,"connected_time":3723000000000,"state":"active","ping":43},{"user_id":171,"name":"KingPotatoChips","steam_id":76561198035156465,"connected_time":2327000000000,"state":"active","ping":67},{"user_id":153,"name":"silicon based life form","steam_id":76561199127121346,"connected_time":3403000000000,"state":"active","ping":43},{"user_id":199,"name":"Doom Slayer","steam_id":76561199023727617,"connected_time":470000000000,"state":"active","ping":74},{"user_id":197,"name":"Momovsky","steam_id":76561198005738407,"connected_time":520000000000,"state":"active","ping":74},{"user_id":152,"name":"Fish Killer","steam_id":76561198067332366,"connected_time":3459000000000,"state":"active","ping":48},{"user_id":192,"name":"=flashpoint=","steam_id":76561197976774456,"connected_time":591000000000,"state":"active","ping":48},{"user_id":185,"name":"marvi444","steam_id":76561198431534139,"connected_time":1275000000000,"state":"active","ping":61},{"user_id":147,"name":"The Subway Scientist","steam_id":76561198193757646,"connected_time":3774000000000,"state":"active","ping":53},{"user_id":198,"name":"I.AM.THE.BOOP.WHICH.IS.APROACHI","steam_id":76561198049342507,"connected_time":511000000000,"state":"active","ping":84},{"user_id":150,"name":"Dr. Funkenstein","steam_id":76561197977816210,"connected_time":3573000000000,"state":"active","ping":53},{"user_id":187,"name":"movement boi","steam_id":76561199259786987,"connected_time":965000000000,"state":"active","ping":49},{"user_id":189,"name":"the grongle","steam_id":76561198989398023,"connected_time":805000000000,"state":"active","ping":118},{"user_id":191,"name":"Tomboy Mold","steam_id":76561198106455841,"connected_time":673000000000,"state":"active","ping":60},{"user_id":190,"name":"Javier dorsaless","steam_id":76561198179324075,"connected_time":723000000000,"state":"active","ping":64},{"user_id":203,"name":":3","steam_id":76561198169471853,"connected_time":296000000000,"state":"active","ping":42},{"user_id":200,"name":"SoupEnjoyer","steam_id":76561198044050377,"connected_time":465000000000,"state":"active","ping":88},{"user_id":201,"name":"Pofl","steam_id":76561197995110333,"connected_time":433000000000,"state":"active","ping":59},{"user_id":181,"name":"willus212","steam_id":76561199182615246,"connected_time":1650000000000,"state":"active","ping":74},{"user_id":177,"name":"sam_","steam_id":76561198814734120,"connected_time":1918000000000,"state":"active","ping":114},{"user_id":205,"name":"Dolcelatte","steam_id":76561198038501770,"connected_time":145000000000,"state":"active","ping":60}]},{"server_id":22,"name":"Uncletopia | London | 6 | All Maps","name_short":"lon-6","host":"lon-1.uk.uncletopia.com","port":27065,"enabled":true,"region":"eu","cc":"gb","latitude":51.509865,"longitude":-0.118092,"reserved":0,"last_update":"0001-01-01T00:00:00Z","name_a2s":"Uncletopia | London | 6 | All Maps","protocol":17,"map":"koth_king","folder":"tf","game":"Team Fortress","app_id":440,"player_count":21,"max_players":24,"Bots":0,"server_type":"Dedicated","server_os":"Linux","password":true,"vac":true,"version":"7961495","steam_id":85568392924742830,"keywords":["cp","nocrits","nodmgspread","uncletopia"],"game_id":440,"stv_port":27066,"stv_name":"Uncletopia | London | 6 | All Maps | STV","players":[{"user_id":185,"name":"mumbler","steam_id":76561197970641239,"connected_time":552000000000,"state":"active","ping":54},{"user_id":192,"name":"niandits","steam_id":76561198419798900,"connected_time":234000000000,"state":"active","ping":105},{"user_id":145,"name":"Android Device Connected","steam_id":76561199244250562,"connected_time":2349000000000,"state":"active","ping":101},{"user_id":195,"name":"Mitrixie","steam_id":76561198842023498,"connected_time":87000000000,"state":"active","ping":95},{"user_id":178,"name":"axellinag15","steam_id":76561199188113751,"connected_time":1500000000000,"state":"active","ping":142},{"user_id":194,"name":"reko","steam_id":76561198803326971,"connected_time":145000000000,"state":"active","ping":75},{"user_id":154,"name":"Kekeke","steam_id":76561198063672270,"connected_time":2018000000000,"state":"active","ping":90},{"user_id":196,"name":"Training Bot [Easy]","steam_id":76561199119473164,"connected_time":53000000000,"state":"active","ping":156},{"user_id":153,"name":"mud","steam_id":76561198141497461,"connected_time":2048000000000,"state":"active","ping":65},{"user_id":155,"name":"dum","steam_id":76561198053386482,"connected_time":2009000000000,"state":"active","ping":120},{"user_id":197,"name":"mex :3","steam_id":76561198091083324,"connected_time":18000000000,"state":"spawning","ping":59},{"user_id":157,"name":"MillyR","steam_id":76561198200012195,"connected_time":1877000000000,"state":"active","ping":47},{"user_id":159,"name":"Sim","steam_id":76561198086641180,"connected_time":1854000000000,"state":"active","ping":76},{"user_id":186,"name":"HOI","steam_id":76561198061182117,"connected_time":550000000000,"state":"active","ping":45},{"user_id":191,"name":"Dzieciak_nazwany_Zalewajka_123","steam_id":76561199508308406,"connected_time":405000000000,"state":"active","ping":72},{"user_id":188,"name":"Cheshireycat","steam_id":76561198067204908,"connected_time":534000000000,"state":"active","ping":58},{"user_id":167,"name":"TylowStar","steam_id":76561198357107806,"connected_time":1721000000000,"state":"active","ping":60},{"user_id":173,"name":"red cross volunteer","steam_id":76561197972287320,"connected_time":1635000000000,"state":"active","ping":60},{"user_id":190,"name":"Arc","steam_id":76561198805049375,"connected_time":508000000000,"state":"active","ping":52},{"user_id":176,"name":"K.V. #RemoveRandomCrits","steam_id":76561197994832993,"connected_time":1583000000000,"state":"active","ping":85},{"user_id":177,"name":"\u003c(sur)\u003esquigly","steam_id":76561198134646151,"connected_time":1561000000000,"state":"active","ping":75}]},{"server_id":40,"name":"Uncletopia | London | 7 | Stopwatch","name_short":"lon-7","host":"lon-1.uk.uncletopia.com","port":27075,"enabled":true,"region":"eu","cc":"gb","latitude":51.509865,"longitude":-0.118092,"reserved":0,"last_update":"0001-01-01T00:00:00Z","name_a2s":"Uncletopia | London | 7 | Stopwatch","protocol":17,"map":"workshop/koth_jamram_rc1a.ugc2964065613","folder":"tf","game":"Team Fortress","app_id":440,"player_count":0,"max_players":24,"Bots":0,"server_type":"Dedicated","server_os":"Linux","password":true,"vac":true,"version":"7961495","steam_id":85568392924964314,"keywords":["cp","nocrits","nodmgspread","uncletopia"],"game_id":440,"stv_port":27076,"stv_name":"Uncletopia | London | 7 | Stopwatch | STV","players":null},{"server_id":41,"name":"Uncletopia | London | 8 | Community","name_short":"lon-8","host":"lon-1.uk.uncletopia.com","port":27085,"enabled":true,"region":"eu","cc":"gb","latitude":51.509865,"longitude":-0.118092,"reserved":0,"last_update":"0001-01-01T00:00:00Z","name_a2s":"Uncletopia | London | 8 | Community","protocol":17,"map":"workshop/cp_villa_b19.ugc2113052569","folder":"tf","game":"Team Fortress","app_id":440,"player_count":0,"max_players":24,"Bots":0,"server_type":"Dedicated","server_os":"Linux","password":true,"vac":true,"version":"7961495","steam_id":85568392924964315,"keywords":["cp","nocrits","nodmgspread","uncletopia"],"game_id":440,"stv_port":27086,"stv_name":"Uncletopia | London | 8 | Community | STV","players":null},{"server_id":300,"name":"Uncletopia | Montréal | 1 | One Thousand Uncles","name_short":"mtl-1","host":"mtl-1.ca.uncletopia.com","port":27015,"enabled":true,"region":"us-east","cc":"ca","latitude":45.50889,"longitude":-73.56167,"reserved":0,"last_update":"0001-01-01T00:00:00Z","name_a2s":"Uncletopia | Montréal | 1 | One Thousand Uncles","protocol":17,"map":"pl_swiftwater_final1","folder":"tf","game":"Team Fortress","app_id":440,"player_count":19,"max_players":32,"Bots":16,"server_type":"Dedicated","server_os":"Linux","password":true,"vac":true,"version":"7961495","steam_id":85568392924500087,"keywords":["alltalk","bots","danepve","increased_maxplayers","norespawntime","payload","uncletopia"],"game_id":440,"stv_port":0,"stv_name":"","players":[{"user_id":121,"name":"Navysealdemoman","steam_id":76561199048625312,"connected_time":3231000000000,"state":"active","ping":55},{"user_id":138,"name":"trobin120","steam_id":76561199122420273,"connected_time":2231000000000,"state":"active","ping":54},{"user_id":143,"name":"Transfem Bumblebee","steam_id":76561198119393205,"connected_time":147000000000,"state":"active","ping":89}]},{"server_id":301,"name":"Uncletopia | Montréal | 2 | One Thousand Uncles","name_short":"mtl-2","host":"mtl-1.ca.uncletopia.com","port":27025,"enabled":true,"region":"us-east","cc":"ca","latitude":45.50889,"longitude":-73.56167,"reserved":0,"last_update":"0001-01-01T00:00:00Z","name_a2s":"Uncletopia | Montréal | 2 | One Thousand Uncles","protocol":17,"map":"pl_chilly","folder":"tf","game":"Team Fortress","app_id":440,"player_count":0,"max_players":32,"Bots":0,"server_type":"Dedicated","server_os":"Linux","password":true,"vac":true,"version":"7961495","steam_id":85568392924500088,"keywords":["alltalk","danepve","increased_maxplayers","norespawntime","payload","uncletopia"],"game_id":440,"stv_port":0,"stv_name":"","players":null},{"server_id":302,"name":"Uncletopia | Montréal | 3 | One Thousand Uncles","name_short":"mtl-3","host":"mtl-1.ca.uncletopia.com","port":27035,"enabled":true,"region":"us-east","cc":"ca","latitude":45.50889,"longitude":-73.56167,"reserved":0,"last_update":"0001-01-01T00:00:00Z","name_a2s":"Uncletopia | Montréal | 3 | One Thousand Uncles","protocol":17,"map":"pl_upward","folder":"tf","game":"Team Fortress","app_id":440,"player_count":21,"max_players":32,"Bots":16,"server_type":"Dedicated","server_os":"Linux","password":true,"vac":true,"version":"7961495","steam_id":85568392924500089,"keywords":["alltalk","bots","danepve","increased_maxplayers","norespawntime","payload","uncletopia"],"game_id":440,"stv_port":0,"stv_name":"","players":[{"user_id":94,"name":"Herdex","steam_id":76561198092575778,"connected_time":3563000000000,"state":"active","ping":75},{"user_id":95,"name":"Indi","steam_id":76561198177002367,"connected_time":3554000000000,"state":"active","ping":68},{"user_id":112,"name":"god_ferny","steam_id":76561198263380204,"connected_time":2667000000000,"state":"active","ping":119},{"user_id":113,"name":"DoingBooing","steam_id":76561199503942745,"connected_time":2370000000000,"state":"active","ping":67},{"user_id":116,"name":"Corginnit","steam_id":76561198862679085,"connected_time":1360000000000,"state":"active","ping":58}]},{"server_id":13,"name":"Uncletopia | New York City | 1 | All Maps","name_short":"nyc-1","host":"nyc-1.us.uncletopia.com","port":27015,"enabled":true,"region":"us-east","cc":"us","latitude":40.73061,"longitude":-73.93524,"reserved":0,"last_update":"0001-01-01T00:00:00Z","name_a2s":"Uncletopia | New York City | 1 | All Maps","protocol":17,"map":"cp_snakewater_final1","folder":"tf","game":"Team Fortress","app_id":440,"player_count":24,"max_players":24,"Bots":0,"server_type":"Dedicated","server_os":"Linux","password":true,"vac":true,"version":"7961495","steam_id":85568392924469993,"keywords":["cp","nocrits","nodmgspread","uncletopia"],"game_id":440,"stv_port":27016,"stv_name":"Uncletopia | New York City | 1 | All Maps | STV","players":[{"user_id":253,"name":"Yate","steam_id":76561198304924040,"connected_time":342000000000,"state":"active","ping":86},{"user_id":257,"name":"uzr_n3m","steam_id":76561198799343084,"connected_time":114000000000,"state":"active","ping":121},{"user_id":243,"name":"Neapolitan(Elysium)","steam_id":76561199093398934,"connected_time":646000000000,"state":"active","ping":102},{"user_id":196,"name":"Bignuts69","steam_id":76561199302763718,"connected_time":3129000000000,"state":"active","ping":45},{"user_id":242,"name":"Richie Spice","steam_id":76561197972316483,"connected_time":710000000000,"state":"active","ping":45},{"user_id":252,"name":"totsnotabot","steam_id":76561198077023364,"connected_time":423000000000,"state":"active","ping":53},{"user_id":238,"name":"Just a Good Friend","steam_id":76561198140052403,"connected_time":741000000000,"state":"active","ping":104},{"user_id":244,"name":"Mal","steam_id":76561198066074151,"connected_time":644000000000,"state":"active","ping":75},{"user_id":245,"name":"MarauderOP","steam_id":76561199087316861,"connected_time":613000000000,"state":"active","ping":53},{"user_id":234,"name":"__Creed__","steam_id":76561198138564169,"connected_time":827000000000,"state":"active","ping":54},{"user_id":256,"name":"nelly modelo","steam_id":76561198044875206,"connected_time":134000000000,"state":"active","ping":105},{"user_id":246,"name":"Fio4","steam_id":76561199221171536,"connected_time":604000000000,"state":"active","ping":148},{"user_id":247,"name":"a bellhop","steam_id":76561198046797995,"connected_time":591000000000,"state":"active","ping":69},{"user_id":254,"name":"gatlinevan79","steam_id":76561199465817675,"connected_time":331000000000,"state":"active","ping":83},{"user_id":172,"name":"Mawdern","steam_id":76561198042131709,"connected_time":4387000000000,"state":"active","ping":74},{"user_id":233,"name":"Mexican Elvis","steam_id":76561198165100210,"connected_time":859000000000,"state":"active","ping":123},{"user_id":230,"name":"toastman","steam_id":76561198207073088,"connected_time":1202000000000,"state":"active","ping":72},{"user_id":249,"name":"Poopisviel Von Einzbern","steam_id":76561198259260433,"connected_time":561000000000,"state":"active","ping":75},{"user_id":255,"name":".                          .","steam_id":76561198047555945,"connected_time":317000000000,"state":"active","ping":82},{"user_id":224,"name":"dkinz68","steam_id":76561198430168721,"connected_time":1421000000000,"state":"active","ping":95},{"user_id":210,"name":"Order for Delivery","steam_id":76561198070850386,"connected_time":2084000000000,"state":"active","ping":86},{"user_id":240,"name":"HeavySword","steam_id":76561199262591160,"connected_time":731000000000,"state":"active","ping":47},{"user_id":250,"name":"vible15","steam_id":76561199218380820,"connected_time":559000000000,"state":"active","ping":141},{"user_id":223,"name":"Deltaco","steam_id":76561198094572694,"connected_time":1451000000000,"state":"active","ping":130}]},{"server_id":14,"name":"Uncletopia | New York City | 2 | All Maps","name_short":"nyc-2","host":"nyc-1.us.uncletopia.com","port":27025,"enabled":true,"region":"us-east","cc":"us","latitude":40.73061,"longitude":-73.93524,"reserved":0,"last_update":"0001-01-01T00:00:00Z","name_a2s":"Uncletopia | New York City | 2 | All Maps","protocol":17,"map":"cp_gorge","folder":"tf","game":"Team Fortress","app_id":440,"player_count":25,"max_players":24,"Bots":0,"server_type":"Dedicated","server_os":"Linux","password":true,"vac":true,"version":"7961495","steam_id":85568392924469994,"keywords":["cp","nocrits","nodmgspread","uncletopia"],"game_id":440,"stv_port":27026,"stv_name":"Uncletopia | New York City | 2 | All Maps | STV","players":[{"user_id":351,"name":"milk","steam_id":76561198813251405,"connected_time":622000000000,"state":"active","ping":53},{"user_id":359,"name":"Serph","steam_id":76561198037423161,"connected_time":188000000000,"state":"active","ping":85},{"user_id":360,"name":"RubéN","steam_id":76561197968762021,"connected_time":173000000000,"state":"connecting","ping":0},{"user_id":361,"name":"Erm... Krill Issue?","steam_id":76561198859118263,"connected_time":130000000000,"state":"active","ping":67},{"user_id":356,"name":"normal","steam_id":76561198133712839,"connected_time":224000000000,"state":"active","ping":49},{"user_id":362,"name":"Blinksterr","steam_id":76561198055979981,"connected_time":122000000000,"state":"active","ping":60},{"user_id":352,"name":"Arthur Drexel","steam_id":76561198003904750,"connected_time":602000000000,"state":"active","ping":88},{"user_id":328,"name":"Auberon","steam_id":76561198102778539,"connected_time":1599000000000,"state":"active","ping":44},{"user_id":363,"name":"Lucky Roux","steam_id":76561198298884337,"connected_time":120000000000,"state":"active","ping":60},{"user_id":364,"name":"取名叫做忍","steam_id":76561198278282836,"connected_time":116000000000,"state":"active","ping":56},{"user_id":305,"name":"Quick-Fix Fan","steam_id":76561198872845740,"connected_time":3265000000000,"state":"active","ping":47},{"user_id":19,"name":"Boofenshmirtz","steam_id":76561198071649858,"connected_time":14771000000000,"state":"active","ping":71},{"user_id":314,"name":"yes daddy","steam_id":76561198166100997,"connected_time":2801000000000,"state":"active","ping":63},{"user_id":329,"name":"Dr. Han","steam_id":76561198811130843,"connected_time":1521000000000,"state":"active","ping":79},{"user_id":346,"name":"Toober","steam_id":76561198018136281,"connected_time":781000000000,"state":"active","ping":61},{"user_id":333,"name":"EvilStickGuy","steam_id":76561197985379320,"connected_time":1400000000000,"state":"active","ping":44},{"user_id":279,"name":"hayes","steam_id":76561198057101042,"connected_time":5767000000000,"state":"active","ping":86},{"user_id":347,"name":"GuyGoom","steam_id":76561198254522178,"connected_time":767000000000,"state":"active","ping":68},{"user_id":331,"name":"Sussin'","steam_id":76561198059813696,"connected_time":1466000000000,"state":"active","ping":60},{"user_id":365,"name":"Franch Dressing","steam_id":76561198348585218,"connected_time":85000000000,"state":"active","ping":45},{"user_id":357,"name":"cali","steam_id":76561198326822403,"connected_time":212000000000,"state":"active","ping":73},{"user_id":321,"name":"Your Local Jester","steam_id":76561199120223717,"connected_time":2174000000000,"state":"active","ping":50},{"user_id":366,"name":"down horrendous","steam_id":76561198093241352,"connected_time":82000000000,"state":"active","ping":118},{"user_id":354,"name":"feleven","steam_id":76561198853721046,"connected_time":439000000000,"state":"active","ping":44},{"user_id":358,"name":"Don't Fuckle with Shuckle","steam_id":76561199020102367,"connected_time":201000000000,"state":"active","ping":77}]},{"server_id":15,"name":"Uncletopia | New York City | 3 | Stopwatch","name_short":"nyc-3","host":"nyc-1.us.uncletopia.com","port":27035,"enabled":true,"region":"us-east","cc":"us","latitude":40.73061,"longitude":-73.93524,"reserved":0,"last_update":"0001-01-01T00:00:00Z","name_a2s":"Uncletopia | New York City | 3 | Stopwatch","protocol":17,"map":"cp_granary","folder":"tf","game":"Team Fortress","app_id":440,"player_count":0,"max_players":24,"Bots":0,"server_type":"Dedicated","server_os":"Linux","password":true,"vac":true,"version":"7961495","steam_id":85568392924742820,"keywords":["cp","nocrits","nodmgspread","uncletopia"],"game_id":440,"stv_port":27036,"stv_name":"Uncletopia | New York City | 3 | Stopwatch | STV","players":null},{"server_id":16,"name":"Uncletopia | New York City | 4 | Community","name_short":"nyc-4","host":"nyc-1.us.uncletopia.com","port":27045,"enabled":true,"region":"us-east","cc":"us","latitude":40.73061,"longitude":-73.93524,"reserved":0,"last_update":"0001-01-01T00:00:00Z","name_a2s":"Uncletopia | New York City | 4 | Community","protocol":17,"map":"workshop/cp_propaganda_b18.ugc1603743849","folder":"tf","game":"Team Fortress","app_id":440,"player_count":0,"max_players":24,"Bots":0,"server_type":"Dedicated","server_os":"Linux","password":true,"vac":true,"version":"7961495","steam_id":85568392924742821,"keywords":["cp","nocrits","nodmgspread","uncletopia"],"game_id":440,"stv_port":27046,"stv_name":"Uncletopia | New York City | 4 | Community | STV","players":null},{"server_id":142,"name":"Uncletopia | São Paulo | 1 | All Maps","name_short":"sao-1","host":"sao-1.br.uncletopia.com","port":27015,"enabled":true,"region":"sa","cc":"br","latitude":-23.533773,"longitude":-46.62529,"reserved":0,"last_update":"0001-01-01T00:00:00Z","name_a2s":"Uncletopia | São Paulo | 1 | All Maps","protocol":17,"map":"koth_cascade","folder":"tf","game":"Team Fortress","app_id":440,"player_count":0,"max_players":24,"Bots":0,"server_type":"Dedicated","server_os":"Linux","password":true,"vac":true,"version":"7961495","steam_id":85568392924469996,"keywords":["cp","nocrits","nodmgspread","uncletopia"],"game_id":440,"stv_port":27016,"stv_name":"Uncletopia | São Paulo | 1 | All Maps | STV","players":null},{"server_id":143,"name":"Uncletopia | São Paulo | 2 | Community","name_short":"sao-2","host":"sao-2.br.uncletopia.com","port":27015,"enabled":true,"region":"sa","cc":"br","latitude":-23.533773,"longitude":-46.62529,"reserved":0,"last_update":"0001-01-01T00:00:00Z","name_a2s":"Uncletopia | São Paulo | 2 | Community","protocol":17,"map":"workshop/cp_croissant_final.ugc458840209","folder":"tf","game":"Team Fortress","app_id":440,"player_count":0,"max_players":24,"Bots":0,"server_type":"Dedicated","server_os":"Linux","password":true,"vac":true,"version":"7961495","steam_id":85568392924485349,"keywords":["cp","nocrits","nodmgspread","uncletopia"],"game_id":440,"stv_port":27016,"stv_name":"Uncletopia | São Paulo | 2 | Community | STV","players":null},{"server_id":7,"name":"Uncletopia | Seattle | 1 | All Maps","name_short":"sea-1","host":"sea-1.us.uncletopia.com","port":27015,"enabled":true,"region":"us-west","cc":"us","latitude":47.608013,"longitude":-122.33517,"reserved":0,"last_update":"0001-01-01T00:00:00Z","name_a2s":"Uncletopia | Seattle | 1 | All Maps","protocol":17,"map":"pl_swiftwater_final1","folder":"tf","game":"Team Fortress","app_id":440,"player_count":24,"max_players":24,"Bots":0,"server_type":"Dedicated","server_os":"Linux","password":true,"vac":true,"version":"7961495","steam_id":85568392924469997,"keywords":["nocrits","nodmgspread","payload","uncletopia"],"game_id":440,"stv_port":27016,"stv_name":"Uncletopia | Seattle | 1 | All Maps | STV","players":[{"user_id":165,"name":"Kasmk","steam_id":76561198826977394,"connected_time":3852000000000,"state":"active","ping":65},{"user_id":205,"name":"Oktayey","steam_id":76561198143213426,"connected_time":544000000000,"state":"active","ping":63},{"user_id":214,"name":"alexander the just ok","steam_id":76561199256886895,"connected_time":7000000000,"state":"spawning","ping":97},{"user_id":208,"name":"MrYadaization","steam_id":76561198050770818,"connected_time":396000000000,"state":"active","ping":51},{"user_id":191,"name":"tmm (theManMan)","steam_id":76561199488457138,"connected_time":2214000000000,"state":"active","ping":55},{"user_id":160,"name":"Eraser cat","steam_id":76561199045570463,"connected_time":4100000000000,"state":"active","ping":45},{"user_id":132,"name":"Furry Femboy Hooters (CEO)","steam_id":76561198097745857,"connected_time":6851000000000,"state":"active","ping":55},{"user_id":180,"name":"Jeramosa","steam_id":76561198811000094,"connected_time":2740000000000,"state":"active","ping":86},{"user_id":163,"name":"PiolaCat","steam_id":76561199100535345,"connected_time":4056000000000,"state":"active","ping":92},{"user_id":213,"name":"[bbbc] Dimple","steam_id":76561198980324190,"connected_time":274000000000,"state":"active","ping":50},{"user_id":171,"name":"Clockwork0613","steam_id":76561198987121123,"connected_time":3310000000000,"state":"active","ping":74},{"user_id":215,"name":"cassielee13","steam_id":76561198272718759,"connected_time":2000000000,"state":"spawning","ping":39},{"user_id":210,"name":"Dozzywozzit","steam_id":76561198110598577,"connected_time":342000000000,"state":"active","ping":60},{"user_id":198,"name":"zinnk","steam_id":76561198092081825,"connected_time":1693000000000,"state":"active","ping":59},{"user_id":189,"name":"porfer","steam_id":76561199118049168,"connected_time":2456000000000,"state":"active","ping":80},{"user_id":200,"name":"booxofdeath","steam_id":76561198358253942,"connected_time":1295000000000,"state":"active","ping":67},{"user_id":209,"name":"greens beans","steam_id":76561198153611491,"connected_time":352000000000,"state":"active","ping":44},{"user_id":184,"name":"perfectemu","steam_id":76561199147866624,"connected_time":2706000000000,"state":"active","ping":100},{"user_id":201,"name":"❤To Lazy❤","steam_id":76561198164211904,"connected_time":1044000000000,"state":"active","ping":80},{"user_id":197,"name":"JafarAckbar","steam_id":76561198393932690,"connected_time":2052000000000,"state":"active","ping":89},{"user_id":212,"name":"Cowboyfos","steam_id":76561199055740230,"connected_time":288000000000,"state":"active","ping":74},{"user_id":185,"name":"Glitchy","steam_id":76561198101925500,"connected_time":2694000000000,"state":"active","ping":54},{"user_id":199,"name":"dust | it/she","steam_id":76561198045218909,"connected_time":1430000000000,"state":"active","ping":35},{"user_id":169,"name":"Aardappel","steam_id":76561198030894676,"connected_time":3406000000000,"state":"active","ping":60}]},{"server_id":119,"name":"Uncletopia | Seattle | 2 | All Maps","name_short":"sea-2","host":"sea-1.us.uncletopia.com","port":27025,"enabled":true,"region":"us-west","cc":"us","latitude":47.608013,"longitude":-122.33517,"reserved":0,"last_update":"0001-01-01T00:00:00Z","name_a2s":"Uncletopia | Seattle | 2 | All Maps","protocol":17,"map":"koth_lakeside_final","folder":"tf","game":"Team Fortress","app_id":440,"player_count":0,"max_players":24,"Bots":0,"server_type":"Dedicated","server_os":"Linux","password":true,"vac":true,"version":"7961495","steam_id":85568392924469998,"keywords":["cp","nocrits","nodmgspread","uncletopia"],"game_id":440,"stv_port":27026,"stv_name":"Uncletopia | Seattle | 2 | All Maps | STV","players":null},{"server_id":406,"name":"Uncletopia | Seattle | 3 | Stopwatch","name_short":"sea-3","host":"sea-1.us.uncletopia.com","port":27035,"enabled":true,"region":"us-west","cc":"us","latitude":47.608013,"longitude":-122.33517,"reserved":0,"last_update":"0001-01-01T00:00:00Z","name_a2s":"Uncletopia | Seattle | 3 | Stopwatch","protocol":17,"map":"workshop/cp_process_f12.ugc2302948105","folder":"tf","game":"Team Fortress","app_id":440,"player_count":0,"max_players":24,"Bots":0,"server_type":"Dedicated","server_os":"Linux","password":true,"vac":true,"version":"7961495","steam_id":85568392924515217,"keywords":["cp","nocrits","nodmgspread","uncletopia"],"game_id":440,"stv_port":27036,"stv_name":"Uncletopia | Seattle | 3 | Stopwatch | STV","players":null},{"server_id":17,"name":"Uncletopia | San Francisco | 1 | All Maps","name_short":"sfo-1","host":"sfo-1.us.uncletopia.com","port":27015,"enabled":true,"region":"us-west","cc":"us","latitude":37.77397,"longitude":-122.4313,"reserved":0,"last_update":"0001-01-01T00:00:00Z","name_a2s":"Uncletopia | San Francisco | 1 | All Maps","protocol":17,"map":"koth_highpass","folder":"tf","game":"Team Fortress","app_id":440,"player_count":0,"max_players":24,"Bots":0,"server_type":"Dedicated","server_os":"Linux","password":true,"vac":true,"version":"7961495","steam_id":85568392924469999,"keywords":["cp","nocrits","nodmgspread","uncletopia"],"game_id":440,"stv_port":27016,"stv_name":"Uncletopia | San Francisco | 1 | All Maps | STV","players":null},{"server_id":18,"name":"Uncletopia | San Francisco | 2 | All Maps","name_short":"sfo-2","host":"sfo-1.us.uncletopia.com","port":27025,"enabled":true,"region":"us-west","cc":"us","latitude":37.77397,"longitude":-122.4313,"reserved":0,"last_update":"0001-01-01T00:00:00Z","name_a2s":"Uncletopia | San Francisco | 2 | All Maps","protocol":17,"map":"pl_snowycoast","folder":"tf","game":"Team Fortress","app_id":440,"player_count":0,"max_players":24,"Bots":0,"server_type":"Dedicated","server_os":"Linux","password":true,"vac":true,"version":"7961495","steam_id":85568392924470000,"keywords":["nocrits","nodmgspread","payload","uncletopia"],"game_id":440,"stv_port":27026,"stv_name":"Uncletopia | San Francisco | 2 | All Maps | STV","players":null},{"server_id":19,"name":"Uncletopia | San Francisco | 3 | Stopwatch","name_short":"sfo-3","host":"sfo-1.us.uncletopia.com","port":27035,"enabled":true,"region":"us-west","cc":"us","latitude":37.77397,"longitude":-122.4313,"reserved":0,"last_update":"0001-01-01T00:00:00Z","name_a2s":"Uncletopia | San Francisco | 3 | Stopwatch","protocol":17,"map":"workshop/koth_product_final.ugc454272353","folder":"tf","game":"Team Fortress","app_id":440,"player_count":0,"max_players":24,"Bots":0,"server_type":"Dedicated","server_os":"Linux","password":true,"vac":true,"version":"7961495","steam_id":85568392924742824,"keywords":["cp","nocrits","nodmgspread","uncletopia"],"game_id":440,"stv_port":27036,"stv_name":"Uncletopia | San Francisco | 3 | Stopwatch | STV","players":null},{"server_id":20,"name":"Uncletopia | San Francisco | 4 | Community","name_short":"sfo-4","host":"sfo-1.us.uncletopia.com","port":27045,"enabled":true,"region":"us-west","cc":"us","latitude":37.77397,"longitude":-122.4313,"reserved":0,"last_update":"0001-01-01T00:00:00Z","name_a2s":"Uncletopia | San Francisco | 4 | Community","protocol":17,"map":"workshop/pl_cashworks_final1.ugc2904065412","folder":"tf","game":"Team Fortress","app_id":440,"player_count":0,"max_players":24,"Bots":0,"server_type":"Dedicated","server_os":"Linux","password":true,"vac":true,"version":"7961495","steam_id":85568392924742826,"keywords":["nocrits","nodmgspread","payload","uncletopia"],"game_id":440,"stv_port":27046,"stv_name":"Uncletopia | San Francisco | 4 | Community | STV","players":null},{"server_id":141,"name":"Uncletopia | Sydney | 1 | All Maps","name_short":"syd-1","host":"syd-1.au.uncletopia.com","port":27015,"enabled":true,"region":"au","cc":"au","latitude":-33.865143,"longitude":151.2099,"reserved":0,"last_update":"0001-01-01T00:00:00Z","name_a2s":"Uncletopia | Sydney | 1 | All Maps","protocol":17,"map":"pl_borneo","folder":"tf","game":"Team Fortress","app_id":440,"player_count":0,"max_players":24,"Bots":0,"server_type":"Dedicated","server_os":"Linux","password":true,"vac":true,"version":"7961495","steam_id":85568392924470001,"keywords":["nocrits","nodmgspread","payload","uncletopia"],"game_id":440,"stv_port":27016,"stv_name":"Uncletopia | Sydney | 1 | All Maps | STV","players":null},{"server_id":123,"name":"Uncletopia | Sydney | 2 | All Maps","name_short":"syd-2","host":"syd-1.au.uncletopia.com","port":27025,"enabled":true,"region":"au","cc":"au","latitude":-33.865143,"longitude":151.2099,"reserved":0,"last_update":"0001-01-01T00:00:00Z","name_a2s":"Uncletopia | Sydney | 2 | All Maps","protocol":17,"map":"cp_sunshine","folder":"tf","game":"Team Fortress","app_id":440,"player_count":0,"max_players":24,"Bots":0,"server_type":"Dedicated","server_os":"Linux","password":true,"vac":true,"version":"7961495","steam_id":85568392924470002,"keywords":["cp","nocrits","nodmgspread","uncletopia"],"game_id":440,"stv_port":27026,"stv_name":"Uncletopia | Sydney | 2 | All Maps | STV","players":null},{"server_id":395,"name":"Uncletopia | Sydney | 3 | All Maps","name_short":"syd-3","host":"syd-1.au.uncletopia.com","port":27035,"enabled":true,"region":"au","cc":"au","latitude":-33.865143,"longitude":151.2099,"reserved":0,"last_update":"0001-01-01T00:00:00Z","name_a2s":"Uncletopia | Sydney | 3 | All Maps","protocol":17,"map":"pl_swiftwater_final1","folder":"tf","game":"Team Fortress","app_id":440,"player_count":0,"max_players":24,"Bots":0,"server_type":"Dedicated","server_os":"Linux","password":true,"vac":true,"version":"7961495","steam_id":85568392925194467,"keywords":["nocrits","nodmgspread","payload","uncletopia"],"game_id":440,"stv_port":27036,"stv_name":"Uncletopia | Sydney | 3 | All Maps | STV","players":null},{"server_id":396,"name":"Uncletopia | Sydney | 4 | All Maps","name_short":"syd-4","host":"syd-1.au.uncletopia.com","port":27045,"enabled":true,"region":"au","cc":"au","latitude":-33.865143,"longitude":151.2099,"reserved":0,"last_update":"0001-01-01T00:00:00Z","name_a2s":"Uncletopia | Sydney | 4 | All Maps","protocol":17,"map":"cp_sunshine","folder":"tf","game":"Team Fortress","app_id":440,"player_count":0,"max_players":24,"Bots":0,"server_type":"Dedicated","server_os":"Linux","password":true,"vac":true,"version":"7961495","steam_id":85568392925397958,"keywords":["cp","nocrits","nodmgspread","uncletopia"],"game_id":440,"stv_port":27046,"stv_name":"Uncletopia | Sydney | 4 | All Maps | STV","players":null},{"server_id":58,"name":"Uncletopia | Sydney | 5 | Stopwatch","name_short":"syd-5","host":"syd-1.au.uncletopia.com","port":27055,"enabled":true,"region":"au","cc":"au","latitude":-33.865143,"longitude":151.2099,"reserved":0,"last_update":"0001-01-01T00:00:00Z","name_a2s":"Uncletopia | Sydney | 5 | Stopwatch","protocol":17,"map":"pl_swiftwater_final1","folder":"tf","game":"Team Fortress","app_id":440,"player_count":0,"max_players":24,"Bots":0,"server_type":"Dedicated","server_os":"Linux","password":true,"vac":true,"version":"7961495","steam_id":85568392925397959,"keywords":["nocrits","nodmgspread","payload","uncletopia"],"game_id":440,"stv_port":27056,"stv_name":"Uncletopia | Sydney | 5 | Stopwatch | STV","players":null},{"server_id":59,"name":"Uncletopia | Sydney | 6 | Community","name_short":"syd-6","host":"syd-1.au.uncletopia.com","port":27065,"enabled":true,"region":"au","cc":"au","latitude":-33.865143,"longitude":151.2099,"reserved":0,"last_update":"0001-01-01T00:00:00Z","name_a2s":"Uncletopia | Sydney | 6 | Community","protocol":17,"map":"workshop/koth_trenchfoot_ab1.ugc731436616","folder":"tf","game":"Team Fortress","app_id":440,"player_count":0,"max_players":24,"Bots":0,"server_type":"Dedicated","server_os":"Linux","password":true,"vac":true,"version":"7961495","steam_id":85568392925397960,"keywords":["cp","nocrits","nodmgspread","uncletopia"],"game_id":440,"stv_port":27066,"stv_name":"Uncletopia | Sydney | 6 | Community | STV","players":null},{"server_id":49,"name":"Uncletopia | Warsaw | 1 | One Thousand Uncles","name_short":"waw-1","host":"waw-1.pl.uncletopia.com","port":27015,"enabled":true,"region":"eu","cc":"pl","latitude":52.2297,"longitude":21.017532,"reserved":0,"last_update":"0001-01-01T00:00:00Z","name_a2s":"Uncletopia | Warsaw | 1 | One Thousand Uncles","protocol":17,"map":"cp_dustbowl","folder":"tf","game":"Team Fortress","app_id":440,"player_count":28,"max_players":32,"Bots":16,"server_type":"Dedicated","server_os":"Linux","password":true,"vac":true,"version":"7961495","steam_id":85568392925397850,"keywords":["alltalk","bots","cp","danepve","increased_maxplayers","norespawntime","uncletopia"],"game_id":440,"stv_port":0,"stv_name":"","players":[{"user_id":525,"name":"[1VS23] BAKELITE","steam_id":76561198190816499,"connected_time":2339000000000,"state":"active","ping":55},{"user_id":539,"name":"JMJGAMING971","steam_id":76561199465588292,"connected_time":803000000000,"state":"active","ping":253},{"user_id":545,"name":"Whelchur","steam_id":76561199442895952,"connected_time":15000000000,"state":"active","ping":146},{"user_id":513,"name":"PuPuruPuruPumPu","steam_id":76561198391950490,"connected_time":3885000000000,"state":"active","ping":97},{"user_id":540,"name":"Kyup","steam_id":76561198873205468,"connected_time":669000000000,"state":"active","ping":56},{"user_id":515,"name":"vurtun","steam_id":76561198857395274,"connected_time":3552000000000,"state":"active","ping":60},{"user_id":514,"name":"Plasmaomatic","steam_id":76561199388897290,"connected_time":3715000000000,"state":"active","ping":88},{"user_id":527,"name":"Bordt258","steam_id":76561199038280717,"connected_time":2331000000000,"state":"active","ping":58},{"user_id":526,"name":"HueJazz","steam_id":76561198168125993,"connected_time":2338000000000,"state":"active","ping":46},{"user_id":530,"name":"Its yah monke","steam_id":76561198323869587,"connected_time":1584000000000,"state":"active","ping":65},{"user_id":531,"name":"Käärijä","steam_id":76561199026027655,"connected_time":1438000000000,"state":"active","ping":91},{"user_id":537,"name":"bandyta z buszu","steam_id":76561199409774861,"connected_time":877000000000,"state":"active","ping":57}]},{"server_id":50,"name":"Uncletopia | Warsaw | 2 | One Thousand Uncles","name_short":"waw-2","host":"waw-1.pl.uncletopia.com","port":27025,"enabled":true,"region":"eu","cc":"pl","latitude":52.2297,"longitude":21.017532,"reserved":0,"last_update":"0001-01-01T00:00:00Z","name_a2s":"Uncletopia | Warsaw | 2 | One Thousand Uncles","protocol":17,"map":"cp_dustbowl","folder":"tf","game":"Team Fortress","app_id":440,"player_count":28,"max_players":32,"Bots":16,"server_type":"Dedicated","server_os":"Linux","password":true,"vac":true,"version":"7961495","steam_id":85568392925397851,"keywords":["alltalk","bots","cp","danepve","increased_maxplayers","norespawntime","uncletopia"],"game_id":440,"stv_port":0,"stv_name":"","players":[{"user_id":630,"name":"Normal Soldier Main","steam_id":76561199492662573,"connected_time":350000000000,"state":"active","ping":56},{"user_id":622,"name":"Chemax","steam_id":76561198168846882,"connected_time":1353000000000,"state":"active","ping":100},{"user_id":610,"name":"MrHenry","steam_id":76561199249662743,"connected_time":2683000000000,"state":"active","ping":153},{"user_id":631,"name":"Volxium ore","steam_id":76561198872222015,"connected_time":312000000000,"state":"active","ping":67},{"user_id":611,"name":"aaaaaa","steam_id":76561198086304421,"connected_time":2677000000000,"state":"active","ping":80},{"user_id":628,"name":"Owervatch_mooniyt trade.tf","steam_id":76561198953146376,"connected_time":660000000000,"state":"active","ping":59},{"user_id":576,"name":"Sphynx Cat","steam_id":76561198367800260,"connected_time":4166000000000,"state":"active","ping":37},{"user_id":626,"name":"Sky Diving Soilder","steam_id":76561199447202311,"connected_time":986000000000,"state":"active","ping":187},{"user_id":633,"name":"mr cat","steam_id":76561198027573032,"connected_time":28000000000,"state":"active","ping":46},{"user_id":577,"name":"Phisor","steam_id":76561198233450952,"connected_time":4112000000000,"state":"active","ping":63},{"user_id":579,"name":"LTRambo22","steam_id":76561198850909550,"connected_time":3906000000000,"state":"active","ping":173},{"user_id":590,"name":"Valoxi","steam_id":76561197995042938,"connected_time":3051000000000,"state":"active","ping":69}]},{"server_id":51,"name":"Uncletopia | Warsaw | 3 | All Maps","name_short":"waw-3","host":"waw-1.pl.uncletopia.com","port":27035,"enabled":true,"region":"eu","cc":"pl","latitude":52.2297,"longitude":21.017532,"reserved":0,"last_update":"0001-01-01T00:00:00Z","name_a2s":"Uncletopia | Warsaw | 3 | All Maps","protocol":17,"map":"koth_highpass","folder":"tf","game":"Team Fortress","app_id":440,"player_count":0,"max_players":24,"Bots":0,"server_type":"Dedicated","server_os":"Linux","password":true,"vac":true,"version":"7961495","steam_id":85568392925397852,"keywords":["cp","nocrits","nodmgspread","uncletopia"],"game_id":440,"stv_port":27036,"stv_name":"Uncletopia | Warsaw | 3 | All Maps | STV","players":null},{"server_id":52,"name":"Uncletopia | Warsaw | 4 | All Maps","name_short":"waw-4","host":"waw-1.pl.uncletopia.com","port":27045,"enabled":true,"region":"eu","cc":"pl","latitude":52.2297,"longitude":21.017532,"reserved":0,"last_update":"0001-01-01T00:00:00Z","name_a2s":"Uncletopia | Warsaw | 4 | All Maps","protocol":17,"map":"koth_highpass","folder":"tf","game":"Team Fortress","app_id":440,"player_count":4,"max_players":24,"Bots":0,"server_type":"Dedicated","server_os":"Linux","password":true,"vac":true,"version":"7961495","steam_id":85568392925397853,"keywords":["cp","nocrits","nodmgspread","uncletopia"],"game_id":440,"stv_port":27046,"stv_name":"Uncletopia | Warsaw | 4 | All Maps | STV","players":[{"user_id":247,"name":"❃卂ֆㄒ卂❃","steam_id":76561199076182154,"connected_time":665000000000,"state":"active","ping":59},{"user_id":251,"name":"star kotinum","steam_id":76561199243571028,"connected_time":355000000000,"state":"active","ping":51},{"user_id":249,"name":"Maksibony","steam_id":76561199075782403,"connected_time":653000000000,"state":"active","ping":45},{"user_id":252,"name":"ja","steam_id":76561199228540618,"connected_time":62000000000,"state":"active","ping":41}]},{"server_id":53,"name":"Uncletopia | Warsaw | 5 | Stopwatch","name_short":"waw-5","host":"waw-1.pl.uncletopia.com","port":27055,"enabled":true,"region":"eu","cc":"pl","latitude":52.2297,"longitude":21.017532,"reserved":0,"last_update":"0001-01-01T00:00:00Z","name_a2s":"Uncletopia | Warsaw | 5 | Stopwatch","protocol":17,"map":"workshop/koth_clearcut_b15.ugc2107050255","folder":"tf","game":"Team Fortress","app_id":440,"player_count":0,"max_players":24,"Bots":0,"server_type":"Dedicated","server_os":"Linux","password":true,"vac":true,"version":"7961495","steam_id":85568392925397854,"keywords":["cp","nocrits","nodmgspread","uncletopia"],"game_id":440,"stv_port":27056,"stv_name":"Uncletopia | Warsaw | 5 | Stopwatch | STV","players":null},{"server_id":54,"name":"Uncletopia | Warsaw | 6 | Community","name_short":"waw-6","host":"waw-1.pl.uncletopia.com","port":27065,"enabled":true,"region":"eu","cc":"pl","latitude":52.2297,"longitude":21.017532,"reserved":0,"last_update":"0001-01-01T00:00:00Z","name_a2s":"Uncletopia | Warsaw | 6 | Community","protocol":17,"map":"workshop/cp_coilblaze_rc7.ugc1272700588","folder":"tf","game":"Team Fortress","app_id":440,"player_count":0,"max_players":24,"Bots":0,"server_type":"Dedicated","server_os":"Linux","password":true,"vac":true,"version":"7961495","steam_id":85568392925397856,"keywords":["cp","nocrits","nodmgspread","uncletopia"],"game_id":440,"stv_port":27066,"stv_name":"Uncletopia | Warsaw | 6 | Community | STV","players":null}]}