{"status":true,"message":"","result":[{"server_id":9,"name":"Uncletopia | Atlanta | 1 | All Maps","name_short":"atl-1","host":"atl-1.us.uncletopia.com","port":27015,"enabled":true,"region":"us-east","cc":"us","latitude":33.753746,"longitude":-84.38633,"reserved":0,"last_update":"0001-01-01T00:00:00Z","name_a2s":"Uncletopia | Atlanta | 1 | All Maps","protocol":17,"map":"pl_frontier_final","folder":"tf","game":"Team Fortress","app_id":440,"player_count":0,"max_players":24,"Bots":0,"server_type":"Dedicated","server_os":"Linux","password":true,"vac":true,"version":"7708610","steam_id":85568392924469982,"keywords":["nocrits","nodmgspread","payload","uncletopia"],"game_id":440,"stv_port":27016,"stv_name":"Uncletopia | Atlanta | 1 | All Maps | STV","players":null},{"server_id":400,"name":"Uncletopia | Atlanta | 3 | All Maps","name_short":"atl-3","host":"atl-1.us.uncletopia.com","port":27035,"enabled":true,"region":"us-east","cc":"us","latitude":33.753746,"longitude":-84.38633,"reserved":0,"last_update":"0001-01-01T00:00:00Z","name_a2s":"Uncletopia | Atlanta | 3 | All Maps","protocol":17,"map":"cp_snakewater_final1","folder":"tf","game":"Team Fortress","app_id":440,"player_count":0,"max_players":24,"Bots":0,"server_type":"Dedicated","server_os":"Linux","password":true,"vac":true,"version":"7708610","steam_id":85568392924515187,"keywords":["cp","nocrits","nodmgspread","uncletopia"],"game_id":440,"stv_port":27036,"stv_name":"Uncletopia | Atlanta | 3 | All Maps | STV","players":null},{"server_id":401,"name":"Uncletopia | Atlanta | 4 | No Payload","name_short":"atl-4","host":"atl-1.us.uncletopia.com","port":27045,"enabled":true,"region":"us-east","cc":"us","latitude":33.753746,"longitude":-84.38633,"reserved":0,"last_update":"0001-01-01T00:00:00Z","name_a2s":"Uncletopia | Atlanta | 4 | No Payload","protocol":17,"map":"pl_snowycoast","folder":"tf","game":"Team Fortress","app_id":440,"player_count":0,"max_players":24,"Bots":0,"server_type":"Dedicated","server_os":"Linux","password":true,"vac":true,"version":"7708610","steam_id":85568392924515188,"keywords":["nocrits","nodmgspread","payload","uncletopia"],"game_id":440,"stv_port":27046,"stv_name":"Uncletopia | Atlanta | 4 | No Payload | STV","players":null},{"server_id":2,"name":"Uncletopia | Chicago | 1 | All Maps","name_short":"chi-1","host":"chi-1.us.uncletopia.com","port":27015,"enabled":true,"region":"us-central","cc":"us","latitude":41.881832,"longitude":-87.62318,"reserved":0,"last_update":"0001-01-01T00:00:00Z","name_a2s":"Uncletopia | Chicago | 1 | All Maps","protocol":17,"map":"cp_dustbowl","folder":"tf","game":"Team Fortress","app_id":440,"player_count":0,"max_players":24,"Bots":0,"server_type":"Dedicated","server_os":"Linux","password":true,"vac":true,"version":"7708610","steam_id":85568392924469984,"keywords":["cp","nocrits","nodmgspread","uncletopia"],"game_id":440,"stv_port":27016,"stv_name":"Uncletopia | Chicago | 1 | All Maps | STV","players":null},{"server_id":106,"name":"Uncletopia | Chicago | 2 | All Maps","name_short":"chi-2","host":"chi-1.us.uncletopia.com","port":27025,"enabled":true,"region":"us-central","cc":"us","latitude":41.881832,"longitude":-87.62318,"reserved":0,"last_update":"0001-01-01T00:00:00Z","name_a2s":"Uncletopia | Chicago | 2 | All Maps","protocol":17,"map":"pl_frontier_final","folder":"tf","game":"Team Fortress","app_id":440,"player_count":0,"max_players":24,"Bots":0,"server_type":"Dedicated","server_os":"Linux","password":true,"vac":true,"version":"7708610","steam_id":85568392924469985,"keywords":["nocrits","nodmgspread","payload","uncletopia"],"game_id":440,"stv_port":27026,"stv_name":"Uncletopia | Chicago | 2 | All Maps | STV","players":null},{"server_id":402,"name":"Uncletopia | Chicago | 3 | All Maps","name_short":"chi-3","host":"chi-1.us.uncletopia.com","port":27035,"enabled":true,"region":"us-central","cc":"us","latitude":41.881832,"longitude":-87.62318,"reserved":0,"last_update":"0001-01-01T00:00:00Z","name_a2s":"Uncletopia | Chicago | 3 | All Maps","protocol":17,"map":"pl_barnblitz","folder":"tf","game":"Team Fortress","app_id":440,"player_count":0,"max_players":24,"Bots":0,"server_type":"Dedicated","server_os":"Linux","password":true,"vac":true,"version":"7708610","steam_id":85568392924515191,"keywords":["nocrits","nodmgspread","payload","uncletopia"],"game_id":440,"stv_port":27036,"stv_name":"Uncletopia | Chicago | 3 | All Maps | STV","players":null},{"server_id":403,"name":"Uncletopia | Chicago | 4 | All Maps","name_short":"chi-4","host":"chi-1.us.uncletopia.com","port":27045,"enabled":true,"region":"us-central","cc":"us","latitude":41.881832,"longitude":-87.62318,"reserved":0,"last_update":"0001-01-01T00:00:00Z","name_a2s":"Uncletopia | Chicago | 4 | All Maps","protocol":17,"map":"pl_frontier_final","folder":"tf","game":"Team Fortress","app_id":440,"player_count":0,"max_players":24,"Bots":0,"server_type":"Dedicated","server_os":"Linux","password":true,"vac":true,"version":"7708610","steam_id":85568392924515193,"keywords":["nocrits","nodmgspread","payload","uncletopia"],"game_id":440,"stv_port":27046,"stv_name":"Uncletopia | Chicago | 4 | All Maps | STV","players":null},{"server_id":36,"name":"Uncletopia | Chicago | 5 | All Maps","name_short":"chi-5","host":"chi-2.us.uncletopia.com","port":27015,"enabled":true,"region":"us-central","cc":"us","latitude":41.881832,"longitude":-87.62318,"reserved":0,"last_update":"0001-01-01T00:00:00Z","name_a2s":"Uncletopia | Chicago | 5 | All Maps","protocol":17,"map":"koth_lakeside_final","folder":"tf","game":"Team Fortress","app_id":440,"player_count":0,"max_players":24,"Bots":0,"server_type":"Dedicated","server_os":"Linux","password":true,"vac":true,"version":"7708610","steam_id":85568392924866362,"keywords":["cp","nocrits","nodmgspread","uncletopia"],"game_id":440,"stv_port":27016,"stv_name":"Uncletopia | Chicago | 5 | All Maps | STV","players":null},{"server_id":37,"name":"Uncletopia | Chicago | 6 | All Maps","name_short":"chi-6","host":"chi-2.us.uncletopia.com","port":27025,"enabled":true,"region":"us-central","cc":"us","latitude":41.881832,"longitude":-87.62318,"reserved":0,"last_update":"0001-01-01T00:00:00Z","name_a2s":"Uncletopia | Chicago | 6 | All Maps","protocol":17,"map":"pl_barnblitz","folder":"tf","game":"Team Fortress","app_id":440,"player_count":0,"max_players":24,"Bots":0,"server_type":"Dedicated","server_os":"Linux","password":true,"vac":true,"version":"7708610","steam_id":85568392924866363,"keywords":["nocrits","nodmgspread","payload","uncletopia"],"game_id":440,"stv_port":27026,"stv_name":"Uncletopia | Chicago | 6 | All Maps | STV","players":null},{"server_id":38,"name":"Uncletopia | Chicago | 7 | No Payload","name_short":"chi-7","host":"chi-2.us.uncletopia.com","port":27035,"enabled":true,"region":"us-central","cc":"us","latitude":41.881832,"longitude":-87.62318,"reserved":0,"last_update":"0001-01-01T00:00:00Z","name_a2s":"Uncletopia | Chicago | 7 | No Payload","protocol":17,"map":"cp_dustbowl","folder":"tf","game":"Team Fortress","app_id":440,"player_count":0,"max_players":24,"Bots":0,"server_type":"Dedicated","server_os":"Linux","password":true,"vac":true,"version":"7708610","steam_id":85568392924866364,"keywords":["cp","nocrits","nodmgspread","uncletopia"],"game_id":440,"stv_port":27036,"stv_name":"Uncletopia | Chicago | 7 | No Payload | STV","players":null},{"server_id":39,"name":"Uncletopia | Chicago | 8 | Community","name_short":"chi-8","host":"chi-2.us.uncletopia.com","port":27045,"enabled":true,"region":"us-central","cc":"us","latitude":41.881832,"longitude":-87.62318,"reserved":0,"last_update":"0001-01-01T00:00:00Z","name_a2s":"Uncletopia | Chicago | 8 | Community","protocol":17,"map":"cp_dustbowl","folder":"tf","game":"Team Fortress","app_id":440,"player_count":0,"max_players":24,"Bots":0,"server_type":"Dedicated","server_os":"Linux","password":true,"vac":true,"version":"7708610","steam_id":85568392924866365,"keywords":["cp","nocrits","nodmgspread","uncletopia"],"game_id":440,"stv_port":27046,"stv_name":"Uncletopia | Chicago | 8 | Community | STV","players":null},{"server_id":8,"name":"Uncletopia | Dallas | 1 | All Maps","name_short":"dal-1","host":"dal-1.us.uncletopia.com","port":27015,"enabled":true,"region":"us-central","cc":"us","latitude":32.779167,"longitude":-96.80889,"reserved":0,"last_update":"0001-01-01T00:00:00Z","name_a2s":"Uncletopia | Dallas | 1 | All Maps","protocol":17,"map":"cp_mountainlab","folder":"tf","game":"Team Fortress","app_id":440,"player_count":0,"max_players":24,"Bots":0,"server_type":"Dedicated","server_os":"Linux","password":true,"vac":true,"version":"7708610","steam_id":85568392924469986,"keywords":["cp","nocrits","nodmgspread","uncletopia"],"game_id":440,"stv_port":27016,"stv_name":"Uncletopia | Dallas | 1 | All Maps | STV","players":null},{"server_id":108,"name":"Uncletopia | Dallas | 2 | All Maps","name_short":"dal-2","host":"dal-1.us.uncletopia.com","port":27025,"enabled":true,"region":"us-central","cc":"us","latitude":32.779167,"longitude":-96.80889,"reserved":0,"last_update":"0001-01-01T00:00:00Z","name_a2s":"Uncletopia | Dallas | 2 | All Maps","protocol":17,"map":"koth_highpass","folder":"tf","game":"Team Fortress","app_id":440,"player_count":0,"max_players":24,"Bots":0,"server_type":"Dedicated","server_os":"Linux","password":true,"vac":true,"version":"7708610","steam_id":85568392924469988,"keywords":["cp","nocrits","nodmgspread","uncletopia"],"game_id":440,"stv_port":27026,"stv_name":"Uncletopia | Dallas | 2 | All Maps | STV","players":null},{"server_id":5,"name":"Uncletopia | Frankfurt | 1 | All Maps","name_short":"frk-1","host":"frk-1.de.uncletopia.com","port":27015,"enabled":true,"region":"eu","cc":"de","latitude":50.110924,"longitude":8.682127,"reserved":0,"last_update":"0001-01-01T00:00:00Z","name_a2s":"Uncletopia | Frankfurt | 1 | All Maps","protocol":17,"map":"pl_snowycoast","folder":"tf","game":"Team Fortress","app_id":440,"player_count":24,"max_players":24,"Bots":0,"server_type":"Dedicated","server_os":"Linux","password":true,"vac":true,"version":"7708610","steam_id":85568392924469989,"keywords":["nocrits","nodmgspread","payload","uncletopia"],"game_id":440,"stv_port":27016,"stv_name":"Uncletopia | Frankfurt | 1 | All Maps | STV","players":[{"user_id":229,"name":"Mr.Kevin120","steam_id":76561199186919096,"connected_time":3060000000000,"state":"active","ping":162},{"user_id":259,"name":"That Sounds Serious","steam_id":76561198247719128,"connected_time":1054000000000,"state":"active","ping":69},{"user_id":230,"name":"Kindrick","steam_id":76561199014184981,"connected_time":2973000000000,"state":"active","ping":169},{"user_id":231,"name":"HYA HYA FOOWAAH!","steam_id":76561198193357946,"connected_time":2973000000000,"state":"active","ping":116},{"user_id":271,"name":"Unusual Pseudo","steam_id":76561198001209810,"connected_time":388000000000,"state":"active","ping":60},{"user_id":269,"name":"Zifa Vill","steam_id":76561199197102857,"connected_time":560000000000,"state":"active","ping":148},{"user_id":199,"name":"walluu","steam_id":76561198121830870,"connected_time":6081000000000,"state":"active","ping":75},{"user_id":232,"name":"Yona_Man_Jones","steam_id":76561198986032201,"connected_time":2968000000000,"state":"active","ping":104},{"user_id":233,"name":"Hedj","steam_id":76561198108369687,"connected_time":2943000000000,"state":"active","ping":47},{"user_id":250,"name":"Leibeigener","steam_id":76561199275478305,"connected_time":1755000000000,"state":"active","ping":41},{"user_id":260,"name":"imthegerman","steam_id":76561198053401077,"connected_time":950000000000,"state":"active","ping":106},{"user_id":272,"name":"EpicMonkeGaming","steam_id":76561199191051178,"connected_time":372000000000,"state":"active","ping":118},{"user_id":246,"name":"MrMedic","steam_id":76561199239610052,"connected_time":2243000000000,"state":"active","ping":80},{"user_id":273,"name":"name","steam_id":76561198152620745,"connected_time":367000000000,"state":"active","ping":65},{"user_id":241,"name":"Rambi","steam_id":76561199058078505,"connected_time":2799000000000,"state":"active","ping":157},{"user_id":202,"name":"ramedlaV^^","steam_id":76561198074352339,"connected_time":5777000000000,"state":"active","ping":69},{"user_id":268,"name":"Yuval","steam_id":76561198241802390,"connected_time":598000000000,"state":"active","ping":114},{"user_id":214,"name":"40svartapungar","steam_id":76561199264277168,"connected_time":5261000000000,"state":"active","ping":68},{"user_id":216,"name":"Chris \"banana\" Redfield","steam_id":76561198429658370,"connected_time":5251000000000,"state":"active","ping":120},{"user_id":254,"name":"giclure :;","steam_id":76561197986362828,"connected_time":1468000000000,"state":"active","ping":57},{"user_id":265,"name":"jmp","steam_id":76561198168283286,"connected_time":653000000000,"state":"active","ping":75},{"user_id":256,"name":"SpilledMilk","steam_id":76561198174123971,"connected_time":1365000000000,"state":"active","ping":50},{"user_id":255,"name":"player","steam_id":76561198054474684,"connected_time":1416000000000,"state":"active","ping":75},{"user_id":274,"name":"purplecan","steam_id":76561199208283508,"connected_time":364000000000,"state":"active","ping":60}]},{"server_id":110,"name":"Uncletopia | Frankfurt | 2 | All Maps","name_short":"frk-2","host":"frk-1.de.uncletopia.com","port":27025,"enabled":true,"region":"eu","cc":"de","latitude":50.110924,"longitude":8.682127,"reserved":0,"last_update":"0001-01-01T00:00:00Z","name_a2s":"Uncletopia | Frankfurt | 2 | All Maps","protocol":17,"map":"koth_lakeside_final","folder":"tf","game":"Team Fortress","app_id":440,"player_count":24,"max_players":24,"Bots":0,"server_type":"Dedicated","server_os":"Linux","password":true,"vac":true,"version":"7708610","steam_id":85568392924469990,"keywords":["cp","nocrits","nodmgspread","uncletopia"],"game_id":440,"stv_port":27026,"stv_name":"Uncletopia | Frankfurt | 2 | All Maps | STV","players":[{"user_id":132,"name":"Him","steam_id":76561198086400484,"connected_time":7124000000000,"state":"active","ping":78},{"user_id":235,"name":"Master_Alex","steam_id":76561198843695199,"connected_time":346000000000,"state":"active","ping":50},{"user_id":221,"name":"guy who snores hooonk mimimi","steam_id":76561198156394435,"connected_time":791000000000,"state":"active","ping":52},{"user_id":246,"name":"Stitch","steam_id":76561198104613474,"connected_time":82000000000,"state":"active","ping":57},{"user_id":241,"name":"wilburtino [IE]","steam_id":76561198025353307,"connected_time":119000000000,"state":"active","ping":55},{"user_id":189,"name":"Nugeet","steam_id":76561198350037064,"connected_time":3461000000000,"state":"active","ping":53},{"user_id":125,"name":"ciliorkun18","steam_id":76561198228942500,"connected_time":7570000000000,"state":"active","ping":173},{"user_id":230,"name":"Brinier","steam_id":76561199012604288,"connected_time":594000000000,"state":"active","ping":54},{"user_id":218,"name":"Floris","steam_id":76561198001717422,"connected_time":876000000000,"state":"active","ping":56},{"user_id":244,"name":"MOLITOV","steam_id":76561198392150484,"connected_time":107000000000,"state":"active","ping":87},{"user_id":220,"name":"Uncommon","steam_id":76561198832659399,"connected_time":845000000000,"state":"active","ping":69},{"user_id":236,"name":"Toad | Mario Kart Double Dash","steam_id":76561198374881425,"connected_time":259000000000,"state":"active","ping":76},{"user_id":222,"name":"why is my pee red?","steam_id":76561198156216402,"connected_time":790000000000,"state":"active","ping":64},{"user_id":223,"name":"eidis","steam_id":76561198314954479,"connected_time":742000000000,"state":"active","ping":109},{"user_id":233,"name":"barni","steam_id":76561198170420173,"connected_time":385000000000,"state":"active","ping":76},{"user_id":226,"name":"Minister of cocks","steam_id":76561198829740342,"connected_time":677000000000,"state":"active","ping":61},{"user_id":242,"name":"bAdmon","steam_id":76561197961785793,"connected_time":115000000000,"state":"active","ping":58},{"user_id":227,"name":"Industrial Revolution","steam_id":76561198230811124,"connected_time":659000000000,"state":"active","ping":61},{"user_id":228,"name":"Tomb","steam_id":76561198110349761,"connected_time":650000000000,"state":"active","ping":64},{"user_id":229,"name":"Beb","steam_id":76561198106119248,"connected_time":636000000000,"state":"active","ping":64},{"user_id":237,"name":"pneumonia pete","steam_id":76561198075539799,"connected_time":258000000000,"state":"active","ping":58},{"user_id":245,"name":"grand autismo","steam_id":76561199074305227,"connected_time":88000000000,"state":"active","ping":75},{"user_id":239,"name":"Chris","steam_id":76561199443600515,"connected_time":210000000000,"state":"active","ping":70},{"user_id":240,"name":"invis","steam_id":76561198120668070,"connected_time":191000000000,"state":"active","ping":61}]},{"server_id":308,"name":"Uncletopia | Frankfurt | 3 | All Maps","name_short":"frk-3","host":"frk-1.de.uncletopia.com","port":27035,"enabled":true,"region":"eu","cc":"de","latitude":50.110924,"longitude":8.682127,"reserved":0,"last_update":"0001-01-01T00:00:00Z","name_a2s":"Uncletopia | Frankfurt | 3 | All Maps","protocol":17,"map":"koth_harvest_final","folder":"tf","game":"Team Fortress","app_id":440,"player_count":24,"max_players":24,"Bots":0,"server_type":"Dedicated","server_os":"Linux","password":true,"vac":true,"version":"7708610","steam_id":85568392924504274,"keywords":["cp","nocrits","nodmgspread","uncletopia"],"game_id":440,"stv_port":27036,"stv_name":"Uncletopia | Frankfurt | 3 | All Maps | STV","players":[{"user_id":5,"name":"Refined Pyro","steam_id":76561198998785919,"connected_time":9773000000000,"state":"active","ping":53},{"user_id":139,"name":"Sticky Bomb","steam_id":76561198214267967,"connected_time":903000000000,"state":"active","ping":72},{"user_id":136,"name":"Kameyyo","steam_id":76561198077929425,"connected_time":1041000000000,"state":"active","ping":64},{"user_id":124,"name":"SirVitek","steam_id":76561198142961758,"connected_time":1978000000000,"state":"active","ping":65},{"user_id":137,"name":"Biggie Bennet W Swagga Jam","steam_id":76561198087638023,"connected_time":1029000000000,"state":"active","ping":49},{"user_id":138,"name":"Osmo","steam_id":76561199286764992,"connected_time":956000000000,"state":"active","ping":80},{"user_id":145,"name":"The Imperial","steam_id":76561198374118102,"connected_time":83000000000,"state":"active","ping":57},{"user_id":101,"name":"Hydro","steam_id":76561199081791855,"connected_time":4064000000000,"state":"active","ping":70},{"user_id":134,"name":"Chen","steam_id":76561198440363619,"connected_time":1144000000000,"state":"active","ping":46},{"user_id":113,"name":"JIJI","steam_id":76561198137597283,"connected_time":2703000000000,"state":"active","ping":91},{"user_id":99,"name":"Dolcelatte","steam_id":76561198038501770,"connected_time":4158000000000,"state":"active","ping":52},{"user_id":143,"name":".::[SerafeTTiN]::.","steam_id":76561198009471724,"connected_time":196000000000,"state":"active","ping":90},{"user_id":128,"name":"kvlt","steam_id":76561198119420945,"connected_time":1638000000000,"state":"active","ping":76},{"user_id":77,"name":"bigwish | bmod.tf","steam_id":76561197997859723,"connected_time":5319000000000,"state":"active","ping":69},{"user_id":121,"name":"jan-anne-wiebe","steam_id":76561199077022985,"connected_time":2317000000000,"state":"active","ping":60},{"user_id":130,"name":"durin","steam_id":76561199024778160,"connected_time":1511000000000,"state":"active","ping":133},{"user_id":46,"name":"shinji","steam_id":76561198099696876,"connected_time":6964000000000,"state":"active","ping":61},{"user_id":102,"name":"drew","steam_id":76561198012304706,"connected_time":3892000000000,"state":"active","ping":93},{"user_id":141,"name":"Tweehoek","steam_id":76561197993796913,"connected_time":728000000000,"state":"active","ping":65},{"user_id":69,"name":"Windows Vista Cruiser","steam_id":76561198064102233,"connected_time":5844000000000,"state":"active","ping":81},{"user_id":140,"name":"Rockwell Retro Encabulator","steam_id":76561198420349969,"connected_time":823000000000,"state":"active","ping":87},{"user_id":119,"name":"ApplePieAlive","steam_id":76561198396695859,"connected_time":2568000000000,"state":"active","ping":69},{"user_id":144,"name":"Pyrolander","steam_id":76561198050785450,"connected_time":150000000000,"state":"active","ping":57},{"user_id":107,"name":"Crome_BOX","steam_id":76561198189948415,"connected_time":3513000000000,"state":"active","ping":73}]},{"server_id":309,"name":"Uncletopia | Frankfurt | 4 | All Maps","name_short":"frk-4","host":"frk-1.de.uncletopia.com","port":27045,"enabled":true,"region":"eu","cc":"de","latitude":50.110924,"longitude":8.682127,"reserved":0,"last_update":"0001-01-01T00:00:00Z","name_a2s":"Uncletopia | Frankfurt | 4 | All Maps","protocol":17,"map":"pl_snowycoast","folder":"tf","game":"Team Fortress","app_id":440,"player_count":3,"max_players":24,"Bots":0,"server_type":"Dedicated","server_os":"Linux","password":true,"vac":true,"version":"7708610","steam_id":85568392924504275,"keywords":["nocrits","nodmgspread","payload","uncletopia"],"game_id":440,"stv_port":27046,"stv_name":"Uncletopia | Frankfurt | 4 | All Maps | STV","players":[{"user_id":31,"name":"hulluheppu1","steam_id":76561198093458326,"connected_time":585000000000,"state":"active","ping":68},{"user_id":33,"name":"mursu99","steam_id":76561199113214368,"connected_time":307000000000,"state":"active","ping":117},{"user_id":34,"name":"DoesHotter","steam_id":76561199438357934,"connected_time":197000000000,"state":"active","ping":173}]},{"server_id":310,"name":"Uncletopia | Frankfurt | 5 | All Maps","name_short":"frk-5","host":"frk-1.de.uncletopia.com","port":27055,"enabled":true,"region":"eu","cc":"de","latitude":50.110924,"longitude":8.682127,"reserved":0,"last_update":"0001-01-01T00:00:00Z","name_a2s":"Uncletopia | Frankfurt | 5 | All Maps","protocol":17,"map":"koth_viaduct","folder":"tf","game":"Team Fortress","app_id":440,"player_count":6,"max_players":24,"Bots":0,"server_type":"Dedicated","server_os":"Linux","password":true,"vac":true,"version":"7708610","steam_id":85568392924504277,"keywords":["cp","nocrits","nodmgspread","uncletopia"],"game_id":440,"stv_port":27056,"stv_name":"Uncletopia | Frankfurt | 5 | All Maps | STV","players":[{"user_id":8,"name":"Light601","steam_id":76561198134998492,"connected_time":330000000000,"state":"active","ping":81},{"user_id":9,"name":"ImBadAtTeamFortress2 [F2P]","steam_id":76561199248617712,"connected_time":280000000000,"state":"active","ping":68},{"user_id":10,"name":"Ass exploder","steam_id":76561198145312909,"connected_time":103000000000,"state":"spawning","ping":61},{"user_id":11,"name":"Karsapaali","steam_id":76561198322322739,"connected_time":80000000000,"state":"active","ping":80},{"user_id":12,"name":"Nummi","steam_id":76561198980901935,"connected_time":68000000000,"state":"active","ping":88},{"user_id":13,"name":"delta man","steam_id":76561198204491245,"connected_time":53000000000,"state":"active","ping":128}]},{"server_id":311,"name":"Uncletopia | Frankfurt | 6 | All Maps","name_short":"frk-6","host":"frk-1.de.uncletopia.com","port":27065,"enabled":true,"region":"eu","cc":"de","latitude":50.110924,"longitude":8.682127,"reserved":0,"last_update":"0001-01-01T00:00:00Z","name_a2s":"Uncletopia | Frankfurt | 6 | All Maps","protocol":17,"map":"pl_pier","folder":"tf","game":"Team Fortress","app_id":440,"player_count":0,"max_players":24,"Bots":0,"server_type":"Dedicated","server_os":"Linux","password":true,"vac":true,"version":"7708610","steam_id":85568392924504278,"keywords":["nocrits","nodmgspread","payload","uncletopia"],"game_id":440,"stv_port":27066,"stv_name":"Uncletopia | Frankfurt | 6 | All Maps | STV","players":null},{"server_id":23,"name":"Uncletopia | Frankfurt | 7 | No Payload","name_short":"frk-7","host":"frk-1.de.uncletopia.com","port":27075,"enabled":true,"region":"eu","cc":"de","latitude":50.110924,"longitude":8.682127,"reserved":0,"last_update":"0001-01-01T00:00:00Z","name_a2s":"Uncletopia | Frankfurt | 7 | No Payload","protocol":17,"map":"koth_viaduct","folder":"tf","game":"Team Fortress","app_id":440,"player_count":0,"max_players":24,"Bots":0,"server_type":"Dedicated","server_os":"Linux","password":true,"vac":true,"version":"7708610","steam_id":85568392924742827,"keywords":["cp","nocrits","nodmgspread","uncletopia"],"game_id":440,"stv_port":27076,"stv_name":"Uncletopia | Frankfurt | 7 | No Payload | STV","players":null},{"server_id":24,"name":"Uncletopia | Frankfurt | 8 | Community","name_short":"frk-8","host":"frk-1.de.uncletopia.com","port":27085,"enabled":true,"region":"eu","cc":"de","latitude":50.110924,"longitude":8.682127,"reserved":0,"last_update":"0001-01-01T00:00:00Z","name_a2s":"Uncletopia | Frankfurt | 8 | Community","protocol":17,"map":"workshop/koth_ashville_final.ugc2130459942","folder":"tf","game":"Team Fortress","app_id":440,"player_count":0,"max_players":24,"Bots":0,"server_type":"Dedicated","server_os":"Linux","password":true,"vac":true,"version":"7708610","steam_id":85568392924742828,"keywords":["cp","nocrits","nodmgspread","uncletopia"],"game_id":440,"stv_port":27086,"stv_name":"Uncletopia | Frankfurt | 8 | Community | STV","players":null},{"server_id":202,"name":"Uncletopia | Hong Kong | 1 | All Maps","name_short":"hgk-1","host":"hgk-1.hk.uncletopia.com","port":27015,"enabled":true,"region":"asia","cc":"hk","latitude":22.302711,"longitude":114.177216,"reserved":0,"last_update":"0001-01-01T00:00:00Z","name_a2s":"Uncletopia | Hong Kong | 1 | All Maps","protocol":17,"map":"plr_bananabay","folder":"tf","game":"Team Fortress","app_id":440,"player_count":23,"max_players":24,"Bots":0,"server_type":"Dedicated","server_os":"Linux","password":true,"vac":true,"version":"7708610","steam_id":85568392924494504,"keywords":["nocrits","nodmgspread","payload","uncletopia"],"game_id":440,"stv_port":27016,"stv_name":"Uncletopia | Hong Kong | 1 | All Maps | STV","players":[{"user_id":415,"name":"雪ノ下雪乃のoppai","steam_id":76561198008307645,"connected_time":5515000000000,"state":"active","ping":74},{"user_id":455,"name":"Bertengkar","steam_id":76561198213031155,"connected_time":2033000000000,"state":"active","ping":96},{"user_id":474,"name":"Username","steam_id":76561198285831999,"connected_time":465000000000,"state":"active","ping":122},{"user_id":463,"name":"Skeptikal01","steam_id":76561199064694137,"connected_time":1549000000000,"state":"active","ping":104},{"user_id":476,"name":"Victor","steam_id":76561198227718740,"connected_time":384000000000,"state":"active","ping":63},{"user_id":461,"name":"Dr. Piss Rat","steam_id":76561199074809838,"connected_time":1693000000000,"state":"active","ping":67},{"user_id":469,"name":"Lu","steam_id":76561198320532821,"connected_time":856000000000,"state":"active","ping":57},{"user_id":441,"name":"it chrmis time","steam_id":76561198055553140,"connected_time":4089000000000,"state":"active","ping":80},{"user_id":473,"name":"n3on_f0x","steam_id":76561198868655235,"connected_time":483000000000,"state":"active","ping":56},{"user_id":479,"name":"monkeyman536","steam_id":76561197997717737,"connected_time":181000000000,"state":"active","ping":118},{"user_id":475,"name":"Luv ❤","steam_id":76561198066262562,"connected_time":426000000000,"state":"active","ping":96},{"user_id":480,"name":"秋来相顾尚飘蓬","steam_id":76561199139392743,"connected_time":127000000000,"state":"connecting","ping":0},{"user_id":420,"name":"Noyour","steam_id":76561198323259830,"connected_time":5410000000000,"state":"active","ping":113},{"user_id":466,"name":"+W+","steam_id":76561197997220367,"connected_time":1180000000000,"state":"active","ping":45},{"user_id":288,"name":"tiden2000","steam_id":76561198092969425,"connected_time":15906000000000,"state":"active","ping":69},{"user_id":408,"name":"nick","steam_id":76561198400698408,"connected_time":6334000000000,"state":"active","ping":90},{"user_id":481,"name":"i like balls","steam_id":76561199010558927,"connected_time":107000000000,"state":"active","ping":107},{"user_id":465,"name":"Buff Daddy","steam_id":76561198185621547,"connected_time":1521000000000,"state":"active","ping":108},{"user_id":472,"name":"Puddin","steam_id":76561198140052918,"connected_time":606000000000,"state":"active","ping":79},{"user_id":377,"name":"Pillboi","steam_id":76561198011172886,"connected_time":9307000000000,"state":"active","ping":46},{"user_id":449,"name":"Momoxhien","steam_id":76561198414997429,"connected_time":3107000000000,"state":"active","ping":66},{"user_id":444,"name":"Buttman","steam_id":76561198044693388,"connected_time":3869000000000,"state":"active","ping":47},{"user_id":454,"name":"SunShine","steam_id":76561198323642446,"connected_time":2115000000000,"state":"active","ping":104}]},{"server_id":1,"name":"Uncletopia | Los Angeles | 1 | All Maps","name_short":"lax-1","host":"lax-1.us.uncletopia.com","port":27015,"enabled":true,"region":"us-west","cc":"us","latitude":33.94279,"longitude":-118.41004,"reserved":0,"last_update":"0001-01-01T00:00:00Z","name_a2s":"Uncletopia | Los Angeles | 1 | All Maps","protocol":17,"map":"pl_borneo","folder":"tf","game":"Team Fortress","app_id":440,"player_count":0,"max_players":24,"Bots":0,"server_type":"Dedicated","server_os":"Linux","password":true,"vac":true,"version":"7708610","steam_id":85568392924469991,"keywords":["nocrits","nodmgspread","payload","uncletopia"],"game_id":440,"stv_port":27016,"stv_name":"Uncletopia | Los Angeles | 1 | All Maps | STV","players":null},{"server_id":112,"name":"Uncletopia | Los Angeles | 2 | All Maps","name_short":"lax-2","host":"lax-1.us.uncletopia.com","port":27025,"enabled":true,"region":"us-west","cc":"us","latitude":33.94279,"longitude":-118.41004,"reserved":0,"last_update":"0001-01-01T00:00:00Z","name_a2s":"Uncletopia | Los Angeles | 2 | All Maps","protocol":17,"map":"koth_viaduct","folder":"tf","game":"Team Fortress","app_id":440,"player_count":0,"max_players":24,"Bots":0,"server_type":"Dedicated","server_os":"Linux","password":true,"vac":true,"version":"7708610","steam_id":85568392924469992,"keywords":["cp","nocrits","nodmgspread","uncletopia"],"game_id":440,"stv_port":27026,"stv_name":"Uncletopia | Los Angeles | 2 | All Maps | STV","players":null},{"server_id":324,"name":"Uncletopia | Los Angeles | 3 | All Maps","name_short":"lax-3","host":"lax-1.us.uncletopia.com","port":27035,"enabled":true,"region":"us-west","cc":"us","latitude":33.94279,"longitude":-118.41004,"reserved":0,"last_update":"0001-01-01T00:00:00Z","name_a2s":"Uncletopia | Los Angeles | 3 | All Maps","protocol":17,"map":"cp_fastlane","folder":"tf","game":"Team Fortress","app_id":440,"player_count":19,"max_players":24,"Bots":0,"server_type":"Dedicated","server_os":"Linux","password":true,"vac":true,"version":"7708610","steam_id":85568392924510198,"keywords":["cp","nocrits","nodmgspread","uncletopia"],"game_id":440,"stv_port":27036,"stv_name":"Uncletopia | Los Angeles | 3 | All Maps | STV","players":[{"user_id":615,"name":"Kaui","steam_id":76561198052249003,"connected_time":5986000000000,"state":"active","ping":54},{"user_id":660,"name":"the wicked cumshot","steam_id":76561198065941085,"connected_time":1755000000000,"state":"active","ping":42},{"user_id":669,"name":"Mr. Pink","steam_id":76561198065858172,"connected_time":513000000000,"state":"active","ping":104},{"user_id":555,"name":"catgirl giantess in heat","steam_id":76561198439042583,"connected_time":11581000000000,"state":"active","ping":90},{"user_id":673,"name":"basil","steam_id":76561198075758026,"connected_time":363000000000,"state":"active","ping":117},{"user_id":641,"name":"Xylemon","steam_id":76561197965297420,"connected_time":3589000000000,"state":"active","ping":69},{"user_id":578,"name":"Yoshi","steam_id":76561198073343437,"connected_time":9282000000000,"state":"active","ping":44},{"user_id":671,"name":"Viperbro_FGC #SaveTF2","steam_id":76561198140863068,"connected_time":450000000000,"state":"active","ping":95},{"user_id":653,"name":"Spike Berd","steam_id":76561198004199556,"connected_time":2917000000000,"state":"active","ping":125},{"user_id":659,"name":"Flores","steam_id":76561198106938500,"connected_time":2183000000000,"state":"active","ping":46},{"user_id":672,"name":"bdkaine1","steam_id":76561198133545467,"connected_time":442000000000,"state":"active","ping":96},{"user_id":649,"name":"Ian","steam_id":76561198159334435,"connected_time":3198000000000,"state":"active","ping":179},{"user_id":650,"name":"owlbortch","steam_id":76561198042849350,"connected_time":3178000000000,"state":"active","ping":107},{"user_id":676,"name":"Spinch","steam_id":76561198296224166,"connected_time":273000000000,"state":"active","ping":89},{"user_id":677,"name":"jrd101721","steam_id":76561198154812975,"connected_time":199000000000,"state":"active","ping":381},{"user_id":657,"name":"breathing meat donut","steam_id":76561198123566649,"connected_time":2381000000000,"state":"active","ping":78},{"user_id":647,"name":"wizorb","steam_id":76561198002172674,"connected_time":3245000000000,"state":"active","ping":82},{"user_id":637,"name":"Deanthelis","steam_id":76561198036282242,"connected_time":4309000000000,"state":"active","ping":66},{"user_id":666,"name":"a_lilypup","steam_id":76561198163640324,"connected_time":908000000000,"state":"active","ping":48}]},{"server_id":25,"name":"Uncletopia | Los Angeles | 4 | No Payload","name_short":"lax-4","host":"lax-1.us.uncletopia.com","port":27045,"enabled":true,"region":"us-west","cc":"us","latitude":33.94279,"longitude":-118.41004,"reserved":0,"last_update":"0001-01-01T00:00:00Z","name_a2s":"Uncletopia | Los Angeles | 4 | No Payload","protocol":17,"map":"plr_bananabay","folder":"tf","game":"Team Fortress","app_id":440,"player_count":0,"max_players":24,"Bots":0,"server_type":"Dedicated","server_os":"Linux","password":true,"vac":true,"version":"7708610","steam_id":85568392924510199,"keywords":["nocrits","nodmgspread","payload","uncletopia"],"game_id":440,"stv_port":27046,"stv_name":"Uncletopia | Los Angeles | 4 | No Payload | STV","players":null},{"server_id":11,"name":"Uncletopia | London | 1 | All Maps","name_short":"lon-1","host":"lon-1.uk.uncletopia.com","port":27015,"enabled":true,"region":"eu","cc":"gb","latitude":51.509865,"longitude":-0.118092,"reserved":0,"last_update":"0001-01-01T00:00:00Z","name_a2s":"Uncletopia | London | 1 | All Maps","protocol":17,"map":"pl_borneo","folder":"tf","game":"Team Fortress","app_id":440,"player_count":24,"max_players":24,"Bots":0,"server_type":"Dedicated","server_os":"Linux","password":true,"vac":true,"version":"7708610","steam_id":85568392924367362,"keywords":["nocrits","nodmgspread","payload","uncletopia"],"game_id":440,"stv_port":27016,"stv_name":"Uncletopia | London | 1 | All Maps | STV","players":[{"user_id":98,"name":"Decloaking ASMR","steam_id":76561198032359132,"connected_time":514000000000,"state":"active","ping":43},{"user_id":93,"name":"Poor Fucking Infantry","steam_id":76561198055978522,"connected_time":603000000000,"state":"active","ping":47},{"user_id":40,"name":"Piteras","steam_id":76561198858532207,"connected_time":3972000000000,"state":"active","ping":74},{"user_id":92,"name":"sheldon cooper","steam_id":76561198440413362,"connected_time":1050000000000,"state":"active","ping":84},{"user_id":80,"name":"sisto majesto","steam_id":76561198073532776,"connected_time":1852000000000,"state":"active","ping":97},{"user_id":88,"name":"moon","steam_id":76561199212557251,"connected_time":1217000000000,"state":"active","ping":116},{"user_id":100,"name":"sumweeb","steam_id":76561198311624395,"connected_time":415000000000,"state":"active","ping":33},{"user_id":97,"name":"Alice can't hit pipes","steam_id":76561198052410860,"connected_time":539000000000,"state":"active","ping":146},{"user_id":62,"name":"Sir William Gaming","steam_id":76561198037676472,"connected_time":3269000000000,"state":"active","ping":61},{"user_id":60,"name":"Kahvi","steam_id":76561198723244199,"connected_time":3362000000000,"state":"active","ping":75},{"user_id":37,"name":"Rare Demoman Plant ✪","steam_id":76561198157824042,"connected_time":4118000000000,"state":"active","ping":48},{"user_id":87,"name":"LAMC","steam_id":76561199066888917,"connected_time":1276000000000,"state":"active","ping":68},{"user_id":102,"name":"nudjura","steam_id":76561198281986139,"connected_time":371000000000,"state":"active","ping":39},{"user_id":49,"name":"true blue","steam_id":76561198216200092,"connected_time":3858000000000,"state":"active","ping":50},{"user_id":70,"name":"Pardalokatsikon","steam_id":76561198218697887,"connected_time":2387000000000,"state":"active","ping":111},{"user_id":91,"name":"19raic","steam_id":76561199093514786,"connected_time":1062000000000,"state":"active","ping":57},{"user_id":94,"name":"I LOVE FENTANYL","steam_id":76561198198977226,"connected_time":564000000000,"state":"active","ping":86},{"user_id":90,"name":"Chefatron","steam_id":76561198218808579,"connected_time":1067000000000,"state":"active","ping":40},{"user_id":95,"name":"Lovelessvaccuum","steam_id":76561198079555422,"connected_time":546000000000,"state":"active","ping":31},{"user_id":71,"name":"Kralian","steam_id":76561198826960955,"connected_time":2246000000000,"state":"active","ping":84},{"user_id":64,"name":"most sane Midnight barber","steam_id":76561198310095220,"connected_time":3153000000000,"state":"active","ping":32},{"user_id":51,"name":"Deranged Rat","steam_id":76561198028759242,"connected_time":3825000000000,"state":"active","ping":59},{"user_id":82,"name":"British Disapproval","steam_id":76561198001375260,"connected_time":1626000000000,"state":"active","ping":50},{"user_id":89,"name":"Critical Hit","steam_id":76561198028524029,"connected_time":1172000000000,"state":"active","ping":65}]},{"server_id":114,"name":"Uncletopia | London | 2 | All Maps","name_short":"lon-2","host":"lon-1.uk.uncletopia.com","port":27025,"enabled":true,"region":"eu","cc":"gb","latitude":51.509865,"longitude":-0.118092,"reserved":0,"last_update":"0001-01-01T00:00:00Z","name_a2s":"Uncletopia | London | 2 | All Maps","protocol":17,"map":"koth_cascade","folder":"tf","game":"Team Fortress","app_id":440,"player_count":0,"max_players":24,"Bots":0,"server_type":"Dedicated","server_os":"Linux","password":true,"vac":true,"version":"7708610","steam_id":85568392924470941,"keywords":["cp","nocrits","nodmgspread","uncletopia"],"game_id":440,"stv_port":27026,"stv_name":"Uncletopia | London | 2 | All Maps | STV","players":null},{"server_id":320,"name":"Uncletopia | London | 3 | All Maps","name_short":"lon-3","host":"lon-1.uk.uncletopia.com","port":27035,"enabled":true,"region":"eu","cc":"gb","latitude":51.509865,"longitude":-0.118092,"reserved":0,"last_update":"0001-01-01T00:00:00Z","name_a2s":"Uncletopia | London | 3 | All Maps","protocol":17,"map":"koth_cascade","folder":"tf","game":"Team Fortress","app_id":440,"player_count":0,"max_players":24,"Bots":0,"server_type":"Dedicated","server_os":"Linux","password":true,"vac":true,"version":"7708610","steam_id":85568392924510192,"keywords":["cp","nocrits","nodmgspread","uncletopia"],"game_id":440,"stv_port":27036,"stv_name":"Uncletopia | London | 3 | All Maps | STV","players":null},{"server_id":321,"name":"Uncletopia | London | 4 | All Maps","name_short":"lon-4","host":"lon-1.uk.uncletopia.com","port":27045,"enabled":true,"region":"eu","cc":"gb","latitude":51.509865,"longitude":-0.118092,"reserved":0,"last_update":"0001-01-01T00:00:00Z","name_a2s":"Uncletopia | London | 4 | All Maps","protocol":17,"map":"koth_cascade","folder":"tf","game":"Team Fortress","app_id":440,"player_count":0,"max_players":24,"Bots":0,"server_type":"Dedicated","server_os":"Linux","password":true,"vac":true,"version":"7708610","steam_id":85568392924510193,"keywords":["cp","nocrits","nodmgspread","uncletopia"],"game_id":440,"stv_port":27046,"stv_name":"Uncletopia | London | 4 | All Maps | STV","players":null},{"server_id":21,"name":"Uncletopia | London | 5 | All Maps","name_short":"lon-5","host":"lon-1.uk.uncletopia.com","port":27055,"enabled":true,"region":"eu","cc":"gb","latitude":51.509865,"longitude":-0.118092,"reserved":0,"last_update":"0001-01-01T00:00:00Z","name_a2s":"Uncletopia | London | 5 | All Maps","protocol":17,"map":"pl_badwater","folder":"tf","game":"Team Fortress","app_id":440,"player_count":0,"max_players":24,"Bots":0,"server_type":"Dedicated","server_os":"Linux","password":true,"vac":true,"version":"7708610","steam_id":85568392924742829,"keywords":["nocrits","nodmgspread","payload","uncletopia"],"game_id":440,"stv_port":27056,"stv_name":"Uncletopia | London | 5 | All Maps | STV","players":null},{"server_id":22,"name":"Uncletopia | London | 6 | All Maps","name_short":"lon-6","host":"lon-1.uk.uncletopia.com","port":27065,"enabled":true,"region":"eu","cc":"gb","latitude":51.509865,"longitude":-0.118092,"reserved":0,"last_update":"0001-01-01T00:00:00Z","name_a2s":"Uncletopia | London | 6 | All Maps","protocol":17,"map":"koth_highpass","folder":"tf","game":"Team Fortress","app_id":440,"player_count":0,"max_players":24,"Bots":0,"server_type":"Dedicated","server_os":"Linux","password":true,"vac":true,"version":"7708610","steam_id":85568392924742830,"keywords":["cp","nocrits","nodmgspread","uncletopia"],"game_id":440,"stv_port":27066,"stv_name":"Uncletopia | London | 6 | All Maps | STV","players":null},{"server_id":40,"name":"Uncletopia | London | 7 | No Payload","name_short":"lon-7","host":"lon-1.uk.uncletopia.com","port":27075,"enabled":true,"region":"eu","cc":"gb","latitude":51.509865,"longitude":-0.118092,"reserved":0,"last_update":"0001-01-01T00:00:00Z","name_a2s":"Uncletopia | London | 7 | No Payload","protocol":17,"map":"pl_barnblitz","folder":"tf","game":"Team Fortress","app_id":440,"player_count":0,"max_players":24,"Bots":0,"server_type":"Dedicated","server_os":"Linux","password":true,"vac":true,"version":"7708610","steam_id":85568392924964314,"keywords":["nocrits","nodmgspread","payload","uncletopia"],"game_id":440,"stv_port":27076,"stv_name":"Uncletopia | London | 7 | No Payload | STV","players":null},{"server_id":41,"name":"Uncletopia | London | 8 | Community","name_short":"lon-8","host":"lon-1.uk.uncletopia.com","port":27085,"enabled":true,"region":"eu","cc":"gb","latitude":51.509865,"longitude":-0.118092,"reserved":0,"last_update":"0001-01-01T00:00:00Z","name_a2s":"Uncletopia | London | 8 | Community","protocol":17,"map":"pl_pier","folder":"tf","game":"Team Fortress","app_id":440,"player_count":0,"max_players":24,"Bots":0,"server_type":"Dedicated","server_os":"Linux","password":true,"vac":true,"version":"7708610","steam_id":85568392924964315,"keywords":["nocrits","nodmgspread","payload","uncletopia"],"game_id":440,"stv_port":27086,"stv_name":"Uncletopia | London | 8 | Community | STV","players":null},{"server_id":300,"name":"Uncletopia | Montréal | 1 | All Maps","name_short":"mtl-1","host":"mtl-1.ca.uncletopia.com","port":27015,"enabled":true,"region":"us-east","cc":"ca","latitude":45.50889,"longitude":-73.56167,"reserved":0,"last_update":"0001-01-01T00:00:00Z","name_a2s":"Uncletopia | Montréal | 1 | All Maps","protocol":17,"map":"pl_borneo","folder":"tf","game":"Team Fortress","app_id":440,"player_count":0,"max_players":24,"Bots":0,"server_type":"Dedicated","server_os":"Linux","password":true,"vac":true,"version":"7708610","steam_id":85568392924500087,"keywords":["nocrits","nodmgspread","payload","uncletopia"],"game_id":440,"stv_port":27016,"stv_name":"Uncletopia | Montréal | 1 | All Maps | STV","players":null},{"server_id":301,"name":"Uncletopia | Montréal | 2 | All Maps","name_short":"mtl-2","host":"mtl-1.ca.uncletopia.com","port":27025,"enabled":true,"region":"us-east","cc":"ca","latitude":45.50889,"longitude":-73.56167,"reserved":0,"last_update":"0001-01-01T00:00:00Z","name_a2s":"Uncletopia | Montréal | 2 | All Maps","protocol":17,"map":"pl_borneo","folder":"tf","game":"Team Fortress","app_id":440,"player_count":0,"max_players":24,"Bots":0,"server_type":"Dedicated","server_os":"Linux","password":true,"vac":true,"version":"7708610","steam_id":85568392924500088,"keywords":["nocrits","nodmgspread","payload","uncletopia"],"game_id":440,"stv_port":27026,"stv_name":"Uncletopia | Montréal | 2 | All Maps | STV","players":null},{"server_id":302,"name":"Uncletopia | Montréal | 3 | All Maps","name_short":"mtl-3","host":"mtl-1.ca.uncletopia.com","port":27035,"enabled":true,"region":"us-east","cc":"ca","latitude":45.50889,"longitude":-73.56167,"reserved":0,"last_update":"0001-01-01T00:00:00Z","name_a2s":"Uncletopia | Montréal | 3 | All Maps","protocol":17,"map":"cp_snakewater_final1","folder":"tf","game":"Team Fortress","app_id":440,"player_count":0,"max_players":24,"Bots":0,"server_type":"Dedicated","server_os":"Linux","password":true,"vac":true,"version":"7708610","steam_id":85568392924500089,"keywords":["cp","nocrits","nodmgspread","uncletopia"],"game_id":440,"stv_port":27036,"stv_name":"Uncletopia | Montréal | 3 | All Maps | STV","players":null},{"server_id":303,"name":"Uncletopia | Montréal | 4 | No Payload","name_short":"mtl-4","host":"mtl-1.ca.uncletopia.com","port":27045,"enabled":true,"region":"us-east","cc":"ca","latitude":45.50889,"longitude":-73.56167,"reserved":0,"last_update":"0001-01-01T00:00:00Z","name_a2s":"Uncletopia | Montréal | 4 | No Payload","protocol":17,"map":"cp_snakewater_final1","folder":"tf","game":"Team Fortress","app_id":440,"player_count":0,"max_players":24,"Bots":0,"server_type":"Dedicated","server_os":"Linux","password":true,"vac":true,"version":"7708610","steam_id":85568392924500090,"keywords":["cp","nocrits","nodmgspread","uncletopia"],"game_id":440,"stv_port":27046,"stv_name":"Uncletopia | Montréal | 4 | No Payload | STV","players":null},{"server_id":13,"name":"Uncletopia | New York City | 1 | All Maps","name_short":"nyc-1","host":"nyc-1.us.uncletopia.com","port":27015,"enabled":true,"region":"us-east","cc":"us","latitude":40.73061,"longitude":-73.93524,"reserved":0,"last_update":"0001-01-01T00:00:00Z","name_a2s":"Uncletopia | New York City | 1 | All Maps","protocol":17,"map":"pl_barnblitz","folder":"tf","game":"Team Fortress","app_id":440,"player_count":0,"max_players":24,"Bots":0,"server_type":"Dedicated","server_os":"Linux","password":true,"vac":true,"version":"7708610","steam_id":85568392924469993,"keywords":["nocrits","nodmgspread","payload","uncletopia"],"game_id":440,"stv_port":27016,"stv_name":"Uncletopia | New York City | 1 | All Maps | STV","players":null},{"server_id":14,"name":"Uncletopia | New York City | 2 | All Maps","name_short":"nyc-2","host":"nyc-1.us.uncletopia.com","port":27025,"enabled":true,"region":"us-east","cc":"us","latitude":40.73061,"longitude":-73.93524,"reserved":0,"last_update":"0001-01-01T00:00:00Z","name_a2s":"Uncletopia | New York City | 2 | All Maps","protocol":17,"map":"cp_altitude","folder":"tf","game":"Team Fortress","app_id":440,"player_count":0,"max_players":24,"Bots":0,"server_type":"Dedicated","server_os":"Linux","password":true,"vac":true,"version":"7708610","steam_id":85568392924469994,"keywords":["cp","nocrits","nodmgspread","uncletopia"],"game_id":440,"stv_port":27026,"stv_name":"Uncletopia | New York City | 2 | All Maps | STV","players":null},{"server_id":15,"name":"Uncletopia | New York City | 3 | All Maps","name_short":"nyc-3","host":"nyc-1.us.uncletopia.com","port":27035,"enabled":true,"region":"us-east","cc":"us","latitude":40.73061,"longitude":-73.93524,"reserved":0,"last_update":"0001-01-01T00:00:00Z","name_a2s":"Uncletopia | New York City | 3 | All Maps","protocol":17,"map":"cp_mountainlab","folder":"tf","game":"Team Fortress","app_id":440,"player_count":0,"max_players":24,"Bots":0,"server_type":"Dedicated","server_os":"Linux","password":true,"vac":true,"version":"7708610","steam_id":85568392924742820,"keywords":["cp","nocrits","nodmgspread","uncletopia"],"game_id":440,"stv_port":27036,"stv_name":"Uncletopia | New York City | 3 | All Maps | STV","players":null},{"server_id":16,"name":"Uncletopia | New York City | 4 | Community","name_short":"nyc-4","host":"nyc-1.us.uncletopia.com","port":27045,"enabled":true,"region":"us-east","cc":"us","latitude":40.73061,"longitude":-73.93524,"reserved":0,"last_update":"0001-01-01T00:00:00Z","name_a2s":"Uncletopia | New York City | 4 | Community","protocol":17,"map":"pl_barnblitz","folder":"tf","game":"Team Fortress","app_id":440,"player_count":0,"max_players":24,"Bots":0,"server_type":"Dedicated","server_os":"Linux","password":true,"vac":true,"version":"7708610","steam_id":85568392924742821,"keywords":["nocrits","nodmgspread","payload","uncletopia"],"game_id":440,"stv_port":27046,"stv_name":"Uncletopia | New York City | 4 | Community | STV","players":null},{"server_id":142,"name":"Uncletopia | São Paulo | 1 | All Maps","name_short":"sao-1","host":"sao-1.br.uncletopia.com","port":27015,"enabled":true,"region":"sa","cc":"br","latitude":-23.533773,"longitude":-46.62529,"reserved":0,"last_update":"0001-01-01T00:00:00Z","name_a2s":"Uncletopia | São Paulo | 1 | All Maps","protocol":17,"map":"pl_pier","folder":"tf","game":"Team Fortress","app_id":440,"player_count":1,"max_players":24,"Bots":0,"server_type":"Dedicated","server_os":"Linux","password":true,"vac":true,"version":"7708610","steam_id":85568392924469996,"keywords":["nocrits","nodmgspread","payload","uncletopia"],"game_id":440,"stv_port":27016,"stv_name":"Uncletopia | São Paulo | 1 | All Maps | STV","players":[{"user_id":8,"name":"CoronelSaas","steam_id":76561199281128588,"connected_time":366000000000,"state":"active","ping":64}]},{"server_id":143,"name":"Uncletopia | São Paulo | 2 | All Maps","name_short":"sao-2","host":"sao-2.br.uncletopia.com","port":27015,"enabled":true,"region":"sa","cc":"br","latitude":-23.533773,"longitude":-46.62529,"reserved":0,"last_update":"0001-01-01T00:00:00Z","name_a2s":"Uncletopia | São Paulo | 2 | All Maps","protocol":17,"map":"koth_viaduct","folder":"tf","game":"Team Fortress","app_id":440,"player_count":0,"max_players":24,"Bots":0,"server_type":"Dedicated","server_os":"Linux","password":true,"vac":true,"version":"7708610","steam_id":85568392924485349,"keywords":["cp","nocrits","nodmgspread","uncletopia"],"game_id":440,"stv_port":27016,"stv_name":"Uncletopia | São Paulo | 2 | All Maps | STV","players":null},{"server_id":7,"name":"Uncletopia | Seattle | 1 | All Maps","name_short":"sea-1","host":"sea-1.us.uncletopia.com","port":27015,"enabled":true,"region":"us-west","cc":"us","latitude":47.608013,"longitude":-122.33517,"reserved":0,"last_update":"0001-01-01T00:00:00Z","name_a2s":"Uncletopia | Seattle | 1 | All Maps","protocol":17,"map":"cp_sunshine","folder":"tf","game":"Team Fortress","app_id":440,"player_count":16,"max_players":24,"Bots":0,"server_type":"Dedicated","server_os":"Linux","password":true,"vac":true,"version":"7708610","steam_id":85568392924469997,"keywords":["cp","nocrits","nodmgspread","uncletopia"],"game_id":440,"stv_port":27016,"stv_name":"Uncletopia | Seattle | 1 | All Maps | STV","players":[{"user_id":586,"name":"GooberMann","steam_id":76561199421994372,"connected_time":926000000000,"state":"active","ping":179},{"user_id":587,"name":"The Sexecutioner","steam_id":76561198867462634,"connected_time":893000000000,"state":"active","ping":55},{"user_id":565,"name":"Tuffy","steam_id":76561198083778611,"connected_time":2730000000000,"state":"active","ping":75},{"user_id":593,"name":"clonious","steam_id":76561198034133411,"connected_time":504000000000,"state":"active","ping":97},{"user_id":597,"name":"the jamrock shuffle","steam_id":76561198045340887,"connected_time":197000000000,"state":"active","ping":115},{"user_id":595,"name":"Jawkins","steam_id":76561198043928826,"connected_time":438000000000,"state":"active","ping":44},{"user_id":554,"name":"A Rhino with Coronavirus","steam_id":76561197999451366,"connected_time":3980000000000,"state":"active","ping":115},{"user_id":575,"name":"E2 Conclusion","steam_id":76561198100017156,"connected_time":1854000000000,"state":"active","ping":110},{"user_id":590,"name":"barjar and fries","steam_id":76561198119013208,"connected_time":685000000000,"state":"active","ping":114},{"user_id":591,"name":"rlty","steam_id":76561198009395055,"connected_time":672000000000,"state":"active","ping":115},{"user_id":578,"name":"Eliza (They/She)","steam_id":76561198108938752,"connected_time":1795000000000,"state":"active","ping":111},{"user_id":579,"name":"♥Takamaki♥","steam_id":76561198348199088,"connected_time":1777000000000,"state":"active","ping":76},{"user_id":532,"name":"{907}DarkestFury","steam_id":76561198103662458,"connected_time":5865000000000,"state":"active","ping":75},{"user_id":585,"name":"卩丂ㄚ卄ㄖ卩卂ㄒ卄","steam_id":76561199090108136,"connected_time":1150000000000,"state":"active","ping":83},{"user_id":592,"name":"Saggle","steam_id":76561198056075147,"connected_time":559000000000,"state":"active","ping":181},{"user_id":543,"name":"mumbles","steam_id":76561197994528974,"connected_time":5278000000000,"state":"active","ping":83}]},{"server_id":119,"name":"Uncletopia | Seattle | 2 | All Maps","name_short":"sea-2","host":"sea-1.us.uncletopia.com","port":27025,"enabled":true,"region":"us-west","cc":"us","latitude":47.608013,"longitude":-122.33517,"reserved":0,"last_update":"0001-01-01T00:00:00Z","name_a2s":"Uncletopia | Seattle | 2 | All Maps","protocol":17,"map":"koth_highpass","folder":"tf","game":"Team Fortress","app_id":440,"player_count":0,"max_players":24,"Bots":0,"server_type":"Dedicated","server_os":"Linux","password":true,"vac":true,"version":"7708610","steam_id":85568392924469998,"keywords":["cp","nocrits","nodmgspread","uncletopia"],"game_id":440,"stv_port":27026,"stv_name":"Uncletopia | Seattle | 2 | All Maps | STV","players":null},{"server_id":17,"name":"Uncletopia | San Francisco | 1 | All Maps","name_short":"sfo-1","host":"sfo-1.us.uncletopia.com","port":27015,"enabled":true,"region":"us-west","cc":"us","latitude":37.77397,"longitude":-122.4313,"reserved":0,"last_update":"0001-01-01T00:00:00Z","name_a2s":"Uncletopia | San Francisco | 1 | All Maps","protocol":17,"map":"koth_viaduct","folder":"tf","game":"Team Fortress","app_id":440,"player_count":0,"max_players":24,"Bots":0,"server_type":"Dedicated","server_os":"Linux","password":true,"vac":true,"version":"7708610","steam_id":85568392924469999,"keywords":["cp","nocrits","nodmgspread","uncletopia"],"game_id":440,"stv_port":27016,"stv_name":"Uncletopia | San Francisco | 1 | All Maps | STV","players":null},{"server_id":18,"name":"Uncletopia | San Francisco | 2 | All Maps","name_short":"sfo-2","host":"sfo-1.us.uncletopia.com","port":27025,"enabled":true,"region":"us-west","cc":"us","latitude":37.77397,"longitude":-122.4313,"reserved":0,"last_update":"0001-01-01T00:00:00Z","name_a2s":"Uncletopia | San Francisco | 2 | All Maps","protocol":17,"map":"koth_harvest_final","folder":"tf","game":"Team Fortress","app_id":440,"player_count":0,"max_players":24,"Bots":0,"server_type":"Dedicated","server_os":"Linux","password":true,"vac":true,"version":"7708610","steam_id":85568392924470000,"keywords":["cp","nocrits","nodmgspread","uncletopia"],"game_id":440,"stv_port":27026,"stv_name":"Uncletopia | San Francisco | 2 | All Maps | STV","players":null},{"server_id":19,"name":"Uncletopia | San Francisco | 3 | No Payload","name_short":"sfo-3","host":"sfo-1.us.uncletopia.com","port":27035,"enabled":true,"region":"us-west","cc":"us","latitude":37.77397,"longitude":-122.4313,"reserved":0,"last_update":"0001-01-01T00:00:00Z","name_a2s":"Uncletopia | San Francisco | 3 | No Payload","protocol":17,"map":"ctf_sawmill","folder":"tf","game":"Team Fortress","app_id":440,"player_count":0,"max_players":24,"Bots":0,"server_type":"Dedicated","server_os":"Linux","password":true,"vac":true,"version":"7708610","steam_id":85568392924742824,"keywords":["ctf","nocrits","nodmgspread","uncletopia"],"game_id":440,"stv_port":27036,"stv_name":"Uncletopia | San Francisco | 3 | No Payload | STV","players":null},{"server_id":20,"name":"Uncletopia | San Francisco | 4 | Community","name_short":"sfo-4","host":"sfo-1.us.uncletopia.com","port":27045,"enabled":true,"region":"us-west","cc":"us","latitude":37.77397,"longitude":-122.4313,"reserved":0,"last_update":"0001-01-01T00:00:00Z","name_a2s":"Uncletopia | San Francisco | 4 | Community","protocol":17,"map":"workshop/rd_asteroid_redux_rc9.ugc2154902912","folder":"tf","game":"Team Fortress","app_id":440,"player_count":0,"max_players":24,"Bots":0,"server_type":"Dedicated","server_os":"Linux","password":true,"vac":true,"version":"7708610","steam_id":85568392924742826,"keywords":["beta","nocrits","nodmgspread","rd","uncletopia"],"game_id":440,"stv_port":27046,"stv_name":"Uncletopia | San Francisco | 4 | Community | STV","players":null},{"server_id":141,"name":"Uncletopia | Sydney | 1 | All Maps","name_short":"syd-1","host":"syd-1.au.uncletopia.com","port":27015,"enabled":true,"region":"au","cc":"au","latitude":-33.865143,"longitude":151.2099,"reserved":0,"last_update":"0001-01-01T00:00:00Z","name_a2s":"Uncletopia | Sydney | 1 | All Maps","protocol":17,"map":"cp_sunshine","folder":"tf","game":"Team Fortress","app_id":440,"player_count":24,"max_players":24,"Bots":0,"server_type":"Dedicated","server_os":"Linux","password":true,"vac":true,"version":"7708610","steam_id":85568392924470001,"keywords":["cp","nocrits","nodmgspread","uncletopia"],"game_id":440,"stv_port":27016,"stv_name":"Uncletopia | Sydney | 1 | All Maps | STV","players":[{"user_id":602,"name":"mail bomb","steam_id":76561198057959073,"connected_time":587000000000,"state":"active","ping":60},{"user_id":608,"name":"Life","steam_id":76561198072217827,"connected_time":558000000000,"state":"active","ping":97},{"user_id":610,"name":"iqbal from galgduud somalia","steam_id":76561198886006720,"connected_time":410000000000,"state":"active","ping":90},{"user_id":594,"name":"Zexhyz","steam_id":76561198308652621,"connected_time":2222000000000,"state":"active","ping":86},{"user_id":586,"name":"Zacy","steam_id":76561198114841670,"connected_time":3026000000000,"state":"active","ping":126},{"user_id":605,"name":"Leany","steam_id":76561198029322296,"connected_time":576000000000,"state":"active","ping":91},{"user_id":595,"name":"angel","steam_id":76561198306660831,"connected_time":1852000000000,"state":"active","ping":63},{"user_id":612,"name":"Soru","steam_id":76561198010844786,"connected_time":216000000000,"state":"active","ping":65},{"user_id":607,"name":"bird","steam_id":76561198258514103,"connected_time":571000000000,"state":"active","ping":53},{"user_id":615,"name":"curtis","steam_id":76561197993731862,"connected_time":164000000000,"state":"active","ping":110},{"user_id":573,"name":"Yung Smo","steam_id":76561198009672704,"connected_time":3874000000000,"state":"active","ping":61},{"user_id":574,"name":"Tiger_Tan","steam_id":76561198221733844,"connected_time":3823000000000,"state":"active","ping":60},{"user_id":597,"name":"☁☁ﮎσggY☁","steam_id":76561198156441727,"connected_time":1809000000000,"state":"active","ping":44},{"user_id":600,"name":"Billydog","steam_id":76561198060111437,"connected_time":703000000000,"state":"active","ping":95},{"user_id":554,"name":"Yes'Tir'Day","steam_id":76561198091798037,"connected_time":4875000000000,"state":"active","ping":151},{"user_id":590,"name":"RoverTw0","steam_id":76561198025416071,"connected_time":2910000000000,"state":"active","ping":41},{"user_id":598,"name":"krandlez` (Any/All)","steam_id":76561198044839726,"connected_time":1321000000000,"state":"active","ping":43},{"user_id":584,"name":"Kinotechnick","steam_id":76561198079346779,"connected_time":3044000000000,"state":"active","ping":57},{"user_id":556,"name":"blicky","steam_id":76561198029829077,"connected_time":4809000000000,"state":"active","ping":100},{"user_id":604,"name":"Mail Bomb Victim","steam_id":76561198284533039,"connected_time":586000000000,"state":"active","ping":45},{"user_id":558,"name":"Bloxors","steam_id":76561198040639258,"connected_time":4786000000000,"state":"active","ping":102},{"user_id":588,"name":"GoodoDarco","steam_id":76561198322623838,"connected_time":3019000000000,"state":"active","ping":129},{"user_id":562,"name":"penis muncher","steam_id":76561198288259746,"connected_time":4761000000000,"state":"active","ping":55},{"user_id":593,"name":"Lateralus","steam_id":76561198007865860,"connected_time":2482000000000,"state":"active","ping":110}]},{"server_id":123,"name":"Uncletopia | Sydney | 2 | All Maps","name_short":"syd-2","host":"syd-1.au.uncletopia.com","port":27025,"enabled":true,"region":"au","cc":"au","latitude":-33.865143,"longitude":151.2099,"reserved":0,"last_update":"0001-01-01T00:00:00Z","name_a2s":"Uncletopia | Sydney | 2 | All Maps","protocol":17,"map":"koth_lakeside_final","folder":"tf","game":"Team Fortress","app_id":440,"player_count":0,"max_players":24,"Bots":0,"server_type":"Dedicated","server_os":"Linux","password":true,"vac":true,"version":"7708610","steam_id":85568392924470002,"keywords":["cp","nocrits","nodmgspread","uncletopia"],"game_id":440,"stv_port":27026,"stv_name":"Uncletopia | Sydney | 2 | All Maps | STV","players":null},{"server_id":395,"name":"Uncletopia | Sydney | 3 | All Maps","name_short":"syd-3","host":"syd-1.au.uncletopia.com","port":27035,"enabled":true,"region":"au","cc":"au","latitude":-33.865143,"longitude":151.2099,"reserved":0,"last_update":"0001-01-01T00:00:00Z","name_a2s":"Uncletopia | Sydney | 3 | All Maps","protocol":17,"map":"pl_swiftwater_final1","folder":"tf","game":"Team Fortress","app_id":440,"player_count":0,"max_players":24,"Bots":0,"server_type":"Dedicated","server_os":"Linux","password":true,"vac":true,"version":"7708610","steam_id":85568392925194467,"keywords":["nocrits","nodmgspread","payload","uncletopia"],"game_id":440,"stv_port":27036,"stv_name":"Uncletopia | Sydney | 3 | All Maps | STV","players":null},{"server_id":396,"name":"Uncletopia | Sydney | 4 | All Maps","name_short":"syd-4","host":"syd-1.au.uncletopia.com","port":27045,"enabled":true,"region":"au","cc":"au","latitude":-33.865143,"longitude":151.2099,"reserved":0,"last_update":"0001-01-01T00:00:00Z","name_a2s":"Uncletopia | Sydney | 4 | All Maps","protocol":17,"map":"pl_barnblitz","folder":"tf","game":"Team Fortress","app_id":440,"player_count":0,"max_players":24,"Bots":0,"server_type":"Dedicated","server_os":"Linux","password":true,"vac":true,"version":"7708610","steam_id":85568392925397958,"keywords":["nocrits","nodmgspread","payload","uncletopia"],"game_id":440,"stv_port":27046,"stv_name":"Uncletopia | Sydney | 4 | All Maps | STV","players":null},{"server_id":58,"name":"Uncletopia | Sydney | 5 | No Payload","name_short":"syd-5","host":"syd-1.au.uncletopia.com","port":27055,"enabled":true,"region":"au","cc":"au","latitude":-33.865143,"longitude":151.2099,"reserved":0,"last_update":"0001-01-01T00:00:00Z","name_a2s":"Uncletopia | Sydney | 5 | No Payload","protocol":17,"map":"koth_suijin","folder":"tf","game":"Team Fortress","app_id":440,"player_count":2,"max_players":24,"Bots":0,"server_type":"Dedicated","server_os":"Linux","password":true,"vac":true,"version":"7708610","steam_id":85568392925397959,"keywords":["cp","nocrits","nodmgspread","uncletopia"],"game_id":440,"stv_port":27056,"stv_name":"Uncletopia | Sydney | 5 | No Payload | STV","players":[{"user_id":25,"name":"bruh what","steam_id":76561199064024042,"connected_time":1858000000000,"state":"active","ping":32},{"user_id":26,"name":"MrScribbles","steam_id":76561198131229913,"connected_time":1852000000000,"state":"active","ping":44}]},{"server_id":59,"name":"Uncletopia | Sydney | 6 | Community","name_short":"syd-6","host":"syd-1.au.uncletopia.com","port":27065,"enabled":true,"region":"au","cc":"au","latitude":-33.865143,"longitude":151.2099,"reserved":0,"last_update":"0001-01-01T00:00:00Z","name_a2s":"Uncletopia | Sydney | 6 | Community","protocol":17,"map":"workshop/koth_ashville_final.ugc2130459942","folder":"tf","game":"Team Fortress","app_id":440,"player_count":0,"max_players":24,"Bots":0,"server_type":"Dedicated","server_os":"Linux","password":true,"vac":true,"version":"7708610","steam_id":85568392925397960,"keywords":["cp","nocrits","nodmgspread","uncletopia"],"game_id":440,"stv_port":27066,"stv_name":"Uncletopia | Sydney | 6 | Community | STV","players":null},{"server_id":49,"name":"Uncletopia | Warsaw | 1 | All Maps","name_short":"waw-1","host":"waw-1.pl.uncletopia.com","port":27015,"enabled":true,"region":"eu","cc":"pl","latitude":52.2297,"longitude":21.017532,"reserved":0,"last_update":"0001-01-01T00:00:00Z","name_a2s":"Uncletopia | Warsaw | 1 | All Maps","protocol":17,"map":"pl_barnblitz","folder":"tf","game":"Team Fortress","app_id":440,"player_count":0,"max_players":24,"Bots":0,"server_type":"Dedicated","server_os":"Linux","password":true,"vac":true,"version":"7708610","steam_id":85568392925397850,"keywords":["nocrits","nodmgspread","payload","uncletopia"],"game_id":440,"stv_port":27016,"stv_name":"Uncletopia | Warsaw | 1 | All Maps | STV","players":null},{"server_id":50,"name":"Uncletopia | Warsaw | 2 | All Maps","name_short":"waw-2","host":"waw-1.pl.uncletopia.com","port":27025,"enabled":true,"region":"eu","cc":"pl","latitude":52.2297,"longitude":21.017532,"reserved":0,"last_update":"0001-01-01T00:00:00Z","name_a2s":"Uncletopia | Warsaw | 2 | All Maps","protocol":17,"map":"pl_barnblitz","folder":"tf","game":"Team Fortress","app_id":440,"player_count":0,"max_players":24,"Bots":0,"server_type":"Dedicated","server_os":"Linux","password":true,"vac":true,"version":"7708610","steam_id":85568392925397851,"keywords":["nocrits","nodmgspread","payload","uncletopia"],"game_id":440,"stv_port":27026,"stv_name":"Uncletopia | Warsaw | 2 | All Maps | STV","players":null},{"server_id":51,"name":"Uncletopia | Warsaw | 3 | All Maps","name_short":"waw-3","host":"waw-1.pl.uncletopia.com","port":27035,"enabled":true,"region":"eu","cc":"pl","latitude":52.2297,"longitude":21.017532,"reserved":0,"last_update":"0001-01-01T00:00:00Z","name_a2s":"Uncletopia | Warsaw | 3 | All Maps","protocol":17,"map":"pl_badwater","folder":"tf","game":"Team Fortress","app_id":440,"player_count":0,"max_players":24,"Bots":0,"server_type":"Dedicated","server_os":"Linux","password":true,"vac":true,"version":"7708610","steam_id":85568392925397852,"keywords":["nocrits","nodmgspread","payload","uncletopia"],"game_id":440,"stv_port":27036,"stv_name":"Uncletopia | Warsaw | 3 | All Maps | STV","players":null},{"server_id":52,"name":"Uncletopia | Warsaw | 4 | All Maps","name_short":"waw-4","host":"waw-1.pl.uncletopia.com","port":27045,"enabled":true,"region":"eu","cc":"pl","latitude":52.2297,"longitude":21.017532,"reserved":0,"last_update":"0001-01-01T00:00:00Z","name_a2s":"Uncletopia | Warsaw | 4 | All Maps","protocol":17,"map":"pl_pier","folder":"tf","game":"Team Fortress","app_id":440,"player_count":0,"max_players":24,"Bots":0,"server_type":"Dedicated","server_os":"Linux","password":true,"vac":true,"version":"7708610","steam_id":85568392925397853,"keywords":["nocrits","nodmgspread","payload","uncletopia"],"game_id":440,"stv_port":27046,"stv_name":"Uncletopia | Warsaw | 4 | All Maps | STV","players":null},{"server_id":53,"name":"Uncletopia | Warsaw | 5 | No Payload","name_short":"waw-5","host":"waw-1.pl.uncletopia.com","port":27055,"enabled":true,"region":"eu","cc":"pl","latitude":52.2297,"longitude":21.017532,"reserved":0,"last_update":"0001-01-01T00:00:00Z","name_a2s":"Uncletopia | Warsaw | 5 | No Payload","protocol":17,"map":"pl_borneo","folder":"tf","game":"Team Fortress","app_id":440,"player_count":0,"max_players":24,"Bots":0,"server_type":"Dedicated","server_os":"Linux","password":true,"vac":true,"version":"7708610","steam_id":85568392925397854,"keywords":["nocrits","nodmgspread","payload","uncletopia"],"game_id":440,"stv_port":27056,"stv_name":"Uncletopia | Warsaw | 5 | No Payload | STV","players":null},{"server_id":54,"name":"Uncletopia | Warsaw | 6 | Community","name_short":"waw-6","host":"waw-1.pl.uncletopia.com","port":27065,"enabled":true,"region":"eu","cc":"pl","latitude":52.2297,"longitude":21.017532,"reserved":0,"last_update":"0001-01-01T00:00:00Z","name_a2s":"Uncletopia | Warsaw | 6 | Community","protocol":17,"map":"pl_swiftwater_final1","folder":"tf","game":"Team Fortress","app_id":440,"player_count":0,"max_players":24,"Bots":0,"server_type":"Dedicated","server_os":"Linux","password":true,"vac":true,"version":"7708610","steam_id":85568392925397856,"keywords":["nocrits","nodmgspread","payload","uncletopia"],"game_id":440,"stv_port":27066,"stv_name":"Uncletopia | Warsaw | 6 | Community | STV","players":null}]}