{"status":true,"message":"","result":[{"server_id":9,"name":"Uncletopia | Atlanta | 1 | All Maps","name_short":"atl-1","host":"atl-1.us.uncletopia.com","port":27015,"enabled":true,"region":"us-east","cc":"us","latitude":33.753746,"longitude":-84.38633,"reserved":0,"last_update":"0001-01-01T00:00:00Z","name_a2s":"Uncletopia | Atlanta | 1 | All Maps","protocol":17,"map":"pl_barnblitz","folder":"tf","game":"Team Fortress","app_id":440,"player_count":24,"max_players":24,"Bots":0,"server_type":"Dedicated","server_os":"Linux","password":true,"vac":true,"version":"7961495","steam_id":85568392924469982,"keywords":["nocrits","nodmgspread","payload","uncletopia"],"game_id":440,"stv_port":27016,"stv_name":"Uncletopia | Atlanta | 1 | All Maps | STV","players":null},{"server_id":104,"name":"Uncletopia | Atlanta | 2 | All Maps","name_short":"atl-2","host":"atl-1.us.uncletopia.com","port":27025,"enabled":true,"region":"us-east","cc":"us","latitude":33.753746,"longitude":-84.38633,"reserved":0,"last_update":"0001-01-01T00:00:00Z","name_a2s":"Uncletopia | Atlanta | 2 | All Maps","protocol":17,"map":"pl_pier","folder":"tf","game":"Team Fortress","app_id":440,"player_count":14,"max_players":24,"Bots":0,"server_type":"Dedicated","server_os":"Linux","password":true,"vac":true,"version":"7961495","steam_id":85568392924469983,"keywords":["nocrits","nodmgspread","payload","uncletopia"],"game_id":440,"stv_port":27026,"stv_name":"Uncletopia | Atlanta | 2 | All Maps | STV","players":null},{"server_id":400,"name":"Uncletopia | Atlanta | 3 | Stopwatch","name_short":"atl-3","host":"atl-1.us.uncletopia.com","port":27035,"enabled":true,"region":"us-east","cc":"us","latitude":33.753746,"longitude":-84.38633,"reserved":0,"last_update":"0001-01-01T00:00:00Z","name_a2s":"Uncletopia | Atlanta | 3 | Stopwatch","protocol":17,"map":"pl_vigil_rc10","folder":"tf","game":"Team Fortress","app_id":440,"player_count":0,"max_players":24,"Bots":0,"server_type":"Dedicated","server_os":"Linux","password":true,"vac":true,"version":"7961495","steam_id":85568392924515187,"keywords":["nocrits","nodmgspread","payload","uncletopia"],"game_id":440,"stv_port":27036,"stv_name":"Uncletopia | Atlanta | 3 | Stopwatch | STV","players":null},{"server_id":401,"name":"Uncletopia | Atlanta | 4 | Community","name_short":"atl-4","host":"atl-1.us.uncletopia.com","port":27045,"enabled":true,"region":"us-east","cc":"us","latitude":33.753746,"longitude":-84.38633,"reserved":0,"last_update":"0001-01-01T00:00:00Z","name_a2s":"Uncletopia | Atlanta | 4 | Community","protocol":17,"map":"pl_eruption_b9a","folder":"tf","game":"Team Fortress","app_id":440,"player_count":0,"max_players":24,"Bots":0,"server_type":"Dedicated","server_os":"Linux","password":true,"vac":true,"version":"7961495","steam_id":85568392924515188,"keywords":["nocrits","nodmgspread","payload","uncletopia"],"game_id":440,"stv_port":27046,"stv_name":"Uncletopia | Atlanta | 4 | Community | STV","players":null},{"server_id":2,"name":"Uncletopia | Chicago | 1 | All Maps","name_short":"chi-1","host":"chi-1.us.uncletopia.com","port":27015,"enabled":true,"region":"us-central","cc":"us","latitude":41.881832,"longitude":-87.62318,"reserved":0,"last_update":"0001-01-01T00:00:00Z","name_a2s":"Uncletopia | Chicago | 1 | All Maps","protocol":17,"map":"pl_barnblitz","folder":"tf","game":"Team Fortress","app_id":440,"player_count":1,"max_players":24,"Bots":0,"server_type":"Dedicated","server_os":"Linux","password":true,"vac":true,"version":"7961495","steam_id":85568392924469984,"keywords":["nocrits","nodmgspread","payload","uncletopia"],"game_id":440,"stv_port":27016,"stv_name":"Uncletopia | Chicago | 1 | All Maps | STV","players":[{"user_id":845,"name":"Passwordhater","steam_id":76561198039577363,"connected_time":4000000000,"state":"spawning","ping":52}]},{"server_id":106,"name":"Uncletopia | Chicago | 2 | All Maps","name_short":"chi-2","host":"chi-1.us.uncletopia.com","port":27025,"enabled":true,"region":"us-central","cc":"us","latitude":41.881832,"longitude":-87.62318,"reserved":0,"last_update":"0001-01-01T00:00:00Z","name_a2s":"Uncletopia | Chicago | 2 | All Maps","protocol":17,"map":"pl_borneo","folder":"tf","game":"Team Fortress","app_id":440,"player_count":21,"max_players":24,"Bots":0,"server_type":"Dedicated","server_os":"Linux","password":true,"vac":true,"version":"7961495","steam_id":85568392924469985,"keywords":["nocrits","nodmgspread","payload","uncletopia"],"game_id":440,"stv_port":27026,"stv_name":"Uncletopia | Chicago | 2 | All Maps | STV","players":[{"user_id":670,"name":"Fecal Feaster","steam_id":76561198386649656,"connected_time":410000000000,"state":"active","ping":80},{"user_id":673,"name":"K. O. E.","steam_id":76561198025188490,"connected_time":166000000000,"state":"active","ping":81},{"user_id":616,"name":"Smooky","steam_id":76561198191435451,"connected_time":4313000000000,"state":"active","ping":96},{"user_id":611,"name":"Fewny","steam_id":76561198225977000,"connected_time":4439000000000,"state":"active","ping":70},{"user_id":674,"name":"H2OBourne","steam_id":76561198396293109,"connected_time":18000000000,"state":"active","ping":88},{"user_id":647,"name":"rosable ☆","steam_id":76561199164371592,"connected_time":2683000000000,"state":"active","ping":59},{"user_id":633,"name":"liveleak pussy","steam_id":76561198272645467,"connected_time":3557000000000,"state":"active","ping":105},{"user_id":659,"name":"ae","steam_id":76561198185490827,"connected_time":1042000000000,"state":"active","ping":76},{"user_id":607,"name":"_Ati","steam_id":76561198339777801,"connected_time":4977000000000,"state":"active","ping":92},{"user_id":669,"name":"Fat Kid In a Dragonball T-Shirt","steam_id":76561198182589975,"connected_time":599000000000,"state":"active","ping":75},{"user_id":667,"name":"Loleo","steam_id":76561198348132374,"connected_time":719000000000,"state":"active","ping":56},{"user_id":671,"name":"Raccoon Wizard","steam_id":76561198072562591,"connected_time":295000000000,"state":"active","ping":81},{"user_id":652,"name":"Yukon Cornelius","steam_id":76561198261512781,"connected_time":2451000000000,"state":"connecting","ping":66},{"user_id":653,"name":"Zanartan","steam_id":76561198050528902,"connected_time":2418000000000,"state":"active","ping":171},{"user_id":570,"name":"puppy :3","steam_id":76561198011196264,"connected_time":7821000000000,"state":"active","ping":48},{"user_id":665,"name":"kris736","steam_id":76561198038208255,"connected_time":882000000000,"state":"active","ping":47},{"user_id":661,"name":"Hatch","steam_id":76561198994132858,"connected_time":1019000000000,"state":"active","ping":72},{"user_id":666,"name":"Dzhoshua","steam_id":76561198071915251,"connected_time":814000000000,"state":"active","ping":59},{"user_id":589,"name":"WhiteRabbit","steam_id":76561198027579538,"connected_time":6178000000000,"state":"active","ping":59},{"user_id":596,"name":"Riggatoni","steam_id":76561198203745763,"connected_time":5727000000000,"state":"active","ping":72},{"user_id":590,"name":"Trundle","steam_id":76561198005548044,"connected_time":6175000000000,"state":"active","ping":63}]},{"server_id":402,"name":"Uncletopia | Chicago | 3 | All Maps","name_short":"chi-3","host":"chi-1.us.uncletopia.com","port":27035,"enabled":true,"region":"us-central","cc":"us","latitude":41.881832,"longitude":-87.62318,"reserved":0,"last_update":"0001-01-01T00:00:00Z","name_a2s":"Uncletopia | Chicago | 3 | All Maps","protocol":17,"map":"pl_frontier_final","folder":"tf","game":"Team Fortress","app_id":440,"player_count":24,"max_players":24,"Bots":0,"server_type":"Dedicated","server_os":"Linux","password":true,"vac":true,"version":"7961495","steam_id":85568392924515191,"keywords":["nocrits","nodmgspread","payload","uncletopia"],"game_id":440,"stv_port":27036,"stv_name":"Uncletopia | Chicago | 3 | All Maps | STV","players":[{"user_id":502,"name":"Biscuit","steam_id":76561198034318885,"connected_time":217000000000,"state":"active","ping":130},{"user_id":496,"name":"At","steam_id":76561198381841894,"connected_time":777000000000,"state":"active","ping":60},{"user_id":495,"name":"nerf gun collecter","steam_id":76561198905319585,"connected_time":1113000000000,"state":"active","ping":77},{"user_id":497,"name":"A tree","steam_id":76561198309065247,"connected_time":542000000000,"state":"active","ping":73},{"user_id":489,"name":"Beepleton The 3rd","steam_id":76561198081466207,"connected_time":1962000000000,"state":"active","ping":80},{"user_id":498,"name":"Thundeer","steam_id":76561198353425202,"connected_time":352000000000,"state":"active","ping":66},{"user_id":499,"name":"rudy","steam_id":76561198088712799,"connected_time":235000000000,"state":"active","ping":108},{"user_id":437,"name":"LVL","steam_id":76561198334403617,"connected_time":5939000000000,"state":"active","ping":57},{"user_id":464,"name":"Vega","steam_id":76561198141126883,"connected_time":3977000000000,"state":"active","ping":95},{"user_id":500,"name":"super-oofio64","steam_id":76561198954052123,"connected_time":221000000000,"state":"active","ping":113},{"user_id":491,"name":"Goose","steam_id":76561198084166129,"connected_time":1907000000000,"state":"active","ping":69},{"user_id":412,"name":"badboy6996","steam_id":76561197969386201,"connected_time":8804000000000,"state":"active","ping":46},{"user_id":505,"name":"alphatwo","steam_id":76561198012511255,"connected_time":130000000000,"state":"active","ping":74},{"user_id":475,"name":"Viren","steam_id":76561198012636897,"connected_time":2960000000000,"state":"active","ping":66},{"user_id":503,"name":"raw chicken enjoyer","steam_id":76561198986943063,"connected_time":191000000000,"state":"active","ping":58},{"user_id":463,"name":"Red Metal","steam_id":76561198362722560,"connected_time":4054000000000,"state":"active","ping":90},{"user_id":405,"name":"HOW2TAKEASHIT@ABITCHCRIB","steam_id":76561198144766439,"connected_time":9224000000000,"state":"active","ping":42},{"user_id":465,"name":"HundchenTanque","steam_id":76561198122692754,"connected_time":3954000000000,"state":"active","ping":58},{"user_id":501,"name":"ill flipn't","steam_id":76561198421913648,"connected_time":220000000000,"state":"active","ping":99},{"user_id":467,"name":"yomommasabitch","steam_id":76561198323217150,"connected_time":3811000000000,"state":"active","ping":64},{"user_id":493,"name":"type \"bad med\" to kick","steam_id":76561198076402476,"connected_time":1582000000000,"state":"active","ping":122},{"user_id":484,"name":"\"that\" guy","steam_id":76561198079434304,"connected_time":2293000000000,"state":"active","ping":86},{"user_id":506,"name":"Joey Diaz","steam_id":76561198114230694,"connected_time":115000000000,"state":"active","ping":119},{"user_id":488,"name":"DELTRON ZERO","steam_id":76561198081123470,"connected_time":2121000000000,"state":"active","ping":73}]},{"server_id":403,"name":"Uncletopia | Chicago | 4 | All Maps","name_short":"chi-4","host":"chi-1.us.uncletopia.com","port":27045,"enabled":true,"region":"us-central","cc":"us","latitude":41.881832,"longitude":-87.62318,"reserved":0,"last_update":"0001-01-01T00:00:00Z","name_a2s":"Uncletopia | Chicago | 4 | All Maps","protocol":17,"map":"koth_king","folder":"tf","game":"Team Fortress","app_id":440,"player_count":19,"max_players":24,"Bots":0,"server_type":"Dedicated","server_os":"Linux","password":true,"vac":true,"version":"7961495","steam_id":85568392924515193,"keywords":["cp","nocrits","nodmgspread","uncletopia"],"game_id":440,"stv_port":27046,"stv_name":"Uncletopia | Chicago | 4 | All Maps | STV","players":[{"user_id":295,"name":"Ojen","steam_id":76561197998414482,"connected_time":3848000000000,"state":"active","ping":59},{"user_id":332,"name":"Space Lizard","steam_id":76561198056798193,"connected_time":112000000000,"state":"active","ping":71},{"user_id":307,"name":"Chestnnut","steam_id":76561198077782729,"connected_time":2189000000000,"state":"active","ping":69},{"user_id":316,"name":"Hoover_Manoover","steam_id":76561197976870979,"connected_time":1392000000000,"state":"active","ping":98},{"user_id":330,"name":"SC|Formuoli","steam_id":76561198254354595,"connected_time":129000000000,"state":"active","ping":30},{"user_id":325,"name":"crunch","steam_id":76561198058209703,"connected_time":726000000000,"state":"active","ping":54},{"user_id":245,"name":"King","steam_id":76561198039763676,"connected_time":8070000000000,"state":"active","ping":60},{"user_id":300,"name":"roast pig with apple in mouth","steam_id":76561198051353647,"connected_time":3291000000000,"state":"active","ping":61},{"user_id":318,"name":"McDonald's Chicken Big Mac","steam_id":76561198254991505,"connected_time":1040000000000,"state":"active","ping":55},{"user_id":331,"name":"Kxmi","steam_id":76561198192730827,"connected_time":126000000000,"state":"active","ping":60},{"user_id":333,"name":"Mr RocknRoll","steam_id":76561198067495035,"connected_time":107000000000,"state":"active","ping":46},{"user_id":272,"name":"The Great and Mighty Kiku","steam_id":76561198057590164,"connected_time":6420000000000,"state":"active","ping":82},{"user_id":271,"name":"Charmy","steam_id":76561198069969998,"connected_time":6430000000000,"state":"active","ping":82},{"user_id":273,"name":"OddSlaush","steam_id":76561198043898488,"connected_time":6418000000000,"state":"active","ping":91},{"user_id":328,"name":"Soul","steam_id":76561198111431087,"connected_time":508000000000,"state":"active","ping":64},{"user_id":277,"name":"Skeleton Hotel","steam_id":76561198041704727,"connected_time":6208000000000,"state":"active","ping":49},{"user_id":329,"name":"phantom","steam_id":76561197963860777,"connected_time":419000000000,"state":"active","ping":56},{"user_id":314,"name":"Dante","steam_id":76561198798234838,"connected_time":1584000000000,"state":"active","ping":139},{"user_id":319,"name":"KatNipTon","steam_id":76561198339215256,"connected_time":1039000000000,"state":"active","ping":85}]},{"server_id":36,"name":"Uncletopia | Chicago | 5 | All Maps","name_short":"chi-5","host":"chi-2.us.uncletopia.com","port":27015,"enabled":true,"region":"us-central","cc":"us","latitude":41.881832,"longitude":-87.62318,"reserved":0,"last_update":"0001-01-01T00:00:00Z","name_a2s":"Uncletopia | Chicago | 5 | All Maps","protocol":17,"map":"pl_badwater","folder":"tf","game":"Team Fortress","app_id":440,"player_count":24,"max_players":24,"Bots":0,"server_type":"Dedicated","server_os":"Linux","password":true,"vac":true,"version":"7961495","steam_id":85568392924866362,"keywords":["nocrits","nodmgspread","payload","uncletopia"],"game_id":440,"stv_port":27016,"stv_name":"Uncletopia | Chicago | 5 | All Maps | STV","players":[{"user_id":529,"name":"Big Man Lard","steam_id":76561198069074737,"connected_time":1875000000000,"state":"active","ping":73},{"user_id":522,"name":"we cant ever go back to arizona","steam_id":76561198348884781,"connected_time":2451000000000,"state":"active","ping":109},{"user_id":506,"name":"The premium licking experience","steam_id":76561199213456232,"connected_time":2907000000000,"state":"active","ping":104},{"user_id":552,"name":"DoubleX2000","steam_id":76561198164134387,"connected_time":544000000000,"state":"active","ping":111},{"user_id":549,"name":"Swaglodyte","steam_id":76561198060994080,"connected_time":575000000000,"state":"active","ping":90},{"user_id":545,"name":"Idiotden","steam_id":76561199340950135,"connected_time":1160000000000,"state":"active","ping":97},{"user_id":548,"name":"Fargo","steam_id":76561198044703931,"connected_time":665000000000,"state":"active","ping":63},{"user_id":550,"name":"Chef__7","steam_id":76561199056921540,"connected_time":559000000000,"state":"active","ping":59},{"user_id":551,"name":"cotton candy devotee","steam_id":76561198058998371,"connected_time":556000000000,"state":"active","ping":70},{"user_id":553,"name":"BLØRG","steam_id":76561198036126673,"connected_time":531000000000,"state":"active","ping":81},{"user_id":525,"name":"funny weed dot com","steam_id":76561198843967834,"connected_time":2118000000000,"state":"active","ping":47},{"user_id":560,"name":"MrLonelySlayer","steam_id":76561198061793470,"connected_time":233000000000,"state":"active","ping":71},{"user_id":518,"name":"shawcrow","steam_id":76561198998720161,"connected_time":2530000000000,"state":"active","ping":64},{"user_id":554,"name":"nomis","steam_id":76561198115367704,"connected_time":522000000000,"state":"active","ping":84},{"user_id":531,"name":"bnnnnanna","steam_id":76561198157455741,"connected_time":1802000000000,"state":"active","ping":63},{"user_id":536,"name":"GoldtoothFour","steam_id":76561198055529332,"connected_time":1514000000000,"state":"active","ping":54},{"user_id":534,"name":"juanmartinezpro_239","steam_id":76561199495570478,"connected_time":1620000000000,"state":"active","ping":120},{"user_id":535,"name":"Common_Interest","steam_id":76561198238709068,"connected_time":1578000000000,"state":"active","ping":79},{"user_id":541,"name":"oppenheimer style","steam_id":76561198026664629,"connected_time":1370000000000,"state":"active","ping":54},{"user_id":555,"name":"Rez LeRoux","steam_id":76561198451503538,"connected_time":517000000000,"state":"active","ping":84},{"user_id":559,"name":"Soda","steam_id":76561198219209367,"connected_time":386000000000,"state":"active","ping":67},{"user_id":547,"name":"Orca?","steam_id":76561198164341099,"connected_time":967000000000,"state":"active","ping":87},{"user_id":542,"name":"messiah","steam_id":76561199061380038,"connected_time":1357000000000,"state":"active","ping":75},{"user_id":544,"name":"Wick","steam_id":76561198062996360,"connected_time":1314000000000,"state":"active","ping":116}]},{"server_id":37,"name":"Uncletopia | Chicago | 6 | All Maps","name_short":"chi-6","host":"chi-2.us.uncletopia.com","port":27025,"enabled":true,"region":"us-central","cc":"us","latitude":41.881832,"longitude":-87.62318,"reserved":0,"last_update":"0001-01-01T00:00:00Z","name_a2s":"Uncletopia | Chicago | 6 | All Maps","protocol":17,"map":"pl_upward","folder":"tf","game":"Team Fortress","app_id":440,"player_count":24,"max_players":24,"Bots":0,"server_type":"Dedicated","server_os":"Linux","password":true,"vac":true,"version":"7961495","steam_id":85568392924866363,"keywords":["nocrits","nodmgspread","payload","uncletopia"],"game_id":440,"stv_port":27026,"stv_name":"Uncletopia | Chicago | 6 | All Maps | STV","players":[{"user_id":365,"name":"Dragus","steam_id":76561198032967285,"connected_time":1086000000000,"state":"active","ping":46},{"user_id":351,"name":"TheArachnidGamer","steam_id":76561198304986752,"connected_time":2002000000000,"state":"active","ping":74},{"user_id":361,"name":"cheetaz","steam_id":76561198224614084,"connected_time":1199000000000,"state":"active","ping":63},{"user_id":343,"name":"Sulong","steam_id":76561198798244209,"connected_time":2968000000000,"state":"active","ping":74},{"user_id":326,"name":"3pac","steam_id":76561198068393322,"connected_time":3928000000000,"state":"active","ping":61},{"user_id":352,"name":"VidzCMC","steam_id":76561198848142973,"connected_time":1923000000000,"state":"active","ping":53},{"user_id":353,"name":"Digresser","steam_id":76561198016426367,"connected_time":1920000000000,"state":"active","ping":53},{"user_id":311,"name":"Big Unck","steam_id":76561198024658073,"connected_time":4545000000000,"state":"active","ping":70},{"user_id":350,"name":"TÖZI","steam_id":76561198045268695,"connected_time":2021000000000,"state":"active","ping":88},{"user_id":366,"name":"zinqi","steam_id":76561198376838848,"connected_time":970000000000,"state":"active","ping":91},{"user_id":303,"name":"monsterkill4567","steam_id":76561198272986367,"connected_time":4786000000000,"state":"active","ping":110},{"user_id":359,"name":"Crispy Nugget Boy","steam_id":76561198256869589,"connected_time":1428000000000,"state":"active","ping":67},{"user_id":341,"name":"faxxy","steam_id":76561198079621240,"connected_time":3206000000000,"state":"active","ping":63},{"user_id":367,"name":"Lil' Diabeetus","steam_id":76561198330119627,"connected_time":666000000000,"state":"active","ping":76},{"user_id":356,"name":"goblin?","steam_id":76561198007192438,"connected_time":1791000000000,"state":"active","ping":70},{"user_id":345,"name":"Sporks4Life","steam_id":76561198845120154,"connected_time":2901000000000,"state":"active","ping":49},{"user_id":347,"name":"Wang of Wall St","steam_id":76561198047460598,"connected_time":2886000000000,"state":"active","ping":80},{"user_id":310,"name":"Wilfred Carr","steam_id":76561198039149060,"connected_time":4565000000000,"state":"active","ping":71},{"user_id":364,"name":"salty like Lot's wife","steam_id":76561197998619845,"connected_time":1137000000000,"state":"active","ping":71},{"user_id":349,"name":"rivera","steam_id":76561198051058706,"connected_time":2777000000000,"state":"active","ping":61},{"user_id":346,"name":"wise","steam_id":76561198030066204,"connected_time":2890000000000,"state":"active","ping":59},{"user_id":337,"name":"Els (F2P)","steam_id":76561199129761684,"connected_time":3568000000000,"state":"active","ping":91},{"user_id":348,"name":"negus 2","steam_id":76561198043862737,"connected_time":2880000000000,"state":"active","ping":57}]},{"server_id":38,"name":"Uncletopia | Chicago | 7 | Stopwatch","name_short":"chi-7","host":"chi-2.us.uncletopia.com","port":27035,"enabled":true,"region":"us-central","cc":"us","latitude":41.881832,"longitude":-87.62318,"reserved":0,"last_update":"0001-01-01T00:00:00Z","name_a2s":"Uncletopia | Chicago | 7 | Stopwatch","protocol":17,"map":"cp_process_final","folder":"tf","game":"Team Fortress","app_id":440,"player_count":0,"max_players":24,"Bots":0,"server_type":"Dedicated","server_os":"Linux","password":true,"vac":true,"version":"7961495","steam_id":85568392924866364,"keywords":["cp","nocrits","nodmgspread","uncletopia"],"game_id":440,"stv_port":27036,"stv_name":"Uncletopia | Chicago | 7 | Stopwatch | STV","players":null},{"server_id":39,"name":"Uncletopia | Chicago | 8 | Community","name_short":"chi-8","host":"chi-2.us.uncletopia.com","port":27045,"enabled":true,"region":"us-central","cc":"us","latitude":41.881832,"longitude":-87.62318,"reserved":0,"last_update":"0001-01-01T00:00:00Z","name_a2s":"Uncletopia | Chicago | 8 | Community","protocol":17,"map":"workshop/koth_trenchfoot_b1a.ugc731436616","folder":"tf","game":"Team Fortress","app_id":440,"player_count":0,"max_players":24,"Bots":0,"server_type":"Dedicated","server_os":"Linux","password":true,"vac":true,"version":"7961495","steam_id":85568392924866365,"keywords":["cp","nocrits","nodmgspread","uncletopia"],"game_id":440,"stv_port":27046,"stv_name":"Uncletopia | Chicago | 8 | Community | STV","players":null},{"server_id":8,"name":"Uncletopia | Dallas | 1 | All Maps","name_short":"dal-1","host":"dal-1.us.uncletopia.com","port":27015,"enabled":true,"region":"us-central","cc":"us","latitude":32.779167,"longitude":-96.80889,"reserved":0,"last_update":"0001-01-01T00:00:00Z","name_a2s":"Uncletopia | Dallas | 1 | All Maps","protocol":17,"map":"plr_hightower","folder":"tf","game":"Team Fortress","app_id":440,"player_count":15,"max_players":24,"Bots":0,"server_type":"Dedicated","server_os":"Linux","password":true,"vac":true,"version":"7961495","steam_id":85568392924469986,"keywords":["nocrits","nodmgspread","payload","uncletopia"],"game_id":440,"stv_port":27016,"stv_name":"Uncletopia | Dallas | 1 | All Maps | STV","players":[{"user_id":550,"name":"PsyKe","steam_id":76561198055486345,"connected_time":779000000000,"state":"active","ping":74},{"user_id":521,"name":"flippercurve","steam_id":76561199238295034,"connected_time":3278000000000,"state":"active","ping":65},{"user_id":551,"name":"STAROID","steam_id":76561198069740897,"connected_time":742000000000,"state":"active","ping":70},{"user_id":535,"name":"Shisho","steam_id":76561198800199201,"connected_time":2181000000000,"state":"active","ping":55},{"user_id":552,"name":"elyktsorb","steam_id":76561198158964488,"connected_time":588000000000,"state":"active","ping":70},{"user_id":553,"name":"Greg Boberton 2012","steam_id":76561198983566026,"connected_time":410000000000,"state":"active","ping":86},{"user_id":554,"name":"ELDEN RING","steam_id":76561198333851246,"connected_time":363000000000,"state":"active","ping":36},{"user_id":556,"name":"Cliffigriff","steam_id":76561198121924499,"connected_time":301000000000,"state":"active","ping":46},{"user_id":544,"name":"Crunchy","steam_id":76561198240523882,"connected_time":1585000000000,"state":"active","ping":75},{"user_id":494,"name":"Squids023","steam_id":76561199013031576,"connected_time":4809000000000,"state":"active","ping":94},{"user_id":557,"name":"thats not a knoyfe","steam_id":76561198922763623,"connected_time":287000000000,"state":"active","ping":77},{"user_id":498,"name":"aqua","steam_id":76561199407709552,"connected_time":4730000000000,"state":"active","ping":77},{"user_id":562,"name":"T H E G A Z E","steam_id":76561198342386808,"connected_time":236000000000,"state":"active","ping":72},{"user_id":563,"name":"tyjle","steam_id":76561198118420122,"connected_time":229000000000,"state":"active","ping":60},{"user_id":564,"name":"mr.edderkopper","steam_id":76561198152614478,"connected_time":215000000000,"state":"active","ping":63}]},{"server_id":108,"name":"Uncletopia | Dallas | 2 | All Maps","name_short":"dal-2","host":"dal-1.us.uncletopia.com","port":27025,"enabled":true,"region":"us-central","cc":"us","latitude":32.779167,"longitude":-96.80889,"reserved":0,"last_update":"0001-01-01T00:00:00Z","name_a2s":"Uncletopia | Dallas | 2 | All Maps","protocol":17,"map":"cp_sunshine","folder":"tf","game":"Team Fortress","app_id":440,"player_count":23,"max_players":24,"Bots":0,"server_type":"Dedicated","server_os":"Linux","password":true,"vac":true,"version":"7961495","steam_id":85568392924469988,"keywords":["cp","nocrits","nodmgspread","uncletopia"],"game_id":440,"stv_port":27026,"stv_name":"Uncletopia | Dallas | 2 | All Maps | STV","players":[{"user_id":788,"name":"dunker","steam_id":76561198066114874,"connected_time":966000000000,"state":"active","ping":105},{"user_id":793,"name":"Hindmost","steam_id":76561199081837220,"connected_time":571000000000,"state":"active","ping":73},{"user_id":753,"name":"Lycan","steam_id":76561198151499868,"connected_time":4252000000000,"state":"active","ping":70},{"user_id":747,"name":"Ozzyhalen","steam_id":76561198025207814,"connected_time":4436000000000,"state":"active","ping":72},{"user_id":775,"name":"crumblejon","steam_id":76561198111273302,"connected_time":2047000000000,"state":"active","ping":71},{"user_id":774,"name":"Koffy","steam_id":76561198184386039,"connected_time":2161000000000,"state":"active","ping":75},{"user_id":770,"name":"Panda Loser","steam_id":76561198828745176,"connected_time":2705000000000,"state":"active","ping":85},{"user_id":773,"name":"Nicklouse","steam_id":76561198852629024,"connected_time":2301000000000,"state":"active","ping":72},{"user_id":679,"name":"BlancaLamb","steam_id":76561198025646073,"connected_time":8279000000000,"state":"active","ping":76},{"user_id":776,"name":"dave","steam_id":76561198135961731,"connected_time":2031000000000,"state":"active","ping":65},{"user_id":800,"name":"logos","steam_id":76561198038080028,"connected_time":175000000000,"state":"active","ping":90},{"user_id":792,"name":"achoo","steam_id":76561198009091066,"connected_time":624000000000,"state":"active","ping":91},{"user_id":769,"name":"BigPimpin","steam_id":76561198119549348,"connected_time":2737000000000,"state":"active","ping":45},{"user_id":801,"name":"Scout","steam_id":76561198059165394,"connected_time":140000000000,"state":"active","ping":127},{"user_id":790,"name":"PROFILE NAME","steam_id":76561199438851854,"connected_time":739000000000,"state":"active","ping":122},{"user_id":745,"name":"[ØWQJØ]chubacaalatake","steam_id":76561198136201697,"connected_time":4530000000000,"state":"active","ping":121},{"user_id":797,"name":"Lito","steam_id":76561199132181948,"connected_time":284000000000,"state":"active","ping":120},{"user_id":802,"name":"Hoofuyu","steam_id":76561199022142345,"connected_time":108000000000,"state":"active","ping":86},{"user_id":798,"name":"HoaroBatty","steam_id":76561198120361221,"connected_time":264000000000,"state":"active","ping":45},{"user_id":787,"name":"vanxi","steam_id":76561198089852954,"connected_time":1378000000000,"state":"active","ping":77},{"user_id":803,"name":"(TPT) Ghost","steam_id":76561198123262873,"connected_time":100000000000,"state":"active","ping":92},{"user_id":724,"name":"k1tty","steam_id":76561198869348268,"connected_time":5466000000000,"state":"active","ping":75},{"user_id":584,"name":"Anon","steam_id":76561198109740776,"connected_time":16756000000000,"state":"active","ping":101}]},{"server_id":404,"name":"Uncletopia | Dallas | 3 | All Maps","name_short":"dal-3","host":"dal-1.us.uncletopia.com","port":27035,"enabled":true,"region":"us-central","cc":"us","latitude":32.779167,"longitude":-96.80889,"reserved":0,"last_update":"0001-01-01T00:00:00Z","name_a2s":"Uncletopia | Dallas | 3 | All Maps","protocol":17,"map":"koth_cascade","folder":"tf","game":"Team Fortress","app_id":440,"player_count":16,"max_players":24,"Bots":0,"server_type":"Dedicated","server_os":"Linux","password":true,"vac":true,"version":"7961495","steam_id":85568392924515219,"keywords":["cp","nocrits","nodmgspread","uncletopia"],"game_id":440,"stv_port":27036,"stv_name":"Uncletopia | Dallas | 3 | All Maps | STV","players":[{"user_id":334,"name":"lil boogie","steam_id":76561198064059721,"connected_time":278000000000,"state":"active","ping":92},{"user_id":335,"name":"cowboy worm","steam_id":76561198129564488,"connected_time":207000000000,"state":"active","ping":103},{"user_id":333,"name":"blehhhhhhhhhhhh gaming","steam_id":76561198175955138,"connected_time":1302000000000,"state":"active","ping":89},{"user_id":336,"name":"BoyKisser","steam_id":76561199200969139,"connected_time":161000000000,"state":"active","ping":101},{"user_id":323,"name":"for eel? on cod? no carp?","steam_id":76561198095121758,"connected_time":1823000000000,"state":"active","ping":75},{"user_id":324,"name":"RandolphR","steam_id":76561198162917676,"connected_time":1802000000000,"state":"active","ping":87},{"user_id":326,"name":"Wiggle Wiggle","steam_id":76561199053447896,"connected_time":1710000000000,"state":"active","ping":86},{"user_id":274,"name":"LargeBigboy","steam_id":76561198089293265,"connected_time":5061000000000,"state":"active","ping":64},{"user_id":240,"name":"Big Inch","steam_id":76561198052513500,"connected_time":7426000000000,"state":"active","ping":66},{"user_id":327,"name":"soltuno","steam_id":76561198074430565,"connected_time":1650000000000,"state":"active","ping":95},{"user_id":328,"name":"makito","steam_id":76561199025164519,"connected_time":1636000000000,"state":"active","ping":87},{"user_id":301,"name":"dopadream","steam_id":76561198068383694,"connected_time":3758000000000,"state":"active","ping":57},{"user_id":329,"name":"zeplinnn","steam_id":76561198301300987,"connected_time":1612000000000,"state":"active","ping":71},{"user_id":290,"name":"crookedspinalcord","steam_id":76561198833269144,"connected_time":4382000000000,"state":"active","ping":87},{"user_id":332,"name":"Natural stupidity","steam_id":76561198164619692,"connected_time":1473000000000,"state":"active","ping":78},{"user_id":311,"name":"Light-Work","steam_id":76561198084263001,"connected_time":3447000000000,"state":"active","ping":55}]},{"server_id":405,"name":"Uncletopia | Dallas | 4 | Community","name_short":"dal-4","host":"dal-1.us.uncletopia.com","port":27045,"enabled":true,"region":"us-central","cc":"us","latitude":32.779167,"longitude":-96.80889,"reserved":0,"last_update":"0001-01-01T00:00:00Z","name_a2s":"Uncletopia | Dallas | 4 | Community","protocol":17,"map":"workshop/koth_trenchfoot_b1a.ugc731436616","folder":"tf","game":"Team Fortress","app_id":440,"player_count":0,"max_players":24,"Bots":0,"server_type":"Dedicated","server_os":"Linux","password":true,"vac":true,"version":"7961495","steam_id":85568392924515220,"keywords":["cp","nocrits","nodmgspread","uncletopia"],"game_id":440,"stv_port":27046,"stv_name":"Uncletopia | Dallas | 4 | Community | STV","players":null},{"server_id":5,"name":"Uncletopia | Frankfurt | 1 | All Maps","name_short":"frk-1","host":"frk-1.de.uncletopia.com","port":27015,"enabled":true,"region":"eu","cc":"de","latitude":50.110924,"longitude":8.682127,"reserved":0,"last_update":"0001-01-01T00:00:00Z","name_a2s":"Uncletopia | Frankfurt | 1 | All Maps","protocol":17,"map":"koth_highpass","folder":"tf","game":"Team Fortress","app_id":440,"player_count":0,"max_players":24,"Bots":0,"server_type":"Dedicated","server_os":"Linux","password":true,"vac":true,"version":"7961495","steam_id":85568392924469989,"keywords":["cp","nocrits","nodmgspread","uncletopia"],"game_id":440,"stv_port":27016,"stv_name":"Uncletopia | Frankfurt | 1 | All Maps | STV","players":null},{"server_id":110,"name":"Uncletopia | Frankfurt | 2 | All Maps","name_short":"frk-2","host":"frk-1.de.uncletopia.com","port":27025,"enabled":true,"region":"eu","cc":"de","latitude":50.110924,"longitude":8.682127,"reserved":0,"last_update":"0001-01-01T00:00:00Z","name_a2s":"Uncletopia | Frankfurt | 2 | All Maps","protocol":17,"map":"cp_dustbowl","folder":"tf","game":"Team Fortress","app_id":440,"player_count":0,"max_players":24,"Bots":0,"server_type":"Dedicated","server_os":"Linux","password":true,"vac":true,"version":"7961495","steam_id":85568392924469990,"keywords":["cp","nocrits","nodmgspread","uncletopia"],"game_id":440,"stv_port":27026,"stv_name":"Uncletopia | Frankfurt | 2 | All Maps | STV","players":null},{"server_id":308,"name":"Uncletopia | Frankfurt | 3 | All Maps","name_short":"frk-3","host":"frk-1.de.uncletopia.com","port":27035,"enabled":true,"region":"eu","cc":"de","latitude":50.110924,"longitude":8.682127,"reserved":0,"last_update":"0001-01-01T00:00:00Z","name_a2s":"Uncletopia | Frankfurt | 3 | All Maps","protocol":17,"map":"pl_barnblitz","folder":"tf","game":"Team Fortress","app_id":440,"player_count":0,"max_players":24,"Bots":0,"server_type":"Dedicated","server_os":"Linux","password":true,"vac":true,"version":"7961495","steam_id":85568392924504274,"keywords":["nocrits","nodmgspread","payload","uncletopia"],"game_id":440,"stv_port":27036,"stv_name":"Uncletopia | Frankfurt | 3 | All Maps | STV","players":null},{"server_id":309,"name":"Uncletopia | Frankfurt | 4 | All Maps","name_short":"frk-4","host":"frk-1.de.uncletopia.com","port":27045,"enabled":true,"region":"eu","cc":"de","latitude":50.110924,"longitude":8.682127,"reserved":0,"last_update":"0001-01-01T00:00:00Z","name_a2s":"Uncletopia | Frankfurt | 4 | All Maps","protocol":17,"map":"koth_highpass","folder":"tf","game":"Team Fortress","app_id":440,"player_count":0,"max_players":24,"Bots":0,"server_type":"Dedicated","server_os":"Linux","password":true,"vac":true,"version":"7961495","steam_id":85568392924504275,"keywords":["cp","nocrits","nodmgspread","uncletopia"],"game_id":440,"stv_port":27046,"stv_name":"Uncletopia | Frankfurt | 4 | All Maps | STV","players":null},{"server_id":310,"name":"Uncletopia | Frankfurt | 5 | All Maps","name_short":"frk-5","host":"frk-1.de.uncletopia.com","port":27055,"enabled":true,"region":"eu","cc":"de","latitude":50.110924,"longitude":8.682127,"reserved":0,"last_update":"0001-01-01T00:00:00Z","name_a2s":"Uncletopia | Frankfurt | 5 | All Maps","protocol":17,"map":"pl_badwater","folder":"tf","game":"Team Fortress","app_id":440,"player_count":0,"max_players":24,"Bots":0,"server_type":"Dedicated","server_os":"Linux","password":true,"vac":true,"version":"7961495","steam_id":85568392924504277,"keywords":["nocrits","nodmgspread","payload","uncletopia"],"game_id":440,"stv_port":27056,"stv_name":"Uncletopia | Frankfurt | 5 | All Maps | STV","players":null},{"server_id":311,"name":"Uncletopia | Frankfurt | 6 | All Maps","name_short":"frk-6","host":"frk-1.de.uncletopia.com","port":27065,"enabled":true,"region":"eu","cc":"de","latitude":50.110924,"longitude":8.682127,"reserved":0,"last_update":"0001-01-01T00:00:00Z","name_a2s":"Uncletopia | Frankfurt | 6 | All Maps","protocol":17,"map":"cp_altitude","folder":"tf","game":"Team Fortress","app_id":440,"player_count":0,"max_players":24,"Bots":0,"server_type":"Dedicated","server_os":"Linux","password":true,"vac":true,"version":"7961495","steam_id":85568392924504278,"keywords":["cp","nocrits","nodmgspread","uncletopia"],"game_id":440,"stv_port":27066,"stv_name":"Uncletopia | Frankfurt | 6 | All Maps | STV","players":null},{"server_id":23,"name":"Uncletopia | Frankfurt | 7 | Stopwatch","name_short":"frk-7","host":"frk-1.de.uncletopia.com","port":27075,"enabled":true,"region":"eu","cc":"de","latitude":50.110924,"longitude":8.682127,"reserved":0,"last_update":"0001-01-01T00:00:00Z","name_a2s":"Uncletopia | Frankfurt | 7 | Stopwatch","protocol":17,"map":"pl_frontier_final","folder":"tf","game":"Team Fortress","app_id":440,"player_count":0,"max_players":24,"Bots":0,"server_type":"Dedicated","server_os":"Linux","password":true,"vac":true,"version":"7961495","steam_id":85568392924742827,"keywords":["nocrits","nodmgspread","payload","uncletopia"],"game_id":440,"stv_port":27076,"stv_name":"Uncletopia | Frankfurt | 7 | Stopwatch | STV","players":null},{"server_id":24,"name":"Uncletopia | Frankfurt | 8 | Community","name_short":"frk-8","host":"frk-1.de.uncletopia.com","port":27085,"enabled":true,"region":"eu","cc":"de","latitude":50.110924,"longitude":8.682127,"reserved":0,"last_update":"0001-01-01T00:00:00Z","name_a2s":"Uncletopia | Frankfurt | 8 | Community","protocol":17,"map":"cp_mountainlab","folder":"tf","game":"Team Fortress","app_id":440,"player_count":0,"max_players":24,"Bots":0,"server_type":"Dedicated","server_os":"Linux","password":true,"vac":true,"version":"7961495","steam_id":85568392924742828,"keywords":["cp","nocrits","nodmgspread","uncletopia"],"game_id":440,"stv_port":27086,"stv_name":"Uncletopia | Frankfurt | 8 | Community | STV","players":null},{"server_id":202,"name":"Uncletopia | Hong Kong | 1 | All Maps","name_short":"hgk-1","host":"hgk-1.hk.uncletopia.com","port":27015,"enabled":true,"region":"asia","cc":"hk","latitude":22.302711,"longitude":114.177216,"reserved":0,"last_update":"0001-01-01T00:00:00Z","name_a2s":"Uncletopia | Hong Kong | 1 | All Maps","protocol":17,"map":"cp_snakewater_final1","folder":"tf","game":"Team Fortress","app_id":440,"player_count":0,"max_players":24,"Bots":0,"server_type":"Dedicated","server_os":"Linux","password":true,"vac":true,"version":"7961495","steam_id":85568392924494504,"keywords":["cp","nocrits","nodmgspread","uncletopia"],"game_id":440,"stv_port":27016,"stv_name":"Uncletopia | Hong Kong | 1 | All Maps | STV","players":null},{"server_id":1,"name":"Uncletopia | Los Angeles | 1 | All Maps","name_short":"lax-1","host":"lax-1.us.uncletopia.com","port":27015,"enabled":true,"region":"us-west","cc":"us","latitude":33.94279,"longitude":-118.41004,"reserved":0,"last_update":"0001-01-01T00:00:00Z","name_a2s":"Uncletopia | Los Angeles | 1 | All Maps","protocol":17,"map":"cp_process_final","folder":"tf","game":"Team Fortress","app_id":440,"player_count":24,"max_players":24,"Bots":0,"server_type":"Dedicated","server_os":"Linux","password":true,"vac":true,"version":"7961495","steam_id":85568392924469991,"keywords":["cp","nocrits","nodmgspread","uncletopia"],"game_id":440,"stv_port":27016,"stv_name":"Uncletopia | Los Angeles | 1 | All Maps | STV","players":[{"user_id":351,"name":"MisterT","steam_id":76561198079868873,"connected_time":2227000000000,"state":"active","ping":49},{"user_id":374,"name":"Miatsu","steam_id":76561198039820757,"connected_time":170000000000,"state":"active","ping":80},{"user_id":368,"name":"vioxynteris","steam_id":76561198161428666,"connected_time":1068000000000,"state":"active","ping":32},{"user_id":360,"name":"Loogus","steam_id":76561198811561721,"connected_time":1432000000000,"state":"active","ping":54},{"user_id":295,"name":"squart guy","steam_id":76561199411560141,"connected_time":8015000000000,"state":"active","ping":73},{"user_id":362,"name":"a chicken","steam_id":76561198313121580,"connected_time":1298000000000,"state":"active","ping":46},{"user_id":296,"name":"Obersteuermann","steam_id":76561198044468707,"connected_time":8006000000000,"state":"active","ping":73},{"user_id":375,"name":"Rommel2007","steam_id":76561198041744631,"connected_time":164000000000,"state":"active","ping":66},{"user_id":366,"name":"SAINT","steam_id":76561198066560497,"connected_time":1186000000000,"state":"active","ping":47},{"user_id":376,"name":"jovial","steam_id":76561198297130941,"connected_time":150000000000,"state":"active","ping":45},{"user_id":361,"name":"xbox record that","steam_id":76561198150117455,"connected_time":1365000000000,"state":"active","ping":48},{"user_id":377,"name":"goopgrabber","steam_id":76561199029951083,"connected_time":101000000000,"state":"active","ping":59},{"user_id":367,"name":"MensRightsActivist","steam_id":76561199482149729,"connected_time":1153000000000,"state":"active","ping":101},{"user_id":357,"name":"knight of light","steam_id":76561198025551646,"connected_time":2065000000000,"state":"active","ping":98},{"user_id":365,"name":"Ref Zay","steam_id":76561198196597242,"connected_time":1212000000000,"state":"active","ping":55},{"user_id":370,"name":"Livin' Like Larry","steam_id":76561198313360974,"connected_time":449000000000,"state":"active","ping":45},{"user_id":342,"name":"fire","steam_id":76561198044354279,"connected_time":3727000000000,"state":"active","ping":50},{"user_id":378,"name":"pendejo","steam_id":76561199373398344,"connected_time":76000000000,"state":"active","ping":62},{"user_id":379,"name":"FI LO","steam_id":76561198976530881,"connected_time":74000000000,"state":"active","ping":30},{"user_id":343,"name":"HAT-WEARING™ Maggot Gamer Cat","steam_id":76561197973992705,"connected_time":3188000000000,"state":"active","ping":70},{"user_id":345,"name":"TeCon","steam_id":76561198049127236,"connected_time":2980000000000,"state":"active","ping":65},{"user_id":352,"name":"werolat","steam_id":76561197960544784,"connected_time":2227000000000,"state":"active","ping":53},{"user_id":350,"name":"Mocha Josie","steam_id":76561198066452726,"connected_time":2259000000000,"state":"active","ping":52},{"user_id":353,"name":"ScoutBox","steam_id":76561198111539895,"connected_time":2226000000000,"state":"active","ping":52}]},{"server_id":112,"name":"Uncletopia | Los Angeles | 2 | All Maps","name_short":"lax-2","host":"lax-1.us.uncletopia.com","port":27025,"enabled":true,"region":"us-west","cc":"us","latitude":33.94279,"longitude":-118.41004,"reserved":0,"last_update":"0001-01-01T00:00:00Z","name_a2s":"Uncletopia | Los Angeles | 2 | All Maps","protocol":17,"map":"cp_dustbowl","folder":"tf","game":"Team Fortress","app_id":440,"player_count":24,"max_players":24,"Bots":0,"server_type":"Dedicated","server_os":"Linux","password":true,"vac":true,"version":"7961495","steam_id":85568392924469992,"keywords":["cp","nocrits","nodmgspread","uncletopia"],"game_id":440,"stv_port":27026,"stv_name":"Uncletopia | Los Angeles | 2 | All Maps | STV","players":[{"user_id":561,"name":"TüCold","steam_id":76561198111278197,"connected_time":3402000000000,"state":"active","ping":60},{"user_id":567,"name":"Your Favorite Fearless Hero","steam_id":76561199127590316,"connected_time":2757000000000,"state":"active","ping":63},{"user_id":577,"name":"monkey squirts","steam_id":76561197983101644,"connected_time":1653000000000,"state":"active","ping":44},{"user_id":580,"name":"A Stolen Catalytic Converter","steam_id":76561198131567365,"connected_time":1010000000000,"state":"active","ping":56},{"user_id":578,"name":"Benji","steam_id":76561198158187293,"connected_time":1237000000000,"state":"active","ping":173},{"user_id":585,"name":"Cael","steam_id":76561198136789464,"connected_time":87000000000,"state":"active","ping":64},{"user_id":520,"name":"lol","steam_id":76561198026491738,"connected_time":6139000000000,"state":"active","ping":60},{"user_id":521,"name":"xD","steam_id":76561198149683030,"connected_time":6119000000000,"state":"active","ping":60},{"user_id":540,"name":"Soulja Boy","steam_id":76561198066091050,"connected_time":5148000000000,"state":"active","ping":95},{"user_id":566,"name":"Uprightmoss7528","steam_id":76561199200138486,"connected_time":2790000000000,"state":"active","ping":67},{"user_id":571,"name":"usedhalfcart","steam_id":76561198072621852,"connected_time":1770000000000,"state":"active","ping":74},{"user_id":582,"name":"yellow ᗜˬᗜ","steam_id":76561198366474647,"connected_time":644000000000,"state":"active","ping":44},{"user_id":579,"name":"EL Pacha","steam_id":76561198043917642,"connected_time":1149000000000,"state":"active","ping":57},{"user_id":576,"name":"MrQuack","steam_id":76561198873049714,"connected_time":1664000000000,"state":"active","ping":46},{"user_id":492,"name":"AAAAAAAAAAAAAAAAAAAAAAAAAAAAAAA","steam_id":76561198125467937,"connected_time":8048000000000,"state":"active","ping":69},{"user_id":569,"name":"Big Jack","steam_id":76561198132755619,"connected_time":2013000000000,"state":"active","ping":43},{"user_id":524,"name":"Ralph Kramden (Slim Charles)","steam_id":76561197981687895,"connected_time":5978000000000,"state":"active","ping":58},{"user_id":581,"name":"Chris Goob","steam_id":76561198139920270,"connected_time":704000000000,"state":"active","ping":134},{"user_id":565,"name":"Quon Grene for Vice Prez","steam_id":76561198127545817,"connected_time":3185000000000,"state":"active","ping":71},{"user_id":547,"name":"Brain damage squirrel","steam_id":76561198846344452,"connected_time":4906000000000,"state":"active","ping":54},{"user_id":586,"name":"Team Fartpiss Poo","steam_id":76561199163591880,"connected_time":75000000000,"state":"active","ping":120},{"user_id":588,"name":"German Mud Wizard","steam_id":76561198004962632,"connected_time":11000000000,"state":"spawning","ping":84},{"user_id":532,"name":"DeratedDesign","steam_id":76561199078779967,"connected_time":5741000000000,"state":"active","ping":87},{"user_id":545,"name":"enveloped powertrip","steam_id":76561198011675372,"connected_time":5034000000000,"state":"active","ping":92}]},{"server_id":324,"name":"Uncletopia | Los Angeles | 3 | All Maps","name_short":"lax-3","host":"lax-1.us.uncletopia.com","port":27035,"enabled":true,"region":"us-west","cc":"us","latitude":33.94279,"longitude":-118.41004,"reserved":0,"last_update":"0001-01-01T00:00:00Z","name_a2s":"Uncletopia | Los Angeles | 3 | All Maps","protocol":17,"map":"koth_suijin","folder":"tf","game":"Team Fortress","app_id":440,"player_count":10,"max_players":24,"Bots":0,"server_type":"Dedicated","server_os":"Linux","password":true,"vac":true,"version":"7961495","steam_id":85568392924510198,"keywords":["cp","nocrits","nodmgspread","uncletopia"],"game_id":440,"stv_port":27036,"stv_name":"Uncletopia | Los Angeles | 3 | All Maps | STV","players":[{"user_id":20,"name":"Toadwinter","steam_id":76561198329216601,"connected_time":2507000000000,"state":"active","ping":55},{"user_id":41,"name":"Thequirka","steam_id":76561198968058652,"connected_time":243000000000,"state":"active","ping":74},{"user_id":34,"name":"BOBBER BOB (gamer/bob)","steam_id":76561198139427991,"connected_time":581000000000,"state":"active","ping":89},{"user_id":42,"name":"Phoenix","steam_id":76561199465534945,"connected_time":231000000000,"state":"active","ping":74},{"user_id":26,"name":"Crazy Hungarian","steam_id":76561198025498172,"connected_time":1388000000000,"state":"active","ping":84},{"user_id":27,"name":"Dreamzapp","steam_id":76561199084936632,"connected_time":903000000000,"state":"active","ping":68},{"user_id":39,"name":"Uluyo","steam_id":76561198065857148,"connected_time":415000000000,"state":"active","ping":72},{"user_id":38,"name":"Invisible Teammate","steam_id":76561197986477544,"connected_time":497000000000,"state":"active","ping":105},{"user_id":32,"name":"Toesukr 69","steam_id":76561198220579189,"connected_time":624000000000,"state":"active","ping":77},{"user_id":36,"name":"johnman gooberguy","steam_id":76561199014859764,"connected_time":555000000000,"state":"active","ping":68}]},{"server_id":25,"name":"Uncletopia | Los Angeles | 4 | Stopwatch","name_short":"lax-4","host":"lax-1.us.uncletopia.com","port":27045,"enabled":true,"region":"us-west","cc":"us","latitude":33.94279,"longitude":-118.41004,"reserved":0,"last_update":"0001-01-01T00:00:00Z","name_a2s":"Uncletopia | Los Angeles | 4 | Stopwatch","protocol":17,"map":"workshop/pl_badwater_pro_v12.ugc2142942074","folder":"tf","game":"Team Fortress","app_id":440,"player_count":0,"max_players":24,"Bots":0,"server_type":"Dedicated","server_os":"Linux","password":true,"vac":true,"version":"7961495","steam_id":85568392924510199,"keywords":["nocrits","nodmgspread","payload","uncletopia"],"game_id":440,"stv_port":27046,"stv_name":"Uncletopia | Los Angeles | 4 | Stopwatch | STV","players":null},{"server_id":11,"name":"Uncletopia | London | 1 | All Maps","name_short":"lon-1","host":"lon-1.uk.uncletopia.com","port":27015,"enabled":true,"region":"eu","cc":"gb","latitude":51.509865,"longitude":-0.118092,"reserved":0,"last_update":"0001-01-01T00:00:00Z","name_a2s":"Uncletopia | London | 1 | All Maps","protocol":17,"map":"koth_highpass","folder":"tf","game":"Team Fortress","app_id":440,"player_count":0,"max_players":24,"Bots":0,"server_type":"Dedicated","server_os":"Linux","password":true,"vac":true,"version":"7961495","steam_id":85568392924367362,"keywords":["cp","nocrits","nodmgspread","uncletopia"],"game_id":440,"stv_port":27016,"stv_name":"Uncletopia | London | 1 | All Maps | STV","players":null},{"server_id":114,"name":"Uncletopia | London | 2 | All Maps","name_short":"lon-2","host":"lon-1.uk.uncletopia.com","port":27025,"enabled":true,"region":"eu","cc":"gb","latitude":51.509865,"longitude":-0.118092,"reserved":0,"last_update":"0001-01-01T00:00:00Z","name_a2s":"Uncletopia | London | 2 | All Maps","protocol":17,"map":"koth_lakeside_final","folder":"tf","game":"Team Fortress","app_id":440,"player_count":0,"max_players":24,"Bots":0,"server_type":"Dedicated","server_os":"Linux","password":true,"vac":true,"version":"7961495","steam_id":85568392924470941,"keywords":["cp","nocrits","nodmgspread","uncletopia"],"game_id":440,"stv_port":27026,"stv_name":"Uncletopia | London | 2 | All Maps | STV","players":null},{"server_id":320,"name":"Uncletopia | London | 3 | All Maps","name_short":"lon-3","host":"lon-1.uk.uncletopia.com","port":27035,"enabled":true,"region":"eu","cc":"gb","latitude":51.509865,"longitude":-0.118092,"reserved":0,"last_update":"0001-01-01T00:00:00Z","name_a2s":"Uncletopia | London | 3 | All Maps","protocol":17,"map":"cp_process_final","folder":"tf","game":"Team Fortress","app_id":440,"player_count":0,"max_players":24,"Bots":0,"server_type":"Dedicated","server_os":"Linux","password":true,"vac":true,"version":"7961495","steam_id":85568392924510192,"keywords":["cp","nocrits","nodmgspread","uncletopia"],"game_id":440,"stv_port":27036,"stv_name":"Uncletopia | London | 3 | All Maps | STV","players":null},{"server_id":321,"name":"Uncletopia | London | 4 | All Maps","name_short":"lon-4","host":"lon-1.uk.uncletopia.com","port":27045,"enabled":true,"region":"eu","cc":"gb","latitude":51.509865,"longitude":-0.118092,"reserved":0,"last_update":"0001-01-01T00:00:00Z","name_a2s":"Uncletopia | London | 4 | All Maps","protocol":17,"map":"koth_cascade","folder":"tf","game":"Team Fortress","app_id":440,"player_count":0,"max_players":24,"Bots":0,"server_type":"Dedicated","server_os":"Linux","password":true,"vac":true,"version":"7961495","steam_id":85568392924510193,"keywords":["cp","nocrits","nodmgspread","uncletopia"],"game_id":440,"stv_port":27046,"stv_name":"Uncletopia | London | 4 | All Maps | STV","players":null},{"server_id":21,"name":"Uncletopia | London | 5 | All Maps","name_short":"lon-5","host":"lon-1.uk.uncletopia.com","port":27055,"enabled":true,"region":"eu","cc":"gb","latitude":51.509865,"longitude":-0.118092,"reserved":0,"last_update":"0001-01-01T00:00:00Z","name_a2s":"Uncletopia | London | 5 | All Maps","protocol":17,"map":"koth_lakeside_final","folder":"tf","game":"Team Fortress","app_id":440,"player_count":0,"max_players":24,"Bots":0,"server_type":"Dedicated","server_os":"Linux","password":true,"vac":true,"version":"7961495","steam_id":85568392924742829,"keywords":["cp","nocrits","nodmgspread","uncletopia"],"game_id":440,"stv_port":27056,"stv_name":"Uncletopia | London | 5 | All Maps | STV","players":null},{"server_id":22,"name":"Uncletopia | London | 6 | All Maps","name_short":"lon-6","host":"lon-1.uk.uncletopia.com","port":27065,"enabled":true,"region":"eu","cc":"gb","latitude":51.509865,"longitude":-0.118092,"reserved":0,"last_update":"0001-01-01T00:00:00Z","name_a2s":"Uncletopia | London | 6 | All Maps","protocol":17,"map":"cp_dustbowl","folder":"tf","game":"Team Fortress","app_id":440,"player_count":0,"max_players":24,"Bots":0,"server_type":"Dedicated","server_os":"Linux","password":true,"vac":true,"version":"7961495","steam_id":85568392924742830,"keywords":["cp","nocrits","nodmgspread","uncletopia"],"game_id":440,"stv_port":27066,"stv_name":"Uncletopia | London | 6 | All Maps | STV","players":null},{"server_id":40,"name":"Uncletopia | London | 7 | Stopwatch","name_short":"lon-7","host":"lon-1.uk.uncletopia.com","port":27075,"enabled":true,"region":"eu","cc":"gb","latitude":51.509865,"longitude":-0.118092,"reserved":0,"last_update":"0001-01-01T00:00:00Z","name_a2s":"Uncletopia | London | 7 | Stopwatch","protocol":17,"map":"koth_lakeside_final","folder":"tf","game":"Team Fortress","app_id":440,"player_count":0,"max_players":24,"Bots":0,"server_type":"Dedicated","server_os":"Linux","password":true,"vac":true,"version":"7961495","steam_id":85568392924964314,"keywords":["cp","nocrits","nodmgspread","uncletopia"],"game_id":440,"stv_port":27076,"stv_name":"Uncletopia | London | 7 | Stopwatch | STV","players":null},{"server_id":41,"name":"Uncletopia | London | 8 | Community","name_short":"lon-8","host":"lon-1.uk.uncletopia.com","port":27085,"enabled":true,"region":"eu","cc":"gb","latitude":51.509865,"longitude":-0.118092,"reserved":0,"last_update":"0001-01-01T00:00:00Z","name_a2s":"Uncletopia | London | 8 | Community","protocol":17,"map":"cp_snakewater_final1","folder":"tf","game":"Team Fortress","app_id":440,"player_count":0,"max_players":24,"Bots":0,"server_type":"Dedicated","server_os":"Linux","password":true,"vac":true,"version":"7961495","steam_id":85568392924964315,"keywords":["cp","nocrits","nodmgspread","uncletopia"],"game_id":440,"stv_port":27086,"stv_name":"Uncletopia | London | 8 | Community | STV","players":null},{"server_id":300,"name":"Uncletopia | Montréal | 1 | All Maps","name_short":"mtl-1","host":"mtl-1.ca.uncletopia.com","port":27015,"enabled":true,"region":"us-east","cc":"ca","latitude":45.50889,"longitude":-73.56167,"reserved":0,"last_update":"0001-01-01T00:00:00Z","name_a2s":"","protocol":0,"map":"","folder":"","game":"","app_id":0,"player_count":0,"max_players":0,"Bots":0,"server_type":"","server_os":"","password":false,"vac":false,"version":"","steam_id":0,"keywords":null,"game_id":0,"stv_port":0,"stv_name":"","players":null},{"server_id":301,"name":"Uncletopia | Montréal | 2 | All Maps","name_short":"mtl-2","host":"mtl-1.ca.uncletopia.com","port":27025,"enabled":true,"region":"us-east","cc":"ca","latitude":45.50889,"longitude":-73.56167,"reserved":0,"last_update":"0001-01-01T00:00:00Z","name_a2s":"","protocol":0,"map":"","folder":"","game":"","app_id":0,"player_count":0,"max_players":0,"Bots":0,"server_type":"","server_os":"","password":false,"vac":false,"version":"","steam_id":0,"keywords":null,"game_id":0,"stv_port":0,"stv_name":"","players":null},{"server_id":302,"name":"Uncletopia | Montréal | 3 | All Maps","name_short":"mtl-3","host":"mtl-1.ca.uncletopia.com","port":27035,"enabled":true,"region":"us-east","cc":"ca","latitude":45.50889,"longitude":-73.56167,"reserved":0,"last_update":"0001-01-01T00:00:00Z","name_a2s":"","protocol":0,"map":"","folder":"","game":"","app_id":0,"player_count":0,"max_players":0,"Bots":0,"server_type":"","server_os":"","password":false,"vac":false,"version":"","steam_id":0,"keywords":null,"game_id":0,"stv_port":0,"stv_name":"","players":null},{"server_id":303,"name":"Uncletopia | Montréal | 4 | No Payload","name_short":"mtl-4","host":"mtl-1.ca.uncletopia.com","port":27045,"enabled":true,"region":"us-east","cc":"ca","latitude":45.50889,"longitude":-73.56167,"reserved":0,"last_update":"0001-01-01T00:00:00Z","name_a2s":"","protocol":0,"map":"","folder":"","game":"","app_id":0,"player_count":0,"max_players":0,"Bots":0,"server_type":"","server_os":"","password":false,"vac":false,"version":"","steam_id":0,"keywords":null,"game_id":0,"stv_port":0,"stv_name":"","players":null},{"server_id":13,"name":"Uncletopia | New York City | 1 | All Maps","name_short":"nyc-1","host":"nyc-1.us.uncletopia.com","port":27015,"enabled":true,"region":"us-east","cc":"us","latitude":40.73061,"longitude":-73.93524,"reserved":0,"last_update":"0001-01-01T00:00:00Z","name_a2s":"Uncletopia | New York City | 1 | All Maps","protocol":17,"map":"pl_snowycoast","folder":"tf","game":"Team Fortress","app_id":440,"player_count":24,"max_players":24,"Bots":0,"server_type":"Dedicated","server_os":"Linux","password":true,"vac":true,"version":"7961495","steam_id":85568392924469993,"keywords":["nocrits","nodmgspread","payload","uncletopia"],"game_id":440,"stv_port":27016,"stv_name":"Uncletopia | New York City | 1 | All Maps | STV","players":[{"user_id":591,"name":"erf","steam_id":76561198078203677,"connected_time":600000000000,"state":"active","ping":54},{"user_id":560,"name":"Zanthous","steam_id":76561198048969901,"connected_time":2506000000000,"state":"active","ping":45},{"user_id":602,"name":"Kirbo","steam_id":76561199185303303,"connected_time":238000000000,"state":"active","ping":88},{"user_id":586,"name":"Lawnmower","steam_id":76561198186680197,"connected_time":941000000000,"state":"active","ping":99},{"user_id":569,"name":"SavageJacky","steam_id":76561198056465430,"connected_time":1881000000000,"state":"active","ping":74},{"user_id":600,"name":"shr","steam_id":76561198449852071,"connected_time":269000000000,"state":"active","ping":112},{"user_id":593,"name":"lulu","steam_id":76561199147764133,"connected_time":575000000000,"state":"active","ping":140},{"user_id":609,"name":"Wan Shi Tong","steam_id":76561198076441225,"connected_time":18000000000,"state":"active","ping":45},{"user_id":603,"name":"Renota","steam_id":76561198058224488,"connected_time":229000000000,"state":"active","ping":75},{"user_id":543,"name":"Si1entSn1pa","steam_id":76561198170095479,"connected_time":3467000000000,"state":"active","ping":85},{"user_id":574,"name":"Snoe","steam_id":76561198102210669,"connected_time":1525000000000,"state":"active","ping":97},{"user_id":582,"name":"Truffles","steam_id":76561198095868800,"connected_time":1051000000000,"state":"active","ping":99},{"user_id":605,"name":"Discourse","steam_id":76561198984286678,"connected_time":160000000000,"state":"active","ping":72},{"user_id":558,"name":"Tony hawks pro skater 2 dlc","steam_id":76561198243387974,"connected_time":2891000000000,"state":"active","ping":50},{"user_id":606,"name":"werecat","steam_id":76561198005091213,"connected_time":143000000000,"state":"active","ping":40},{"user_id":598,"name":"boat","steam_id":76561198157124609,"connected_time":360000000000,"state":"active","ping":59},{"user_id":607,"name":"Kasimir","steam_id":76561198013840333,"connected_time":134000000000,"state":"active","ping":100},{"user_id":512,"name":"Doofenshmirtz Evil Inc.","steam_id":76561198439793697,"connected_time":5566000000000,"state":"active","ping":88},{"user_id":587,"name":"vivi","steam_id":76561198881665250,"connected_time":894000000000,"state":"active","ping":107},{"user_id":564,"name":"Doubie","steam_id":76561198104492019,"connected_time":2428000000000,"state":"active","ping":68},{"user_id":568,"name":"Kingmoney","steam_id":76561198082640077,"connected_time":1988000000000,"state":"active","ping":126},{"user_id":577,"name":"msay","steam_id":76561198170888029,"connected_time":1275000000000,"state":"active","ping":75},{"user_id":608,"name":"zed","steam_id":76561198033499175,"connected_time":62000000000,"state":"active","ping":60},{"user_id":566,"name":"roman","steam_id":76561198170066797,"connected_time":2412000000000,"state":"active","ping":63}]},{"server_id":14,"name":"Uncletopia | New York City | 2 | All Maps","name_short":"nyc-2","host":"nyc-1.us.uncletopia.com","port":27025,"enabled":true,"region":"us-east","cc":"us","latitude":40.73061,"longitude":-73.93524,"reserved":0,"last_update":"0001-01-01T00:00:00Z","name_a2s":"Uncletopia | New York City | 2 | All Maps","protocol":17,"map":"cp_snakewater_final1","folder":"tf","game":"Team Fortress","app_id":440,"player_count":14,"max_players":24,"Bots":0,"server_type":"Dedicated","server_os":"Linux","password":true,"vac":true,"version":"7961495","steam_id":85568392924469994,"keywords":["cp","nocrits","nodmgspread","uncletopia"],"game_id":440,"stv_port":27026,"stv_name":"Uncletopia | New York City | 2 | All Maps | STV","players":[{"user_id":723,"name":"Big Chief Slap-A-Hoe","steam_id":76561198440881697,"connected_time":520000000000,"state":"active","ping":73},{"user_id":716,"name":"twitch","steam_id":76561198035333579,"connected_time":899000000000,"state":"active","ping":45},{"user_id":687,"name":"bleach65","steam_id":76561198115270571,"connected_time":4796000000000,"state":"active","ping":73},{"user_id":701,"name":"Iron_Dave_Qc","steam_id":76561198159325213,"connected_time":2027000000000,"state":"active","ping":56},{"user_id":729,"name":"Times New Greek","steam_id":76561199431280503,"connected_time":256000000000,"state":"active","ping":63},{"user_id":704,"name":"KirboXD","steam_id":76561199101228448,"connected_time":1543000000000,"state":"active","ping":88},{"user_id":705,"name":"Obama_Gaming","steam_id":76561199154194422,"connected_time":1527000000000,"state":"active","ping":188},{"user_id":732,"name":"saiborg2030","steam_id":76561199048047258,"connected_time":95000000000,"state":"active","ping":92},{"user_id":731,"name":"🅜🅔🅔🅚🅢🅣🅔\ufffd\ufffd\ufffd","steam_id":76561197999748343,"connected_time":104000000000,"state":"active","ping":75},{"user_id":708,"name":"Mr. Epic","steam_id":76561199304781460,"connected_time":1468000000000,"state":"active","ping":97},{"user_id":714,"name":"snobis","steam_id":76561198084927866,"connected_time":986000000000,"state":"active","ping":69},{"user_id":715,"name":"freak","steam_id":76561198035350959,"connected_time":980000000000,"state":"active","ping":62},{"user_id":717,"name":"ignoble","steam_id":76561198040084437,"connected_time":894000000000,"state":"active","ping":56},{"user_id":727,"name":"DRUMMY GRAMMY","steam_id":76561198047642540,"connected_time":491000000000,"state":"active","ping":75}]},{"server_id":15,"name":"Uncletopia | New York City | 3 | Stopwatch","name_short":"nyc-3","host":"nyc-1.us.uncletopia.com","port":27035,"enabled":true,"region":"us-east","cc":"us","latitude":40.73061,"longitude":-73.93524,"reserved":0,"last_update":"0001-01-01T00:00:00Z","name_a2s":"Uncletopia | New York City | 3 | Stopwatch","protocol":17,"map":"cp_granary","folder":"tf","game":"Team Fortress","app_id":440,"player_count":0,"max_players":24,"Bots":0,"server_type":"Dedicated","server_os":"Linux","password":true,"vac":true,"version":"7961495","steam_id":85568392924742820,"keywords":["cp","nocrits","nodmgspread","uncletopia"],"game_id":440,"stv_port":27036,"stv_name":"Uncletopia | New York City | 3 | Stopwatch | STV","players":null},{"server_id":16,"name":"Uncletopia | New York City | 4 | Community","name_short":"nyc-4","host":"nyc-1.us.uncletopia.com","port":27045,"enabled":true,"region":"us-east","cc":"us","latitude":40.73061,"longitude":-73.93524,"reserved":0,"last_update":"0001-01-01T00:00:00Z","name_a2s":"Uncletopia | New York City | 4 | Community","protocol":17,"map":"workshop/cp_croissant_final.ugc458840209","folder":"tf","game":"Team Fortress","app_id":440,"player_count":0,"max_players":24,"Bots":0,"server_type":"Dedicated","server_os":"Linux","password":true,"vac":true,"version":"7961495","steam_id":85568392924742821,"keywords":["cp","nocrits","nodmgspread","uncletopia"],"game_id":440,"stv_port":27046,"stv_name":"Uncletopia | New York City | 4 | Community | STV","players":null},{"server_id":142,"name":"Uncletopia | São Paulo | 1 | All Maps","name_short":"sao-1","host":"sao-1.br.uncletopia.com","port":27015,"enabled":true,"region":"sa","cc":"br","latitude":-23.533773,"longitude":-46.62529,"reserved":0,"last_update":"0001-01-01T00:00:00Z","name_a2s":"Uncletopia | São Paulo | 1 | All Maps","protocol":17,"map":"koth_cascade","folder":"tf","game":"Team Fortress","app_id":440,"player_count":0,"max_players":24,"Bots":0,"server_type":"Dedicated","server_os":"Linux","password":true,"vac":true,"version":"7961495","steam_id":85568392924469996,"keywords":["cp","nocrits","nodmgspread","uncletopia"],"game_id":440,"stv_port":27016,"stv_name":"Uncletopia | São Paulo | 1 | All Maps | STV","players":null},{"server_id":143,"name":"Uncletopia | São Paulo | 2 | Community","name_short":"sao-2","host":"sao-2.br.uncletopia.com","port":27015,"enabled":true,"region":"sa","cc":"br","latitude":-23.533773,"longitude":-46.62529,"reserved":0,"last_update":"0001-01-01T00:00:00Z","name_a2s":"Uncletopia | São Paulo | 2 | Community","protocol":17,"map":"workshop/koth_ramjam_rc1.ugc459778887","folder":"tf","game":"Team Fortress","app_id":440,"player_count":0,"max_players":24,"Bots":0,"server_type":"Dedicated","server_os":"Linux","password":true,"vac":true,"version":"7961495","steam_id":85568392924485349,"keywords":["cp","nocrits","nodmgspread","uncletopia"],"game_id":440,"stv_port":27016,"stv_name":"Uncletopia | São Paulo | 2 | Community | STV","players":null},{"server_id":7,"name":"Uncletopia | Seattle | 1 | All Maps","name_short":"sea-1","host":"sea-1.us.uncletopia.com","port":27015,"enabled":true,"region":"us-west","cc":"us","latitude":47.608013,"longitude":-122.33517,"reserved":0,"last_update":"0001-01-01T00:00:00Z","name_a2s":"Uncletopia | Seattle | 1 | All Maps","protocol":17,"map":"pl_badwater","folder":"tf","game":"Team Fortress","app_id":440,"player_count":24,"max_players":24,"Bots":0,"server_type":"Dedicated","server_os":"Linux","password":true,"vac":true,"version":"7961495","steam_id":85568392924469997,"keywords":["nocrits","nodmgspread","payload","uncletopia"],"game_id":440,"stv_port":27016,"stv_name":"Uncletopia | Seattle | 1 | All Maps | STV","players":[{"user_id":789,"name":"Akira (they/them)","steam_id":76561198294601519,"connected_time":361000000000,"state":"active","ping":39},{"user_id":802,"name":"Joseph Stalin","steam_id":76561198382398935,"connected_time":97000000000,"state":"active","ping":67},{"user_id":791,"name":"swarm of bee","steam_id":76561198059604047,"connected_time":340000000000,"state":"active","ping":45},{"user_id":792,"name":"Brathic","steam_id":76561198966232163,"connected_time":340000000000,"state":"active","ping":82},{"user_id":755,"name":"Yammie","steam_id":76561197987304489,"connected_time":3013000000000,"state":"active","ping":45},{"user_id":759,"name":"level 7 firemancer","steam_id":76561198209571677,"connected_time":2997000000000,"state":"active","ping":113},{"user_id":793,"name":"lusty","steam_id":76561198138478947,"connected_time":339000000000,"state":"active","ping":37},{"user_id":774,"name":"mega","steam_id":76561198089520959,"connected_time":1016000000000,"state":"active","ping":97},{"user_id":786,"name":"fwoov","steam_id":76561198129166260,"connected_time":399000000000,"state":"active","ping":79},{"user_id":794,"name":"Vile","steam_id":76561198085615710,"connected_time":338000000000,"state":"active","ping":105},{"user_id":787,"name":"Keamy","steam_id":76561199471434875,"connected_time":394000000000,"state":"active","ping":36},{"user_id":795,"name":"geekin and tweakin","steam_id":76561198095480838,"connected_time":337000000000,"state":"active","ping":45},{"user_id":801,"name":"Skabbety","steam_id":76561198168044257,"connected_time":207000000000,"state":"active","ping":44},{"user_id":744,"name":"lavender","steam_id":76561199069518286,"connected_time":4062000000000,"state":"active","ping":67},{"user_id":777,"name":"Doctor™","steam_id":76561198134309750,"connected_time":1009000000000,"state":"active","ping":112},{"user_id":797,"name":"NEBULA","steam_id":76561198086878595,"connected_time":333000000000,"state":"active","ping":74},{"user_id":728,"name":"squash","steam_id":76561198150281353,"connected_time":5816000000000,"state":"active","ping":48},{"user_id":770,"name":"John Calibur","steam_id":76561197999986606,"connected_time":1841000000000,"state":"active","ping":68},{"user_id":771,"name":"soup","steam_id":76561198043209046,"connected_time":1780000000000,"state":"active","ping":74},{"user_id":743,"name":"jole","steam_id":76561198037292232,"connected_time":4384000000000,"state":"active","ping":130},{"user_id":640,"name":"Level 99 Mudcrab","steam_id":76561198077452771,"connected_time":11116000000000,"state":"active","ping":90},{"user_id":798,"name":"Sniff","steam_id":76561198010270922,"connected_time":331000000000,"state":"active","ping":59},{"user_id":799,"name":"top Golf","steam_id":76561198241265568,"connected_time":329000000000,"state":"active","ping":33},{"user_id":800,"name":"Joe Blow","steam_id":76561198037700673,"connected_time":311000000000,"state":"active","ping":58}]},{"server_id":119,"name":"Uncletopia | Seattle | 2 | All Maps","name_short":"sea-2","host":"sea-1.us.uncletopia.com","port":27025,"enabled":true,"region":"us-west","cc":"us","latitude":47.608013,"longitude":-122.33517,"reserved":0,"last_update":"0001-01-01T00:00:00Z","name_a2s":"Uncletopia | Seattle | 2 | All Maps","protocol":17,"map":"cp_steel","folder":"tf","game":"Team Fortress","app_id":440,"player_count":1,"max_players":24,"Bots":0,"server_type":"Dedicated","server_os":"Linux","password":true,"vac":true,"version":"7961495","steam_id":85568392924469998,"keywords":["cp","nocrits","nodmgspread","uncletopia"],"game_id":440,"stv_port":27026,"stv_name":"Uncletopia | Seattle | 2 | All Maps | STV","players":[{"user_id":390,"name":"Bishuhp","steam_id":76561198015062850,"connected_time":133000000000,"state":"active","ping":46}]},{"server_id":406,"name":"Uncletopia | Seattle | 3 | Stopwatch","name_short":"sea-3","host":"sea-1.us.uncletopia.com","port":27035,"enabled":true,"region":"us-west","cc":"us","latitude":47.608013,"longitude":-122.33517,"reserved":0,"last_update":"0001-01-01T00:00:00Z","name_a2s":"Uncletopia | Seattle | 3 | Stopwatch","protocol":17,"map":"workshop/koth_ashville_final.ugc2130459942","folder":"tf","game":"Team Fortress","app_id":440,"player_count":0,"max_players":24,"Bots":0,"server_type":"Dedicated","server_os":"Linux","password":true,"vac":true,"version":"7961495","steam_id":85568392924515217,"keywords":["cp","nocrits","nodmgspread","uncletopia"],"game_id":440,"stv_port":27036,"stv_name":"Uncletopia | Seattle | 3 | Stopwatch | STV","players":null},{"server_id":17,"name":"Uncletopia | San Francisco | 1 | All Maps","name_short":"sfo-1","host":"sfo-1.us.uncletopia.com","port":27015,"enabled":true,"region":"us-west","cc":"us","latitude":37.77397,"longitude":-122.4313,"reserved":0,"last_update":"0001-01-01T00:00:00Z","name_a2s":"Uncletopia | San Francisco | 1 | All Maps","protocol":17,"map":"cp_dustbowl","folder":"tf","game":"Team Fortress","app_id":440,"player_count":22,"max_players":24,"Bots":0,"server_type":"Dedicated","server_os":"Linux","password":true,"vac":true,"version":"7961495","steam_id":85568392924469999,"keywords":["cp","nocrits","nodmgspread","uncletopia"],"game_id":440,"stv_port":27016,"stv_name":"Uncletopia | San Francisco | 1 | All Maps | STV","players":[{"user_id":394,"name":"Roosterrex","steam_id":76561198094828784,"connected_time":1138000000000,"state":"active","ping":61},{"user_id":333,"name":"Meekz","steam_id":76561198012562373,"connected_time":5948000000000,"state":"active","ping":64},{"user_id":357,"name":"SanitysEdge","steam_id":76561198130732813,"connected_time":3897000000000,"state":"active","ping":55},{"user_id":397,"name":"HawkBlaze","steam_id":76561199000152914,"connected_time":699000000000,"state":"active","ping":64},{"user_id":398,"name":"JC The Dumb","steam_id":76561199186185567,"connected_time":699000000000,"state":"active","ping":69},{"user_id":396,"name":"Solifuga","steam_id":76561198119569902,"connected_time":891000000000,"state":"active","ping":61},{"user_id":381,"name":"bite this onions","steam_id":76561198068113347,"connected_time":1344000000000,"state":"active","ping":49},{"user_id":402,"name":"Kalir","steam_id":76561197996125658,"connected_time":167000000000,"state":"active","ping":79},{"user_id":403,"name":"chanoc","steam_id":76561198026734746,"connected_time":124000000000,"state":"active","ping":45},{"user_id":400,"name":"I AM A DINOSAUR","steam_id":76561198039814201,"connected_time":474000000000,"state":"active","ping":61},{"user_id":387,"name":"BLU Orbama","steam_id":76561198047002366,"connected_time":1308000000000,"state":"active","ping":63},{"user_id":388,"name":"parallax","steam_id":76561198004438881,"connected_time":1286000000000,"state":"active","ping":67},{"user_id":391,"name":"the hype man","steam_id":76561199052875314,"connected_time":1221000000000,"state":"active","ping":68},{"user_id":367,"name":"A UsedNom","steam_id":76561198402832756,"connected_time":3075000000000,"state":"active","ping":40},{"user_id":369,"name":"GlorifiedAshy","steam_id":76561198382684727,"connected_time":3047000000000,"state":"active","ping":111},{"user_id":392,"name":"Bamboo","steam_id":76561198043139553,"connected_time":1207000000000,"state":"active","ping":52},{"user_id":378,"name":"Sad Tony","steam_id":76561198053849851,"connected_time":2305000000000,"state":"active","ping":53},{"user_id":334,"name":"The Smell of Jazz","steam_id":76561198005860388,"connected_time":5873000000000,"state":"active","ping":61},{"user_id":380,"name":"aw he got the velcros","steam_id":76561198154395780,"connected_time":1485000000000,"state":"active","ping":113},{"user_id":356,"name":"Creature","steam_id":76561198194585781,"connected_time":3910000000000,"state":"active","ping":65},{"user_id":393,"name":"ratthew","steam_id":76561198418172095,"connected_time":1148000000000,"state":"active","ping":86},{"user_id":360,"name":"Very_Dyslexic","steam_id":76561198255310705,"connected_time":3768000000000,"state":"active","ping":71}]},{"server_id":18,"name":"Uncletopia | San Francisco | 2 | All Maps","name_short":"sfo-2","host":"sfo-1.us.uncletopia.com","port":27025,"enabled":true,"region":"us-west","cc":"us","latitude":37.77397,"longitude":-122.4313,"reserved":0,"last_update":"0001-01-01T00:00:00Z","name_a2s":"Uncletopia | San Francisco | 2 | All Maps","protocol":17,"map":"pl_swiftwater_final1","folder":"tf","game":"Team Fortress","app_id":440,"player_count":23,"max_players":24,"Bots":0,"server_type":"Dedicated","server_os":"Linux","password":true,"vac":true,"version":"7961495","steam_id":85568392924470000,"keywords":["nocrits","nodmgspread","payload","uncletopia"],"game_id":440,"stv_port":27026,"stv_name":"Uncletopia | San Francisco | 2 | All Maps | STV","players":[{"user_id":649,"name":"Deacon","steam_id":76561197998532724,"connected_time":961000000000,"state":"active","ping":76},{"user_id":645,"name":"silly jester","steam_id":76561198079609974,"connected_time":1135000000000,"state":"active","ping":62},{"user_id":668,"name":"RUF","steam_id":76561198062315805,"connected_time":343000000000,"state":"active","ping":62},{"user_id":647,"name":"bodie._.","steam_id":76561198079474904,"connected_time":1056000000000,"state":"active","ping":78},{"user_id":642,"name":"azureglxy","steam_id":76561198861388315,"connected_time":1878000000000,"state":"active","ping":51},{"user_id":671,"name":"unfunny jokester","steam_id":76561198970122757,"connected_time":194000000000,"state":"active","ping":117},{"user_id":656,"name":"ElectronX","steam_id":76561198116034988,"connected_time":807000000000,"state":"active","ping":57},{"user_id":657,"name":"Perry the Platypus","steam_id":76561198273045773,"connected_time":805000000000,"state":"active","ping":62},{"user_id":603,"name":"eBay","steam_id":76561198061214569,"connected_time":6439000000000,"state":"active","ping":83},{"user_id":635,"name":"Aeris","steam_id":76561198287271028,"connected_time":2698000000000,"state":"active","ping":99},{"user_id":670,"name":"genius of love","steam_id":76561198282764599,"connected_time":213000000000,"state":"active","ping":94},{"user_id":650,"name":"ExplosiveGamer21","steam_id":76561198132370955,"connected_time":957000000000,"state":"active","ping":98},{"user_id":654,"name":"Zorlovo","steam_id":76561198006443283,"connected_time":848000000000,"state":"active","ping":87},{"user_id":663,"name":"Dr. Karl, the AUS Science Guy","steam_id":76561198031278747,"connected_time":552000000000,"state":"active","ping":63},{"user_id":658,"name":"MrMind","steam_id":76561199321657653,"connected_time":794000000000,"state":"active","ping":67},{"user_id":639,"name":"BigJosh","steam_id":76561198024314077,"connected_time":2366000000000,"state":"active","ping":60},{"user_id":665,"name":"SearingGustav #tG","steam_id":76561198040560786,"connected_time":461000000000,"state":"active","ping":88},{"user_id":612,"name":"guy who stares at GOOD players","steam_id":76561198065662025,"connected_time":5308000000000,"state":"active","ping":50},{"user_id":621,"name":"Optimore","steam_id":76561198047662990,"connected_time":4277000000000,"state":"active","ping":49},{"user_id":661,"name":"PPancake","steam_id":76561199047456940,"connected_time":720000000000,"state":"active","ping":64},{"user_id":667,"name":"Villchip","steam_id":76561198198599982,"connected_time":380000000000,"state":"active","ping":63},{"user_id":672,"name":"☢(XJ)","steam_id":76561198102189618,"connected_time":190000000000,"state":"active","ping":44},{"user_id":673,"name":"momo","steam_id":76561198099061153,"connected_time":171000000000,"state":"active","ping":64}]},{"server_id":19,"name":"Uncletopia | San Francisco | 3 | Stopwatch","name_short":"sfo-3","host":"sfo-1.us.uncletopia.com","port":27035,"enabled":true,"region":"us-west","cc":"us","latitude":37.77397,"longitude":-122.4313,"reserved":0,"last_update":"0001-01-01T00:00:00Z","name_a2s":"Uncletopia | San Francisco | 3 | Stopwatch","protocol":17,"map":"cp_sunshine","folder":"tf","game":"Team Fortress","app_id":440,"player_count":0,"max_players":24,"Bots":0,"server_type":"Dedicated","server_os":"Linux","password":true,"vac":true,"version":"7961495","steam_id":85568392924742824,"keywords":["cp","nocrits","nodmgspread","uncletopia"],"game_id":440,"stv_port":27036,"stv_name":"Uncletopia | San Francisco | 3 | Stopwatch | STV","players":null},{"server_id":20,"name":"Uncletopia | San Francisco | 4 | Community","name_short":"sfo-4","host":"sfo-1.us.uncletopia.com","port":27045,"enabled":true,"region":"us-west","cc":"us","latitude":37.77397,"longitude":-122.4313,"reserved":0,"last_update":"0001-01-01T00:00:00Z","name_a2s":"Uncletopia | San Francisco | 4 | Community","protocol":17,"map":"workshop/cp_logjam_rc12.ugc454812035","folder":"tf","game":"Team Fortress","app_id":440,"player_count":0,"max_players":24,"Bots":0,"server_type":"Dedicated","server_os":"Linux","password":true,"vac":true,"version":"7961495","steam_id":85568392924742826,"keywords":["cp","nocrits","nodmgspread","uncletopia"],"game_id":440,"stv_port":27046,"stv_name":"Uncletopia | San Francisco | 4 | Community | STV","players":null},{"server_id":141,"name":"Uncletopia | Sydney | 1 | All Maps","name_short":"syd-1","host":"syd-1.au.uncletopia.com","port":27015,"enabled":true,"region":"au","cc":"au","latitude":-33.865143,"longitude":151.2099,"reserved":0,"last_update":"0001-01-01T00:00:00Z","name_a2s":"Uncletopia | Sydney | 1 | All Maps","protocol":17,"map":"cp_dustbowl","folder":"tf","game":"Team Fortress","app_id":440,"player_count":24,"max_players":24,"Bots":0,"server_type":"Dedicated","server_os":"Linux","password":true,"vac":true,"version":"7961495","steam_id":85568392924470001,"keywords":["cp","nocrits","nodmgspread","uncletopia"],"game_id":440,"stv_port":27016,"stv_name":"Uncletopia | Sydney | 1 | All Maps | STV","players":[{"user_id":136,"name":"Das Ist Scheisse","steam_id":76561198886094239,"connected_time":2555000000000,"state":"active","ping":52},{"user_id":167,"name":"precious.","steam_id":76561198054804209,"connected_time":283000000000,"state":"active","ping":92},{"user_id":153,"name":"Blondie","steam_id":76561198046977058,"connected_time":1151000000000,"state":"active","ping":79},{"user_id":158,"name":"BANK MONEY #DRAGANSWEEP","steam_id":76561198174835835,"connected_time":821000000000,"state":"active","ping":31},{"user_id":165,"name":"Killing","steam_id":76561198107392931,"connected_time":455000000000,"state":"active","ping":60},{"user_id":161,"name":"PrestoOli","steam_id":76561198415226987,"connected_time":814000000000,"state":"active","ping":57},{"user_id":159,"name":"Original Glazed (Krispy/Kreme)","steam_id":76561197997362731,"connected_time":820000000000,"state":"active","ping":48},{"user_id":168,"name":"Marzell","steam_id":76561198151276153,"connected_time":270000000000,"state":"active","ping":90},{"user_id":160,"name":"Tired Saber","steam_id":76561198013199787,"connected_time":819000000000,"state":"active","ping":62},{"user_id":108,"name":"Calsaintski","steam_id":76561199081848498,"connected_time":5228000000000,"state":"active","ping":77},{"user_id":154,"name":"stroob","steam_id":76561198045320644,"connected_time":1145000000000,"state":"active","ping":48},{"user_id":118,"name":"SIRROM12 (SIRR)","steam_id":76561198116738329,"connected_time":4399000000000,"state":"active","ping":66},{"user_id":169,"name":"wom","steam_id":76561199375834537,"connected_time":230000000000,"state":"active","ping":132},{"user_id":148,"name":"Jiggles","steam_id":76561198043939682,"connected_time":1533000000000,"state":"active","ping":35},{"user_id":150,"name":"pissmaster","steam_id":76561197990537324,"connected_time":1344000000000,"state":"active","ping":105},{"user_id":122,"name":"TimTam","steam_id":76561198158862578,"connected_time":4026000000000,"state":"active","ping":56},{"user_id":152,"name":"Rashid Of The Dank Memes","steam_id":76561198281398078,"connected_time":1177000000000,"state":"active","ping":66},{"user_id":140,"name":"Speed-moment","steam_id":76561198138604894,"connected_time":2203000000000,"state":"active","ping":49},{"user_id":162,"name":"Sinister80s","steam_id":76561198343540472,"connected_time":737000000000,"state":"active","ping":72},{"user_id":157,"name":"Bigrichard","steam_id":76561198032092945,"connected_time":823000000000,"state":"active","ping":91},{"user_id":163,"name":"Bubbles","steam_id":76561198071119015,"connected_time":665000000000,"state":"active","ping":62},{"user_id":101,"name":"JP","steam_id":76561198026221737,"connected_time":5884000000000,"state":"active","ping":58},{"user_id":145,"name":"Krimson","steam_id":76561198072463650,"connected_time":1888000000000,"state":"active","ping":61},{"user_id":120,"name":"Jeshī","steam_id":76561198105982416,"connected_time":4210000000000,"state":"active","ping":50}]},{"server_id":123,"name":"Uncletopia | Sydney | 2 | All Maps","name_short":"syd-2","host":"syd-1.au.uncletopia.com","port":27025,"enabled":true,"region":"au","cc":"au","latitude":-33.865143,"longitude":151.2099,"reserved":0,"last_update":"0001-01-01T00:00:00Z","name_a2s":"Uncletopia | Sydney | 2 | All Maps","protocol":17,"map":"koth_lakeside_final","folder":"tf","game":"Team Fortress","app_id":440,"player_count":0,"max_players":24,"Bots":0,"server_type":"Dedicated","server_os":"Linux","password":true,"vac":true,"version":"7961495","steam_id":85568392924470002,"keywords":["cp","nocrits","nodmgspread","uncletopia"],"game_id":440,"stv_port":27026,"stv_name":"Uncletopia | Sydney | 2 | All Maps | STV","players":null},{"server_id":395,"name":"Uncletopia | Sydney | 3 | All Maps","name_short":"syd-3","host":"syd-1.au.uncletopia.com","port":27035,"enabled":true,"region":"au","cc":"au","latitude":-33.865143,"longitude":151.2099,"reserved":0,"last_update":"0001-01-01T00:00:00Z","name_a2s":"Uncletopia | Sydney | 3 | All Maps","protocol":17,"map":"koth_lakeside_final","folder":"tf","game":"Team Fortress","app_id":440,"player_count":0,"max_players":24,"Bots":0,"server_type":"Dedicated","server_os":"Linux","password":true,"vac":true,"version":"7961495","steam_id":85568392925194467,"keywords":["cp","nocrits","nodmgspread","uncletopia"],"game_id":440,"stv_port":27036,"stv_name":"Uncletopia | Sydney | 3 | All Maps | STV","players":null},{"server_id":396,"name":"Uncletopia | Sydney | 4 | All Maps","name_short":"syd-4","host":"syd-1.au.uncletopia.com","port":27045,"enabled":true,"region":"au","cc":"au","latitude":-33.865143,"longitude":151.2099,"reserved":0,"last_update":"0001-01-01T00:00:00Z","name_a2s":"Uncletopia | Sydney | 4 | All Maps","protocol":17,"map":"koth_lakeside_final","folder":"tf","game":"Team Fortress","app_id":440,"player_count":0,"max_players":24,"Bots":0,"server_type":"Dedicated","server_os":"Linux","password":true,"vac":true,"version":"7961495","steam_id":85568392925397958,"keywords":["cp","nocrits","nodmgspread","uncletopia"],"game_id":440,"stv_port":27046,"stv_name":"Uncletopia | Sydney | 4 | All Maps | STV","players":null},{"server_id":58,"name":"Uncletopia | Sydney | 5 | Stopwatch","name_short":"syd-5","host":"syd-1.au.uncletopia.com","port":27055,"enabled":true,"region":"au","cc":"au","latitude":-33.865143,"longitude":151.2099,"reserved":0,"last_update":"0001-01-01T00:00:00Z","name_a2s":"Uncletopia | Sydney | 5 | Stopwatch","protocol":17,"map":"workshop/koth_ramjam_rc1.ugc459778887","folder":"tf","game":"Team Fortress","app_id":440,"player_count":0,"max_players":24,"Bots":0,"server_type":"Dedicated","server_os":"Linux","password":true,"vac":true,"version":"7961495","steam_id":85568392925397959,"keywords":["cp","nocrits","nodmgspread","uncletopia"],"game_id":440,"stv_port":27056,"stv_name":"Uncletopia | Sydney | 5 | Stopwatch | STV","players":null},{"server_id":59,"name":"Uncletopia | Sydney | 6 | Community","name_short":"syd-6","host":"syd-1.au.uncletopia.com","port":27065,"enabled":true,"region":"au","cc":"au","latitude":-33.865143,"longitude":151.2099,"reserved":0,"last_update":"0001-01-01T00:00:00Z","name_a2s":"Uncletopia | Sydney | 6 | Community","protocol":17,"map":"workshop/rd_asteroid_redux_b1.ugc2154902912","folder":"tf","game":"Team Fortress","app_id":440,"player_count":0,"max_players":24,"Bots":0,"server_type":"Dedicated","server_os":"Linux","password":true,"vac":true,"version":"7961495","steam_id":85568392925397960,"keywords":["beta","nocrits","nodmgspread","rd","uncletopia"],"game_id":440,"stv_port":27066,"stv_name":"Uncletopia | Sydney | 6 | Community | STV","players":null},{"server_id":49,"name":"Uncletopia | Warsaw | 1 | All Maps","name_short":"waw-1","host":"waw-1.pl.uncletopia.com","port":27015,"enabled":true,"region":"eu","cc":"pl","latitude":52.2297,"longitude":21.017532,"reserved":0,"last_update":"0001-01-01T00:00:00Z","name_a2s":"Uncletopia | Warsaw | 1 | All Maps","protocol":17,"map":"koth_lakeside_final","folder":"tf","game":"Team Fortress","app_id":440,"player_count":0,"max_players":24,"Bots":0,"server_type":"Dedicated","server_os":"Linux","password":true,"vac":true,"version":"7961495","steam_id":85568392925397850,"keywords":["cp","nocrits","nodmgspread","uncletopia"],"game_id":440,"stv_port":27016,"stv_name":"Uncletopia | Warsaw | 1 | All Maps | STV","players":null},{"server_id":50,"name":"Uncletopia | Warsaw | 2 | All Maps","name_short":"waw-2","host":"waw-1.pl.uncletopia.com","port":27025,"enabled":true,"region":"eu","cc":"pl","latitude":52.2297,"longitude":21.017532,"reserved":0,"last_update":"0001-01-01T00:00:00Z","name_a2s":"Uncletopia | Warsaw | 2 | All Maps","protocol":17,"map":"pl_borneo","folder":"tf","game":"Team Fortress","app_id":440,"player_count":0,"max_players":24,"Bots":0,"server_type":"Dedicated","server_os":"Linux","password":true,"vac":true,"version":"7961495","steam_id":85568392925397851,"keywords":["nocrits","nodmgspread","payload","uncletopia"],"game_id":440,"stv_port":27026,"stv_name":"Uncletopia | Warsaw | 2 | All Maps | STV","players":null},{"server_id":51,"name":"Uncletopia | Warsaw | 3 | All Maps","name_short":"waw-3","host":"waw-1.pl.uncletopia.com","port":27035,"enabled":true,"region":"eu","cc":"pl","latitude":52.2297,"longitude":21.017532,"reserved":0,"last_update":"0001-01-01T00:00:00Z","name_a2s":"Uncletopia | Warsaw | 3 | All Maps","protocol":17,"map":"pl_barnblitz","folder":"tf","game":"Team Fortress","app_id":440,"player_count":0,"max_players":24,"Bots":0,"server_type":"Dedicated","server_os":"Linux","password":true,"vac":true,"version":"7961495","steam_id":85568392925397852,"keywords":["nocrits","nodmgspread","payload","uncletopia"],"game_id":440,"stv_port":27036,"stv_name":"Uncletopia | Warsaw | 3 | All Maps | STV","players":null},{"server_id":52,"name":"Uncletopia | Warsaw | 4 | All Maps","name_short":"waw-4","host":"waw-1.pl.uncletopia.com","port":27045,"enabled":true,"region":"eu","cc":"pl","latitude":52.2297,"longitude":21.017532,"reserved":0,"last_update":"0001-01-01T00:00:00Z","name_a2s":"Uncletopia | Warsaw | 4 | All Maps","protocol":17,"map":"pl_borneo","folder":"tf","game":"Team Fortress","app_id":440,"player_count":0,"max_players":24,"Bots":0,"server_type":"Dedicated","server_os":"Linux","password":true,"vac":true,"version":"7961495","steam_id":85568392925397853,"keywords":["nocrits","nodmgspread","payload","uncletopia"],"game_id":440,"stv_port":27046,"stv_name":"Uncletopia | Warsaw | 4 | All Maps | STV","players":null},{"server_id":53,"name":"Uncletopia | Warsaw | 5 | Stopwatch","name_short":"waw-5","host":"waw-1.pl.uncletopia.com","port":27055,"enabled":true,"region":"eu","cc":"pl","latitude":52.2297,"longitude":21.017532,"reserved":0,"last_update":"0001-01-01T00:00:00Z","name_a2s":"Uncletopia | Warsaw | 5 | Stopwatch","protocol":17,"map":"pl_barnblitz","folder":"tf","game":"Team Fortress","app_id":440,"player_count":0,"max_players":24,"Bots":0,"server_type":"Dedicated","server_os":"Linux","password":true,"vac":true,"version":"7961495","steam_id":85568392925397854,"keywords":["nocrits","nodmgspread","payload","uncletopia"],"game_id":440,"stv_port":27056,"stv_name":"Uncletopia | Warsaw | 5 | Stopwatch | STV","players":null},{"server_id":54,"name":"Uncletopia | Warsaw | 6 | Community","name_short":"waw-6","host":"waw-1.pl.uncletopia.com","port":27065,"enabled":true,"region":"eu","cc":"pl","latitude":52.2297,"longitude":21.017532,"reserved":0,"last_update":"0001-01-01T00:00:00Z","name_a2s":"Uncletopia | Warsaw | 6 | Community","protocol":17,"map":"cp_altitude","folder":"tf","game":"Team Fortress","app_id":440,"player_count":0,"max_players":24,"Bots":0,"server_type":"Dedicated","server_os":"Linux","password":true,"vac":true,"version":"7961495","steam_id":85568392925397856,"keywords":["cp","nocrits","nodmgspread","uncletopia"],"game_id":440,"stv_port":27066,"stv_name":"Uncletopia | Warsaw | 6 | Community | STV","players":null}]}