{"status":true,"message":"","result":[{"server_id":9,"name":"Uncletopia | Atlanta | 1 | All Maps","name_short":"atl-1","host":"atl-1.us.uncletopia.com","port":27015,"enabled":true,"region":"us-east","cc":"us","latitude":33.753746,"longitude":-84.38633,"reserved":0,"last_update":"0001-01-01T00:00:00Z","name_a2s":"Uncletopia | Atlanta | 1 | All Maps","protocol":17,"map":"pl_upward","folder":"tf","game":"Team Fortress","app_id":440,"player_count":24,"max_players":24,"Bots":0,"server_type":"Dedicated","server_os":"Linux","password":true,"vac":true,"version":"7757534","steam_id":85568392924469982,"keywords":["nocrits","nodmgspread","payload","uncletopia"],"game_id":440,"stv_port":27016,"stv_name":"Uncletopia | Atlanta | 1 | All Maps | STV","players":[{"user_id":85,"name":"lucil3 on Bandcamp","steam_id":76561198149063013,"connected_time":1967000000000,"state":"active","ping":67},{"user_id":104,"name":"KFC Rat","steam_id":76561198135128086,"connected_time":618000000000,"state":"active","ping":115},{"user_id":86,"name":"Dawoud621","steam_id":76561198125279021,"connected_time":1952000000000,"state":"active","ping":68},{"user_id":103,"name":"polo","steam_id":76561199238923581,"connected_time":688000000000,"state":"active","ping":116},{"user_id":98,"name":"The Pope","steam_id":76561198313560302,"connected_time":1415000000000,"state":"active","ping":43},{"user_id":88,"name":"King Of The Chill","steam_id":76561197971394640,"connected_time":1886000000000,"state":"active","ping":89},{"user_id":89,"name":"UrFavFemboy","steam_id":76561199140460467,"connected_time":1886000000000,"state":"active","ping":164},{"user_id":64,"name":"Atomik","steam_id":76561199070549800,"connected_time":3574000000000,"state":"active","ping":57},{"user_id":90,"name":"AnonymouzR011","steam_id":76561198262685906,"connected_time":1825000000000,"state":"active","ping":115},{"user_id":68,"name":"MasAcqua","steam_id":76561198007402503,"connected_time":3100000000000,"state":"active","ping":149},{"user_id":28,"name":"LloydMann","steam_id":76561198025392778,"connected_time":5261000000000,"state":"active","ping":73},{"user_id":76,"name":"Broken Cereal√","steam_id":76561198087489795,"connected_time":2448000000000,"state":"active","ping":61},{"user_id":108,"name":"DerpyFurret","steam_id":76561198308116092,"connected_time":247000000000,"state":"active","ping":72},{"user_id":62,"name":"Kab","steam_id":76561198073503100,"connected_time":3611000000000,"state":"active","ping":67},{"user_id":71,"name":"SuperFresh","steam_id":76561198200723198,"connected_time":2907000000000,"state":"active","ping":51},{"user_id":94,"name":"Barack OBidoof","steam_id":76561198035142993,"connected_time":1759000000000,"state":"active","ping":70},{"user_id":82,"name":"Voodo133","steam_id":76561198042670351,"connected_time":2250000000000,"state":"active","ping":85},{"user_id":105,"name":"Uncle Dane #TF2ITEMS.org","steam_id":76561198218558897,"connected_time":513000000000,"state":"active","ping":155},{"user_id":102,"name":"sassy loli","steam_id":76561198402316065,"connected_time":1109000000000,"state":"active","ping":92},{"user_id":37,"name":"creepycrawler","steam_id":76561198352016831,"connected_time":4951000000000,"state":"active","ping":76},{"user_id":110,"name":"Adrenaline Eva","steam_id":76561198127392542,"connected_time":175000000000,"state":"active","ping":89},{"user_id":101,"name":"Slazzer","steam_id":76561198404351844,"connected_time":1126000000000,"state":"active","ping":69},{"user_id":109,"name":"mr.edderkopper","steam_id":76561198152614478,"connected_time":221000000000,"state":"active","ping":74},{"user_id":111,"name":"_Ati","steam_id":76561198339777801,"connected_time":175000000000,"state":"active","ping":120}]},{"server_id":104,"name":"Uncletopia | Atlanta | 2 | All Maps","name_short":"atl-2","host":"atl-1.us.uncletopia.com","port":27025,"enabled":true,"region":"us-east","cc":"us","latitude":33.753746,"longitude":-84.38633,"reserved":0,"last_update":"0001-01-01T00:00:00Z","name_a2s":"Uncletopia | Atlanta | 2 | All Maps","protocol":17,"map":"cp_dustbowl","folder":"tf","game":"Team Fortress","app_id":440,"player_count":0,"max_players":24,"Bots":0,"server_type":"Dedicated","server_os":"Linux","password":true,"vac":true,"version":"7757534","steam_id":85568392924469983,"keywords":["cp","nocrits","nodmgspread","uncletopia"],"game_id":440,"stv_port":27026,"stv_name":"Uncletopia | Atlanta | 2 | All Maps | STV","players":null},{"server_id":400,"name":"Uncletopia | Atlanta | 3 | Community","name_short":"atl-3","host":"atl-1.us.uncletopia.com","port":27035,"enabled":true,"region":"us-east","cc":"us","latitude":33.753746,"longitude":-84.38633,"reserved":0,"last_update":"0001-01-01T00:00:00Z","name_a2s":"Uncletopia | Atlanta | 3 | Community","protocol":17,"map":"cp_snakewater_final1","folder":"tf","game":"Team Fortress","app_id":440,"player_count":0,"max_players":24,"Bots":0,"server_type":"Dedicated","server_os":"Linux","password":true,"vac":true,"version":"7757534","steam_id":85568392924515187,"keywords":["cp","nocrits","nodmgspread","uncletopia"],"game_id":440,"stv_port":27036,"stv_name":"Uncletopia | Atlanta | 3 | Community | STV","players":null},{"server_id":401,"name":"Uncletopia | Atlanta | 4 | No Payload","name_short":"atl-4","host":"atl-1.us.uncletopia.com","port":27045,"enabled":true,"region":"us-east","cc":"us","latitude":33.753746,"longitude":-84.38633,"reserved":0,"last_update":"0001-01-01T00:00:00Z","name_a2s":"","protocol":0,"map":"","folder":"","game":"","app_id":0,"player_count":0,"max_players":0,"Bots":0,"server_type":"","server_os":"","password":false,"vac":false,"version":"","steam_id":0,"keywords":null,"game_id":0,"stv_port":0,"stv_name":"","players":null},{"server_id":2,"name":"Uncletopia | Chicago | 1 | All Maps","name_short":"chi-1","host":"chi-1.us.uncletopia.com","port":27015,"enabled":true,"region":"us-central","cc":"us","latitude":41.881832,"longitude":-87.62318,"reserved":0,"last_update":"0001-01-01T00:00:00Z","name_a2s":"Uncletopia | Chicago | 1 | All Maps","protocol":17,"map":"pl_frontier_final","folder":"tf","game":"Team Fortress","app_id":440,"player_count":24,"max_players":24,"Bots":0,"server_type":"Dedicated","server_os":"Linux","password":true,"vac":true,"version":"7757534","steam_id":85568392924469984,"keywords":["nocrits","nodmgspread","payload","uncletopia"],"game_id":440,"stv_port":27016,"stv_name":"Uncletopia | Chicago | 1 | All Maps | STV","players":[{"user_id":171,"name":"TwinAirplane959","steam_id":76561198866756840,"connected_time":1517000000000,"state":"active","ping":90},{"user_id":167,"name":"The Business Man","steam_id":76561198059907124,"connected_time":1562000000000,"state":"active","ping":70},{"user_id":166,"name":"ZeN","steam_id":76561199098746585,"connected_time":1686000000000,"state":"active","ping":62},{"user_id":154,"name":"Epicmullen","steam_id":76561198259850795,"connected_time":2626000000000,"state":"active","ping":78},{"user_id":168,"name":"MAJICBUCKET","steam_id":76561198825268471,"connected_time":1560000000000,"state":"active","ping":72},{"user_id":146,"name":"Cuttle's Fish","steam_id":76561198280483257,"connected_time":3685000000000,"state":"active","ping":62},{"user_id":162,"name":"Glory","steam_id":76561198013975080,"connected_time":2186000000000,"state":"active","ping":73},{"user_id":161,"name":"mechiimi ★","steam_id":76561198321627268,"connected_time":2266000000000,"state":"active","ping":116},{"user_id":163,"name":"Resh420","steam_id":76561198066619792,"connected_time":2161000000000,"state":"active","ping":75},{"user_id":172,"name":"Highphin","steam_id":76561198986584680,"connected_time":1041000000000,"state":"active","ping":70},{"user_id":143,"name":"Winter the Witchie","steam_id":76561198151971178,"connected_time":3730000000000,"state":"active","ping":60},{"user_id":152,"name":"creeeeeee","steam_id":76561198392539722,"connected_time":2649000000000,"state":"active","ping":76},{"user_id":169,"name":"StrangeSumo","steam_id":76561198182376830,"connected_time":1550000000000,"state":"active","ping":86},{"user_id":164,"name":"Ziath","steam_id":76561198094009164,"connected_time":2005000000000,"state":"active","ping":67},{"user_id":122,"name":"D0VE","steam_id":76561198151618566,"connected_time":4902000000000,"state":"active","ping":102},{"user_id":156,"name":"pooptech legacy","steam_id":76561198249206656,"connected_time":2532000000000,"state":"active","ping":73},{"user_id":165,"name":"enmgxcltayiqoacx","steam_id":76561197974965536,"connected_time":1843000000000,"state":"active","ping":59},{"user_id":149,"name":"♡Niko♡","steam_id":76561198097876079,"connected_time":3208000000000,"state":"active","ping":74},{"user_id":157,"name":"scream","steam_id":76561198083789250,"connected_time":2490000000000,"state":"active","ping":89},{"user_id":158,"name":"jao","steam_id":76561198408082822,"connected_time":2479000000000,"state":"active","ping":193},{"user_id":170,"name":"いちごまろ","steam_id":76561198166100997,"connected_time":1549000000000,"state":"active","ping":69},{"user_id":174,"name":"Worst Scenario","steam_id":76561199052130229,"connected_time":980000000000,"state":"active","ping":62},{"user_id":176,"name":"mingus dingus the powerful fetu","steam_id":76561198115189870,"connected_time":927000000000,"state":"active","ping":86},{"user_id":177,"name":".tl","steam_id":76561199102241333,"connected_time":884000000000,"state":"active","ping":58}]},{"server_id":106,"name":"Uncletopia | Chicago | 2 | All Maps","name_short":"chi-2","host":"chi-1.us.uncletopia.com","port":27025,"enabled":true,"region":"us-central","cc":"us","latitude":41.881832,"longitude":-87.62318,"reserved":0,"last_update":"0001-01-01T00:00:00Z","name_a2s":"Uncletopia | Chicago | 2 | All Maps","protocol":17,"map":"pl_upward","folder":"tf","game":"Team Fortress","app_id":440,"player_count":24,"max_players":24,"Bots":0,"server_type":"Dedicated","server_os":"Linux","password":true,"vac":true,"version":"7757534","steam_id":85568392924469985,"keywords":["nocrits","nodmgspread","payload","uncletopia"],"game_id":440,"stv_port":27026,"stv_name":"Uncletopia | Chicago | 2 | All Maps | STV","players":[{"user_id":181,"name":"Cruisin'","steam_id":76561199245457119,"connected_time":3776000000000,"state":"active","ping":92},{"user_id":219,"name":"Animal Slices","steam_id":76561198137545511,"connected_time":974000000000,"state":"active","ping":53},{"user_id":220,"name":"SanitysEdge","steam_id":76561198130732813,"connected_time":949000000000,"state":"active","ping":94},{"user_id":199,"name":"PeopleOrderOurPatties","steam_id":76561198323144922,"connected_time":2429000000000,"state":"active","ping":73},{"user_id":223,"name":"will’s extra large baguette\ufffd\ufffd","steam_id":76561199095395177,"connected_time":841000000000,"state":"active","ping":80},{"user_id":142,"name":"Uncle Garrow","steam_id":76561198044092599,"connected_time":6042000000000,"state":"active","ping":60},{"user_id":209,"name":"Smiley Face","steam_id":76561198008710622,"connected_time":1310000000000,"state":"active","ping":84},{"user_id":224,"name":"E4Estrogen","steam_id":76561198085813708,"connected_time":805000000000,"state":"active","ping":69},{"user_id":225,"name":"KaasKrans","steam_id":76561198240451972,"connected_time":797000000000,"state":"active","ping":146},{"user_id":231,"name":"the doo doo man","steam_id":76561198057076267,"connected_time":269000000000,"state":"active","ping":73},{"user_id":210,"name":"Violet42","steam_id":76561198072927887,"connected_time":1288000000000,"state":"active","ping":61},{"user_id":226,"name":"Dededoo","steam_id":76561198279033471,"connected_time":795000000000,"state":"active","ping":94},{"user_id":214,"name":"madi's sexy and crunchy pickle\ufffd","steam_id":76561198361917585,"connected_time":1112000000000,"state":"active","ping":94},{"user_id":147,"name":"Zanartan","steam_id":76561198050528902,"connected_time":5745000000000,"state":"active","ping":179},{"user_id":187,"name":"PEPPINO SPAGHETTI","steam_id":76561198084849541,"connected_time":3416000000000,"state":"active","ping":59},{"user_id":228,"name":"Ringo x Seiran","steam_id":76561198357437908,"connected_time":721000000000,"state":"active","ping":61},{"user_id":218,"name":"RugLrd","steam_id":76561198137251406,"connected_time":1020000000000,"state":"active","ping":57},{"user_id":230,"name":"Impresio","steam_id":76561198129127347,"connected_time":273000000000,"state":"active","ping":69},{"user_id":212,"name":"tookalook","steam_id":76561198108046923,"connected_time":1276000000000,"state":"active","ping":63},{"user_id":217,"name":"mari_","steam_id":76561198137855741,"connected_time":1024000000000,"state":"active","ping":46},{"user_id":232,"name":"Kelpy G","steam_id":76561198105330587,"connected_time":93000000000,"state":"active","ping":84},{"user_id":152,"name":"TJGSASQUATCH","steam_id":76561198077806921,"connected_time":5505000000000,"state":"active","ping":77},{"user_id":227,"name":"Commie","steam_id":76561198149370115,"connected_time":759000000000,"state":"active","ping":42},{"user_id":206,"name":"majorbobfunction","steam_id":76561198042464632,"connected_time":2283000000000,"state":"active","ping":60}]},{"server_id":402,"name":"Uncletopia | Chicago | 3 | All Maps","name_short":"chi-3","host":"chi-1.us.uncletopia.com","port":27035,"enabled":true,"region":"us-central","cc":"us","latitude":41.881832,"longitude":-87.62318,"reserved":0,"last_update":"0001-01-01T00:00:00Z","name_a2s":"Uncletopia | Chicago | 3 | All Maps","protocol":17,"map":"cp_altitude","folder":"tf","game":"Team Fortress","app_id":440,"player_count":0,"max_players":24,"Bots":0,"server_type":"Dedicated","server_os":"Linux","password":true,"vac":true,"version":"7757534","steam_id":85568392924515191,"keywords":["cp","nocrits","nodmgspread","uncletopia"],"game_id":440,"stv_port":27036,"stv_name":"Uncletopia | Chicago | 3 | All Maps | STV","players":null},{"server_id":403,"name":"Uncletopia | Chicago | 4 | All Maps","name_short":"chi-4","host":"chi-1.us.uncletopia.com","port":27045,"enabled":true,"region":"us-central","cc":"us","latitude":41.881832,"longitude":-87.62318,"reserved":0,"last_update":"0001-01-01T00:00:00Z","name_a2s":"Uncletopia | Chicago | 4 | All Maps","protocol":17,"map":"koth_viaduct","folder":"tf","game":"Team Fortress","app_id":440,"player_count":1,"max_players":24,"Bots":0,"server_type":"Dedicated","server_os":"Linux","password":true,"vac":true,"version":"7757534","steam_id":85568392924515193,"keywords":["cp","nocrits","nodmgspread","uncletopia"],"game_id":440,"stv_port":27046,"stv_name":"Uncletopia | Chicago | 4 | All Maps | STV","players":[{"user_id":25,"name":"cIw","steam_id":76561198078798799,"connected_time":80000000000,"state":"active","ping":134}]},{"server_id":36,"name":"Uncletopia | Chicago | 5 | All Maps","name_short":"chi-5","host":"chi-2.us.uncletopia.com","port":27015,"enabled":true,"region":"us-central","cc":"us","latitude":41.881832,"longitude":-87.62318,"reserved":0,"last_update":"0001-01-01T00:00:00Z","name_a2s":"Uncletopia | Chicago | 5 | All Maps","protocol":17,"map":"koth_cascade","folder":"tf","game":"Team Fortress","app_id":440,"player_count":0,"max_players":24,"Bots":0,"server_type":"Dedicated","server_os":"Linux","password":true,"vac":true,"version":"7757534","steam_id":85568392924866362,"keywords":["cp","nocrits","nodmgspread","uncletopia"],"game_id":440,"stv_port":27016,"stv_name":"Uncletopia | Chicago | 5 | All Maps | STV","players":null},{"server_id":37,"name":"Uncletopia | Chicago | 6 | All Maps","name_short":"chi-6","host":"chi-2.us.uncletopia.com","port":27025,"enabled":true,"region":"us-central","cc":"us","latitude":41.881832,"longitude":-87.62318,"reserved":0,"last_update":"0001-01-01T00:00:00Z","name_a2s":"Uncletopia | Chicago | 6 | All Maps","protocol":17,"map":"pl_borneo","folder":"tf","game":"Team Fortress","app_id":440,"player_count":0,"max_players":24,"Bots":0,"server_type":"Dedicated","server_os":"Linux","password":true,"vac":true,"version":"7757534","steam_id":85568392924866363,"keywords":["nocrits","nodmgspread","payload","uncletopia"],"game_id":440,"stv_port":27026,"stv_name":"Uncletopia | Chicago | 6 | All Maps | STV","players":null},{"server_id":38,"name":"Uncletopia | Chicago | 7 | Stopwatch Beta","name_short":"chi-7","host":"chi-2.us.uncletopia.com","port":27035,"enabled":true,"region":"us-central","cc":"us","latitude":41.881832,"longitude":-87.62318,"reserved":0,"last_update":"0001-01-01T00:00:00Z","name_a2s":"Uncletopia | Chicago | 7 | Stopwatch Beta","protocol":17,"map":"pl_barnblitz","folder":"tf","game":"Team Fortress","app_id":440,"player_count":0,"max_players":24,"Bots":0,"server_type":"Dedicated","server_os":"Linux","password":true,"vac":true,"version":"7757534","steam_id":85568392924866364,"keywords":["nocrits","nodmgspread","payload","uncletopia"],"game_id":440,"stv_port":27036,"stv_name":"Uncletopia | Chicago | 7 | Stopwatch Beta | STV","players":null},{"server_id":39,"name":"Uncletopia | Chicago | 8 | Community","name_short":"chi-8","host":"chi-2.us.uncletopia.com","port":27045,"enabled":true,"region":"us-central","cc":"us","latitude":41.881832,"longitude":-87.62318,"reserved":0,"last_update":"0001-01-01T00:00:00Z","name_a2s":"Uncletopia | Chicago | 8 | Community","protocol":17,"map":"koth_cascade","folder":"tf","game":"Team Fortress","app_id":440,"player_count":0,"max_players":24,"Bots":0,"server_type":"Dedicated","server_os":"Linux","password":true,"vac":true,"version":"7757534","steam_id":85568392924866365,"keywords":["cp","nocrits","nodmgspread","uncletopia"],"game_id":440,"stv_port":27046,"stv_name":"Uncletopia | Chicago | 8 | Community | STV","players":null},{"server_id":8,"name":"Uncletopia | Dallas | 1 | All Maps","name_short":"dal-1","host":"dal-1.us.uncletopia.com","port":27015,"enabled":true,"region":"us-central","cc":"us","latitude":32.779167,"longitude":-96.80889,"reserved":0,"last_update":"0001-01-01T00:00:00Z","name_a2s":"Uncletopia | Dallas | 1 | All Maps","protocol":17,"map":"koth_cascade","folder":"tf","game":"Team Fortress","app_id":440,"player_count":0,"max_players":24,"Bots":0,"server_type":"Dedicated","server_os":"Linux","password":true,"vac":true,"version":"7757534","steam_id":85568392924469986,"keywords":["cp","nocrits","nodmgspread","uncletopia"],"game_id":440,"stv_port":27016,"stv_name":"Uncletopia | Dallas | 1 | All Maps | STV","players":null},{"server_id":108,"name":"Uncletopia | Dallas | 2 | All Maps","name_short":"dal-2","host":"dal-1.us.uncletopia.com","port":27025,"enabled":true,"region":"us-central","cc":"us","latitude":32.779167,"longitude":-96.80889,"reserved":0,"last_update":"0001-01-01T00:00:00Z","name_a2s":"Uncletopia | Dallas | 2 | All Maps","protocol":17,"map":"pl_swiftwater_final1","folder":"tf","game":"Team Fortress","app_id":440,"player_count":0,"max_players":24,"Bots":0,"server_type":"Dedicated","server_os":"Linux","password":true,"vac":true,"version":"7757534","steam_id":85568392924469988,"keywords":["nocrits","nodmgspread","payload","uncletopia"],"game_id":440,"stv_port":27026,"stv_name":"Uncletopia | Dallas | 2 | All Maps | STV","players":null},{"server_id":5,"name":"Uncletopia | Frankfurt | 1 | All Maps","name_short":"frk-1","host":"frk-1.de.uncletopia.com","port":27015,"enabled":true,"region":"eu","cc":"de","latitude":50.110924,"longitude":8.682127,"reserved":0,"last_update":"0001-01-01T00:00:00Z","name_a2s":"Uncletopia | Frankfurt | 1 | All Maps","protocol":17,"map":"koth_viaduct","folder":"tf","game":"Team Fortress","app_id":440,"player_count":0,"max_players":24,"Bots":0,"server_type":"Dedicated","server_os":"Linux","password":true,"vac":true,"version":"7757534","steam_id":85568392924469989,"keywords":["cp","nocrits","nodmgspread","uncletopia"],"game_id":440,"stv_port":27016,"stv_name":"Uncletopia | Frankfurt | 1 | All Maps | STV","players":null},{"server_id":110,"name":"Uncletopia | Frankfurt | 2 | All Maps","name_short":"frk-2","host":"frk-1.de.uncletopia.com","port":27025,"enabled":true,"region":"eu","cc":"de","latitude":50.110924,"longitude":8.682127,"reserved":0,"last_update":"0001-01-01T00:00:00Z","name_a2s":"Uncletopia | Frankfurt | 2 | All Maps","protocol":17,"map":"cp_snakewater_final1","folder":"tf","game":"Team Fortress","app_id":440,"player_count":24,"max_players":24,"Bots":0,"server_type":"Dedicated","server_os":"Linux","password":true,"vac":true,"version":"7757534","steam_id":85568392924469990,"keywords":["cp","nocrits","nodmgspread","uncletopia"],"game_id":440,"stv_port":27026,"stv_name":"Uncletopia | Frankfurt | 2 | All Maps | STV","players":[{"user_id":264,"name":"TheHacker-","steam_id":76561198091867843,"connected_time":176000000000,"state":"active","ping":131},{"user_id":197,"name":"elsuedi","steam_id":76561198074722832,"connected_time":5438000000000,"state":"active","ping":49},{"user_id":258,"name":"romos","steam_id":76561199123161420,"connected_time":1142000000000,"state":"active","ping":54},{"user_id":251,"name":"mp1mp2mp3","steam_id":76561198088967665,"connected_time":1703000000000,"state":"active","ping":110},{"user_id":263,"name":"HarMala","steam_id":76561198055298143,"connected_time":248000000000,"state":"active","ping":82},{"user_id":259,"name":"Fat Pigeon","steam_id":76561198817940142,"connected_time":1003000000000,"state":"active","ping":48},{"user_id":180,"name":"Tre3","steam_id":76561198054795379,"connected_time":6766000000000,"state":"active","ping":56},{"user_id":232,"name":"Smurph","steam_id":76561197996539360,"connected_time":3360000000000,"state":"active","ping":103},{"user_id":218,"name":"lunaire","steam_id":76561198163344452,"connected_time":4116000000000,"state":"active","ping":78},{"user_id":265,"name":"!Trying to have fun!","steam_id":76561198151370212,"connected_time":64000000000,"state":"active","ping":73},{"user_id":225,"name":"holykyckling","steam_id":76561198040661615,"connected_time":3686000000000,"state":"active","ping":66},{"user_id":231,"name":"Pestdoktor","steam_id":76561198058159271,"connected_time":3486000000000,"state":"active","ping":69},{"user_id":212,"name":"zek","steam_id":76561198862763731,"connected_time":4721000000000,"state":"active","ping":56},{"user_id":219,"name":"bass solo","steam_id":76561199117720299,"connected_time":4048000000000,"state":"active","ping":50},{"user_id":257,"name":"not very キターン of you","steam_id":76561198295305088,"connected_time":1276000000000,"state":"active","ping":53},{"user_id":243,"name":"burgz","steam_id":76561198109955787,"connected_time":2281000000000,"state":"active","ping":59},{"user_id":224,"name":"bad farter","steam_id":76561198261853441,"connected_time":3770000000000,"state":"active","ping":59},{"user_id":245,"name":"Charmedelf","steam_id":76561197993611881,"connected_time":2090000000000,"state":"active","ping":60},{"user_id":260,"name":"Lag","steam_id":76561198159360376,"connected_time":726000000000,"state":"active","ping":61},{"user_id":262,"name":"Radegast the Brown","steam_id":76561198075489505,"connected_time":505000000000,"state":"active","ping":65},{"user_id":200,"name":"pain train tf2","steam_id":76561198111568728,"connected_time":5116000000000,"state":"active","ping":50},{"user_id":227,"name":"『Dorarhim』","steam_id":76561198220232352,"connected_time":3623000000000,"state":"active","ping":52},{"user_id":250,"name":"Houf","steam_id":76561198448050535,"connected_time":1727000000000,"state":"active","ping":60},{"user_id":228,"name":"Anti_Dragon","steam_id":76561198969060607,"connected_time":3622000000000,"state":"active","ping":106}]},{"server_id":308,"name":"Uncletopia | Frankfurt | 3 | All Maps","name_short":"frk-3","host":"frk-1.de.uncletopia.com","port":27035,"enabled":true,"region":"eu","cc":"de","latitude":50.110924,"longitude":8.682127,"reserved":0,"last_update":"0001-01-01T00:00:00Z","name_a2s":"Uncletopia | Frankfurt | 3 | All Maps","protocol":17,"map":"pl_frontier_final","folder":"tf","game":"Team Fortress","app_id":440,"player_count":24,"max_players":24,"Bots":0,"server_type":"Dedicated","server_os":"Linux","password":true,"vac":true,"version":"7757534","steam_id":85568392924504274,"keywords":["nocrits","nodmgspread","payload","uncletopia"],"game_id":440,"stv_port":27036,"stv_name":"Uncletopia | Frankfurt | 3 | All Maps | STV","players":[{"user_id":183,"name":"mö","steam_id":76561198061197114,"connected_time":133000000000,"state":"active","ping":75},{"user_id":145,"name":"r06u3","steam_id":76561198254099253,"connected_time":1352000000000,"state":"active","ping":172},{"user_id":177,"name":"Cheshireycat","steam_id":76561198067204908,"connected_time":386000000000,"state":"active","ping":64},{"user_id":147,"name":"Jeerven","steam_id":76561198259189841,"connected_time":1193000000000,"state":"active","ping":61},{"user_id":153,"name":"Trans Cat GF","steam_id":76561198436817109,"connected_time":913000000000,"state":"active","ping":67},{"user_id":149,"name":"pancake toaster","steam_id":76561198799089628,"connected_time":1117000000000,"state":"active","ping":57},{"user_id":184,"name":"Haha?","steam_id":76561198056882245,"connected_time":128000000000,"state":"active","ping":52},{"user_id":167,"name":"Fallen Dog","steam_id":76561198851387188,"connected_time":574000000000,"state":"active","ping":65},{"user_id":152,"name":"engineer drip","steam_id":76561198991032570,"connected_time":1014000000000,"state":"active","ping":90},{"user_id":154,"name":"ypsvlq","steam_id":76561199015433909,"connected_time":908000000000,"state":"active","ping":69},{"user_id":107,"name":"Mecha","steam_id":76561198014927379,"connected_time":4759000000000,"state":"active","ping":159},{"user_id":180,"name":"O4W P1N","steam_id":76561198382749493,"connected_time":267000000000,"state":"active","ping":84},{"user_id":185,"name":"twitch.tv/vision515","steam_id":76561198065293729,"connected_time":35000000000,"state":"active","ping":179},{"user_id":157,"name":"ThellanM","steam_id":76561199014222387,"connected_time":798000000000,"state":"active","ping":81},{"user_id":159,"name":"FingerMan","steam_id":76561198004040091,"connected_time":693000000000,"state":"active","ping":52},{"user_id":160,"name":"Mammut","steam_id":76561198056773933,"connected_time":655000000000,"state":"active","ping":50},{"user_id":174,"name":"Kaishakunin","steam_id":76561198028123874,"connected_time":476000000000,"state":"active","ping":97},{"user_id":175,"name":"Tekky","steam_id":76561197990987315,"connected_time":470000000000,"state":"active","ping":53},{"user_id":164,"name":"damn daniel","steam_id":76561198170609049,"connected_time":582000000000,"state":"active","ping":65},{"user_id":176,"name":"pizzaboob","steam_id":76561198097507847,"connected_time":468000000000,"state":"active","ping":73},{"user_id":168,"name":"Miton","steam_id":76561197970323209,"connected_time":571000000000,"state":"active","ping":76},{"user_id":169,"name":"Terhen","steam_id":76561198218299273,"connected_time":560000000000,"state":"active","ping":97},{"user_id":170,"name":"Avast AntiPony 9445","steam_id":76561197992046533,"connected_time":556000000000,"state":"active","ping":56},{"user_id":171,"name":"mr penguin || WILL EAT","steam_id":76561198299220080,"connected_time":551000000000,"state":"active","ping":84}]},{"server_id":309,"name":"Uncletopia | Frankfurt | 4 | All Maps","name_short":"frk-4","host":"frk-1.de.uncletopia.com","port":27045,"enabled":true,"region":"eu","cc":"de","latitude":50.110924,"longitude":8.682127,"reserved":0,"last_update":"0001-01-01T00:00:00Z","name_a2s":"Uncletopia | Frankfurt | 4 | All Maps","protocol":17,"map":"cp_mountainlab","folder":"tf","game":"Team Fortress","app_id":440,"player_count":24,"max_players":24,"Bots":0,"server_type":"Dedicated","server_os":"Linux","password":true,"vac":true,"version":"7757534","steam_id":85568392924504275,"keywords":["cp","nocrits","nodmgspread","uncletopia"],"game_id":440,"stv_port":27046,"stv_name":"Uncletopia | Frankfurt | 4 | All Maps | STV","players":[{"user_id":596,"name":"Sneaky","steam_id":76561198069417496,"connected_time":2305000000000,"state":"active","ping":90},{"user_id":614,"name":"clean carp","steam_id":76561198127053294,"connected_time":473000000000,"state":"active","ping":75},{"user_id":609,"name":"GazerBazer","steam_id":76561198879107565,"connected_time":990000000000,"state":"active","ping":62},{"user_id":622,"name":"CRYO555","steam_id":76561198224334100,"connected_time":232000000000,"state":"active","ping":150},{"user_id":591,"name":"I only uber spies","steam_id":76561198333241218,"connected_time":2931000000000,"state":"active","ping":89},{"user_id":615,"name":"heiiis.","steam_id":76561199149006242,"connected_time":396000000000,"state":"active","ping":103},{"user_id":610,"name":"Kava","steam_id":76561199001657140,"connected_time":975000000000,"state":"active","ping":81},{"user_id":584,"name":"hora","steam_id":76561198404470526,"connected_time":3322000000000,"state":"active","ping":106},{"user_id":616,"name":"The White Alpaca","steam_id":76561198059064870,"connected_time":385000000000,"state":"active","ping":110},{"user_id":539,"name":"Ramzus","steam_id":76561198012385070,"connected_time":5171000000000,"state":"active","ping":82},{"user_id":550,"name":"Der Herr Doktor","steam_id":76561198119476089,"connected_time":4739000000000,"state":"active","ping":49},{"user_id":604,"name":"Misctek","steam_id":76561199037541925,"connected_time":1466000000000,"state":"active","ping":75},{"user_id":578,"name":"Irme","steam_id":76561198161590299,"connected_time":3725000000000,"state":"active","ping":74},{"user_id":585,"name":"superd0074","steam_id":76561199440927207,"connected_time":3307000000000,"state":"active","ping":63},{"user_id":618,"name":"69 ME 2NITE","steam_id":76561199124261801,"connected_time":371000000000,"state":"active","ping":103},{"user_id":611,"name":"bread furry","steam_id":76561199196792144,"connected_time":967000000000,"state":"active","ping":54},{"user_id":565,"name":"Chadrysiaque","steam_id":76561198061333310,"connected_time":4253000000000,"state":"active","ping":59},{"user_id":619,"name":"Puboy","steam_id":76561197984617142,"connected_time":322000000000,"state":"active","ping":53},{"user_id":568,"name":"Chucko Kokos","steam_id":76561198112553005,"connected_time":4234000000000,"state":"active","ping":63},{"user_id":612,"name":"Seeker","steam_id":76561198873052772,"connected_time":946000000000,"state":"active","ping":66},{"user_id":613,"name":"Leibeigener","steam_id":76561199275478305,"connected_time":912000000000,"state":"active","ping":42},{"user_id":620,"name":"Sho","steam_id":76561198051432581,"connected_time":321000000000,"state":"active","ping":163},{"user_id":621,"name":"duplicated","steam_id":76561198344952248,"connected_time":260000000000,"state":"active","ping":65},{"user_id":582,"name":"www.epicCSmaps.com/cs_moshpit","steam_id":76561198067819471,"connected_time":3659000000000,"state":"active","ping":56}]},{"server_id":310,"name":"Uncletopia | Frankfurt | 5 | All Maps","name_short":"frk-5","host":"frk-1.de.uncletopia.com","port":27055,"enabled":true,"region":"eu","cc":"de","latitude":50.110924,"longitude":8.682127,"reserved":0,"last_update":"0001-01-01T00:00:00Z","name_a2s":"Uncletopia | Frankfurt | 5 | All Maps","protocol":17,"map":"cp_sunshine","folder":"tf","game":"Team Fortress","app_id":440,"player_count":0,"max_players":24,"Bots":0,"server_type":"Dedicated","server_os":"Linux","password":true,"vac":true,"version":"7757534","steam_id":85568392924504277,"keywords":["cp","nocrits","nodmgspread","uncletopia"],"game_id":440,"stv_port":27056,"stv_name":"Uncletopia | Frankfurt | 5 | All Maps | STV","players":null},{"server_id":311,"name":"Uncletopia | Frankfurt | 6 | All Maps","name_short":"frk-6","host":"frk-1.de.uncletopia.com","port":27065,"enabled":true,"region":"eu","cc":"de","latitude":50.110924,"longitude":8.682127,"reserved":0,"last_update":"0001-01-01T00:00:00Z","name_a2s":"Uncletopia | Frankfurt | 6 | All Maps","protocol":17,"map":"cp_sunshine","folder":"tf","game":"Team Fortress","app_id":440,"player_count":23,"max_players":24,"Bots":0,"server_type":"Dedicated","server_os":"Linux","password":true,"vac":true,"version":"7757534","steam_id":85568392924504278,"keywords":["cp","nocrits","nodmgspread","uncletopia"],"game_id":440,"stv_port":27066,"stv_name":"Uncletopia | Frankfurt | 6 | All Maps | STV","players":[{"user_id":152,"name":"zak","steam_id":76561197998895428,"connected_time":1805000000000,"state":"active","ping":52},{"user_id":167,"name":"EQPL aramyis","steam_id":76561199080688428,"connected_time":452000000000,"state":"active","ping":86},{"user_id":130,"name":"gagalak","steam_id":76561198089979108,"connected_time":3034000000000,"state":"active","ping":90},{"user_id":122,"name":"Trebox78","steam_id":76561198071963357,"connected_time":4386000000000,"state":"active","ping":81},{"user_id":136,"name":"giclure :;","steam_id":76561197986362828,"connected_time":2856000000000,"state":"active","ping":65},{"user_id":153,"name":"B3Y0NDTH3M1ND","steam_id":76561198262637389,"connected_time":1775000000000,"state":"active","ping":75},{"user_id":121,"name":"British Disapproval","steam_id":76561198001375260,"connected_time":4420000000000,"state":"active","ping":72},{"user_id":126,"name":"Kvicha Kvaratskhelia","steam_id":76561198179339326,"connected_time":3104000000000,"state":"active","ping":85},{"user_id":111,"name":"3þ4n","steam_id":76561198411134617,"connected_time":5478000000000,"state":"active","ping":64},{"user_id":118,"name":"decommandpro","steam_id":76561198971647041,"connected_time":4508000000000,"state":"active","ping":84},{"user_id":168,"name":"Rednbloo","steam_id":76561199001504941,"connected_time":314000000000,"state":"active","ping":82},{"user_id":157,"name":"Dzan50","steam_id":76561198059758591,"connected_time":1722000000000,"state":"active","ping":81},{"user_id":150,"name":"Mr Fudge","steam_id":76561199177223922,"connected_time":1824000000000,"state":"active","ping":58},{"user_id":154,"name":"exceedingly fruity","steam_id":76561198239265962,"connected_time":1745000000000,"state":"active","ping":68},{"user_id":163,"name":"Pilaarius","steam_id":76561198120273212,"connected_time":838000000000,"state":"active","ping":90},{"user_id":144,"name":"Saint","steam_id":76561198003296382,"connected_time":2322000000000,"state":"active","ping":66},{"user_id":160,"name":"yush","steam_id":76561198121688934,"connected_time":1562000000000,"state":"active","ping":73},{"user_id":151,"name":"city of stars","steam_id":76561198101292843,"connected_time":1820000000000,"state":"active","ping":50},{"user_id":133,"name":"\u003c blank \u003e","steam_id":76561198059375315,"connected_time":2990000000000,"state":"active","ping":65},{"user_id":137,"name":"Chromega","steam_id":76561199075307750,"connected_time":2848000000000,"state":"active","ping":80},{"user_id":162,"name":"TKN_Paps997","steam_id":76561198419868465,"connected_time":913000000000,"state":"active","ping":84},{"user_id":169,"name":"Chongo","steam_id":76561198133400491,"connected_time":296000000000,"state":"active","ping":73},{"user_id":81,"name":"Yaz","steam_id":76561198110613175,"connected_time":8049000000000,"state":"active","ping":105}]},{"server_id":23,"name":"Uncletopia | Frankfurt | 7 | Stopwatch Beta","name_short":"frk-7","host":"frk-1.de.uncletopia.com","port":27075,"enabled":true,"region":"eu","cc":"de","latitude":50.110924,"longitude":8.682127,"reserved":0,"last_update":"0001-01-01T00:00:00Z","name_a2s":"Uncletopia | Frankfurt | 7 | Stopwatch Beta","protocol":17,"map":"cp_sunshine","folder":"tf","game":"Team Fortress","app_id":440,"player_count":0,"max_players":24,"Bots":0,"server_type":"Dedicated","server_os":"Linux","password":true,"vac":true,"version":"7757534","steam_id":85568392924742827,"keywords":["cp","nocrits","nodmgspread","uncletopia"],"game_id":440,"stv_port":27076,"stv_name":"Uncletopia | Frankfurt | 7 | Stopwatch Beta | STV","players":null},{"server_id":24,"name":"Uncletopia | Frankfurt | 8 | Community","name_short":"frk-8","host":"frk-1.de.uncletopia.com","port":27085,"enabled":true,"region":"eu","cc":"de","latitude":50.110924,"longitude":8.682127,"reserved":0,"last_update":"0001-01-01T00:00:00Z","name_a2s":"Uncletopia | Frankfurt | 8 | Community","protocol":17,"map":"koth_lakeside_final","folder":"tf","game":"Team Fortress","app_id":440,"player_count":0,"max_players":24,"Bots":0,"server_type":"Dedicated","server_os":"Linux","password":true,"vac":true,"version":"7757534","steam_id":85568392924742828,"keywords":["cp","nocrits","nodmgspread","uncletopia"],"game_id":440,"stv_port":27086,"stv_name":"Uncletopia | Frankfurt | 8 | Community | STV","players":null},{"server_id":202,"name":"Uncletopia | Hong Kong | 1 | All Maps","name_short":"hgk-1","host":"hgk-1.hk.uncletopia.com","port":27015,"enabled":true,"region":"asia","cc":"hk","latitude":22.302711,"longitude":114.177216,"reserved":0,"last_update":"0001-01-01T00:00:00Z","name_a2s":"Uncletopia | Hong Kong | 1 | All Maps","protocol":17,"map":"koth_cascade","folder":"tf","game":"Team Fortress","app_id":440,"player_count":0,"max_players":24,"Bots":0,"server_type":"Dedicated","server_os":"Linux","password":true,"vac":true,"version":"7757534","steam_id":85568392924494504,"keywords":["cp","nocrits","nodmgspread","uncletopia"],"game_id":440,"stv_port":27016,"stv_name":"Uncletopia | Hong Kong | 1 | All Maps | STV","players":null},{"server_id":1,"name":"Uncletopia | Los Angeles | 1 | All Maps","name_short":"lax-1","host":"lax-1.us.uncletopia.com","port":27015,"enabled":true,"region":"us-west","cc":"us","latitude":33.94279,"longitude":-118.41004,"reserved":0,"last_update":"0001-01-01T00:00:00Z","name_a2s":"Uncletopia | Los Angeles | 1 | All Maps","protocol":17,"map":"koth_lakeside_final","folder":"tf","game":"Team Fortress","app_id":440,"player_count":0,"max_players":24,"Bots":0,"server_type":"Dedicated","server_os":"Linux","password":true,"vac":true,"version":"7757534","steam_id":85568392924469991,"keywords":["cp","nocrits","nodmgspread","uncletopia"],"game_id":440,"stv_port":27016,"stv_name":"Uncletopia | Los Angeles | 1 | All Maps | STV","players":null},{"server_id":112,"name":"Uncletopia | Los Angeles | 2 | All Maps","name_short":"lax-2","host":"lax-1.us.uncletopia.com","port":27025,"enabled":true,"region":"us-west","cc":"us","latitude":33.94279,"longitude":-118.41004,"reserved":0,"last_update":"0001-01-01T00:00:00Z","name_a2s":"Uncletopia | Los Angeles | 2 | All Maps","protocol":17,"map":"pl_frontier_final","folder":"tf","game":"Team Fortress","app_id":440,"player_count":0,"max_players":24,"Bots":0,"server_type":"Dedicated","server_os":"Linux","password":true,"vac":true,"version":"7757534","steam_id":85568392924469992,"keywords":["nocrits","nodmgspread","payload","uncletopia"],"game_id":440,"stv_port":27026,"stv_name":"Uncletopia | Los Angeles | 2 | All Maps | STV","players":null},{"server_id":324,"name":"Uncletopia | Los Angeles | 3 | All Maps","name_short":"lax-3","host":"lax-1.us.uncletopia.com","port":27035,"enabled":true,"region":"us-west","cc":"us","latitude":33.94279,"longitude":-118.41004,"reserved":0,"last_update":"0001-01-01T00:00:00Z","name_a2s":"Uncletopia | Los Angeles | 3 | All Maps","protocol":17,"map":"pl_barnblitz","folder":"tf","game":"Team Fortress","app_id":440,"player_count":0,"max_players":24,"Bots":0,"server_type":"Dedicated","server_os":"Linux","password":true,"vac":true,"version":"7757534","steam_id":85568392924510198,"keywords":["nocrits","nodmgspread","payload","uncletopia"],"game_id":440,"stv_port":27036,"stv_name":"Uncletopia | Los Angeles | 3 | All Maps | STV","players":null},{"server_id":25,"name":"Uncletopia | Los Angeles | 4 | Stopwatch Beta","name_short":"lax-4","host":"lax-1.us.uncletopia.com","port":27045,"enabled":true,"region":"us-west","cc":"us","latitude":33.94279,"longitude":-118.41004,"reserved":0,"last_update":"0001-01-01T00:00:00Z","name_a2s":"Uncletopia | Los Angeles | 4 | Stopwatch Beta","protocol":17,"map":"pl_swiftwater_final1","folder":"tf","game":"Team Fortress","app_id":440,"player_count":0,"max_players":24,"Bots":0,"server_type":"Dedicated","server_os":"Linux","password":true,"vac":true,"version":"7757534","steam_id":85568392924510199,"keywords":["nocrits","nodmgspread","payload","uncletopia"],"game_id":440,"stv_port":27046,"stv_name":"Uncletopia | Los Angeles | 4 | Stopwatch Beta | STV","players":null},{"server_id":11,"name":"Uncletopia | London | 1 | All Maps","name_short":"lon-1","host":"lon-1.uk.uncletopia.com","port":27015,"enabled":true,"region":"eu","cc":"gb","latitude":51.509865,"longitude":-0.118092,"reserved":0,"last_update":"0001-01-01T00:00:00Z","name_a2s":"Uncletopia | London | 1 | All Maps","protocol":17,"map":"pl_borneo","folder":"tf","game":"Team Fortress","app_id":440,"player_count":24,"max_players":24,"Bots":0,"server_type":"Dedicated","server_os":"Linux","password":true,"vac":true,"version":"7757534","steam_id":85568392924367362,"keywords":["nocrits","nodmgspread","payload","uncletopia"],"game_id":440,"stv_port":27016,"stv_name":"Uncletopia | London | 1 | All Maps | STV","players":[{"user_id":390,"name":"sm0ke","steam_id":76561198198977226,"connected_time":3192000000000,"state":"active","ping":75},{"user_id":401,"name":"Gbus","steam_id":76561198072335838,"connected_time":1461000000000,"state":"active","ping":59},{"user_id":407,"name":"sinologist","steam_id":76561198080912087,"connected_time":1403000000000,"state":"active","ping":74},{"user_id":331,"name":"Een schaap zonder slaap","steam_id":76561198084808410,"connected_time":8684000000000,"state":"active","ping":61},{"user_id":403,"name":"eon","steam_id":76561197971360276,"connected_time":1443000000000,"state":"active","ping":72},{"user_id":411,"name":"Nameless","steam_id":76561198084215731,"connected_time":651000000000,"state":"active","ping":31},{"user_id":395,"name":"shooer! :D \u003e\u003c(((º\u003e","steam_id":76561198110531281,"connected_time":2525000000000,"state":"active","ping":67},{"user_id":122,"name":"Dastardly","steam_id":76561198028351509,"connected_time":25047000000000,"state":"active","ping":66},{"user_id":412,"name":"bop","steam_id":76561198074566830,"connected_time":150000000000,"state":"active","ping":67},{"user_id":402,"name":"I am piss man","steam_id":76561198039209685,"connected_time":1455000000000,"state":"active","ping":68},{"user_id":408,"name":"Caerot","steam_id":76561198839000676,"connected_time":1240000000000,"state":"active","ping":74},{"user_id":367,"name":"♥ aura ♥","steam_id":76561198066258544,"connected_time":5451000000000,"state":"active","ping":62},{"user_id":378,"name":"Hermitcrack","steam_id":76561198149216441,"connected_time":4297000000000,"state":"active","ping":75},{"user_id":361,"name":"Hunter64","steam_id":76561199121947938,"connected_time":5876000000000,"state":"active","ping":53},{"user_id":399,"name":"eNine the FOREVER","steam_id":76561198890193313,"connected_time":1471000000000,"state":"active","ping":55},{"user_id":393,"name":"JamesPepega","steam_id":76561198019156154,"connected_time":2557000000000,"state":"active","ping":72},{"user_id":397,"name":"Healix","steam_id":76561198130270161,"connected_time":2218000000000,"state":"active","ping":57},{"user_id":392,"name":"Thors","steam_id":76561197968739075,"connected_time":2587000000000,"state":"active","ping":36},{"user_id":368,"name":"AnonTron","steam_id":76561199031895493,"connected_time":5443000000000,"state":"active","ping":153},{"user_id":405,"name":"makarov","steam_id":76561198363892870,"connected_time":1443000000000,"state":"active","ping":70},{"user_id":381,"name":"jimmy bob","steam_id":76561198319583692,"connected_time":3864000000000,"state":"active","ping":60},{"user_id":410,"name":"Ocelot","steam_id":76561198263386006,"connected_time":912000000000,"state":"active","ping":105},{"user_id":400,"name":"Rose","steam_id":76561198043601838,"connected_time":1471000000000,"state":"active","ping":71},{"user_id":394,"name":"willy","steam_id":76561198002519060,"connected_time":2557000000000,"state":"active","ping":88}]},{"server_id":114,"name":"Uncletopia | London | 2 | All Maps","name_short":"lon-2","host":"lon-1.uk.uncletopia.com","port":27025,"enabled":true,"region":"eu","cc":"gb","latitude":51.509865,"longitude":-0.118092,"reserved":0,"last_update":"0001-01-01T00:00:00Z","name_a2s":"Uncletopia | London | 2 | All Maps","protocol":17,"map":"pl_snowycoast","folder":"tf","game":"Team Fortress","app_id":440,"player_count":19,"max_players":24,"Bots":0,"server_type":"Dedicated","server_os":"Linux","password":true,"vac":true,"version":"7757534","steam_id":85568392924470941,"keywords":["nocrits","nodmgspread","payload","uncletopia"],"game_id":440,"stv_port":27026,"stv_name":"Uncletopia | London | 2 | All Maps | STV","players":[{"user_id":153,"name":"lettuce at 58p","steam_id":76561199401283123,"connected_time":759000000000,"state":"active","ping":52},{"user_id":167,"name":"sape (huntsman enjoyer)","steam_id":76561198089322416,"connected_time":12000000000,"state":"active","ping":94},{"user_id":135,"name":"mike erhmentraut","steam_id":76561199025378498,"connected_time":2195000000000,"state":"active","ping":67},{"user_id":154,"name":"Unvid","steam_id":76561198031588080,"connected_time":697000000000,"state":"active","ping":40},{"user_id":155,"name":"Red Dynamite","steam_id":76561199073167935,"connected_time":682000000000,"state":"active","ping":144},{"user_id":163,"name":"yard man","steam_id":76561198019477093,"connected_time":217000000000,"state":"active","ping":89},{"user_id":156,"name":"Chester","steam_id":76561198037913276,"connected_time":680000000000,"state":"active","ping":55},{"user_id":124,"name":"lol","steam_id":76561198104438656,"connected_time":3071000000000,"state":"active","ping":62},{"user_id":166,"name":"strideΔ","steam_id":76561199007826093,"connected_time":92000000000,"state":"active","ping":76},{"user_id":161,"name":"Dan Stan The Mr Man","steam_id":76561198017134269,"connected_time":377000000000,"state":"active","ping":64},{"user_id":132,"name":"Ed","steam_id":76561198135081318,"connected_time":2403000000000,"state":"active","ping":55},{"user_id":162,"name":"Casted","steam_id":76561199224054775,"connected_time":272000000000,"state":"active","ping":79},{"user_id":143,"name":"SaltyCupcakes","steam_id":76561198256386417,"connected_time":1387000000000,"state":"active","ping":37},{"user_id":164,"name":"JeanCorben","steam_id":76561197965133561,"connected_time":196000000000,"state":"active","ping":44},{"user_id":134,"name":"boofing prozac","steam_id":76561198851157897,"connected_time":2213000000000,"state":"active","ping":60},{"user_id":159,"name":"PK Blizzard","steam_id":76561198039836567,"connected_time":431000000000,"state":"active","ping":40},{"user_id":147,"name":"TheSciencePerson","steam_id":76561198352592448,"connected_time":1158000000000,"state":"active","ping":54},{"user_id":139,"name":"Blitzy","steam_id":76561198059253518,"connected_time":1484000000000,"state":"active","ping":62},{"user_id":157,"name":"Kodutah","steam_id":76561198203405574,"connected_time":588000000000,"state":"active","ping":79}]},{"server_id":320,"name":"Uncletopia | London | 3 | All Maps","name_short":"lon-3","host":"lon-1.uk.uncletopia.com","port":27035,"enabled":true,"region":"eu","cc":"gb","latitude":51.509865,"longitude":-0.118092,"reserved":0,"last_update":"0001-01-01T00:00:00Z","name_a2s":"Uncletopia | London | 3 | All Maps","protocol":17,"map":"pl_swiftwater_final1","folder":"tf","game":"Team Fortress","app_id":440,"player_count":24,"max_players":24,"Bots":0,"server_type":"Dedicated","server_os":"Linux","password":true,"vac":true,"version":"7757534","steam_id":85568392924510192,"keywords":["nocrits","nodmgspread","payload","uncletopia"],"game_id":440,"stv_port":27036,"stv_name":"Uncletopia | London | 3 | All Maps | STV","players":[{"user_id":372,"name":"Mr. Mietsch","steam_id":76561198077516818,"connected_time":534000000000,"state":"active","ping":58},{"user_id":362,"name":"Huge Burger","steam_id":76561198079669270,"connected_time":2467000000000,"state":"active","ping":42},{"user_id":335,"name":"Davey","steam_id":76561198256879107,"connected_time":4693000000000,"state":"active","ping":76},{"user_id":373,"name":"Kanksteli","steam_id":76561198035919109,"connected_time":361000000000,"state":"active","ping":76},{"user_id":355,"name":"Endi","steam_id":76561198914938199,"connected_time":2655000000000,"state":"active","ping":100},{"user_id":363,"name":"Cuthbert","steam_id":76561198204649481,"connected_time":2464000000000,"state":"active","ping":117},{"user_id":358,"name":"medicinal man","steam_id":76561198202668788,"connected_time":2612000000000,"state":"active","ping":70},{"user_id":374,"name":"TheFox.tf","steam_id":76561197996851702,"connected_time":359000000000,"state":"active","ping":71},{"user_id":336,"name":"doopsuiker","steam_id":76561198025916703,"connected_time":4658000000000,"state":"active","ping":66},{"user_id":375,"name":"I Frag","steam_id":76561199475296315,"connected_time":348000000000,"state":"active","ping":143},{"user_id":300,"name":"MEDiUM","steam_id":76561198112328561,"connected_time":7575000000000,"state":"active","ping":84},{"user_id":343,"name":"Bob Sacamano","steam_id":76561198085610701,"connected_time":4001000000000,"state":"active","ping":95},{"user_id":268,"name":"Dr. Mike Litoris","steam_id":76561197991205793,"connected_time":10052000000000,"state":"active","ping":92},{"user_id":279,"name":"john fortress","steam_id":76561198013237629,"connected_time":9179000000000,"state":"active","ping":93},{"user_id":376,"name":"DD_440","steam_id":76561199135978082,"connected_time":312000000000,"state":"active","ping":126},{"user_id":377,"name":"nux","steam_id":76561199241115962,"connected_time":301000000000,"state":"active","ping":131},{"user_id":368,"name":"Vezage","steam_id":76561198064916164,"connected_time":1799000000000,"state":"active","ping":66},{"user_id":334,"name":"beheading video from 2009","steam_id":76561198834897089,"connected_time":5048000000000,"state":"active","ping":69},{"user_id":378,"name":"mr.sapyoursentry","steam_id":76561199202571828,"connected_time":294000000000,"state":"active","ping":195},{"user_id":379,"name":"LiterallyRyanGosling","steam_id":76561199017856691,"connected_time":242000000000,"state":"active","ping":51},{"user_id":380,"name":"hisham","steam_id":76561198414437290,"connected_time":235000000000,"state":"active","ping":115},{"user_id":341,"name":"Kirb","steam_id":76561199013380960,"connected_time":4078000000000,"state":"active","ping":155},{"user_id":371,"name":"Труп Володя","steam_id":76561198035718457,"connected_time":770000000000,"state":"active","ping":91},{"user_id":381,"name":"fshfkr","steam_id":76561198095979282,"connected_time":228000000000,"state":"active","ping":40}]},{"server_id":321,"name":"Uncletopia | London | 4 | All Maps","name_short":"lon-4","host":"lon-1.uk.uncletopia.com","port":27045,"enabled":true,"region":"eu","cc":"gb","latitude":51.509865,"longitude":-0.118092,"reserved":0,"last_update":"0001-01-01T00:00:00Z","name_a2s":"Uncletopia | London | 4 | All Maps","protocol":17,"map":"pl_badwater","folder":"tf","game":"Team Fortress","app_id":440,"player_count":24,"max_players":24,"Bots":0,"server_type":"Dedicated","server_os":"Linux","password":true,"vac":true,"version":"7757534","steam_id":85568392924510193,"keywords":["nocrits","nodmgspread","payload","uncletopia"],"game_id":440,"stv_port":27046,"stv_name":"Uncletopia | London | 4 | All Maps | STV","players":[{"user_id":15,"name":"owlghost","steam_id":76561198834125968,"connected_time":5185000000000,"state":"active","ping":61},{"user_id":83,"name":"nikfilaaaaaayyyyyyyyyyy","steam_id":76561198071525492,"connected_time":402000000000,"state":"active","ping":51},{"user_id":93,"name":"Spinyapickle","steam_id":76561198086653667,"connected_time":208000000000,"state":"active","ping":58},{"user_id":56,"name":"Martin","steam_id":76561197963416927,"connected_time":2731000000000,"state":"active","ping":57},{"user_id":89,"name":"Opps said sweet dreams","steam_id":76561198146147833,"connected_time":339000000000,"state":"active","ping":33},{"user_id":37,"name":"i AM the medic gf","steam_id":76561198247284680,"connected_time":3312000000000,"state":"active","ping":73},{"user_id":11,"name":"isocuk","steam_id":76561198150391339,"connected_time":5401000000000,"state":"active","ping":38},{"user_id":64,"name":"brokenphilip","steam_id":76561198080960604,"connected_time":1804000000000,"state":"active","ping":75},{"user_id":94,"name":"vnm","steam_id":76561197996468677,"connected_time":115000000000,"state":"active","ping":60},{"user_id":90,"name":"Down but my money up","steam_id":76561198117050793,"connected_time":336000000000,"state":"active","ping":30},{"user_id":28,"name":"YOUR MOM GAMING","steam_id":76561199429562693,"connected_time":3698000000000,"state":"active","ping":72},{"user_id":72,"name":"NiukFX","steam_id":76561198835963075,"connected_time":886000000000,"state":"active","ping":118},{"user_id":95,"name":"Tidder9x","steam_id":76561197984596803,"connected_time":51000000000,"state":"active","ping":150},{"user_id":74,"name":"Dave The Sloth","steam_id":76561199135831355,"connected_time":880000000000,"state":"active","ping":71},{"user_id":77,"name":"C.I.","steam_id":76561197972438196,"connected_time":790000000000,"state":"active","ping":47},{"user_id":76,"name":"Mężczyzna Gaming","steam_id":76561198319814637,"connected_time":852000000000,"state":"active","ping":85},{"user_id":78,"name":"Wardruna96","steam_id":76561199057083828,"connected_time":706000000000,"state":"active","ping":75},{"user_id":45,"name":"DiscoTraveler","steam_id":76561199240168088,"connected_time":3037000000000,"state":"active","ping":114},{"user_id":69,"name":"Pizzacat","steam_id":76561199086880369,"connected_time":1154000000000,"state":"active","ping":85},{"user_id":48,"name":"syndenz","steam_id":76561198176063813,"connected_time":2998000000000,"state":"active","ping":73},{"user_id":68,"name":"fmdi","steam_id":76561199433879329,"connected_time":1586000000000,"state":"active","ping":75},{"user_id":65,"name":"guy farting","steam_id":76561198280132466,"connected_time":1721000000000,"state":"active","ping":79},{"user_id":79,"name":"Xriasp","steam_id":76561198104721321,"connected_time":679000000000,"state":"active","ping":68},{"user_id":91,"name":"Mozzaza","steam_id":76561198156316111,"connected_time":326000000000,"state":"active","ping":145}]},{"server_id":21,"name":"Uncletopia | London | 5 | All Maps","name_short":"lon-5","host":"lon-1.uk.uncletopia.com","port":27055,"enabled":true,"region":"eu","cc":"gb","latitude":51.509865,"longitude":-0.118092,"reserved":0,"last_update":"0001-01-01T00:00:00Z","name_a2s":"Uncletopia | London | 5 | All Maps","protocol":17,"map":"cp_sunshine","folder":"tf","game":"Team Fortress","app_id":440,"player_count":24,"max_players":24,"Bots":0,"server_type":"Dedicated","server_os":"Linux","password":true,"vac":true,"version":"7757534","steam_id":85568392924742829,"keywords":["cp","nocrits","nodmgspread","uncletopia"],"game_id":440,"stv_port":27056,"stv_name":"Uncletopia | London | 5 | All Maps | STV","players":[{"user_id":8,"name":"ran is running","steam_id":76561199443185667,"connected_time":2353000000000,"state":"active","ping":133},{"user_id":9,"name":"piss man (real)","steam_id":76561198839843428,"connected_time":2346000000000,"state":"active","ping":109},{"user_id":50,"name":"Remyie","steam_id":76561198131031404,"connected_time":439000000000,"state":"active","ping":94},{"user_id":53,"name":"TeaFlavouredCoffee","steam_id":76561198925306032,"connected_time":418000000000,"state":"active","ping":69},{"user_id":59,"name":"Dark Wizart","steam_id":76561198377689439,"connected_time":31000000000,"state":"spawning","ping":89},{"user_id":16,"name":"Kiwami","steam_id":76561198307503265,"connected_time":1750000000000,"state":"active","ping":100},{"user_id":14,"name":"tiiyama","steam_id":76561198046196005,"connected_time":1791000000000,"state":"active","ping":45},{"user_id":31,"name":"roblan11","steam_id":76561198066839258,"connected_time":1455000000000,"state":"active","ping":59},{"user_id":39,"name":"PeterSko","steam_id":76561199480036811,"connected_time":1259000000000,"state":"active","ping":144},{"user_id":18,"name":"skilltissues","steam_id":76561198025828664,"connected_time":1650000000000,"state":"active","ping":62},{"user_id":52,"name":"MagicalKimmie","steam_id":76561198041364775,"connected_time":438000000000,"state":"active","ping":45},{"user_id":45,"name":"rock","steam_id":76561198093488870,"connected_time":732000000000,"state":"active","ping":60},{"user_id":58,"name":"xiiski","steam_id":76561198152387747,"connected_time":75000000000,"state":"active","ping":100},{"user_id":54,"name":"The Death I Deservioli","steam_id":76561198320506848,"connected_time":352000000000,"state":"active","ping":42},{"user_id":23,"name":"McYiffy","steam_id":76561198170314433,"connected_time":1551000000000,"state":"active","ping":61},{"user_id":37,"name":"Jimmy","steam_id":76561198133680783,"connected_time":1276000000000,"state":"active","ping":69},{"user_id":56,"name":"NateAntiqua47","steam_id":76561198062642526,"connected_time":122000000000,"state":"active","ping":55},{"user_id":26,"name":"MT Foxtrot","steam_id":76561198058003989,"connected_time":1519000000000,"state":"active","ping":60},{"user_id":44,"name":"strobery","steam_id":76561198988675980,"connected_time":1063000000000,"state":"active","ping":64},{"user_id":49,"name":"Lavo","steam_id":76561199075056060,"connected_time":634000000000,"state":"active","ping":190},{"user_id":43,"name":"gGABEsz","steam_id":76561198117199068,"connected_time":1151000000000,"state":"active","ping":75},{"user_id":55,"name":"FatalRyhme","steam_id":76561198018713483,"connected_time":187000000000,"state":"active","ping":110},{"user_id":35,"name":"bird (trans rights)","steam_id":76561198393596975,"connected_time":1359000000000,"state":"active","ping":82},{"user_id":40,"name":"Urfangonultasadana","steam_id":76561199389286151,"connected_time":1256000000000,"state":"active","ping":95}]},{"server_id":22,"name":"Uncletopia | London | 6 | All Maps","name_short":"lon-6","host":"lon-1.uk.uncletopia.com","port":27065,"enabled":true,"region":"eu","cc":"gb","latitude":51.509865,"longitude":-0.118092,"reserved":0,"last_update":"0001-01-01T00:00:00Z","name_a2s":"Uncletopia | London | 6 | All Maps","protocol":17,"map":"koth_viaduct","folder":"tf","game":"Team Fortress","app_id":440,"player_count":0,"max_players":24,"Bots":0,"server_type":"Dedicated","server_os":"Linux","password":true,"vac":true,"version":"7757534","steam_id":85568392924742830,"keywords":["cp","nocrits","nodmgspread","uncletopia"],"game_id":440,"stv_port":27066,"stv_name":"Uncletopia | London | 6 | All Maps | STV","players":null},{"server_id":40,"name":"Uncletopia | London | 7 | No Payload","name_short":"lon-7","host":"lon-1.uk.uncletopia.com","port":27075,"enabled":true,"region":"eu","cc":"gb","latitude":51.509865,"longitude":-0.118092,"reserved":0,"last_update":"0001-01-01T00:00:00Z","name_a2s":"Uncletopia | London | 7 | No Payload","protocol":17,"map":"pl_badwater","folder":"tf","game":"Team Fortress","app_id":440,"player_count":0,"max_players":24,"Bots":0,"server_type":"Dedicated","server_os":"Linux","password":true,"vac":true,"version":"7757534","steam_id":85568392924964314,"keywords":["nocrits","nodmgspread","payload","uncletopia"],"game_id":440,"stv_port":27076,"stv_name":"Uncletopia | London | 7 | No Payload | STV","players":null},{"server_id":41,"name":"Uncletopia | London | 8 | Community","name_short":"lon-8","host":"lon-1.uk.uncletopia.com","port":27085,"enabled":true,"region":"eu","cc":"gb","latitude":51.509865,"longitude":-0.118092,"reserved":0,"last_update":"0001-01-01T00:00:00Z","name_a2s":"Uncletopia | London | 8 | Community","protocol":17,"map":"pl_barnblitz","folder":"tf","game":"Team Fortress","app_id":440,"player_count":0,"max_players":24,"Bots":0,"server_type":"Dedicated","server_os":"Linux","password":true,"vac":true,"version":"7757534","steam_id":85568392924964315,"keywords":["nocrits","nodmgspread","payload","uncletopia"],"game_id":440,"stv_port":27086,"stv_name":"Uncletopia | London | 8 | Community | STV","players":null},{"server_id":300,"name":"Uncletopia | Montréal | 1 | All Maps","name_short":"mtl-1","host":"mtl-1.ca.uncletopia.com","port":27015,"enabled":true,"region":"us-east","cc":"ca","latitude":45.50889,"longitude":-73.56167,"reserved":0,"last_update":"0001-01-01T00:00:00Z","name_a2s":"Uncletopia | Montréal | 1 | All Maps","protocol":17,"map":"pl_upward","folder":"tf","game":"Team Fortress","app_id":440,"player_count":0,"max_players":24,"Bots":0,"server_type":"Dedicated","server_os":"Linux","password":true,"vac":true,"version":"7757534","steam_id":85568392924500087,"keywords":["nocrits","nodmgspread","payload","uncletopia"],"game_id":440,"stv_port":27016,"stv_name":"Uncletopia | Montréal | 1 | All Maps | STV","players":null},{"server_id":301,"name":"Uncletopia | Montréal | 2 | All Maps","name_short":"mtl-2","host":"mtl-1.ca.uncletopia.com","port":27025,"enabled":true,"region":"us-east","cc":"ca","latitude":45.50889,"longitude":-73.56167,"reserved":0,"last_update":"0001-01-01T00:00:00Z","name_a2s":"Uncletopia | Montréal | 2 | All Maps","protocol":17,"map":"pl_snowycoast","folder":"tf","game":"Team Fortress","app_id":440,"player_count":0,"max_players":24,"Bots":0,"server_type":"Dedicated","server_os":"Linux","password":true,"vac":true,"version":"7757534","steam_id":85568392924500088,"keywords":["nocrits","nodmgspread","payload","uncletopia"],"game_id":440,"stv_port":27026,"stv_name":"Uncletopia | Montréal | 2 | All Maps | STV","players":null},{"server_id":302,"name":"Uncletopia | Montréal | 3 | All Maps","name_short":"mtl-3","host":"mtl-1.ca.uncletopia.com","port":27035,"enabled":true,"region":"us-east","cc":"ca","latitude":45.50889,"longitude":-73.56167,"reserved":0,"last_update":"0001-01-01T00:00:00Z","name_a2s":"Uncletopia | Montréal | 3 | All Maps","protocol":17,"map":"pl_swiftwater_final1","folder":"tf","game":"Team Fortress","app_id":440,"player_count":0,"max_players":24,"Bots":0,"server_type":"Dedicated","server_os":"Linux","password":true,"vac":true,"version":"7757534","steam_id":85568392924500089,"keywords":["nocrits","nodmgspread","payload","uncletopia"],"game_id":440,"stv_port":27036,"stv_name":"Uncletopia | Montréal | 3 | All Maps | STV","players":null},{"server_id":303,"name":"Uncletopia | Montréal | 4 | No Payload","name_short":"mtl-4","host":"mtl-1.ca.uncletopia.com","port":27045,"enabled":true,"region":"us-east","cc":"ca","latitude":45.50889,"longitude":-73.56167,"reserved":0,"last_update":"0001-01-01T00:00:00Z","name_a2s":"Uncletopia | Montréal | 4 | No Payload","protocol":17,"map":"pl_pier","folder":"tf","game":"Team Fortress","app_id":440,"player_count":0,"max_players":24,"Bots":0,"server_type":"Dedicated","server_os":"Linux","password":true,"vac":true,"version":"7757534","steam_id":85568392924500090,"keywords":["nocrits","nodmgspread","payload","uncletopia"],"game_id":440,"stv_port":27046,"stv_name":"Uncletopia | Montréal | 4 | No Payload | STV","players":null},{"server_id":13,"name":"Uncletopia | New York City | 1 | All Maps","name_short":"nyc-1","host":"nyc-1.us.uncletopia.com","port":27015,"enabled":true,"region":"us-east","cc":"us","latitude":40.73061,"longitude":-73.93524,"reserved":0,"last_update":"0001-01-01T00:00:00Z","name_a2s":"Uncletopia | New York City | 1 | All Maps","protocol":17,"map":"pl_borneo","folder":"tf","game":"Team Fortress","app_id":440,"player_count":24,"max_players":24,"Bots":0,"server_type":"Dedicated","server_os":"Linux","password":true,"vac":true,"version":"7757534","steam_id":85568392924469993,"keywords":["nocrits","nodmgspread","payload","uncletopia"],"game_id":440,"stv_port":27016,"stv_name":"Uncletopia | New York City | 1 | All Maps | STV","players":[{"user_id":98,"name":"rat bastard","steam_id":76561199021081951,"connected_time":1326000000000,"state":"active","ping":73},{"user_id":107,"name":"QWERTY_KKL","steam_id":76561199156419203,"connected_time":829000000000,"state":"active","ping":64},{"user_id":102,"name":"Cyramic","steam_id":76561198017136083,"connected_time":1127000000000,"state":"active","ping":70},{"user_id":14,"name":"ror!","steam_id":76561198021227843,"connected_time":6843000000000,"state":"active","ping":71},{"user_id":105,"name":"EliminateSingleFamilyZoning","steam_id":76561198276653985,"connected_time":863000000000,"state":"active","ping":38},{"user_id":83,"name":"Mrs.Frizzle","steam_id":76561198117157085,"connected_time":2599000000000,"state":"active","ping":57},{"user_id":93,"name":"Mithrandir","steam_id":76561197995003142,"connected_time":1988000000000,"state":"active","ping":90},{"user_id":97,"name":"TacticalGlizzy","steam_id":76561198144786171,"connected_time":1510000000000,"state":"active","ping":50},{"user_id":68,"name":"Don Franches","steam_id":76561198043958772,"connected_time":3999000000000,"state":"active","ping":69},{"user_id":116,"name":"DavidBowiesPackage","steam_id":76561198148729253,"connected_time":107000000000,"state":"active","ping":76},{"user_id":66,"name":"shake","steam_id":76561199064204750,"connected_time":4065000000000,"state":"active","ping":71},{"user_id":109,"name":"capeeKo","steam_id":76561197970346623,"connected_time":726000000000,"state":"active","ping":57},{"user_id":114,"name":"SnatchyGoblin69","steam_id":76561199276295259,"connected_time":513000000000,"state":"active","ping":70},{"user_id":110,"name":"baklava","steam_id":76561198124591302,"connected_time":722000000000,"state":"active","ping":54},{"user_id":89,"name":"DeSynthed","steam_id":76561198098768007,"connected_time":2240000000000,"state":"active","ping":58},{"user_id":87,"name":"Jo_","steam_id":76561198142135469,"connected_time":2463000000000,"state":"active","ping":61},{"user_id":104,"name":"Lord GabeN","steam_id":76561198140862723,"connected_time":1113000000000,"state":"active","ping":73},{"user_id":111,"name":"Red","steam_id":76561198082958231,"connected_time":712000000000,"state":"active","ping":46},{"user_id":78,"name":"(Maj) Dr Freak","steam_id":76561198046450332,"connected_time":3376000000000,"state":"active","ping":88},{"user_id":117,"name":"Take the L","steam_id":76561198379223875,"connected_time":41000000000,"state":"spawning","ping":70},{"user_id":113,"name":"Joshy","steam_id":76561198061405421,"connected_time":682000000000,"state":"active","ping":73},{"user_id":70,"name":"Mury","steam_id":76561198069743049,"connected_time":3944000000000,"state":"active","ping":107},{"user_id":99,"name":"BasicPeaches","steam_id":76561198190890150,"connected_time":1295000000000,"state":"active","ping":62},{"user_id":100,"name":"Spy of 83","steam_id":76561199062242958,"connected_time":1294000000000,"state":"active","ping":137}]},{"server_id":14,"name":"Uncletopia | New York City | 2 | All Maps","name_short":"nyc-2","host":"nyc-1.us.uncletopia.com","port":27025,"enabled":true,"region":"us-east","cc":"us","latitude":40.73061,"longitude":-73.93524,"reserved":0,"last_update":"0001-01-01T00:00:00Z","name_a2s":"Uncletopia | New York City | 2 | All Maps","protocol":17,"map":"koth_viaduct","folder":"tf","game":"Team Fortress","app_id":440,"player_count":5,"max_players":24,"Bots":0,"server_type":"Dedicated","server_os":"Linux","password":true,"vac":true,"version":"7757534","steam_id":85568392924469994,"keywords":["cp","nocrits","nodmgspread","uncletopia"],"game_id":440,"stv_port":27026,"stv_name":"Uncletopia | New York City | 2 | All Maps | STV","players":[{"user_id":26,"name":"urnotpeter","steam_id":76561198109904696,"connected_time":506000000000,"state":"active","ping":53},{"user_id":8,"name":"custodian","steam_id":76561198058793778,"connected_time":4536000000000,"state":"active","ping":55},{"user_id":27,"name":"old birb man","steam_id":76561199410269097,"connected_time":418000000000,"state":"active","ping":136},{"user_id":28,"name":"M16A1Sauce","steam_id":76561199058049384,"connected_time":293000000000,"state":"active","ping":61},{"user_id":29,"name":"beans","steam_id":76561199082781884,"connected_time":151000000000,"state":"active","ping":57}]},{"server_id":15,"name":"Uncletopia | New York City | 3 | Stopwatch Beta","name_short":"nyc-3","host":"nyc-1.us.uncletopia.com","port":27035,"enabled":true,"region":"us-east","cc":"us","latitude":40.73061,"longitude":-73.93524,"reserved":0,"last_update":"0001-01-01T00:00:00Z","name_a2s":"Uncletopia | New York City | 3 | Stopwatch Beta","protocol":17,"map":"pl_upward","folder":"tf","game":"Team Fortress","app_id":440,"player_count":0,"max_players":24,"Bots":0,"server_type":"Dedicated","server_os":"Linux","password":true,"vac":true,"version":"7757534","steam_id":85568392924742820,"keywords":["nocrits","nodmgspread","payload","uncletopia"],"game_id":440,"stv_port":27036,"stv_name":"Uncletopia | New York City | 3 | Stopwatch Beta | STV","players":null},{"server_id":16,"name":"Uncletopia | New York City | 4 | Community","name_short":"nyc-4","host":"nyc-1.us.uncletopia.com","port":27045,"enabled":true,"region":"us-east","cc":"us","latitude":40.73061,"longitude":-73.93524,"reserved":0,"last_update":"0001-01-01T00:00:00Z","name_a2s":"Uncletopia | New York City | 4 | Community","protocol":17,"map":"pl_swiftwater_final1","folder":"tf","game":"Team Fortress","app_id":440,"player_count":2,"max_players":24,"Bots":0,"server_type":"Dedicated","server_os":"Linux","password":true,"vac":true,"version":"7757534","steam_id":85568392924742821,"keywords":["nocrits","nodmgspread","payload","uncletopia"],"game_id":440,"stv_port":27046,"stv_name":"Uncletopia | New York City | 4 | Community | STV","players":[{"user_id":3,"name":"tojunior","steam_id":76561199407305043,"connected_time":1097000000000,"state":"active","ping":232},{"user_id":4,"name":"Yae_sakura","steam_id":76561199435836165,"connected_time":1046000000000,"state":"active","ping":126}]},{"server_id":142,"name":"Uncletopia | São Paulo | 1 | All Maps","name_short":"sao-1","host":"sao-1.br.uncletopia.com","port":27015,"enabled":true,"region":"sa","cc":"br","latitude":-23.533773,"longitude":-46.62529,"reserved":0,"last_update":"0001-01-01T00:00:00Z","name_a2s":"Uncletopia | São Paulo | 1 | All Maps","protocol":17,"map":"koth_lakeside_final","folder":"tf","game":"Team Fortress","app_id":440,"player_count":0,"max_players":24,"Bots":0,"server_type":"Dedicated","server_os":"Linux","password":true,"vac":true,"version":"7757534","steam_id":85568392924469996,"keywords":["cp","nocrits","nodmgspread","uncletopia"],"game_id":440,"stv_port":27016,"stv_name":"Uncletopia | São Paulo | 1 | All Maps | STV","players":null},{"server_id":143,"name":"Uncletopia | São Paulo | 2 | All Maps","name_short":"sao-2","host":"sao-2.br.uncletopia.com","port":27015,"enabled":true,"region":"sa","cc":"br","latitude":-23.533773,"longitude":-46.62529,"reserved":0,"last_update":"0001-01-01T00:00:00Z","name_a2s":"Uncletopia | São Paulo | 2 | All Maps","protocol":17,"map":"koth_cascade","folder":"tf","game":"Team Fortress","app_id":440,"player_count":0,"max_players":24,"Bots":0,"server_type":"Dedicated","server_os":"Linux","password":true,"vac":true,"version":"7757534","steam_id":85568392924485349,"keywords":["cp","nocrits","nodmgspread","uncletopia"],"game_id":440,"stv_port":27016,"stv_name":"Uncletopia | São Paulo | 2 | All Maps | STV","players":null},{"server_id":7,"name":"Uncletopia | Seattle | 1 | All Maps","name_short":"sea-1","host":"sea-1.us.uncletopia.com","port":27015,"enabled":true,"region":"us-west","cc":"us","latitude":47.608013,"longitude":-122.33517,"reserved":0,"last_update":"0001-01-01T00:00:00Z","name_a2s":"Uncletopia | Seattle | 1 | All Maps","protocol":17,"map":"pl_pier","folder":"tf","game":"Team Fortress","app_id":440,"player_count":24,"max_players":24,"Bots":0,"server_type":"Dedicated","server_os":"Linux","password":true,"vac":true,"version":"7757534","steam_id":85568392924469997,"keywords":["nocrits","nodmgspread","payload","uncletopia"],"game_id":440,"stv_port":27016,"stv_name":"Uncletopia | Seattle | 1 | All Maps | STV","players":[{"user_id":127,"name":"EDJRMorpheus95","steam_id":76561198830669778,"connected_time":2126000000000,"state":"active","ping":113},{"user_id":96,"name":"SadFapping","steam_id":76561198076651049,"connected_time":3623000000000,"state":"active","ping":54},{"user_id":148,"name":"128gb sd card","steam_id":76561198043636749,"connected_time":348000000000,"state":"active","ping":74},{"user_id":62,"name":"Neo Kojiro","steam_id":76561198000967076,"connected_time":8138000000000,"state":"active","ping":126},{"user_id":128,"name":"HiFivr","steam_id":76561198285190162,"connected_time":2110000000000,"state":"active","ping":60},{"user_id":150,"name":"Skabbety","steam_id":76561198168044257,"connected_time":143000000000,"state":"active","ping":31},{"user_id":46,"name":"Highground","steam_id":76561199197544789,"connected_time":9512000000000,"state":"active","ping":154},{"user_id":141,"name":"reverie","steam_id":76561198168158637,"connected_time":1355000000000,"state":"active","ping":91},{"user_id":149,"name":"you could stop at 5 or 6 stores","steam_id":76561198170928310,"connected_time":155000000000,"state":"active","ping":143},{"user_id":151,"name":"o o o o o o o o o","steam_id":76561197993757506,"connected_time":115000000000,"state":"active","ping":67},{"user_id":130,"name":"jayeskae","steam_id":76561198144220801,"connected_time":1989000000000,"state":"active","ping":45},{"user_id":100,"name":"Kick Down Door 6:00AM TUCK☃RO","steam_id":76561197976146738,"connected_time":3567000000000,"state":"active","ping":126},{"user_id":108,"name":"nichts","steam_id":76561198230007548,"connected_time":3171000000000,"state":"active","ping":92},{"user_id":138,"name":"Chicken","steam_id":76561198300214050,"connected_time":1592000000000,"state":"active","ping":46},{"user_id":140,"name":"Tea","steam_id":76561198004133638,"connected_time":1417000000000,"state":"spawning","ping":591},{"user_id":102,"name":"stboncho","steam_id":76561198172275301,"connected_time":3511000000000,"state":"active","ping":71},{"user_id":152,"name":"Lord Falopa","steam_id":76561198279312167,"connected_time":111000000000,"state":"active","ping":136},{"user_id":153,"name":"h a r t","steam_id":76561198046073848,"connected_time":107000000000,"state":"active","ping":48},{"user_id":147,"name":"DefectiveWarhead","steam_id":76561198067746049,"connected_time":752000000000,"state":"active","ping":55},{"user_id":93,"name":"mingo","steam_id":76561198308290211,"connected_time":4480000000000,"state":"active","ping":88},{"user_id":154,"name":"ultralisk52","steam_id":76561198051666604,"connected_time":18000000000,"state":"spawning","ping":107},{"user_id":146,"name":"Patio","steam_id":76561197986082608,"connected_time":826000000000,"state":"active","ping":56},{"user_id":134,"name":"CreativeUsername","steam_id":76561198186045503,"connected_time":1901000000000,"state":"active","ping":93},{"user_id":135,"name":"Buswolley","steam_id":76561197995205571,"connected_time":1894000000000,"state":"active","ping":64}]},{"server_id":119,"name":"Uncletopia | Seattle | 2 | All Maps","name_short":"sea-2","host":"sea-1.us.uncletopia.com","port":27025,"enabled":true,"region":"us-west","cc":"us","latitude":47.608013,"longitude":-122.33517,"reserved":0,"last_update":"0001-01-01T00:00:00Z","name_a2s":"Uncletopia | Seattle | 2 | All Maps","protocol":17,"map":"koth_viaduct","folder":"tf","game":"Team Fortress","app_id":440,"player_count":0,"max_players":24,"Bots":0,"server_type":"Dedicated","server_os":"Linux","password":true,"vac":true,"version":"7757534","steam_id":85568392924469998,"keywords":["cp","nocrits","nodmgspread","uncletopia"],"game_id":440,"stv_port":27026,"stv_name":"Uncletopia | Seattle | 2 | All Maps | STV","players":null},{"server_id":406,"name":"Uncletopia | Seattle | 3 | Stopwatch Beta","name_short":"sea-3","host":"sea-1.us.uncletopia.com","port":27035,"enabled":true,"region":"us-west","cc":"us","latitude":47.608013,"longitude":-122.33517,"reserved":0,"last_update":"0001-01-01T00:00:00Z","name_a2s":"Uncletopia | Seattle | 3 | Stopwatch Beta","protocol":17,"map":"cp_dustbowl","folder":"tf","game":"Team Fortress","app_id":440,"player_count":0,"max_players":24,"Bots":0,"server_type":"Dedicated","server_os":"Linux","password":true,"vac":true,"version":"7757534","steam_id":85568392924515217,"keywords":["cp","nocrits","nodmgspread","uncletopia"],"game_id":440,"stv_port":27036,"stv_name":"Uncletopia | Seattle | 3 | Stopwatch Beta | STV","players":null},{"server_id":17,"name":"Uncletopia | San Francisco | 1 | All Maps","name_short":"sfo-1","host":"sfo-1.us.uncletopia.com","port":27015,"enabled":true,"region":"us-west","cc":"us","latitude":37.77397,"longitude":-122.4313,"reserved":0,"last_update":"0001-01-01T00:00:00Z","name_a2s":"Uncletopia | San Francisco | 1 | All Maps","protocol":17,"map":"cp_process_final","folder":"tf","game":"Team Fortress","app_id":440,"player_count":0,"max_players":24,"Bots":0,"server_type":"Dedicated","server_os":"Linux","password":true,"vac":true,"version":"7757534","steam_id":85568392924469999,"keywords":["cp","nocrits","nodmgspread","uncletopia"],"game_id":440,"stv_port":27016,"stv_name":"Uncletopia | San Francisco | 1 | All Maps | STV","players":null},{"server_id":18,"name":"Uncletopia | San Francisco | 2 | All Maps","name_short":"sfo-2","host":"sfo-1.us.uncletopia.com","port":27025,"enabled":true,"region":"us-west","cc":"us","latitude":37.77397,"longitude":-122.4313,"reserved":0,"last_update":"0001-01-01T00:00:00Z","name_a2s":"Uncletopia | San Francisco | 2 | All Maps","protocol":17,"map":"koth_highpass","folder":"tf","game":"Team Fortress","app_id":440,"player_count":0,"max_players":24,"Bots":0,"server_type":"Dedicated","server_os":"Linux","password":true,"vac":true,"version":"7757534","steam_id":85568392924470000,"keywords":["cp","nocrits","nodmgspread","uncletopia"],"game_id":440,"stv_port":27026,"stv_name":"Uncletopia | San Francisco | 2 | All Maps | STV","players":null},{"server_id":19,"name":"Uncletopia | San Francisco | 3 | Stopwatch Beta","name_short":"sfo-3","host":"sfo-1.us.uncletopia.com","port":27035,"enabled":true,"region":"us-west","cc":"us","latitude":37.77397,"longitude":-122.4313,"reserved":0,"last_update":"0001-01-01T00:00:00Z","name_a2s":"Uncletopia | San Francisco | 3 | Stopwatch Beta","protocol":17,"map":"koth_lakeside_final","folder":"tf","game":"Team Fortress","app_id":440,"player_count":0,"max_players":24,"Bots":0,"server_type":"Dedicated","server_os":"Linux","password":true,"vac":true,"version":"7757534","steam_id":85568392924742824,"keywords":["cp","nocrits","nodmgspread","uncletopia"],"game_id":440,"stv_port":27036,"stv_name":"Uncletopia | San Francisco | 3 | Stopwatch Beta | STV","players":null},{"server_id":20,"name":"Uncletopia | San Francisco | 4 | Community","name_short":"sfo-4","host":"sfo-1.us.uncletopia.com","port":27045,"enabled":true,"region":"us-west","cc":"us","latitude":37.77397,"longitude":-122.4313,"reserved":0,"last_update":"0001-01-01T00:00:00Z","name_a2s":"Uncletopia | San Francisco | 4 | Community","protocol":17,"map":"cp_altitude","folder":"tf","game":"Team Fortress","app_id":440,"player_count":0,"max_players":24,"Bots":0,"server_type":"Dedicated","server_os":"Linux","password":true,"vac":true,"version":"7757534","steam_id":85568392924742826,"keywords":["cp","nocrits","nodmgspread","uncletopia"],"game_id":440,"stv_port":27046,"stv_name":"Uncletopia | San Francisco | 4 | Community | STV","players":null},{"server_id":141,"name":"Uncletopia | Sydney | 1 | All Maps","name_short":"syd-1","host":"syd-1.au.uncletopia.com","port":27015,"enabled":true,"region":"au","cc":"au","latitude":-33.865143,"longitude":151.2099,"reserved":0,"last_update":"0001-01-01T00:00:00Z","name_a2s":"Uncletopia | Sydney | 1 | All Maps","protocol":17,"map":"pl_upward","folder":"tf","game":"Team Fortress","app_id":440,"player_count":0,"max_players":24,"Bots":0,"server_type":"Dedicated","server_os":"Linux","password":true,"vac":true,"version":"7757534","steam_id":85568392924470001,"keywords":["nocrits","nodmgspread","payload","uncletopia"],"game_id":440,"stv_port":27016,"stv_name":"Uncletopia | Sydney | 1 | All Maps | STV","players":null},{"server_id":123,"name":"Uncletopia | Sydney | 2 | All Maps","name_short":"syd-2","host":"syd-1.au.uncletopia.com","port":27025,"enabled":true,"region":"au","cc":"au","latitude":-33.865143,"longitude":151.2099,"reserved":0,"last_update":"0001-01-01T00:00:00Z","name_a2s":"Uncletopia | Sydney | 2 | All Maps","protocol":17,"map":"cp_sunshine","folder":"tf","game":"Team Fortress","app_id":440,"player_count":0,"max_players":24,"Bots":0,"server_type":"Dedicated","server_os":"Linux","password":true,"vac":true,"version":"7757534","steam_id":85568392924470002,"keywords":["cp","nocrits","nodmgspread","uncletopia"],"game_id":440,"stv_port":27026,"stv_name":"Uncletopia | Sydney | 2 | All Maps | STV","players":null},{"server_id":395,"name":"Uncletopia | Sydney | 3 | All Maps","name_short":"syd-3","host":"syd-1.au.uncletopia.com","port":27035,"enabled":true,"region":"au","cc":"au","latitude":-33.865143,"longitude":151.2099,"reserved":0,"last_update":"0001-01-01T00:00:00Z","name_a2s":"Uncletopia | Sydney | 3 | All Maps","protocol":17,"map":"koth_viaduct","folder":"tf","game":"Team Fortress","app_id":440,"player_count":0,"max_players":24,"Bots":0,"server_type":"Dedicated","server_os":"Linux","password":true,"vac":true,"version":"7757534","steam_id":85568392925194467,"keywords":["cp","nocrits","nodmgspread","uncletopia"],"game_id":440,"stv_port":27036,"stv_name":"Uncletopia | Sydney | 3 | All Maps | STV","players":null},{"server_id":396,"name":"Uncletopia | Sydney | 4 | All Maps","name_short":"syd-4","host":"syd-1.au.uncletopia.com","port":27045,"enabled":true,"region":"au","cc":"au","latitude":-33.865143,"longitude":151.2099,"reserved":0,"last_update":"0001-01-01T00:00:00Z","name_a2s":"Uncletopia | Sydney | 4 | All Maps","protocol":17,"map":"koth_highpass","folder":"tf","game":"Team Fortress","app_id":440,"player_count":0,"max_players":24,"Bots":0,"server_type":"Dedicated","server_os":"Linux","password":true,"vac":true,"version":"7757534","steam_id":85568392925397958,"keywords":["cp","nocrits","nodmgspread","uncletopia"],"game_id":440,"stv_port":27046,"stv_name":"Uncletopia | Sydney | 4 | All Maps | STV","players":null},{"server_id":58,"name":"Uncletopia | Sydney | 5 | Stopwatch Beta","name_short":"syd-5","host":"syd-1.au.uncletopia.com","port":27055,"enabled":true,"region":"au","cc":"au","latitude":-33.865143,"longitude":151.2099,"reserved":0,"last_update":"0001-01-01T00:00:00Z","name_a2s":"Uncletopia | Sydney | 5 | Stopwatch Beta","protocol":17,"map":"workshop/cp_reckoner_rc6.ugc674719999","folder":"tf","game":"Team Fortress","app_id":440,"player_count":0,"max_players":24,"Bots":0,"server_type":"Dedicated","server_os":"Linux","password":true,"vac":true,"version":"7757534","steam_id":85568392925397959,"keywords":["cp","nocrits","nodmgspread","uncletopia"],"game_id":440,"stv_port":27056,"stv_name":"Uncletopia | Sydney | 5 | Stopwatch Beta | STV","players":null},{"server_id":59,"name":"Uncletopia | Sydney | 6 | Community","name_short":"syd-6","host":"syd-1.au.uncletopia.com","port":27065,"enabled":true,"region":"au","cc":"au","latitude":-33.865143,"longitude":151.2099,"reserved":0,"last_update":"0001-01-01T00:00:00Z","name_a2s":"Uncletopia | Sydney | 6 | Community","protocol":17,"map":"workshop/pl_vigil_rc9.ugc1266210012","folder":"tf","game":"Team Fortress","app_id":440,"player_count":0,"max_players":24,"Bots":0,"server_type":"Dedicated","server_os":"Linux","password":true,"vac":true,"version":"7757534","steam_id":85568392925397960,"keywords":["nocrits","nodmgspread","payload","uncletopia"],"game_id":440,"stv_port":27066,"stv_name":"Uncletopia | Sydney | 6 | Community | STV","players":null},{"server_id":49,"name":"Uncletopia | Warsaw | 1 | All Maps","name_short":"waw-1","host":"waw-1.pl.uncletopia.com","port":27015,"enabled":true,"region":"eu","cc":"pl","latitude":52.2297,"longitude":21.017532,"reserved":0,"last_update":"0001-01-01T00:00:00Z","name_a2s":"","protocol":0,"map":"","folder":"","game":"","app_id":0,"player_count":0,"max_players":0,"Bots":0,"server_type":"","server_os":"","password":false,"vac":false,"version":"","steam_id":0,"keywords":null,"game_id":0,"stv_port":0,"stv_name":"","players":null},{"server_id":50,"name":"Uncletopia | Warsaw | 2 | All Maps","name_short":"waw-2","host":"waw-1.pl.uncletopia.com","port":27025,"enabled":true,"region":"eu","cc":"pl","latitude":52.2297,"longitude":21.017532,"reserved":0,"last_update":"0001-01-01T00:00:00Z","name_a2s":"Uncletopia | Warsaw | 2 | All Maps","protocol":17,"map":"pl_upward","folder":"tf","game":"Team Fortress","app_id":440,"player_count":0,"max_players":24,"Bots":0,"server_type":"Dedicated","server_os":"Linux","password":true,"vac":true,"version":"7757534","steam_id":85568392925397851,"keywords":["nocrits","nodmgspread","payload","uncletopia"],"game_id":440,"stv_port":27026,"stv_name":"Uncletopia | Warsaw | 2 | All Maps | STV","players":null},{"server_id":51,"name":"Uncletopia | Warsaw | 3 | All Maps","name_short":"waw-3","host":"waw-1.pl.uncletopia.com","port":27035,"enabled":true,"region":"eu","cc":"pl","latitude":52.2297,"longitude":21.017532,"reserved":0,"last_update":"0001-01-01T00:00:00Z","name_a2s":"Uncletopia | Warsaw | 3 | All Maps","protocol":17,"map":"pl_badwater","folder":"tf","game":"Team Fortress","app_id":440,"player_count":0,"max_players":24,"Bots":0,"server_type":"Dedicated","server_os":"Linux","password":true,"vac":true,"version":"7757534","steam_id":85568392925397852,"keywords":["nocrits","nodmgspread","payload","uncletopia"],"game_id":440,"stv_port":27036,"stv_name":"Uncletopia | Warsaw | 3 | All Maps | STV","players":null},{"server_id":52,"name":"Uncletopia | Warsaw | 4 | All Maps","name_short":"waw-4","host":"waw-1.pl.uncletopia.com","port":27045,"enabled":true,"region":"eu","cc":"pl","latitude":52.2297,"longitude":21.017532,"reserved":0,"last_update":"0001-01-01T00:00:00Z","name_a2s":"Uncletopia | Warsaw | 4 | All Maps","protocol":17,"map":"koth_lakeside_final","folder":"tf","game":"Team Fortress","app_id":440,"player_count":0,"max_players":24,"Bots":0,"server_type":"Dedicated","server_os":"Linux","password":true,"vac":true,"version":"7757534","steam_id":85568392925397853,"keywords":["cp","nocrits","nodmgspread","uncletopia"],"game_id":440,"stv_port":27046,"stv_name":"Uncletopia | Warsaw | 4 | All Maps | STV","players":null},{"server_id":53,"name":"Uncletopia | Warsaw | 5 | Stopwatch Beta","name_short":"waw-5","host":"waw-1.pl.uncletopia.com","port":27055,"enabled":true,"region":"eu","cc":"pl","latitude":52.2297,"longitude":21.017532,"reserved":0,"last_update":"0001-01-01T00:00:00Z","name_a2s":"Uncletopia | Warsaw | 5 | Stopwatch Beta","protocol":17,"map":"pl_borneo","folder":"tf","game":"Team Fortress","app_id":440,"player_count":0,"max_players":24,"Bots":0,"server_type":"Dedicated","server_os":"Linux","password":true,"vac":true,"version":"7757534","steam_id":85568392925397854,"keywords":["nocrits","nodmgspread","payload","uncletopia"],"game_id":440,"stv_port":27056,"stv_name":"Uncletopia | Warsaw | 5 | Stopwatch Beta | STV","players":null},{"server_id":54,"name":"Uncletopia | Warsaw | 6 | Community","name_short":"waw-6","host":"waw-1.pl.uncletopia.com","port":27065,"enabled":true,"region":"eu","cc":"pl","latitude":52.2297,"longitude":21.017532,"reserved":0,"last_update":"0001-01-01T00:00:00Z","name_a2s":"Uncletopia | Warsaw | 6 | Community","protocol":17,"map":"koth_lakeside_final","folder":"tf","game":"Team Fortress","app_id":440,"player_count":0,"max_players":24,"Bots":0,"server_type":"Dedicated","server_os":"Linux","password":true,"vac":true,"version":"7757534","steam_id":85568392925397856,"keywords":["cp","nocrits","nodmgspread","uncletopia"],"game_id":440,"stv_port":27066,"stv_name":"Uncletopia | Warsaw | 6 | Community | STV","players":null}]}