{"status":true,"message":"","result":[{"server_id":9,"name":"Uncletopia | Atlanta | 1 | All Maps","name_short":"atl-1","host":"atl-1.us.uncletopia.com","port":27015,"enabled":true,"region":"us-east","cc":"us","latitude":33.753746,"longitude":-84.38633,"reserved":0,"last_update":"0001-01-01T00:00:00Z","name_a2s":"Uncletopia | Atlanta | 1 | All Maps","protocol":17,"map":"cp_powerhouse","folder":"tf","game":"Team Fortress","app_id":440,"player_count":24,"max_players":24,"Bots":0,"server_type":"Dedicated","server_os":"Linux","password":true,"vac":true,"version":"7961495","steam_id":85568392924469982,"keywords":["cp","nocrits","nodmgspread","uncletopia"],"game_id":440,"stv_port":27016,"stv_name":"Uncletopia | Atlanta | 1 | All Maps | STV","players":[{"user_id":93,"name":"Strange Child","steam_id":76561198082523009,"connected_time":3849000000000,"state":"active","ping":83},{"user_id":102,"name":"Shrebbie","steam_id":76561198875230824,"connected_time":2992000000000,"state":"active","ping":60},{"user_id":127,"name":"William Wallace","steam_id":76561199343316814,"connected_time":1023000000000,"state":"active","ping":58},{"user_id":115,"name":"Waffle Wannabe","steam_id":76561198064510650,"connected_time":1519000000000,"state":"active","ping":64},{"user_id":128,"name":"Monkey Mode","steam_id":76561197961267543,"connected_time":959000000000,"state":"active","ping":52},{"user_id":46,"name":"VisibleForce","steam_id":76561198104178938,"connected_time":9031000000000,"state":"active","ping":73},{"user_id":140,"name":"leumas","steam_id":76561198240408540,"connected_time":80000000000,"state":"active","ping":55},{"user_id":136,"name":"MasonJar","steam_id":76561198268816354,"connected_time":505000000000,"state":"active","ping":82},{"user_id":59,"name":"Ata","steam_id":76561198349085545,"connected_time":7320000000000,"state":"active","ping":78},{"user_id":125,"name":"brotherinchrist","steam_id":76561198208369443,"connected_time":1176000000000,"state":"active","ping":40},{"user_id":133,"name":"coda","steam_id":76561198092052685,"connected_time":754000000000,"state":"active","ping":60},{"user_id":138,"name":"dr chungy ph.d","steam_id":76561198215559840,"connected_time":247000000000,"state":"active","ping":60},{"user_id":113,"name":"why","steam_id":76561199059732212,"connected_time":2269000000000,"state":"active","ping":58},{"user_id":141,"name":"ChozoChorizo","steam_id":76561198272609196,"connected_time":27000000000,"state":"active","ping":56},{"user_id":72,"name":"row","steam_id":76561198040946044,"connected_time":6315000000000,"state":"active","ping":82},{"user_id":126,"name":"Sinta","steam_id":76561198098398841,"connected_time":1158000000000,"state":"active","ping":60},{"user_id":96,"name":"CandorDanceFloor","steam_id":76561198062980511,"connected_time":3679000000000,"state":"active","ping":93},{"user_id":101,"name":"dongy","steam_id":76561198050319619,"connected_time":3407000000000,"state":"active","ping":160},{"user_id":89,"name":"luxin","steam_id":76561198399383047,"connected_time":4507000000000,"state":"active","ping":55},{"user_id":92,"name":"aaaxel","steam_id":76561198137430598,"connected_time":4023000000000,"state":"active","ping":75},{"user_id":139,"name":"otw way to mars off the bars","steam_id":76561199085974120,"connected_time":202000000000,"state":"active","ping":71},{"user_id":137,"name":"Mr_MagicMan","steam_id":76561198372713689,"connected_time":402000000000,"state":"active","ping":79},{"user_id":99,"name":"allahsdroptop (Bag/Chaser)","steam_id":76561198133195238,"connected_time":3662000000000,"state":"active","ping":109},{"user_id":132,"name":"Q","steam_id":76561198114290204,"connected_time":818000000000,"state":"active","ping":74}]},{"server_id":104,"name":"Uncletopia | Atlanta | 2 | All Maps","name_short":"atl-2","host":"atl-1.us.uncletopia.com","port":27025,"enabled":true,"region":"us-east","cc":"us","latitude":33.753746,"longitude":-84.38633,"reserved":0,"last_update":"0001-01-01T00:00:00Z","name_a2s":"Uncletopia | Atlanta | 2 | All Maps","protocol":17,"map":"koth_cascade","folder":"tf","game":"Team Fortress","app_id":440,"player_count":0,"max_players":24,"Bots":0,"server_type":"Dedicated","server_os":"Linux","password":true,"vac":true,"version":"7961495","steam_id":85568392924469983,"keywords":["cp","nocrits","nodmgspread","uncletopia"],"game_id":440,"stv_port":27026,"stv_name":"Uncletopia | Atlanta | 2 | All Maps | STV","players":null},{"server_id":400,"name":"Uncletopia | Atlanta | 3 | Stopwatch","name_short":"atl-3","host":"atl-1.us.uncletopia.com","port":27035,"enabled":true,"region":"us-east","cc":"us","latitude":33.753746,"longitude":-84.38633,"reserved":0,"last_update":"0001-01-01T00:00:00Z","name_a2s":"Uncletopia | Atlanta | 3 | Stopwatch","protocol":17,"map":"koth_highpass","folder":"tf","game":"Team Fortress","app_id":440,"player_count":0,"max_players":24,"Bots":0,"server_type":"Dedicated","server_os":"Linux","password":true,"vac":true,"version":"7961495","steam_id":85568392924515187,"keywords":["cp","nocrits","nodmgspread","uncletopia"],"game_id":440,"stv_port":27036,"stv_name":"Uncletopia | Atlanta | 3 | Stopwatch | STV","players":null},{"server_id":401,"name":"Uncletopia | Atlanta | 4 | Community","name_short":"atl-4","host":"atl-1.us.uncletopia.com","port":27045,"enabled":true,"region":"us-east","cc":"us","latitude":33.753746,"longitude":-84.38633,"reserved":0,"last_update":"0001-01-01T00:00:00Z","name_a2s":"Uncletopia | Atlanta | 4 | Community","protocol":17,"map":"workshop/koth_product_final.ugc454272353","folder":"tf","game":"Team Fortress","app_id":440,"player_count":0,"max_players":24,"Bots":0,"server_type":"Dedicated","server_os":"Linux","password":true,"vac":true,"version":"7961495","steam_id":85568392924515188,"keywords":["cp","nocrits","nodmgspread","uncletopia"],"game_id":440,"stv_port":27046,"stv_name":"Uncletopia | Atlanta | 4 | Community | STV","players":null},{"server_id":2,"name":"Uncletopia | Chicago | 1 | All Maps","name_short":"chi-1","host":"chi-1.us.uncletopia.com","port":27015,"enabled":true,"region":"us-central","cc":"us","latitude":41.881832,"longitude":-87.62318,"reserved":0,"last_update":"0001-01-01T00:00:00Z","name_a2s":"Uncletopia | Chicago | 1 | All Maps","protocol":17,"map":"pl_borneo","folder":"tf","game":"Team Fortress","app_id":440,"player_count":24,"max_players":24,"Bots":0,"server_type":"Dedicated","server_os":"Linux","password":true,"vac":true,"version":"7961495","steam_id":85568392924469984,"keywords":["nocrits","nodmgspread","payload","uncletopia"],"game_id":440,"stv_port":27016,"stv_name":"Uncletopia | Chicago | 1 | All Maps | STV","players":[{"user_id":96,"name":"Homocide","steam_id":76561199500265332,"connected_time":3142000000000,"state":"active","ping":67},{"user_id":128,"name":"kite","steam_id":76561198346516392,"connected_time":163000000000,"state":"active","ping":73},{"user_id":100,"name":"cbv sdfdsxsxdqs","steam_id":76561198304661367,"connected_time":3107000000000,"state":"active","ping":68},{"user_id":112,"name":"BigBattleToaster","steam_id":76561199087551431,"connected_time":2226000000000,"state":"active","ping":80},{"user_id":53,"name":"JakeK","steam_id":76561198149375504,"connected_time":6763000000000,"state":"active","ping":64},{"user_id":123,"name":"Zenabie","steam_id":76561198088372680,"connected_time":800000000000,"state":"active","ping":87},{"user_id":114,"name":"Willham","steam_id":76561198065755781,"connected_time":1430000000000,"state":"active","ping":81},{"user_id":129,"name":"Milkmur","steam_id":76561198210043821,"connected_time":142000000000,"state":"active","ping":61},{"user_id":92,"name":"twix #IMSORRYGRAPEJUCE","steam_id":76561198040912048,"connected_time":3520000000000,"state":"active","ping":46},{"user_id":117,"name":"Scoot the Burbs","steam_id":76561198079507179,"connected_time":1407000000000,"state":"active","ping":78},{"user_id":98,"name":"the silly","steam_id":76561198850632709,"connected_time":3137000000000,"state":"active","ping":82},{"user_id":121,"name":"fatrob","steam_id":76561198045647847,"connected_time":810000000000,"state":"active","ping":95},{"user_id":59,"name":"PyroTechno","steam_id":76561198060929872,"connected_time":6304000000000,"state":"active","ping":63},{"user_id":113,"name":".JIFF","steam_id":76561198045181760,"connected_time":1461000000000,"state":"active","ping":61},{"user_id":111,"name":"Chode Mode","steam_id":76561198353840477,"connected_time":2595000000000,"state":"active","ping":51},{"user_id":119,"name":"Rornir","steam_id":76561198081829615,"connected_time":1340000000000,"state":"active","ping":40},{"user_id":86,"name":"That Darned Imp","steam_id":76561198854501307,"connected_time":4625000000000,"state":"active","ping":62},{"user_id":52,"name":"Dragus","steam_id":76561198032967285,"connected_time":6789000000000,"state":"active","ping":46},{"user_id":103,"name":"Yoshimelon","steam_id":76561198253054325,"connected_time":3075000000000,"state":"active","ping":64},{"user_id":122,"name":"Sideburns","steam_id":76561198020478577,"connected_time":805000000000,"state":"active","ping":87},{"user_id":76,"name":"Kavult","steam_id":76561198354865776,"connected_time":5138000000000,"state":"active","ping":91},{"user_id":127,"name":"Siz","steam_id":76561198072962154,"connected_time":548000000000,"state":"active","ping":64},{"user_id":125,"name":"techchase rorschach test","steam_id":76561198408159536,"connected_time":788000000000,"state":"active","ping":51},{"user_id":116,"name":"Lia_Rein TTV","steam_id":76561198151569597,"connected_time":1427000000000,"state":"active","ping":147}]},{"server_id":106,"name":"Uncletopia | Chicago | 2 | All Maps","name_short":"chi-2","host":"chi-1.us.uncletopia.com","port":27025,"enabled":true,"region":"us-central","cc":"us","latitude":41.881832,"longitude":-87.62318,"reserved":0,"last_update":"0001-01-01T00:00:00Z","name_a2s":"Uncletopia | Chicago | 2 | All Maps","protocol":17,"map":"pl_badwater","folder":"tf","game":"Team Fortress","app_id":440,"player_count":23,"max_players":24,"Bots":0,"server_type":"Dedicated","server_os":"Linux","password":true,"vac":true,"version":"7961495","steam_id":85568392924469985,"keywords":["nocrits","nodmgspread","payload","uncletopia"],"game_id":440,"stv_port":27026,"stv_name":"Uncletopia | Chicago | 2 | All Maps | STV","players":[{"user_id":12,"name":"custodian","steam_id":76561198058793778,"connected_time":5765000000000,"state":"active","ping":71},{"user_id":86,"name":"clavin","steam_id":76561198069380992,"connected_time":142000000000,"state":"active","ping":76},{"user_id":9,"name":"Zeebop","steam_id":76561198148332988,"connected_time":6212000000000,"state":"active","ping":50},{"user_id":77,"name":"Christian Bonnie","steam_id":76561199194702127,"connected_time":1189000000000,"state":"active","ping":74},{"user_id":58,"name":"peace dog","steam_id":76561198267988522,"connected_time":2211000000000,"state":"active","ping":76},{"user_id":17,"name":"mag","steam_id":76561198004065704,"connected_time":4473000000000,"state":"active","ping":93},{"user_id":55,"name":"Clean Lines","steam_id":76561197960691518,"connected_time":2504000000000,"state":"active","ping":50},{"user_id":59,"name":"On The Bright Side...","steam_id":76561198168785883,"connected_time":2202000000000,"state":"active","ping":44},{"user_id":81,"name":"Sunvaar","steam_id":76561198852679851,"connected_time":999000000000,"state":"active","ping":65},{"user_id":27,"name":"magickxanadu","steam_id":76561199117360103,"connected_time":3754000000000,"state":"active","ping":82},{"user_id":60,"name":"al.vasiglev","steam_id":76561198307359545,"connected_time":2196000000000,"state":"active","ping":112},{"user_id":82,"name":"lukamine","steam_id":76561198166827208,"connected_time":919000000000,"state":"active","ping":106},{"user_id":83,"name":"loscemo","steam_id":76561197994884609,"connected_time":213000000000,"state":"active","ping":70},{"user_id":61,"name":"chiswola","steam_id":76561198046920142,"connected_time":2194000000000,"state":"active","ping":72},{"user_id":31,"name":"helper npc","steam_id":76561198801207748,"connected_time":3667000000000,"state":"active","ping":62},{"user_id":85,"name":"leonardo doujinshi","steam_id":76561198025810326,"connected_time":176000000000,"state":"active","ping":75},{"user_id":71,"name":"WhoAteMyDonut1","steam_id":76561198353757530,"connected_time":1505000000000,"state":"active","ping":98},{"user_id":84,"name":"Fentanyl Frank","steam_id":76561198225910596,"connected_time":193000000000,"state":"active","ping":58},{"user_id":78,"name":"BB Lorexav","steam_id":76561198207565988,"connected_time":1184000000000,"state":"active","ping":76},{"user_id":65,"name":"twizted","steam_id":76561197960407274,"connected_time":2116000000000,"state":"active","ping":68},{"user_id":40,"name":"Dragoon","steam_id":76561198143785423,"connected_time":3559000000000,"state":"active","ping":89},{"user_id":66,"name":"Kasane","steam_id":76561198209006780,"connected_time":2112000000000,"state":"active","ping":75},{"user_id":51,"name":"bagel cream cheese","steam_id":76561198017954785,"connected_time":2796000000000,"state":"active","ping":77}]},{"server_id":402,"name":"Uncletopia | Chicago | 3 | All Maps","name_short":"chi-3","host":"chi-1.us.uncletopia.com","port":27035,"enabled":true,"region":"us-central","cc":"us","latitude":41.881832,"longitude":-87.62318,"reserved":0,"last_update":"0001-01-01T00:00:00Z","name_a2s":"Uncletopia | Chicago | 3 | All Maps","protocol":17,"map":"koth_lakeside_final","folder":"tf","game":"Team Fortress","app_id":440,"player_count":24,"max_players":24,"Bots":0,"server_type":"Dedicated","server_os":"Linux","password":true,"vac":true,"version":"7961495","steam_id":85568392924515191,"keywords":["cp","nocrits","nodmgspread","uncletopia"],"game_id":440,"stv_port":27036,"stv_name":"Uncletopia | Chicago | 3 | All Maps | STV","players":[{"user_id":193,"name":"lucky","steam_id":76561198323426623,"connected_time":6794000000000,"state":"active","ping":96},{"user_id":285,"name":"ethan","steam_id":76561198171232129,"connected_time":871000000000,"state":"active","ping":71},{"user_id":260,"name":"Hertz","steam_id":76561198310927351,"connected_time":2433000000000,"state":"active","ping":142},{"user_id":290,"name":"Reisen","steam_id":76561197968832019,"connected_time":701000000000,"state":"active","ping":55},{"user_id":292,"name":"Camfour","steam_id":76561198083090140,"connected_time":685000000000,"state":"active","ping":101},{"user_id":295,"name":"Xaidriel","steam_id":76561198060524293,"connected_time":581000000000,"state":"active","ping":66},{"user_id":288,"name":"Militant Pacifist","steam_id":76561198290691432,"connected_time":737000000000,"state":"active","ping":77},{"user_id":268,"name":"Funke Monke","steam_id":76561198079440976,"connected_time":1894000000000,"state":"active","ping":73},{"user_id":279,"name":"fuckterry","steam_id":76561198271957738,"connected_time":1206000000000,"state":"active","ping":61},{"user_id":289,"name":"Squigly","steam_id":76561198084811625,"connected_time":719000000000,"state":"active","ping":73},{"user_id":275,"name":"Shrimp Fried Rice","steam_id":76561198247688228,"connected_time":1415000000000,"state":"active","ping":99},{"user_id":274,"name":"eryn üó∫","steam_id":76561198004433070,"connected_time":1559000000000,"state":"active","ping":85},{"user_id":291,"name":"my name jeff","steam_id":76561198179816898,"connected_time":697000000000,"state":"active","ping":81},{"user_id":304,"name":"..!","steam_id":76561198882483441,"connected_time":265000000000,"state":"active","ping":79},{"user_id":236,"name":"MaeDay","steam_id":76561198332344135,"connected_time":4028000000000,"state":"active","ping":62},{"user_id":272,"name":"yaldabaoth","steam_id":76561198084606869,"connected_time":1795000000000,"state":"active","ping":43},{"user_id":283,"name":"4 life","steam_id":76561198175961598,"connected_time":944000000000,"state":"active","ping":115},{"user_id":300,"name":"deep fried water","steam_id":76561198077272494,"connected_time":511000000000,"state":"active","ping":47},{"user_id":259,"name":"joyeuxnoelle","steam_id":76561198062423120,"connected_time":2453000000000,"state":"active","ping":80},{"user_id":305,"name":"Gibs Degrossi","steam_id":76561198066152609,"connected_time":15000000000,"state":"active","ping":51},{"user_id":301,"name":"Addy \u003c3","steam_id":76561198045819723,"connected_time":409000000000,"state":"active","ping":68},{"user_id":245,"name":"fasterbum","steam_id":76561198142577444,"connected_time":3460000000000,"state":"active","ping":52},{"user_id":303,"name":"Nathontin","steam_id":76561198263545504,"connected_time":400000000000,"state":"active","ping":60},{"user_id":299,"name":"Sunny","steam_id":76561198125892600,"connected_time":528000000000,"state":"active","ping":64}]},{"server_id":403,"name":"Uncletopia | Chicago | 4 | All Maps","name_short":"chi-4","host":"chi-1.us.uncletopia.com","port":27045,"enabled":true,"region":"us-central","cc":"us","latitude":41.881832,"longitude":-87.62318,"reserved":0,"last_update":"0001-01-01T00:00:00Z","name_a2s":"Uncletopia | Chicago | 4 | All Maps","protocol":17,"map":"cp_dustbowl","folder":"tf","game":"Team Fortress","app_id":440,"player_count":23,"max_players":24,"Bots":0,"server_type":"Dedicated","server_os":"Linux","password":true,"vac":true,"version":"7961495","steam_id":85568392924515193,"keywords":["cp","nocrits","nodmgspread","uncletopia"],"game_id":440,"stv_port":27046,"stv_name":"Uncletopia | Chicago | 4 | All Maps | STV","players":[{"user_id":8,"name":"consumer of bonk","steam_id":76561199041402389,"connected_time":2863000000000,"state":"active","ping":80},{"user_id":7,"name":"Ice","steam_id":76561198045076794,"connected_time":2884000000000,"state":"active","ping":56},{"user_id":9,"name":"Bella","steam_id":76561198373522196,"connected_time":1589000000000,"state":"active","ping":76},{"user_id":10,"name":"NikoOS (NO SOUND)","steam_id":76561198180020521,"connected_time":1071000000000,"state":"active","ping":105},{"user_id":11,"name":"sloth (be nice im cringe)","steam_id":76561198047098172,"connected_time":904000000000,"state":"active","ping":63},{"user_id":14,"name":"literally me fr fr","steam_id":76561198054390505,"connected_time":322000000000,"state":"active","ping":55},{"user_id":13,"name":"Necron Cell","steam_id":76561198071744324,"connected_time":874000000000,"state":"active","ping":65},{"user_id":15,"name":"Cosmic Torgue","steam_id":76561198828724945,"connected_time":316000000000,"state":"active","ping":83},{"user_id":23,"name":"e doctor","steam_id":76561198081851446,"connected_time":100000000000,"state":"active","ping":48},{"user_id":17,"name":"b3hem0thnymph","steam_id":76561199093236213,"connected_time":295000000000,"state":"active","ping":94},{"user_id":18,"name":"Glizzy Game","steam_id":76561198172922743,"connected_time":288000000000,"state":"active","ping":93},{"user_id":19,"name":"Pubby Do","steam_id":76561198072066185,"connected_time":272000000000,"state":"active","ping":71},{"user_id":33,"name":"Berb","steam_id":76561198193911899,"connected_time":18000000000,"state":"active","ping":114},{"user_id":22,"name":"R{FITH}‚Ñ¢ Z4LTte","steam_id":76561198283258068,"connected_time":147000000000,"state":"active","ping":63},{"user_id":24,"name":"TheMadHattah","steam_id":76561198066587266,"connected_time":95000000000,"state":"active","ping":75},{"user_id":25,"name":"Buying Gf","steam_id":76561198085546644,"connected_time":94000000000,"state":"active","ping":36},{"user_id":26,"name":"serious","steam_id":76561198040671133,"connected_time":93000000000,"state":"active","ping":58},{"user_id":27,"name":"lego star wars on the psp","steam_id":76561198148014773,"connected_time":86000000000,"state":"active","ping":68},{"user_id":28,"name":"mkl","steam_id":76561197986401685,"connected_time":76000000000,"state":"active","ping":65},{"user_id":29,"name":"harry","steam_id":76561198365118514,"connected_time":65000000000,"state":"active","ping":65},{"user_id":30,"name":"Dustin Bones","steam_id":76561198019314474,"connected_time":60000000000,"state":"active","ping":75},{"user_id":31,"name":"nines","steam_id":76561198078992548,"connected_time":57000000000,"state":"active","ping":75},{"user_id":32,"name":"Tag","steam_id":76561199138738952,"connected_time":49000000000,"state":"active","ping":74}]},{"server_id":36,"name":"Uncletopia | Chicago | 5 | All Maps","name_short":"chi-5","host":"chi-2.us.uncletopia.com","port":27015,"enabled":true,"region":"us-central","cc":"us","latitude":41.881832,"longitude":-87.62318,"reserved":0,"last_update":"0001-01-01T00:00:00Z","name_a2s":"Uncletopia | Chicago | 5 | All Maps","protocol":17,"map":"koth_viaduct","folder":"tf","game":"Team Fortress","app_id":440,"player_count":0,"max_players":24,"Bots":0,"server_type":"Dedicated","server_os":"Linux","password":true,"vac":true,"version":"7961495","steam_id":85568392924866362,"keywords":["cp","nocrits","nodmgspread","uncletopia"],"game_id":440,"stv_port":27016,"stv_name":"Uncletopia | Chicago | 5 | All Maps | STV","players":null},{"server_id":37,"name":"Uncletopia | Chicago | 6 | All Maps","name_short":"chi-6","host":"chi-2.us.uncletopia.com","port":27025,"enabled":true,"region":"us-central","cc":"us","latitude":41.881832,"longitude":-87.62318,"reserved":0,"last_update":"0001-01-01T00:00:00Z","name_a2s":"Uncletopia | Chicago | 6 | All Maps","protocol":17,"map":"pl_frontier_final","folder":"tf","game":"Team Fortress","app_id":440,"player_count":0,"max_players":24,"Bots":0,"server_type":"Dedicated","server_os":"Linux","password":true,"vac":true,"version":"7961495","steam_id":85568392924866363,"keywords":["nocrits","nodmgspread","payload","uncletopia"],"game_id":440,"stv_port":27026,"stv_name":"Uncletopia | Chicago | 6 | All Maps | STV","players":null},{"server_id":38,"name":"Uncletopia | Chicago | 7 | Stopwatch","name_short":"chi-7","host":"chi-2.us.uncletopia.com","port":27035,"enabled":true,"region":"us-central","cc":"us","latitude":41.881832,"longitude":-87.62318,"reserved":0,"last_update":"0001-01-01T00:00:00Z","name_a2s":"Uncletopia | Chicago | 7 | Stopwatch","protocol":17,"map":"pl_badwater","folder":"tf","game":"Team Fortress","app_id":440,"player_count":0,"max_players":24,"Bots":0,"server_type":"Dedicated","server_os":"Linux","password":true,"vac":true,"version":"7961495","steam_id":85568392924866364,"keywords":["nocrits","nodmgspread","payload","uncletopia"],"game_id":440,"stv_port":27036,"stv_name":"Uncletopia | Chicago | 7 | Stopwatch | STV","players":null},{"server_id":39,"name":"Uncletopia | Chicago | 8 | Community","name_short":"chi-8","host":"chi-2.us.uncletopia.com","port":27045,"enabled":true,"region":"us-central","cc":"us","latitude":41.881832,"longitude":-87.62318,"reserved":0,"last_update":"0001-01-01T00:00:00Z","name_a2s":"Uncletopia | Chicago | 8 | Community","protocol":17,"map":"pl_pier","folder":"tf","game":"Team Fortress","app_id":440,"player_count":0,"max_players":24,"Bots":0,"server_type":"Dedicated","server_os":"Linux","password":true,"vac":true,"version":"7961495","steam_id":85568392924866365,"keywords":["nocrits","nodmgspread","payload","uncletopia"],"game_id":440,"stv_port":27046,"stv_name":"Uncletopia | Chicago | 8 | Community | STV","players":null},{"server_id":8,"name":"Uncletopia | Dallas | 1 | All Maps","name_short":"dal-1","host":"dal-1.us.uncletopia.com","port":27015,"enabled":true,"region":"us-central","cc":"us","latitude":32.779167,"longitude":-96.80889,"reserved":0,"last_update":"0001-01-01T00:00:00Z","name_a2s":"Uncletopia | Dallas | 1 | All Maps","protocol":17,"map":"pl_pier","folder":"tf","game":"Team Fortress","app_id":440,"player_count":24,"max_players":24,"Bots":0,"server_type":"Dedicated","server_os":"Linux","password":true,"vac":true,"version":"7961495","steam_id":85568392924469986,"keywords":["nocrits","nodmgspread","payload","uncletopia"],"game_id":440,"stv_port":27016,"stv_name":"Uncletopia | Dallas | 1 | All Maps | STV","players":[{"user_id":112,"name":"Hanzo P.C.H.U","steam_id":76561199130917163,"connected_time":504000000000,"state":"active","ping":44},{"user_id":91,"name":"CoffeePasta","steam_id":76561198969890522,"connected_time":1138000000000,"state":"active","ping":77},{"user_id":101,"name":"Surly Joe","steam_id":76561199150833796,"connected_time":1065000000000,"state":"active","ping":94},{"user_id":98,"name":"HumbDoe","steam_id":76561198065556553,"connected_time":1092000000000,"state":"active","ping":88},{"user_id":109,"name":"benny worm","steam_id":76561198163238434,"connected_time":594000000000,"state":"active","ping":96},{"user_id":47,"name":"Huloon","steam_id":76561198070837568,"connected_time":5103000000000,"state":"active","ping":75},{"user_id":99,"name":"SHADOW","steam_id":76561198207768148,"connected_time":1091000000000,"state":"active","ping":101},{"user_id":110,"name":"HUMBY","steam_id":76561198065045867,"connected_time":547000000000,"state":"active","ping":75},{"user_id":95,"name":"brains","steam_id":76561198197388678,"connected_time":1117000000000,"state":"active","ping":59},{"user_id":31,"name":"Leftover Soup","steam_id":76561198112816872,"connected_time":6108000000000,"state":"active","ping":128},{"user_id":77,"name":"Beantama","steam_id":76561198986811476,"connected_time":3060000000000,"state":"active","ping":69},{"user_id":117,"name":"Discourse","steam_id":76561198984286678,"connected_time":302000000000,"state":"active","ping":83},{"user_id":118,"name":"Ôº≥ÔΩîÔΩèÔΩíÔΩâÔΩÖÔΩì","steam_id":76561198080187904,"connected_time":189000000000,"state":"active","ping":74},{"user_id":84,"name":"hforce11","steam_id":76561198087647130,"connected_time":2209000000000,"state":"active","ping":76},{"user_id":102,"name":"strive","steam_id":76561199020439576,"connected_time":1060000000000,"state":"active","ping":103},{"user_id":87,"name":"Sweet Tooth","steam_id":76561198830158092,"connected_time":2101000000000,"state":"active","ping":85},{"user_id":107,"name":"Momiji Pop!","steam_id":76561198039869773,"connected_time":832000000000,"state":"active","ping":76},{"user_id":115,"name":"tretts","steam_id":76561199138150678,"connected_time":467000000000,"state":"active","ping":79},{"user_id":83,"name":"Jetstream Sam","steam_id":76561198842076296,"connected_time":2468000000000,"state":"active","ping":48},{"user_id":104,"name":"The $$60,000,000,000 Man","steam_id":76561198110832624,"connected_time":1054000000000,"state":"active","ping":64},{"user_id":56,"name":"Rob","steam_id":76561199187786660,"connected_time":4773000000000,"state":"active","ping":59},{"user_id":116,"name":"mdos","steam_id":76561198332133944,"connected_time":461000000000,"state":"active","ping":87},{"user_id":92,"name":"Buckethead","steam_id":76561198210181296,"connected_time":1138000000000,"state":"active","ping":86},{"user_id":86,"name":"Snivy64","steam_id":76561198423445376,"connected_time":2205000000000,"state":"active","ping":70}]},{"server_id":108,"name":"Uncletopia | Dallas | 2 | All Maps","name_short":"dal-2","host":"dal-1.us.uncletopia.com","port":27025,"enabled":true,"region":"us-central","cc":"us","latitude":32.779167,"longitude":-96.80889,"reserved":0,"last_update":"0001-01-01T00:00:00Z","name_a2s":"Uncletopia | Dallas | 2 | All Maps","protocol":17,"map":"cp_dustbowl","folder":"tf","game":"Team Fortress","app_id":440,"player_count":0,"max_players":24,"Bots":0,"server_type":"Dedicated","server_os":"Linux","password":true,"vac":true,"version":"7961495","steam_id":85568392924469988,"keywords":["cp","nocrits","nodmgspread","uncletopia"],"game_id":440,"stv_port":27026,"stv_name":"Uncletopia | Dallas | 2 | All Maps | STV","players":null},{"server_id":404,"name":"Uncletopia | Dallas | 3 | All Maps","name_short":"dal-3","host":"dal-1.us.uncletopia.com","port":27035,"enabled":true,"region":"us-central","cc":"us","latitude":32.779167,"longitude":-96.80889,"reserved":0,"last_update":"0001-01-01T00:00:00Z","name_a2s":"Uncletopia | Dallas | 3 | All Maps","protocol":17,"map":"cp_sunshine","folder":"tf","game":"Team Fortress","app_id":440,"player_count":0,"max_players":24,"Bots":0,"server_type":"Dedicated","server_os":"Linux","password":true,"vac":true,"version":"7961495","steam_id":85568392924515219,"keywords":["cp","nocrits","nodmgspread","uncletopia"],"game_id":440,"stv_port":27036,"stv_name":"Uncletopia | Dallas | 3 | All Maps | STV","players":null},{"server_id":405,"name":"Uncletopia | Dallas | 4 | Community","name_short":"dal-4","host":"dal-1.us.uncletopia.com","port":27045,"enabled":true,"region":"us-central","cc":"us","latitude":32.779167,"longitude":-96.80889,"reserved":0,"last_update":"0001-01-01T00:00:00Z","name_a2s":"Uncletopia | Dallas | 4 | Community","protocol":17,"map":"pl_pier","folder":"tf","game":"Team Fortress","app_id":440,"player_count":0,"max_players":24,"Bots":0,"server_type":"Dedicated","server_os":"Linux","password":true,"vac":true,"version":"7961495","steam_id":85568392924515220,"keywords":["nocrits","nodmgspread","payload","uncletopia"],"game_id":440,"stv_port":27046,"stv_name":"Uncletopia | Dallas | 4 | Community | STV","players":null},{"server_id":5,"name":"Uncletopia | Frankfurt | 1 | All Maps","name_short":"frk-1","host":"frk-1.de.uncletopia.com","port":27015,"enabled":true,"region":"eu","cc":"de","latitude":50.110924,"longitude":8.682127,"reserved":0,"last_update":"0001-01-01T00:00:00Z","name_a2s":"Uncletopia | Frankfurt | 1 | All Maps","protocol":17,"map":"cp_steel","folder":"tf","game":"Team Fortress","app_id":440,"player_count":15,"max_players":24,"Bots":0,"server_type":"Dedicated","server_os":"Linux","password":true,"vac":true,"version":"7961495","steam_id":85568392924469989,"keywords":["cp","nocrits","nodmgspread","uncletopia"],"game_id":440,"stv_port":27016,"stv_name":"Uncletopia | Frankfurt | 1 | All Maps | STV","players":[{"user_id":246,"name":"kastanomata","steam_id":76561198271832763,"connected_time":3253000000000,"state":"active","ping":75},{"user_id":264,"name":"mp1mp2mp3","steam_id":76561198088967665,"connected_time":1365000000000,"state":"active","ping":106},{"user_id":269,"name":"skippy","steam_id":76561198171958773,"connected_time":121000000000,"state":"active","ping":56},{"user_id":274,"name":"The Storm That Is Approaching","steam_id":76561198982155864,"connected_time":3000000000,"state":"spawning","ping":56},{"user_id":272,"name":"say gex","steam_id":76561198265479349,"connected_time":82000000000,"state":"active","ping":60},{"user_id":270,"name":"ais","steam_id":76561198040543390,"connected_time":121000000000,"state":"active","ping":75},{"user_id":273,"name":"qualiTY","steam_id":76561198011909737,"connected_time":75000000000,"state":"active","ping":54},{"user_id":174,"name":"neJ","steam_id":76561198003397488,"connected_time":7674000000000,"state":"active","ping":73},{"user_id":261,"name":"hasky","steam_id":76561197986052798,"connected_time":1507000000000,"state":"active","ping":86},{"user_id":243,"name":"LordTrap.exe","steam_id":76561198318089716,"connected_time":3286000000000,"state":"active","ping":75},{"user_id":268,"name":"shoras","steam_id":76561198019680159,"connected_time":176000000000,"state":"active","ping":78},{"user_id":262,"name":"Slowest hands in the west","steam_id":76561199286764992,"connected_time":1504000000000,"state":"active","ping":76},{"user_id":263,"name":"Jojczak","steam_id":76561198134750964,"connected_time":1470000000000,"state":"active","ping":84},{"user_id":255,"name":"Arnas445","steam_id":76561198148377210,"connected_time":1976000000000,"state":"active","ping":71},{"user_id":233,"name":"Elsuedi","steam_id":76561198074722832,"connected_time":4027000000000,"state":"active","ping":55}]},{"server_id":110,"name":"Uncletopia | Frankfurt | 2 | All Maps","name_short":"frk-2","host":"frk-1.de.uncletopia.com","port":27025,"enabled":true,"region":"eu","cc":"de","latitude":50.110924,"longitude":8.682127,"reserved":0,"last_update":"0001-01-01T00:00:00Z","name_a2s":"Uncletopia | Frankfurt | 2 | All Maps","protocol":17,"map":"cp_dustbowl","folder":"tf","game":"Team Fortress","app_id":440,"player_count":24,"max_players":24,"Bots":0,"server_type":"Dedicated","server_os":"Linux","password":true,"vac":true,"version":"7961495","steam_id":85568392924469990,"keywords":["cp","nocrits","nodmgspread","uncletopia"],"game_id":440,"stv_port":27026,"stv_name":"Uncletopia | Frankfurt | 2 | All Maps | STV","players":[{"user_id":436,"name":"mhib","steam_id":76561198048037379,"connected_time":1259000000000,"state":"active","ping":68},{"user_id":415,"name":"Rock..","steam_id":76561198004641963,"connected_time":2873000000000,"state":"active","ping":79},{"user_id":404,"name":"we do a little trolling","steam_id":76561198980165139,"connected_time":3699000000000,"state":"active","ping":55},{"user_id":451,"name":"stonebum","steam_id":76561198057004606,"connected_time":315000000000,"state":"active","ping":51},{"user_id":426,"name":"Polarite","steam_id":76561198100123498,"connected_time":2360000000000,"state":"active","ping":89},{"user_id":336,"name":"iShockwave","steam_id":76561198404037424,"connected_time":7408000000000,"state":"active","ping":93},{"user_id":437,"name":"f0x","steam_id":76561198072921704,"connected_time":1245000000000,"state":"active","ping":46},{"user_id":425,"name":"Escobar","steam_id":76561198089785078,"connected_time":2411000000000,"state":"active","ping":112},{"user_id":438,"name":"Deeopp","steam_id":76561198313418623,"connected_time":1217000000000,"state":"active","ping":77},{"user_id":416,"name":"Klikkxy","steam_id":76561199319171770,"connected_time":2866000000000,"state":"active","ping":72},{"user_id":453,"name":"meow","steam_id":76561198087215038,"connected_time":289000000000,"state":"active","ping":82},{"user_id":439,"name":"Favi","steam_id":76561198013236935,"connected_time":1210000000000,"state":"active","ping":77},{"user_id":446,"name":"Pepegi","steam_id":76561198001230113,"connected_time":873000000000,"state":"active","ping":79},{"user_id":406,"name":"void","steam_id":76561198035831433,"connected_time":3495000000000,"state":"active","ping":74},{"user_id":357,"name":"Arsonist","steam_id":76561199087953833,"connected_time":6235000000000,"state":"active","ping":111},{"user_id":452,"name":"‚ù§Ô∏éWarMole‚ù§","steam_id":76561198104248760,"connected_time":298000000000,"state":"active","ping":64},{"user_id":440,"name":"Salih","steam_id":76561198287934839,"connected_time":1169000000000,"state":"active","ping":57},{"user_id":398,"name":"LiptonIceTea","steam_id":76561198042418582,"connected_time":4194000000000,"state":"active","ping":84},{"user_id":434,"name":"Life goes on","steam_id":76561198103978102,"connected_time":1684000000000,"state":"active","ping":84},{"user_id":435,"name":"Maxin","steam_id":76561197999923364,"connected_time":1480000000000,"state":"active","ping":74},{"user_id":427,"name":"ayu","steam_id":76561198871342329,"connected_time":2355000000000,"state":"active","ping":112},{"user_id":441,"name":"Unemployedcamel","steam_id":76561198103908668,"connected_time":1153000000000,"state":"active","ping":81},{"user_id":448,"name":"GrzMik","steam_id":76561198061951968,"connected_time":730000000000,"state":"active","ping":88},{"user_id":450,"name":"Killroywashere","steam_id":76561198169854979,"connected_time":550000000000,"state":"active","ping":94}]},{"server_id":308,"name":"Uncletopia | Frankfurt | 3 | All Maps","name_short":"frk-3","host":"frk-1.de.uncletopia.com","port":27035,"enabled":true,"region":"eu","cc":"de","latitude":50.110924,"longitude":8.682127,"reserved":0,"last_update":"0001-01-01T00:00:00Z","name_a2s":"Uncletopia | Frankfurt | 3 | All Maps","protocol":17,"map":"pl_borneo","folder":"tf","game":"Team Fortress","app_id":440,"player_count":24,"max_players":24,"Bots":0,"server_type":"Dedicated","server_os":"Linux","password":true,"vac":true,"version":"7961495","steam_id":85568392924504274,"keywords":["nocrits","nodmgspread","payload","uncletopia"],"game_id":440,"stv_port":27036,"stv_name":"Uncletopia | Frankfurt | 3 | All Maps | STV","players":[{"user_id":463,"name":"anders McFlanders","steam_id":76561198022811995,"connected_time":1885000000000,"state":"active","ping":64},{"user_id":456,"name":"Ãø","steam_id":76561198021473545,"connected_time":2287000000000,"state":"active","ping":79},{"user_id":464,"name":"Monkey","steam_id":76561199008411791,"connected_time":1882000000000,"state":"active","ping":56},{"user_id":492,"name":"Gen","steam_id":76561198021775885,"connected_time":152000000000,"state":"active","ping":49},{"user_id":430,"name":"jacio","steam_id":76561199491964000,"connected_time":4298000000000,"state":"active","ping":66},{"user_id":475,"name":"Bobirulez","steam_id":76561198009125458,"connected_time":1464000000000,"state":"active","ping":85},{"user_id":494,"name":"I919I","steam_id":76561198141049923,"connected_time":83000000000,"state":"active","ping":72},{"user_id":481,"name":"Schro","steam_id":76561198963378933,"connected_time":818000000000,"state":"active","ping":50},{"user_id":473,"name":"xavier","steam_id":76561198076494034,"connected_time":1719000000000,"state":"active","ping":53},{"user_id":491,"name":"putrefied meat","steam_id":76561198280507478,"connected_time":396000000000,"state":"active","ping":60},{"user_id":454,"name":"KFD","steam_id":76561198157183003,"connected_time":2510000000000,"state":"active","ping":82},{"user_id":437,"name":"Dr.Blushi","steam_id":76561198043829926,"connected_time":4008000000000,"state":"active","ping":122},{"user_id":484,"name":"katten","steam_id":76561198163615254,"connected_time":709000000000,"state":"active","ping":60},{"user_id":467,"name":"Bajas","steam_id":76561198179339326,"connected_time":1862000000000,"state":"active","ping":75},{"user_id":474,"name":"Pilaarius","steam_id":76561198120273212,"connected_time":1706000000000,"state":"active","ping":96},{"user_id":476,"name":"Mr. Awki","steam_id":76561198061676496,"connected_time":1349000000000,"state":"active","ping":69},{"user_id":482,"name":"agent youppii","steam_id":76561198055264447,"connected_time":732000000000,"state":"active","ping":74},{"user_id":470,"name":"BabyYodaIsMySoda","steam_id":76561198321846861,"connected_time":1819000000000,"state":"active","ping":80},{"user_id":478,"name":"clems_05","steam_id":76561198037941676,"connected_time":1029000000000,"state":"active","ping":80},{"user_id":435,"name":"Spobs","steam_id":76561198090362809,"connected_time":4110000000000,"state":"active","ping":89},{"user_id":440,"name":"‡ºº ‡∫àŸÑÕú‡∫à‡ºΩ","steam_id":76561198027166144,"connected_time":4005000000000,"state":"active","ping":80},{"user_id":479,"name":"Zeliow","steam_id":76561198013261349,"connected_time":996000000000,"state":"active","ping":53},{"user_id":487,"name":"vomitlust","steam_id":76561197994492154,"connected_time":703000000000,"state":"active","ping":68},{"user_id":488,"name":"IT'S OVER","steam_id":76561198094268619,"connected_time":701000000000,"state":"active","ping":59}]},{"server_id":309,"name":"Uncletopia | Frankfurt | 4 | All Maps","name_short":"frk-4","host":"frk-1.de.uncletopia.com","port":27045,"enabled":true,"region":"eu","cc":"de","latitude":50.110924,"longitude":8.682127,"reserved":0,"last_update":"0001-01-01T00:00:00Z","name_a2s":"Uncletopia | Frankfurt | 4 | All Maps","protocol":17,"map":"pl_upward","folder":"tf","game":"Team Fortress","app_id":440,"player_count":22,"max_players":24,"Bots":0,"server_type":"Dedicated","server_os":"Linux","password":true,"vac":true,"version":"7961495","steam_id":85568392924504275,"keywords":["cp","nocrits","nodmgspread","uncletopia"],"game_id":440,"stv_port":27046,"stv_name":"Uncletopia | Frankfurt | 4 | All Maps | STV","players":[{"user_id":256,"name":"Birchly","steam_id":76561198140011785,"connected_time":1710000000000,"state":"spawning","ping":80},{"user_id":279,"name":"m.morhac123","steam_id":76561199202883261,"connected_time":94000000000,"state":"connecting","ping":64},{"user_id":281,"name":"goblin","steam_id":76561198170334258,"connected_time":13000000000,"state":"connecting","ping":136},{"user_id":234,"name":"Spinya","steam_id":76561198086653667,"connected_time":2472000000000,"state":"connecting","ping":87},{"user_id":275,"name":"vi hava en usel regering","steam_id":76561198037978654,"connected_time":356000000000,"state":"connecting","ping":74},{"user_id":260,"name":"Olekman","steam_id":76561198035446981,"connected_time":1199000000000,"state":"connecting","ping":76},{"user_id":232,"name":"D4ny0","steam_id":76561198035279148,"connected_time":2886000000000,"state":"spawning","ping":66},{"user_id":270,"name":"Skarp","steam_id":76561198034398376,"connected_time":503000000000,"state":"connecting","ping":62},{"user_id":257,"name":"ShadowTwin","steam_id":76561198046658200,"connected_time":1622000000000,"state":"connecting","ping":80},{"user_id":271,"name":"asa004","steam_id":76561198160323444,"connected_time":488000000000,"state":"spawning","ping":78},{"user_id":236,"name":"DudeoftheRock","steam_id":76561198059401865,"connected_time":2447000000000,"state":"connecting","ping":71},{"user_id":186,"name":"Weezbeck","steam_id":76561198163487467,"connected_time":5560000000000,"state":"connecting","ping":91},{"user_id":276,"name":"tf2 snake","steam_id":76561198193971167,"connected_time":336000000000,"state":"connecting","ping":70},{"user_id":273,"name":"Gman","steam_id":76561198357543942,"connected_time":438000000000,"state":"connecting","ping":92},{"user_id":248,"name":"caramel‚ù§","steam_id":76561198819353867,"connected_time":2223000000000,"state":"connecting","ping":59},{"user_id":230,"name":"Maru","steam_id":76561198030931030,"connected_time":2952000000000,"state":"spawning","ping":67},{"user_id":213,"name":"Jessen2002","steam_id":76561198119503211,"connected_time":4447000000000,"state":"spawning","ping":65},{"user_id":243,"name":"joseph_biden_1942","steam_id":76561199415989636,"connected_time":2347000000000,"state":"connecting","ping":128},{"user_id":246,"name":"kikithenorthwind","steam_id":76561199013581278,"connected_time":2263000000000,"state":"connecting","ping":91},{"user_id":215,"name":"oskaroku00","steam_id":76561199025360128,"connected_time":4408000000000,"state":"connecting","ping":98},{"user_id":274,"name":"xam.‚Çâ‚Åπ‚Çâ","steam_id":76561198375761256,"connected_time":413000000000,"state":"connecting","ping":79},{"user_id":278,"name":"mo","steam_id":76561198109591939,"connected_time":302000000000,"state":"connecting","ping":53}]},{"server_id":310,"name":"Uncletopia | Frankfurt | 5 | All Maps","name_short":"frk-5","host":"frk-1.de.uncletopia.com","port":27055,"enabled":true,"region":"eu","cc":"de","latitude":50.110924,"longitude":8.682127,"reserved":0,"last_update":"0001-01-01T00:00:00Z","name_a2s":"Uncletopia | Frankfurt | 5 | All Maps","protocol":17,"map":"pl_badwater","folder":"tf","game":"Team Fortress","app_id":440,"player_count":24,"max_players":24,"Bots":0,"server_type":"Dedicated","server_os":"Linux","password":true,"vac":true,"version":"7961495","steam_id":85568392924504277,"keywords":["nocrits","nodmgspread","payload","uncletopia"],"game_id":440,"stv_port":27056,"stv_name":"Uncletopia | Frankfurt | 5 | All Maps | STV","players":[{"user_id":517,"name":"PPGamerPL","steam_id":76561198213222133,"connected_time":834000000000,"state":"active","ping":89},{"user_id":488,"name":"Conan the Librarian","steam_id":76561198007224654,"connected_time":2266000000000,"state":"active","ping":60},{"user_id":473,"name":"Hexagon","steam_id":76561198151205758,"connected_time":3234000000000,"state":"active","ping":45},{"user_id":533,"name":"Jyghc","steam_id":76561198405980575,"connected_time":83000000000,"state":"active","ping":54},{"user_id":526,"name":"DenKing2203","steam_id":76561198862585543,"connected_time":475000000000,"state":"active","ping":57},{"user_id":528,"name":"Raivop","steam_id":76561197980854307,"connected_time":416000000000,"state":"active","ping":98},{"user_id":449,"name":"CH4","steam_id":76561198925658024,"connected_time":4256000000000,"state":"active","ping":75},{"user_id":515,"name":"Herm","steam_id":76561197982045677,"connected_time":938000000000,"state":"active","ping":71},{"user_id":516,"name":"Nibble|","steam_id":76561198023648410,"connected_time":876000000000,"state":"active","ping":68},{"user_id":529,"name":"Richard_HUN","steam_id":76561198299050967,"connected_time":416000000000,"state":"active","ping":97},{"user_id":470,"name":"Erection Man","steam_id":76561198021714542,"connected_time":3301000000000,"state":"active","ping":61},{"user_id":522,"name":"lion king 5 the reckoning","steam_id":76561198041040598,"connected_time":660000000000,"state":"active","ping":83},{"user_id":520,"name":"Urfangonultasadana","steam_id":76561199389286151,"connected_time":734000000000,"state":"active","ping":94},{"user_id":487,"name":"Bob Sacamano","steam_id":76561198085610701,"connected_time":2641000000000,"state":"active","ping":88},{"user_id":530,"name":"Zsamo95","steam_id":76561198974092363,"connected_time":402000000000,"state":"active","ping":91},{"user_id":534,"name":"Woman (Real)","steam_id":76561199151823932,"connected_time":82000000000,"state":"active","ping":74},{"user_id":523,"name":"Warkzt","steam_id":76561198098166869,"connected_time":653000000000,"state":"active","ping":71},{"user_id":524,"name":"OceanMan","steam_id":76561198391833371,"connected_time":555000000000,"state":"active","ping":51},{"user_id":479,"name":"Mr. Mundy","steam_id":76561198132008918,"connected_time":2950000000000,"state":"active","ping":79},{"user_id":494,"name":"GUMBO","steam_id":76561198183949987,"connected_time":2211000000000,"state":"active","ping":67},{"user_id":525,"name":"rets_","steam_id":76561198061551392,"connected_time":554000000000,"state":"active","ping":57},{"user_id":453,"name":"Dirocks","steam_id":76561198138494815,"connected_time":4210000000000,"state":"active","ping":75},{"user_id":457,"name":"Happy Broccol","steam_id":76561198180667795,"connected_time":4113000000000,"state":"active","ping":73},{"user_id":531,"name":"Fluffy","steam_id":76561198084447725,"connected_time":396000000000,"state":"active","ping":45}]},{"server_id":311,"name":"Uncletopia | Frankfurt | 6 | All Maps","name_short":"frk-6","host":"frk-1.de.uncletopia.com","port":27065,"enabled":true,"region":"eu","cc":"de","latitude":50.110924,"longitude":8.682127,"reserved":0,"last_update":"0001-01-01T00:00:00Z","name_a2s":"Uncletopia | Frankfurt | 6 | All Maps","protocol":17,"map":"pl_swiftwater_final1","folder":"tf","game":"Team Fortress","app_id":440,"player_count":24,"max_players":24,"Bots":0,"server_type":"Dedicated","server_os":"Linux","password":true,"vac":true,"version":"7961495","steam_id":85568392924504278,"keywords":["nocrits","nodmgspread","payload","uncletopia"],"game_id":440,"stv_port":27066,"stv_name":"Uncletopia | Frankfurt | 6 | All Maps | STV","players":[{"user_id":506,"name":"LeDispenser James","steam_id":76561198847661022,"connected_time":1860000000000,"state":"active","ping":111},{"user_id":519,"name":"diock","steam_id":76561198047359132,"connected_time":995000000000,"state":"active","ping":61},{"user_id":509,"name":"Grillem Dafoe","steam_id":76561198306874574,"connected_time":1770000000000,"state":"active","ping":80},{"user_id":518,"name":"Solymr ibn Wali Barad","steam_id":76561198044008976,"connected_time":1017000000000,"state":"active","ping":76},{"user_id":478,"name":"flowerknight","steam_id":76561198301234180,"connected_time":3969000000000,"state":"active","ping":65},{"user_id":483,"name":"Lassie","steam_id":76561198131924713,"connected_time":3511000000000,"state":"active","ping":57},{"user_id":507,"name":"puffy grapes","steam_id":76561198069649097,"connected_time":1810000000000,"state":"active","ping":76},{"user_id":513,"name":"Merciz","steam_id":76561197971808715,"connected_time":1170000000000,"state":"active","ping":90},{"user_id":529,"name":"Koomikko John","steam_id":76561198350647057,"connected_time":95000000000,"state":"active","ping":72},{"user_id":488,"name":"_Shkoot","steam_id":76561198318170398,"connected_time":3207000000000,"state":"active","ping":53},{"user_id":512,"name":"weaj","steam_id":76561198053628243,"connected_time":1438000000000,"state":"active","ping":61},{"user_id":528,"name":"fifrok","steam_id":76561198799267621,"connected_time":182000000000,"state":"active","ping":66},{"user_id":490,"name":"Vyrac","steam_id":76561198135931968,"connected_time":2705000000000,"state":"active","ping":63},{"user_id":450,"name":"soder.","steam_id":76561199294336405,"connected_time":4927000000000,"state":"active","ping":73},{"user_id":515,"name":"rai","steam_id":76561199408923294,"connected_time":1150000000000,"state":"active","ping":74},{"user_id":527,"name":"Blat","steam_id":76561199013233409,"connected_time":419000000000,"state":"active","ping":86},{"user_id":485,"name":"dawg","steam_id":76561198848936142,"connected_time":3506000000000,"state":"active","ping":60},{"user_id":479,"name":"jovi_","steam_id":76561198449280552,"connected_time":3921000000000,"state":"active","ping":61},{"user_id":525,"name":"alan","steam_id":76561198306947435,"connected_time":754000000000,"state":"active","ping":71},{"user_id":530,"name":"the one who grips","steam_id":76561198381106289,"connected_time":44000000000,"state":"active","ping":81},{"user_id":521,"name":"Shadow_kick","steam_id":76561198188851373,"connected_time":981000000000,"state":"active","ping":87},{"user_id":523,"name":"Preacher Carl","steam_id":76561197994713485,"connected_time":973000000000,"state":"active","ping":63},{"user_id":524,"name":"Fofenho","steam_id":76561198436817109,"connected_time":963000000000,"state":"active","ping":61},{"user_id":484,"name":"Soverney","steam_id":76561197997961169,"connected_time":3507000000000,"state":"active","ping":100}]},{"server_id":23,"name":"Uncletopia | Frankfurt | 7 | Stopwatch","name_short":"frk-7","host":"frk-1.de.uncletopia.com","port":27075,"enabled":true,"region":"eu","cc":"de","latitude":50.110924,"longitude":8.682127,"reserved":0,"last_update":"0001-01-01T00:00:00Z","name_a2s":"Uncletopia | Frankfurt | 7 | Stopwatch","protocol":17,"map":"workshop/pl_badwater_pro_v12.ugc2142942074","folder":"tf","game":"Team Fortress","app_id":440,"player_count":20,"max_players":24,"Bots":0,"server_type":"Dedicated","server_os":"Linux","password":true,"vac":true,"version":"7961495","steam_id":85568392924742827,"keywords":["nocrits","nodmgspread","payload","uncletopia"],"game_id":440,"stv_port":27076,"stv_name":"Uncletopia | Frankfurt | 7 | Stopwatch | STV","players":[{"user_id":118,"name":"ULTRAGURKATTV","steam_id":76561198113657772,"connected_time":41000000000,"state":"active","ping":75},{"user_id":119,"name":"G/3","steam_id":76561198234844188,"connected_time":36000000000,"state":"active","ping":60},{"user_id":116,"name":"Merca #savetf2","steam_id":76561198088782472,"connected_time":97000000000,"state":"active","ping":45},{"user_id":40,"name":"Jizz Cumlay","steam_id":76561198145601800,"connected_time":3327000000000,"state":"active","ping":64},{"user_id":120,"name":"ptro","steam_id":76561199024101431,"connected_time":30000000000,"state":"spawning","ping":276},{"user_id":103,"name":"PUNK RECORDS","steam_id":76561197999954766,"connected_time":786000000000,"state":"active","ping":45},{"user_id":104,"name":"ShadowDelta","steam_id":76561198414270413,"connected_time":750000000000,"state":"spawning","ping":295},{"user_id":115,"name":"Tails8521","steam_id":76561198051747164,"connected_time":226000000000,"state":"active","ping":60},{"user_id":107,"name":"DEFENDOR62","steam_id":76561199386703896,"connected_time":643000000000,"state":"spawning","ping":135},{"user_id":89,"name":"etc","steam_id":76561197998394797,"connected_time":1304000000000,"state":"active","ping":52},{"user_id":121,"name":"Yrj√∂ Koskinen Yrj√∂-Koskinen","steam_id":76561198368181145,"connected_time":6000000000,"state":"active","ping":93},{"user_id":96,"name":"dylanm0909","steam_id":76561198042433442,"connected_time":1135000000000,"state":"spawning","ping":98},{"user_id":111,"name":"Ziy???","steam_id":76561197995765491,"connected_time":390000000000,"state":"spawning","ping":269},{"user_id":112,"name":"Darkmaen","steam_id":76561198060543390,"connected_time":386000000000,"state":"spawning","ping":357},{"user_id":117,"name":"Laco","steam_id":76561199073073486,"connected_time":66000000000,"state":"active","ping":81},{"user_id":97,"name":"Barbiehunter #SaveTF2","steam_id":76561198071630928,"connected_time":1126000000000,"state":"spawning","ping":44},{"user_id":75,"name":"dingus deluxe","steam_id":76561198834355366,"connected_time":1862000000000,"state":"active","ping":158},{"user_id":110,"name":"LEGEND FUMO.","steam_id":76561198061033903,"connected_time":403000000000,"state":"active","ping":45},{"user_id":114,"name":"Bread Teleporter","steam_id":76561198035587273,"connected_time":341000000000,"state":"spawning","ping":101},{"user_id":81,"name":"Alexey C.","steam_id":76561198024078326,"connected_time":1746000000000,"state":"active","ping":104}]},{"server_id":24,"name":"Uncletopia | Frankfurt | 8 | Community","name_short":"frk-8","host":"frk-1.de.uncletopia.com","port":27085,"enabled":true,"region":"eu","cc":"de","latitude":50.110924,"longitude":8.682127,"reserved":0,"last_update":"0001-01-01T00:00:00Z","name_a2s":"Uncletopia | Frankfurt | 8 | Community","protocol":17,"map":"workshop/koth_ramjam_rc1.ugc459778887","folder":"tf","game":"Team Fortress","app_id":440,"player_count":0,"max_players":24,"Bots":0,"server_type":"Dedicated","server_os":"Linux","password":true,"vac":true,"version":"7961495","steam_id":85568392924742828,"keywords":["cp","nocrits","nodmgspread","uncletopia"],"game_id":440,"stv_port":27086,"stv_name":"Uncletopia | Frankfurt | 8 | Community | STV","players":null},{"server_id":202,"name":"Uncletopia | Hong Kong | 1 | All Maps","name_short":"hgk-1","host":"hgk-1.hk.uncletopia.com","port":27015,"enabled":true,"region":"asia","cc":"hk","latitude":22.302711,"longitude":114.177216,"reserved":0,"last_update":"0001-01-01T00:00:00Z","name_a2s":"Uncletopia | Hong Kong | 1 | All Maps","protocol":17,"map":"koth_viaduct","folder":"tf","game":"Team Fortress","app_id":440,"player_count":0,"max_players":24,"Bots":0,"server_type":"Dedicated","server_os":"Linux","password":true,"vac":true,"version":"7961495","steam_id":85568392924494504,"keywords":["cp","nocrits","nodmgspread","uncletopia"],"game_id":440,"stv_port":27016,"stv_name":"Uncletopia | Hong Kong | 1 | All Maps | STV","players":null},{"server_id":1,"name":"Uncletopia | Los Angeles | 1 | All Maps","name_short":"lax-1","host":"lax-1.us.uncletopia.com","port":27015,"enabled":true,"region":"us-west","cc":"us","latitude":33.94279,"longitude":-118.41004,"reserved":0,"last_update":"0001-01-01T00:00:00Z","name_a2s":"Uncletopia | Los Angeles | 1 | All Maps","protocol":17,"map":"pl_snowycoast","folder":"tf","game":"Team Fortress","app_id":440,"player_count":0,"max_players":24,"Bots":0,"server_type":"Dedicated","server_os":"Linux","password":true,"vac":true,"version":"7961495","steam_id":85568392924469991,"keywords":["nocrits","nodmgspread","payload","uncletopia"],"game_id":440,"stv_port":27016,"stv_name":"Uncletopia | Los Angeles | 1 | All Maps | STV","players":null},{"server_id":112,"name":"Uncletopia | Los Angeles | 2 | All Maps","name_short":"lax-2","host":"lax-1.us.uncletopia.com","port":27025,"enabled":true,"region":"us-west","cc":"us","latitude":33.94279,"longitude":-118.41004,"reserved":0,"last_update":"0001-01-01T00:00:00Z","name_a2s":"Uncletopia | Los Angeles | 2 | All Maps","protocol":17,"map":"cp_altitude","folder":"tf","game":"Team Fortress","app_id":440,"player_count":0,"max_players":24,"Bots":0,"server_type":"Dedicated","server_os":"Linux","password":true,"vac":true,"version":"7961495","steam_id":85568392924469992,"keywords":["cp","nocrits","nodmgspread","uncletopia"],"game_id":440,"stv_port":27026,"stv_name":"Uncletopia | Los Angeles | 2 | All Maps | STV","players":null},{"server_id":324,"name":"Uncletopia | Los Angeles | 3 | All Maps","name_short":"lax-3","host":"lax-1.us.uncletopia.com","port":27035,"enabled":true,"region":"us-west","cc":"us","latitude":33.94279,"longitude":-118.41004,"reserved":0,"last_update":"0001-01-01T00:00:00Z","name_a2s":"Uncletopia | Los Angeles | 3 | All Maps","protocol":17,"map":"pl_frontier_final","folder":"tf","game":"Team Fortress","app_id":440,"player_count":0,"max_players":24,"Bots":0,"server_type":"Dedicated","server_os":"Linux","password":true,"vac":true,"version":"7961495","steam_id":85568392924510198,"keywords":["nocrits","nodmgspread","payload","uncletopia"],"game_id":440,"stv_port":27036,"stv_name":"Uncletopia | Los Angeles | 3 | All Maps | STV","players":null},{"server_id":25,"name":"Uncletopia | Los Angeles | 4 | Stopwatch","name_short":"lax-4","host":"lax-1.us.uncletopia.com","port":27045,"enabled":true,"region":"us-west","cc":"us","latitude":33.94279,"longitude":-118.41004,"reserved":0,"last_update":"0001-01-01T00:00:00Z","name_a2s":"Uncletopia | Los Angeles | 4 | Stopwatch","protocol":17,"map":"pl_barnblitz","folder":"tf","game":"Team Fortress","app_id":440,"player_count":0,"max_players":24,"Bots":0,"server_type":"Dedicated","server_os":"Linux","password":true,"vac":true,"version":"7961495","steam_id":85568392924510199,"keywords":["nocrits","nodmgspread","payload","uncletopia"],"game_id":440,"stv_port":27046,"stv_name":"Uncletopia | Los Angeles | 4 | Stopwatch | STV","players":null},{"server_id":11,"name":"Uncletopia | London | 1 | All Maps","name_short":"lon-1","host":"lon-1.uk.uncletopia.com","port":27015,"enabled":true,"region":"eu","cc":"gb","latitude":51.509865,"longitude":-0.118092,"reserved":0,"last_update":"0001-01-01T00:00:00Z","name_a2s":"Uncletopia | London | 1 | All Maps","protocol":17,"map":"koth_nucleus","folder":"tf","game":"Team Fortress","app_id":440,"player_count":24,"max_players":24,"Bots":0,"server_type":"Dedicated","server_os":"Linux","password":true,"vac":true,"version":"7961495","steam_id":85568392924367362,"keywords":["cp","nocrits","nodmgspread","uncletopia"],"game_id":440,"stv_port":27016,"stv_name":"Uncletopia | London | 1 | All Maps | STV","players":[{"user_id":677,"name":"üóªüé¥Hadrian Maloneüé¥üóª","steam_id":76561198036151103,"connected_time":1326000000000,"state":"active","ping":53},{"user_id":628,"name":"Mono","steam_id":76561198114569493,"connected_time":4623000000000,"state":"active","ping":45},{"user_id":690,"name":"Puro ‚ô•","steam_id":76561198039016765,"connected_time":172000000000,"state":"active","ping":100},{"user_id":662,"name":"spimtmot733","steam_id":76561199029189825,"connected_time":1943000000000,"state":"active","ping":129},{"user_id":683,"name":"Pyrolander","steam_id":76561198050785450,"connected_time":659000000000,"state":"active","ping":45},{"user_id":685,"name":"Yuzu","steam_id":76561198121694613,"connected_time":405000000000,"state":"active","ping":51},{"user_id":681,"name":"yardy","steam_id":76561198079410772,"connected_time":954000000000,"state":"active","ping":65},{"user_id":672,"name":"KnugenIV","steam_id":76561198127091993,"connected_time":1507000000000,"state":"active","ping":58},{"user_id":686,"name":"JVLIVS","steam_id":76561198366167099,"connected_time":396000000000,"state":"active","ping":45},{"user_id":665,"name":"Ynss","steam_id":76561198021472798,"connected_time":1890000000000,"state":"active","ping":56},{"user_id":682,"name":"ein","steam_id":76561198152162834,"connected_time":748000000000,"state":"active","ping":105},{"user_id":687,"name":"Well, off to hang myself","steam_id":76561198053374944,"connected_time":394000000000,"state":"active","ping":68},{"user_id":679,"name":"GazerBazer","steam_id":76561198879107565,"connected_time":1308000000000,"state":"active","ping":64},{"user_id":688,"name":"Temka","steam_id":76561198331323738,"connected_time":368000000000,"state":"active","ping":75},{"user_id":604,"name":"Doecheldorf","steam_id":76561198291628630,"connected_time":6449000000000,"state":"active","ping":60},{"user_id":670,"name":"nappo","steam_id":76561198060105180,"connected_time":1737000000000,"state":"active","ping":68},{"user_id":656,"name":"SKY_","steam_id":76561198080980508,"connected_time":2853000000000,"state":"active","ping":71},{"user_id":571,"name":"Tre3","steam_id":76561198054795379,"connected_time":9183000000000,"state":"active","ping":67},{"user_id":675,"name":"Gryoss","steam_id":76561197999837111,"connected_time":1331000000000,"state":"active","ping":114},{"user_id":660,"name":"Sir Cauterize","steam_id":76561198047079422,"connected_time":2266000000000,"state":"active","ping":56},{"user_id":676,"name":"mt","steam_id":76561197961319303,"connected_time":1330000000000,"state":"active","ping":56},{"user_id":689,"name":"Jag √§r ett anka","steam_id":76561198059978438,"connected_time":329000000000,"state":"active","ping":61},{"user_id":691,"name":"Dr. Femboy Ghordbort","steam_id":76561198072320671,"connected_time":45000000000,"state":"active","ping":37},{"user_id":635,"name":"gnarly business","steam_id":76561198832688767,"connected_time":3870000000000,"state":"active","ping":48}]},{"server_id":114,"name":"Uncletopia | London | 2 | All Maps","name_short":"lon-2","host":"lon-1.uk.uncletopia.com","port":27025,"enabled":true,"region":"eu","cc":"gb","latitude":51.509865,"longitude":-0.118092,"reserved":0,"last_update":"0001-01-01T00:00:00Z","name_a2s":"Uncletopia | London | 2 | All Maps","protocol":17,"map":"pl_pier","folder":"tf","game":"Team Fortress","app_id":440,"player_count":5,"max_players":24,"Bots":0,"server_type":"Dedicated","server_os":"Linux","password":true,"vac":true,"version":"7961495","steam_id":85568392924470941,"keywords":["nocrits","nodmgspread","payload","uncletopia"],"game_id":440,"stv_port":27026,"stv_name":"Uncletopia | London | 2 | All Maps | STV","players":[{"user_id":301,"name":"The worst TF2 player","steam_id":76561199184873889,"connected_time":83000000000,"state":"active","ping":60},{"user_id":291,"name":"‚ìÅ‚ìû‚ì¶‚ì°‚ìò‚ìì‚ìî‚ì°œü‚´ö","steam_id":76561198993777854,"connected_time":1757000000000,"state":"active","ping":68},{"user_id":297,"name":"Sex Man TF2","steam_id":76561198798657045,"connected_time":481000000000,"state":"active","ping":75},{"user_id":300,"name":"Piesel","steam_id":76561198985453063,"connected_time":190000000000,"state":"active","ping":73},{"user_id":295,"name":"Dorfde","steam_id":76561199013373515,"connected_time":1334000000000,"state":"active","ping":77}]},{"server_id":320,"name":"Uncletopia | London | 3 | All Maps","name_short":"lon-3","host":"lon-1.uk.uncletopia.com","port":27035,"enabled":true,"region":"eu","cc":"gb","latitude":51.509865,"longitude":-0.118092,"reserved":0,"last_update":"0001-01-01T00:00:00Z","name_a2s":"Uncletopia | London | 3 | All Maps","protocol":17,"map":"pl_swiftwater_final1","folder":"tf","game":"Team Fortress","app_id":440,"player_count":24,"max_players":24,"Bots":0,"server_type":"Dedicated","server_os":"Linux","password":true,"vac":true,"version":"7961495","steam_id":85568392924510192,"keywords":["nocrits","nodmgspread","payload","uncletopia"],"game_id":440,"stv_port":27036,"stv_name":"Uncletopia | London | 3 | All Maps | STV","players":[{"user_id":191,"name":"Skatnaset","steam_id":76561198298457353,"connected_time":268000000000,"state":"active","ping":80},{"user_id":193,"name":"heddwch","steam_id":76561198076097983,"connected_time":239000000000,"state":"active","ping":89},{"user_id":188,"name":"ilimori","steam_id":76561197961231625,"connected_time":623000000000,"state":"active","ping":45},{"user_id":162,"name":"Temperance","steam_id":76561198446955878,"connected_time":1579000000000,"state":"active","ping":72},{"user_id":173,"name":"dia","steam_id":76561198033281405,"connected_time":1272000000000,"state":"active","ping":90},{"user_id":138,"name":"Gir","steam_id":76561198075155374,"connected_time":3880000000000,"state":"active","ping":40},{"user_id":182,"name":"–∫–∞–±–∞–Ω—á–∏–∫","steam_id":76561199074883856,"connected_time":778000000000,"state":"active","ping":55},{"user_id":155,"name":"Sergeant Joker LFT","steam_id":76561198854616604,"connected_time":2263000000000,"state":"active","ping":127},{"user_id":163,"name":"SaltyCupcakes","steam_id":76561198256386417,"connected_time":1571000000000,"state":"active","ping":45},{"user_id":179,"name":"Pvt. Pepper","steam_id":76561198851157897,"connected_time":886000000000,"state":"active","ping":65},{"user_id":199,"name":"GoOutsideNerds","steam_id":76561198010662968,"connected_time":112000000000,"state":"active","ping":57},{"user_id":64,"name":"Sore Ass","steam_id":76561199367182571,"connected_time":7817000000000,"state":"active","ping":181},{"user_id":194,"name":"Supercoxylac","steam_id":76561198376300138,"connected_time":233000000000,"state":"active","ping":68},{"user_id":166,"name":"TheAnonymeKiller","steam_id":76561198190680978,"connected_time":1408000000000,"state":"active","ping":48},{"user_id":195,"name":"Skepingawich","steam_id":76561198038736553,"connected_time":226000000000,"state":"active","ping":59},{"user_id":196,"name":"ARIGATO GAZEYEMASS SPRAY","steam_id":76561198365783313,"connected_time":181000000000,"state":"active","ping":66},{"user_id":197,"name":"Mike","steam_id":76561198228455736,"connected_time":168000000000,"state":"active","ping":73},{"user_id":171,"name":"wes","steam_id":76561198067000117,"connected_time":1281000000000,"state":"active","ping":76},{"user_id":172,"name":"Chris","steam_id":76561198179791702,"connected_time":1278000000000,"state":"active","ping":185},{"user_id":198,"name":"dirhs","steam_id":76561198383867611,"connected_time":117000000000,"state":"active","ping":53},{"user_id":178,"name":"who is spikey mike?","steam_id":76561199169534004,"connected_time":1097000000000,"state":"active","ping":45},{"user_id":183,"name":"Arecibo","steam_id":76561198014359615,"connected_time":771000000000,"state":"active","ping":67},{"user_id":175,"name":"boywife","steam_id":76561198160047415,"connected_time":1232000000000,"state":"active","ping":99},{"user_id":186,"name":"stepho","steam_id":76561199132035586,"connected_time":720000000000,"state":"active","ping":111}]},{"server_id":321,"name":"Uncletopia | London | 4 | All Maps","name_short":"lon-4","host":"lon-1.uk.uncletopia.com","port":27045,"enabled":true,"region":"eu","cc":"gb","latitude":51.509865,"longitude":-0.118092,"reserved":0,"last_update":"0001-01-01T00:00:00Z","name_a2s":"Uncletopia | London | 4 | All Maps","protocol":17,"map":"pl_borneo","folder":"tf","game":"Team Fortress","app_id":440,"player_count":23,"max_players":24,"Bots":0,"server_type":"Dedicated","server_os":"Linux","password":true,"vac":true,"version":"7961495","steam_id":85568392924510193,"keywords":["nocrits","nodmgspread","payload","uncletopia"],"game_id":440,"stv_port":27046,"stv_name":"Uncletopia | London | 4 | All Maps | STV","players":[{"user_id":116,"name":"Flyin'BBQ","steam_id":76561198021363070,"connected_time":886000000000,"state":"active","ping":50},{"user_id":105,"name":"Doritoshredder","steam_id":76561198826710752,"connected_time":1782000000000,"state":"active","ping":119},{"user_id":108,"name":"Jack","steam_id":76561198209102833,"connected_time":1096000000000,"state":"active","ping":51},{"user_id":111,"name":"Daenny","steam_id":76561198053088822,"connected_time":942000000000,"state":"active","ping":47},{"user_id":117,"name":"Cruel","steam_id":76561199499675974,"connected_time":862000000000,"state":"active","ping":94},{"user_id":101,"name":"DHD - Obismal","steam_id":76561198000356530,"connected_time":2254000000000,"state":"active","ping":75},{"user_id":124,"name":"demps","steam_id":76561198049405872,"connected_time":433000000000,"state":"active","ping":46},{"user_id":99,"name":"ratot","steam_id":76561198063132645,"connected_time":2510000000000,"state":"active","ping":50},{"user_id":92,"name":"Dr Zoidcrab","steam_id":76561198023709882,"connected_time":3032000000000,"state":"active","ping":33},{"user_id":122,"name":"das tuff","steam_id":76561198094028696,"connected_time":723000000000,"state":"active","ping":34},{"user_id":76,"name":"CreepingDeath","steam_id":76561198056588347,"connected_time":3787000000000,"state":"active","ping":58},{"user_id":113,"name":"Prism","steam_id":76561198320524819,"connected_time":913000000000,"state":"active","ping":74},{"user_id":65,"name":"Fran","steam_id":76561199070516960,"connected_time":4183000000000,"state":"active","ping":73},{"user_id":119,"name":"be gay do crime","steam_id":76561198254450468,"connected_time":807000000000,"state":"active","ping":89},{"user_id":86,"name":"Scrom","steam_id":76561199042488566,"connected_time":3614000000000,"state":"active","ping":32},{"user_id":114,"name":"What2eat","steam_id":76561198017985829,"connected_time":904000000000,"state":"active","ping":50},{"user_id":57,"name":"Macci - Obismal","steam_id":76561198050485404,"connected_time":4735000000000,"state":"active","ping":82},{"user_id":102,"name":"NESS","steam_id":76561197995225318,"connected_time":2164000000000,"state":"active","ping":38},{"user_id":74,"name":"Altraverdo","steam_id":76561198063933880,"connected_time":3797000000000,"state":"active","ping":50},{"user_id":127,"name":"Ducks","steam_id":76561198145643655,"connected_time":65000000000,"state":"active","ping":85},{"user_id":48,"name":"Ullr","steam_id":76561198140547483,"connected_time":5122000000000,"state":"active","ping":44},{"user_id":78,"name":"BigDikNRJ - Obismal","steam_id":76561198055309521,"connected_time":3757000000000,"state":"active","ping":75},{"user_id":80,"name":"Lux","steam_id":76561198060417740,"connected_time":3726000000000,"state":"active","ping":47}]},{"server_id":21,"name":"Uncletopia | London | 5 | All Maps","name_short":"lon-5","host":"lon-1.uk.uncletopia.com","port":27055,"enabled":true,"region":"eu","cc":"gb","latitude":51.509865,"longitude":-0.118092,"reserved":0,"last_update":"0001-01-01T00:00:00Z","name_a2s":"Uncletopia | London | 5 | All Maps","protocol":17,"map":"pl_barnblitz","folder":"tf","game":"Team Fortress","app_id":440,"player_count":24,"max_players":24,"Bots":0,"server_type":"Dedicated","server_os":"Linux","password":true,"vac":true,"version":"7961495","steam_id":85568392924742829,"keywords":["nocrits","nodmgspread","payload","uncletopia"],"game_id":440,"stv_port":27056,"stv_name":"Uncletopia | London | 5 | All Maps | STV","players":[{"user_id":55,"name":"Hyperion","steam_id":76561198043716162,"connected_time":1373000000000,"state":"active","ping":57},{"user_id":67,"name":"JaneDoe","steam_id":76561198067081506,"connected_time":205000000000,"state":"active","ping":85},{"user_id":65,"name":"Cra1gyS","steam_id":76561198103488647,"connected_time":575000000000,"state":"active","ping":72},{"user_id":72,"name":"Nag","steam_id":76561197970488206,"connected_time":46000000000,"state":"active","ping":69},{"user_id":46,"name":"FOOTBALLJOHN43","steam_id":76561198040300579,"connected_time":1560000000000,"state":"active","ping":62},{"user_id":29,"name":"imng","steam_id":76561198014988031,"connected_time":1999000000000,"state":"active","ping":143},{"user_id":58,"name":"Tort","steam_id":76561198329646769,"connected_time":1197000000000,"state":"active","ping":57},{"user_id":69,"name":"Comeraghed","steam_id":76561198342373255,"connected_time":101000000000,"state":"active","ping":47},{"user_id":71,"name":"Sentry hater","steam_id":76561199269309068,"connected_time":72000000000,"state":"active","ping":88},{"user_id":34,"name":"Fran√ßois Vi√®te","steam_id":76561198072975518,"connected_time":1852000000000,"state":"active","ping":146},{"user_id":70,"name":"light brandon","steam_id":76561198272804994,"connected_time":92000000000,"state":"active","ping":79},{"user_id":38,"name":"PASTAMANIA!","steam_id":76561197967858558,"connected_time":1696000000000,"state":"active","ping":53},{"user_id":66,"name":"pijacka","steam_id":76561198103899658,"connected_time":449000000000,"state":"active","ping":75},{"user_id":60,"name":"Pop Kamoel","steam_id":76561197972131979,"connected_time":1139000000000,"state":"active","ping":38},{"user_id":73,"name":"Saucisse","steam_id":76561198119955969,"connected_time":38000000000,"state":"active","ping":61},{"user_id":42,"name":"lokomoko„ÉÉ","steam_id":76561199012969398,"connected_time":1632000000000,"state":"active","ping":81},{"user_id":61,"name":"zinzyk","steam_id":76561198128011822,"connected_time":1135000000000,"state":"active","ping":69},{"user_id":44,"name":"CombustibleToast","steam_id":76561198051358882,"connected_time":1600000000000,"state":"active","ping":113},{"user_id":64,"name":"Gugu gaga","steam_id":76561198161822358,"connected_time":697000000000,"state":"active","ping":65},{"user_id":47,"name":"Thighjob Maniac","steam_id":76561198194004051,"connected_time":1552000000000,"state":"active","ping":65},{"user_id":48,"name":"MineAGK","steam_id":76561198128372943,"connected_time":1548000000000,"state":"active","ping":157},{"user_id":49,"name":"herona1","steam_id":76561199191333322,"connected_time":1543000000000,"state":"active","ping":68},{"user_id":51,"name":"limbicsystem","steam_id":76561198025612680,"connected_time":1527000000000,"state":"active","ping":60},{"user_id":74,"name":"Fatmagic Mukbang ASMR","steam_id":76561198063492110,"connected_time":17000000000,"state":"spawning","ping":70}]},{"server_id":22,"name":"Uncletopia | London | 6 | All Maps","name_short":"lon-6","host":"lon-1.uk.uncletopia.com","port":27065,"enabled":true,"region":"eu","cc":"gb","latitude":51.509865,"longitude":-0.118092,"reserved":0,"last_update":"0001-01-01T00:00:00Z","name_a2s":"Uncletopia | London | 6 | All Maps","protocol":17,"map":"koth_nucleus","folder":"tf","game":"Team Fortress","app_id":440,"player_count":24,"max_players":24,"Bots":0,"server_type":"Dedicated","server_os":"Linux","password":true,"vac":true,"version":"7961495","steam_id":85568392924742830,"keywords":["cp","nocrits","nodmgspread","uncletopia"],"game_id":440,"stv_port":27066,"stv_name":"Uncletopia | London | 6 | All Maps | STV","players":[{"user_id":68,"name":"big hoops","steam_id":76561198004703799,"connected_time":1120000000000,"state":"active","ping":44},{"user_id":38,"name":"Bagingi","steam_id":76561198052197810,"connected_time":3055000000000,"state":"active","ping":109},{"user_id":39,"name":"EmperorHaddad","steam_id":76561198308853672,"connected_time":2813000000000,"state":"active","ping":53},{"user_id":40,"name":"Rynowm","steam_id":76561198136379860,"connected_time":2676000000000,"state":"active","ping":68},{"user_id":64,"name":"jerkwaterberg","steam_id":76561198134165667,"connected_time":1728000000000,"state":"active","ping":57},{"user_id":42,"name":"Liberos","steam_id":76561198050029082,"connected_time":2396000000000,"state":"active","ping":70},{"user_id":83,"name":"The CEO of Sex Inc.","steam_id":76561198385989487,"connected_time":352000000000,"state":"active","ping":189},{"user_id":69,"name":"poopcorn","steam_id":76561198435246575,"connected_time":1105000000000,"state":"active","ping":56},{"user_id":45,"name":"free back real estate","steam_id":76561197999437155,"connected_time":2287000000000,"state":"active","ping":60},{"user_id":86,"name":"energiske erik","steam_id":76561198044616068,"connected_time":117000000000,"state":"active","ping":101},{"user_id":70,"name":"snowii","steam_id":76561198836246326,"connected_time":1026000000000,"state":"active","ping":62},{"user_id":48,"name":"A Shoelace","steam_id":76561198126726364,"connected_time":2219000000000,"state":"active","ping":59},{"user_id":87,"name":"Flying skyhigh","steam_id":76561198372971096,"connected_time":6000000000,"state":"spawning","ping":112},{"user_id":72,"name":"- Indigo -","steam_id":76561198380193071,"connected_time":930000000000,"state":"active","ping":75},{"user_id":74,"name":"CiVillain","steam_id":76561198059617732,"connected_time":865000000000,"state":"active","ping":71},{"user_id":65,"name":"cornwall drilla","steam_id":76561199122107194,"connected_time":1710000000000,"state":"active","ping":65},{"user_id":88,"name":"siriusplay116","steam_id":76561199403847433,"connected_time":2000000000,"state":"spawning","ping":43},{"user_id":63,"name":"Cheltenham Denman ave 71","steam_id":76561198885045971,"connected_time":1860000000000,"state":"active","ping":71},{"user_id":75,"name":"I I | #saveTF2","steam_id":76561199101935057,"connected_time":864000000000,"state":"active","ping":105},{"user_id":57,"name":"Cold Heart","steam_id":76561198109838745,"connected_time":1971000000000,"state":"active","ping":61},{"user_id":85,"name":"Quartermistress","steam_id":76561198140199123,"connected_time":236000000000,"state":"active","ping":38},{"user_id":76,"name":"lugge","steam_id":76561197963937453,"connected_time":846000000000,"state":"active","ping":67},{"user_id":67,"name":"Healing Weapons Guy","steam_id":76561198005608047,"connected_time":1437000000000,"state":"active","ping":164},{"user_id":80,"name":"2fort's silliest soldier","steam_id":76561198128613675,"connected_time":522000000000,"state":"active","ping":58}]},{"server_id":40,"name":"Uncletopia | London | 7 | Stopwatch","name_short":"lon-7","host":"lon-1.uk.uncletopia.com","port":27075,"enabled":true,"region":"eu","cc":"gb","latitude":51.509865,"longitude":-0.118092,"reserved":0,"last_update":"0001-01-01T00:00:00Z","name_a2s":"Uncletopia | London | 7 | Stopwatch","protocol":17,"map":"cp_granary","folder":"tf","game":"Team Fortress","app_id":440,"player_count":0,"max_players":24,"Bots":0,"server_type":"Dedicated","server_os":"Linux","password":true,"vac":true,"version":"7961495","steam_id":85568392924964314,"keywords":["cp","nocrits","nodmgspread","uncletopia"],"game_id":440,"stv_port":27076,"stv_name":"Uncletopia | London | 7 | Stopwatch | STV","players":null},{"server_id":41,"name":"Uncletopia | London | 8 | Community","name_short":"lon-8","host":"lon-1.uk.uncletopia.com","port":27085,"enabled":true,"region":"eu","cc":"gb","latitude":51.509865,"longitude":-0.118092,"reserved":0,"last_update":"0001-01-01T00:00:00Z","name_a2s":"Uncletopia | London | 8 | Community","protocol":17,"map":"workshop/koth_ashville_final.ugc2130459942","folder":"tf","game":"Team Fortress","app_id":440,"player_count":0,"max_players":24,"Bots":0,"server_type":"Dedicated","server_os":"Linux","password":true,"vac":true,"version":"7961495","steam_id":85568392924964315,"keywords":["cp","nocrits","nodmgspread","uncletopia"],"game_id":440,"stv_port":27086,"stv_name":"Uncletopia | London | 8 | Community | STV","players":null},{"server_id":300,"name":"Uncletopia | Montr√©al | 1 | One Thousand Uncles","name_short":"mtl-1","host":"mtl-1.ca.uncletopia.com","port":27015,"enabled":true,"region":"us-east","cc":"ca","latitude":45.50889,"longitude":-73.56167,"reserved":0,"last_update":"0001-01-01T00:00:00Z","name_a2s":"","protocol":0,"map":"","folder":"","game":"","app_id":0,"player_count":0,"max_players":0,"Bots":0,"server_type":"","server_os":"","password":false,"vac":false,"version":"","steam_id":0,"keywords":null,"game_id":0,"stv_port":0,"stv_name":"","players":null},{"server_id":301,"name":"Uncletopia | Montr√©al | 2 | One Thousand Uncles","name_short":"mtl-2","host":"mtl-1.ca.uncletopia.com","port":27025,"enabled":true,"region":"us-east","cc":"ca","latitude":45.50889,"longitude":-73.56167,"reserved":0,"last_update":"0001-01-01T00:00:00Z","name_a2s":"","protocol":0,"map":"","folder":"","game":"","app_id":0,"player_count":0,"max_players":0,"Bots":0,"server_type":"","server_os":"","password":false,"vac":false,"version":"","steam_id":0,"keywords":null,"game_id":0,"stv_port":0,"stv_name":"","players":null},{"server_id":302,"name":"Uncletopia | Montr√©al | 3 | One Thousand Uncles","name_short":"mtl-3","host":"mtl-1.ca.uncletopia.com","port":27035,"enabled":true,"region":"us-east","cc":"ca","latitude":45.50889,"longitude":-73.56167,"reserved":0,"last_update":"0001-01-01T00:00:00Z","name_a2s":"","protocol":0,"map":"","folder":"","game":"","app_id":0,"player_count":1,"max_players":0,"Bots":0,"server_type":"","server_os":"","password":false,"vac":false,"version":"","steam_id":0,"keywords":null,"game_id":0,"stv_port":0,"stv_name":"","players":[{"user_id":39,"name":"bundykeats","steam_id":76561199214099646,"connected_time":16000000000,"state":"spawning","ping":83}]},{"server_id":13,"name":"Uncletopia | New York City | 1 | All Maps","name_short":"nyc-1","host":"nyc-1.us.uncletopia.com","port":27015,"enabled":true,"region":"us-east","cc":"us","latitude":40.73061,"longitude":-73.93524,"reserved":0,"last_update":"0001-01-01T00:00:00Z","name_a2s":"Uncletopia | New York City | 1 | All Maps","protocol":17,"map":"ctf_well","folder":"tf","game":"Team Fortress","app_id":440,"player_count":24,"max_players":24,"Bots":0,"server_type":"Dedicated","server_os":"Linux","password":true,"vac":true,"version":"7961495","steam_id":85568392924469993,"keywords":["ctf","nocrits","nodmgspread","uncletopia"],"game_id":440,"stv_port":27016,"stv_name":"Uncletopia | New York City | 1 | All Maps | STV","players":[{"user_id":373,"name":"Trick Stab","steam_id":76561198149967340,"connected_time":2351000000000,"state":"active","ping":84},{"user_id":392,"name":"inphlate","steam_id":76561199016973013,"connected_time":344000000000,"state":"active","ping":60},{"user_id":380,"name":"screaming fire in public places","steam_id":76561197995620232,"connected_time":1190000000000,"state":"active","ping":44},{"user_id":340,"name":"GummybearKillr","steam_id":76561198031235750,"connected_time":5942000000000,"state":"active","ping":54},{"user_id":387,"name":"Awenova","steam_id":76561198322928940,"connected_time":465000000000,"state":"active","ping":76},{"user_id":388,"name":"dillon/dylan","steam_id":76561198118054166,"connected_time":409000000000,"state":"active","ping":54},{"user_id":224,"name":"Naffu","steam_id":76561198036945403,"connected_time":17413000000000,"state":"active","ping":61},{"user_id":287,"name":"Nuclear Diarrhea","steam_id":76561198044278802,"connected_time":10581000000000,"state":"active","ping":46},{"user_id":349,"name":"Virg","steam_id":76561198397721937,"connected_time":5355000000000,"state":"active","ping":87},{"user_id":364,"name":"Matthew McConaughey","steam_id":76561198091893367,"connected_time":3400000000000,"state":"active","ping":58},{"user_id":379,"name":"bubbyboytoo","steam_id":76561198060080354,"connected_time":1529000000000,"state":"active","ping":88},{"user_id":247,"name":"Kantamoe","steam_id":76561198046661611,"connected_time":14425000000000,"state":"active","ping":87},{"user_id":382,"name":"garette*","steam_id":76561198330911140,"connected_time":1110000000000,"state":"active","ping":75},{"user_id":386,"name":"The Gregginator","steam_id":76561199106032641,"connected_time":566000000000,"state":"active","ping":131},{"user_id":389,"name":"Orange Triangle","steam_id":76561198320498182,"connected_time":396000000000,"state":"active","ping":71},{"user_id":372,"name":"twinblock","steam_id":76561198157414556,"connected_time":2364000000000,"state":"active","ping":92},{"user_id":375,"name":"Gary Budussy","steam_id":76561197969793969,"connected_time":2162000000000,"state":"active","ping":84},{"user_id":368,"name":"Raine","steam_id":76561198055761141,"connected_time":3176000000000,"state":"active","ping":117},{"user_id":378,"name":"Jonah Hill from 21 Jump Street","steam_id":76561198811130843,"connected_time":1976000000000,"state":"active","ping":86},{"user_id":315,"name":"1000 Gigglebytes of clown girls","steam_id":76561198290719848,"connected_time":8274000000000,"state":"active","ping":88},{"user_id":361,"name":"Sooch","steam_id":76561198007043697,"connected_time":3938000000000,"state":"active","ping":71},{"user_id":385,"name":"ÓÑë Mistah Static ÓÑë","steam_id":76561198039275341,"connected_time":647000000000,"state":"active","ping":57},{"user_id":390,"name":"StuartBell511","steam_id":76561198060931721,"connected_time":387000000000,"state":"active","ping":69},{"user_id":394,"name":"Trusty","steam_id":76561198035444237,"connected_time":173000000000,"state":"active","ping":51}]},{"server_id":14,"name":"Uncletopia | New York City | 2 | All Maps","name_short":"nyc-2","host":"nyc-1.us.uncletopia.com","port":27025,"enabled":true,"region":"us-east","cc":"us","latitude":40.73061,"longitude":-73.93524,"reserved":0,"last_update":"0001-01-01T00:00:00Z","name_a2s":"Uncletopia | New York City | 2 | All Maps","protocol":17,"map":"cp_sunshine","folder":"tf","game":"Team Fortress","app_id":440,"player_count":1,"max_players":24,"Bots":0,"server_type":"Dedicated","server_os":"Linux","password":true,"vac":true,"version":"7961495","steam_id":85568392924469994,"keywords":["cp","nocrits","nodmgspread","uncletopia"],"game_id":440,"stv_port":27026,"stv_name":"Uncletopia | New York City | 2 | All Maps | STV","players":[{"user_id":9,"name":"Fish","steam_id":76561199258053772,"connected_time":164000000000,"state":"active","ping":64}]},{"server_id":15,"name":"Uncletopia | New York City | 3 | Stopwatch","name_short":"nyc-3","host":"nyc-1.us.uncletopia.com","port":27035,"enabled":true,"region":"us-east","cc":"us","latitude":40.73061,"longitude":-73.93524,"reserved":0,"last_update":"0001-01-01T00:00:00Z","name_a2s":"Uncletopia | New York City | 3 | Stopwatch","protocol":17,"map":"workshop/koth_bagel_rc6.ugc2514036946","folder":"tf","game":"Team Fortress","app_id":440,"player_count":0,"max_players":24,"Bots":0,"server_type":"Dedicated","server_os":"Linux","password":true,"vac":true,"version":"7961495","steam_id":85568392924742820,"keywords":["cp","nocrits","nodmgspread","uncletopia"],"game_id":440,"stv_port":27036,"stv_name":"Uncletopia | New York City | 3 | Stopwatch | STV","players":null},{"server_id":16,"name":"Uncletopia | New York City | 4 | Community","name_short":"nyc-4","host":"nyc-1.us.uncletopia.com","port":27045,"enabled":true,"region":"us-east","cc":"us","latitude":40.73061,"longitude":-73.93524,"reserved":0,"last_update":"0001-01-01T00:00:00Z","name_a2s":"Uncletopia | New York City | 4 | Community","protocol":17,"map":"cp_altitude","folder":"tf","game":"Team Fortress","app_id":440,"player_count":0,"max_players":24,"Bots":0,"server_type":"Dedicated","server_os":"Linux","password":true,"vac":true,"version":"7961495","steam_id":85568392924742821,"keywords":["cp","nocrits","nodmgspread","uncletopia"],"game_id":440,"stv_port":27046,"stv_name":"Uncletopia | New York City | 4 | Community | STV","players":null},{"server_id":142,"name":"Uncletopia | S√£o Paulo | 1 | All Maps","name_short":"sao-1","host":"sao-1.br.uncletopia.com","port":27015,"enabled":true,"region":"sa","cc":"br","latitude":-23.533773,"longitude":-46.62529,"reserved":0,"last_update":"0001-01-01T00:00:00Z","name_a2s":"Uncletopia | S√£o Paulo | 1 | All Maps","protocol":17,"map":"koth_lakeside_final","folder":"tf","game":"Team Fortress","app_id":440,"player_count":0,"max_players":24,"Bots":0,"server_type":"Dedicated","server_os":"Linux","password":true,"vac":true,"version":"7961495","steam_id":85568392924469996,"keywords":["cp","nocrits","nodmgspread","uncletopia"],"game_id":440,"stv_port":27016,"stv_name":"Uncletopia | S√£o Paulo | 1 | All Maps | STV","players":null},{"server_id":143,"name":"Uncletopia | S√£o Paulo | 2 | Community","name_short":"sao-2","host":"sao-2.br.uncletopia.com","port":27015,"enabled":true,"region":"sa","cc":"br","latitude":-23.533773,"longitude":-46.62529,"reserved":0,"last_update":"0001-01-01T00:00:00Z","name_a2s":"Uncletopia | S√£o Paulo | 2 | Community","protocol":17,"map":"workshop/koth_synthetic_rc6a.ugc1549817316","folder":"tf","game":"Team Fortress","app_id":440,"player_count":0,"max_players":24,"Bots":0,"server_type":"Dedicated","server_os":"Linux","password":true,"vac":true,"version":"7961495","steam_id":85568392924485349,"keywords":["cp","nocrits","nodmgspread","uncletopia"],"game_id":440,"stv_port":27016,"stv_name":"Uncletopia | S√£o Paulo | 2 | Community | STV","players":null},{"server_id":7,"name":"Uncletopia | Seattle | 1 | All Maps","name_short":"sea-1","host":"sea-1.us.uncletopia.com","port":27015,"enabled":true,"region":"us-west","cc":"us","latitude":47.608013,"longitude":-122.33517,"reserved":0,"last_update":"0001-01-01T00:00:00Z","name_a2s":"Uncletopia | Seattle | 1 | All Maps","protocol":17,"map":"pl_snowycoast","folder":"tf","game":"Team Fortress","app_id":440,"player_count":24,"max_players":24,"Bots":0,"server_type":"Dedicated","server_os":"Linux","password":true,"vac":true,"version":"7961495","steam_id":85568392924469997,"keywords":["nocrits","nodmgspread","payload","uncletopia"],"game_id":440,"stv_port":27016,"stv_name":"Uncletopia | Seattle | 1 | All Maps | STV","players":[{"user_id":268,"name":"Shirm","steam_id":76561198068455981,"connected_time":729000000000,"state":"active","ping":77},{"user_id":248,"name":"Beef Wellington","steam_id":76561197995635241,"connected_time":2564000000000,"state":"active","ping":177},{"user_id":273,"name":"goos  e","steam_id":76561198036774894,"connected_time":607000000000,"state":"active","ping":61},{"user_id":267,"name":"A_Toaster","steam_id":76561198946997549,"connected_time":785000000000,"state":"active","ping":124},{"user_id":233,"name":"box","steam_id":76561198049531483,"connected_time":4830000000000,"state":"active","ping":116},{"user_id":270,"name":"FI LO","steam_id":76561198976530881,"connected_time":704000000000,"state":"active","ping":72},{"user_id":275,"name":"CDR","steam_id":76561198893421116,"connected_time":338000000000,"state":"active","ping":131},{"user_id":280,"name":"Grimace D. Drippings","steam_id":76561198050849790,"connected_time":144000000000,"state":"active","ping":109},{"user_id":237,"name":"mambo","steam_id":76561198811561721,"connected_time":4662000000000,"state":"active","ping":84},{"user_id":250,"name":"evilOlive","steam_id":76561198106222025,"connected_time":2554000000000,"state":"active","ping":86},{"user_id":274,"name":"collector's pest","steam_id":76561198170402666,"connected_time":531000000000,"state":"active","ping":71},{"user_id":279,"name":"Truffles","steam_id":76561198095868800,"connected_time":271000000000,"state":"active","ping":101},{"user_id":281,"name":"The Yiddish Dictionary","steam_id":76561198986862889,"connected_time":19000000000,"state":"spawning","ping":44},{"user_id":265,"name":"Addicted2TheShindig","steam_id":76561198062459671,"connected_time":879000000000,"state":"active","ping":79},{"user_id":242,"name":"Eden","steam_id":76561198081284664,"connected_time":4275000000000,"state":"active","ping":88},{"user_id":251,"name":"Noah1k","steam_id":76561199428633514,"connected_time":2379000000000,"state":"active","ping":53},{"user_id":272,"name":"Aloafofbread","steam_id":76561198160526290,"connected_time":691000000000,"state":"active","ping":61},{"user_id":261,"name":"your gender","steam_id":76561198097175164,"connected_time":1111000000000,"state":"active","ping":121},{"user_id":266,"name":"Cousin Balki","steam_id":76561198070496395,"connected_time":836000000000,"state":"active","ping":110},{"user_id":260,"name":"Ruben","steam_id":76561198048508642,"connected_time":1288000000000,"state":"active","ping":54},{"user_id":277,"name":"chocolateduck | F2P","steam_id":76561199084026785,"connected_time":293000000000,"state":"active","ping":53},{"user_id":222,"name":"catgirl giantess in heat","steam_id":76561198439042583,"connected_time":6040000000000,"state":"active","ping":117},{"user_id":241,"name":"Buswolley","steam_id":76561197995205571,"connected_time":4475000000000,"state":"active","ping":64},{"user_id":247,"name":"fey","steam_id":76561198119191002,"connected_time":2582000000000,"state":"active","ping":91}]},{"server_id":119,"name":"Uncletopia | Seattle | 2 | All Maps","name_short":"sea-2","host":"sea-1.us.uncletopia.com","port":27025,"enabled":true,"region":"us-west","cc":"us","latitude":47.608013,"longitude":-122.33517,"reserved":0,"last_update":"0001-01-01T00:00:00Z","name_a2s":"Uncletopia | Seattle | 2 | All Maps","protocol":17,"map":"koth_highpass","folder":"tf","game":"Team Fortress","app_id":440,"player_count":0,"max_players":24,"Bots":0,"server_type":"Dedicated","server_os":"Linux","password":true,"vac":true,"version":"7961495","steam_id":85568392924469998,"keywords":["cp","nocrits","nodmgspread","uncletopia"],"game_id":440,"stv_port":27026,"stv_name":"Uncletopia | Seattle | 2 | All Maps | STV","players":null},{"server_id":406,"name":"Uncletopia | Seattle | 3 | Stopwatch","name_short":"sea-3","host":"sea-1.us.uncletopia.com","port":27035,"enabled":true,"region":"us-west","cc":"us","latitude":47.608013,"longitude":-122.33517,"reserved":0,"last_update":"0001-01-01T00:00:00Z","name_a2s":"Uncletopia | Seattle | 3 | Stopwatch","protocol":17,"map":"workshop/cp_process_f12.ugc2302948105","folder":"tf","game":"Team Fortress","app_id":440,"player_count":0,"max_players":24,"Bots":0,"server_type":"Dedicated","server_os":"Linux","password":true,"vac":true,"version":"7961495","steam_id":85568392924515217,"keywords":["cp","nocrits","nodmgspread","uncletopia"],"game_id":440,"stv_port":27036,"stv_name":"Uncletopia | Seattle | 3 | Stopwatch | STV","players":null},{"server_id":17,"name":"Uncletopia | San Francisco | 1 | All Maps","name_short":"sfo-1","host":"sfo-1.us.uncletopia.com","port":27015,"enabled":true,"region":"us-west","cc":"us","latitude":37.77397,"longitude":-122.4313,"reserved":0,"last_update":"0001-01-01T00:00:00Z","name_a2s":"Uncletopia | San Francisco | 1 | All Maps","protocol":17,"map":"pl_upward","folder":"tf","game":"Team Fortress","app_id":440,"player_count":24,"max_players":24,"Bots":0,"server_type":"Dedicated","server_os":"Linux","password":true,"vac":true,"version":"7961495","steam_id":85568392924469999,"keywords":["nocrits","nodmgspread","payload","uncletopia"],"game_id":440,"stv_port":27016,"stv_name":"Uncletopia | San Francisco | 1 | All Maps | STV","players":[{"user_id":170,"name":"the keebler","steam_id":76561199486326945,"connected_time":2142000000000,"state":"active","ping":107},{"user_id":175,"name":"Jimmy McGill","steam_id":76561198135137213,"connected_time":1811000000000,"state":"active","ping":81},{"user_id":195,"name":"owl","steam_id":76561198088403016,"connected_time":183000000000,"state":"active","ping":154},{"user_id":194,"name":"Mudkip","steam_id":76561198164192160,"connected_time":188000000000,"state":"active","ping":45},{"user_id":150,"name":"Iamnotapotato","steam_id":76561198201436018,"connected_time":2773000000000,"state":"active","ping":108},{"user_id":157,"name":"Lavalace","steam_id":76561198073757592,"connected_time":2593000000000,"state":"active","ping":94},{"user_id":126,"name":"IanTheAwsm","steam_id":76561198093031738,"connected_time":3419000000000,"state":"active","ping":105},{"user_id":184,"name":"SanitysEdge","steam_id":76561198130732813,"connected_time":1186000000000,"state":"active","ping":51},{"user_id":190,"name":"Quigi","steam_id":76561198144645874,"connected_time":522000000000,"state":"active","ping":70},{"user_id":188,"name":"npc energy","steam_id":76561198035342207,"connected_time":739000000000,"state":"active","ping":87},{"user_id":128,"name":"stewroogaming","steam_id":76561198967474350,"connected_time":3398000000000,"state":"active","ping":133},{"user_id":198,"name":"BlinkEdward","steam_id":76561199059523184,"connected_time":54000000000,"state":"spawning","ping":71},{"user_id":196,"name":"NavyDinosaur","steam_id":76561198088459962,"connected_time":179000000000,"state":"active","ping":59},{"user_id":189,"name":"Jeffery","steam_id":76561198352805460,"connected_time":711000000000,"state":"active","ping":84},{"user_id":116,"name":"CantaloupeKing","steam_id":76561198041949472,"connected_time":4672000000000,"state":"active","ping":62},{"user_id":132,"name":"Chicken Gaming","steam_id":76561198976697705,"connected_time":3312000000000,"state":"active","ping":128},{"user_id":152,"name":"Dark Karl","steam_id":76561198115714484,"connected_time":2711000000000,"state":"active","ping":89},{"user_id":147,"name":"460BF0 JustAWarper","steam_id":76561198850723295,"connected_time":2969000000000,"state":"active","ping":82},{"user_id":191,"name":"KhorneBread Ô∏ª„Éá ‰∏Ä","steam_id":76561198097069958,"connected_time":454000000000,"state":"active","ping":125},{"user_id":185,"name":"Beta Fish","steam_id":76561198073504861,"connected_time":1165000000000,"state":"active","ping":102},{"user_id":181,"name":"BreadMann","steam_id":76561198094236237,"connected_time":1348000000000,"state":"active","ping":77},{"user_id":182,"name":"Gregor Samsa","steam_id":76561198085580612,"connected_time":1318000000000,"state":"active","ping":44},{"user_id":192,"name":"menta fresca","steam_id":76561198086666486,"connected_time":200000000000,"state":"active","ping":67},{"user_id":197,"name":"hittign dabong","steam_id":76561198097588802,"connected_time":135000000000,"state":"active","ping":97}]},{"server_id":18,"name":"Uncletopia | San Francisco | 2 | All Maps","name_short":"sfo-2","host":"sfo-1.us.uncletopia.com","port":27025,"enabled":true,"region":"us-west","cc":"us","latitude":37.77397,"longitude":-122.4313,"reserved":0,"last_update":"0001-01-01T00:00:00Z","name_a2s":"Uncletopia | San Francisco | 2 | All Maps","protocol":17,"map":"koth_viaduct","folder":"tf","game":"Team Fortress","app_id":440,"player_count":0,"max_players":24,"Bots":0,"server_type":"Dedicated","server_os":"Linux","password":true,"vac":true,"version":"7961495","steam_id":85568392924470000,"keywords":["cp","nocrits","nodmgspread","uncletopia"],"game_id":440,"stv_port":27026,"stv_name":"Uncletopia | San Francisco | 2 | All Maps | STV","players":null},{"server_id":19,"name":"Uncletopia | San Francisco | 3 | Stopwatch","name_short":"sfo-3","host":"sfo-1.us.uncletopia.com","port":27035,"enabled":true,"region":"us-west","cc":"us","latitude":37.77397,"longitude":-122.4313,"reserved":0,"last_update":"0001-01-01T00:00:00Z","name_a2s":"Uncletopia | San Francisco | 3 | Stopwatch","protocol":17,"map":"pl_pier","folder":"tf","game":"Team Fortress","app_id":440,"player_count":0,"max_players":24,"Bots":0,"server_type":"Dedicated","server_os":"Linux","password":true,"vac":true,"version":"7961495","steam_id":85568392924742824,"keywords":["nocrits","nodmgspread","payload","uncletopia"],"game_id":440,"stv_port":27036,"stv_name":"Uncletopia | San Francisco | 3 | Stopwatch | STV","players":null},{"server_id":20,"name":"Uncletopia | San Francisco | 4 | Community","name_short":"sfo-4","host":"sfo-1.us.uncletopia.com","port":27045,"enabled":true,"region":"us-west","cc":"us","latitude":37.77397,"longitude":-122.4313,"reserved":0,"last_update":"0001-01-01T00:00:00Z","name_a2s":"Uncletopia | San Francisco | 4 | Community","protocol":17,"map":"pl_pier","folder":"tf","game":"Team Fortress","app_id":440,"player_count":0,"max_players":24,"Bots":0,"server_type":"Dedicated","server_os":"Linux","password":true,"vac":true,"version":"7961495","steam_id":85568392924742826,"keywords":["nocrits","nodmgspread","payload","uncletopia"],"game_id":440,"stv_port":27046,"stv_name":"Uncletopia | San Francisco | 4 | Community | STV","players":null},{"server_id":141,"name":"Uncletopia | Sydney | 1 | All Maps","name_short":"syd-1","host":"syd-1.au.uncletopia.com","port":27015,"enabled":true,"region":"au","cc":"au","latitude":-33.865143,"longitude":151.2099,"reserved":0,"last_update":"0001-01-01T00:00:00Z","name_a2s":"Uncletopia | Sydney | 1 | All Maps","protocol":17,"map":"ctf_2fort","folder":"tf","game":"Team Fortress","app_id":440,"player_count":0,"max_players":24,"Bots":0,"server_type":"Dedicated","server_os":"Linux","password":true,"vac":true,"version":"7961495","steam_id":85568392924470001,"keywords":["ctf","nocrits","nodmgspread","uncletopia"],"game_id":440,"stv_port":27016,"stv_name":"Uncletopia | Sydney | 1 | All Maps | STV","players":null},{"server_id":123,"name":"Uncletopia | Sydney | 2 | All Maps","name_short":"syd-2","host":"syd-1.au.uncletopia.com","port":27025,"enabled":true,"region":"au","cc":"au","latitude":-33.865143,"longitude":151.2099,"reserved":0,"last_update":"0001-01-01T00:00:00Z","name_a2s":"Uncletopia | Sydney | 2 | All Maps","protocol":17,"map":"koth_lakeside_final","folder":"tf","game":"Team Fortress","app_id":440,"player_count":0,"max_players":24,"Bots":0,"server_type":"Dedicated","server_os":"Linux","password":true,"vac":true,"version":"7961495","steam_id":85568392924470002,"keywords":["cp","nocrits","nodmgspread","uncletopia"],"game_id":440,"stv_port":27026,"stv_name":"Uncletopia | Sydney | 2 | All Maps | STV","players":null},{"server_id":395,"name":"Uncletopia | Sydney | 3 | All Maps","name_short":"syd-3","host":"syd-1.au.uncletopia.com","port":27035,"enabled":true,"region":"au","cc":"au","latitude":-33.865143,"longitude":151.2099,"reserved":0,"last_update":"0001-01-01T00:00:00Z","name_a2s":"Uncletopia | Sydney | 3 | All Maps","protocol":17,"map":"pl_frontier_final","folder":"tf","game":"Team Fortress","app_id":440,"player_count":0,"max_players":24,"Bots":0,"server_type":"Dedicated","server_os":"Linux","password":true,"vac":true,"version":"7961495","steam_id":85568392925194467,"keywords":["nocrits","nodmgspread","payload","uncletopia"],"game_id":440,"stv_port":27036,"stv_name":"Uncletopia | Sydney | 3 | All Maps | STV","players":null},{"server_id":396,"name":"Uncletopia | Sydney | 4 | All Maps","name_short":"syd-4","host":"syd-1.au.uncletopia.com","port":27045,"enabled":true,"region":"au","cc":"au","latitude":-33.865143,"longitude":151.2099,"reserved":0,"last_update":"0001-01-01T00:00:00Z","name_a2s":"Uncletopia | Sydney | 4 | All Maps","protocol":17,"map":"koth_lakeside_final","folder":"tf","game":"Team Fortress","app_id":440,"player_count":0,"max_players":24,"Bots":0,"server_type":"Dedicated","server_os":"Linux","password":true,"vac":true,"version":"7961495","steam_id":85568392925397958,"keywords":["cp","nocrits","nodmgspread","uncletopia"],"game_id":440,"stv_port":27046,"stv_name":"Uncletopia | Sydney | 4 | All Maps | STV","players":null},{"server_id":58,"name":"Uncletopia | Sydney | 5 | Stopwatch","name_short":"syd-5","host":"syd-1.au.uncletopia.com","port":27055,"enabled":true,"region":"au","cc":"au","latitude":-33.865143,"longitude":151.2099,"reserved":0,"last_update":"0001-01-01T00:00:00Z","name_a2s":"Uncletopia | Sydney | 5 | Stopwatch","protocol":17,"map":"pl_swiftwater_final1","folder":"tf","game":"Team Fortress","app_id":440,"player_count":0,"max_players":24,"Bots":0,"server_type":"Dedicated","server_os":"Linux","password":true,"vac":true,"version":"7961495","steam_id":85568392925397959,"keywords":["nocrits","nodmgspread","payload","uncletopia"],"game_id":440,"stv_port":27056,"stv_name":"Uncletopia | Sydney | 5 | Stopwatch | STV","players":null},{"server_id":59,"name":"Uncletopia | Sydney | 6 | Community","name_short":"syd-6","host":"syd-1.au.uncletopia.com","port":27065,"enabled":true,"region":"au","cc":"au","latitude":-33.865143,"longitude":151.2099,"reserved":0,"last_update":"0001-01-01T00:00:00Z","name_a2s":"Uncletopia | Sydney | 6 | Community","protocol":17,"map":"workshop/pl_corrode_rc2.ugc546577989","folder":"tf","game":"Team Fortress","app_id":440,"player_count":0,"max_players":24,"Bots":0,"server_type":"Dedicated","server_os":"Linux","password":true,"vac":true,"version":"7961495","steam_id":85568392925397960,"keywords":["nocrits","nodmgspread","payload","uncletopia"],"game_id":440,"stv_port":27066,"stv_name":"Uncletopia | Sydney | 6 | Community | STV","players":null},{"server_id":49,"name":"Uncletopia | Warsaw | 1 | One Thousand Uncles","name_short":"waw-1","host":"waw-1.pl.uncletopia.com","port":27015,"enabled":true,"region":"eu","cc":"pl","latitude":52.2297,"longitude":21.017532,"reserved":0,"last_update":"0001-01-01T00:00:00Z","name_a2s":"Uncletopia | Warsaw | 1 | One Thousand Uncles","protocol":17,"map":"cp_mossrock","folder":"tf","game":"Team Fortress","app_id":440,"player_count":27,"max_players":32,"Bots":16,"server_type":"Dedicated","server_os":"Linux","password":true,"vac":true,"version":"7961495","steam_id":85568392925397850,"keywords":["alltalk","bots","cp","danepve","increased_maxplayers","nocrits","norespawntime","uncletopia"],"game_id":440,"stv_port":0,"stv_name":"","players":[{"user_id":478,"name":"Amon Gus","steam_id":76561199094540960,"connected_time":218000000000,"state":"active","ping":66},{"user_id":479,"name":"kakash","steam_id":76561199420637314,"connected_time":216000000000,"state":"active","ping":76},{"user_id":480,"name":"Ziemniaczki z koperkiem","steam_id":76561198829123464,"connected_time":107000000000,"state":"active","ping":33},{"user_id":448,"name":"OT Suicide Banditcamp.com","steam_id":76561198878019889,"connected_time":1009000000000,"state":"active","ping":63},{"user_id":460,"name":"Max Power","steam_id":76561198019269089,"connected_time":366000000000,"state":"active","ping":64},{"user_id":461,"name":"sungravy(GER)","steam_id":76561198271892524,"connected_time":324000000000,"state":"active","ping":63},{"user_id":451,"name":"vergil","steam_id":76561199410984595,"connected_time":863000000000,"state":"active","ping":66},{"user_id":436,"name":"Captian Wobbs","steam_id":76561198142884936,"connected_time":2330000000000,"state":"active","ping":179},{"user_id":444,"name":"officempce","steam_id":76561199036745532,"connected_time":1411000000000,"state":"active","ping":62},{"user_id":438,"name":"Pixar Cars on the PS2","steam_id":76561198079386295,"connected_time":1954000000000,"state":"active","ping":75},{"user_id":452,"name":"the one","steam_id":76561198037977091,"connected_time":723000000000,"state":"active","ping":132}]},{"server_id":50,"name":"Uncletopia | Warsaw | 2 | One Thousand Uncles","name_short":"waw-2","host":"waw-1.pl.uncletopia.com","port":27025,"enabled":true,"region":"eu","cc":"pl","latitude":52.2297,"longitude":21.017532,"reserved":0,"last_update":"0001-01-01T00:00:00Z","name_a2s":"Uncletopia | Warsaw | 2 | One Thousand Uncles","protocol":17,"map":"pl_chilly","folder":"tf","game":"Team Fortress","app_id":440,"player_count":0,"max_players":32,"Bots":0,"server_type":"Dedicated","server_os":"Linux","password":true,"vac":true,"version":"7961495","steam_id":85568392925397851,"keywords":["alltalk","danepve","increased_maxplayers","nocrits","norespawntime","payload","uncletopia"],"game_id":440,"stv_port":0,"stv_name":"","players":null},{"server_id":51,"name":"Uncletopia | Warsaw | 3 | All Maps","name_short":"waw-3","host":"waw-1.pl.uncletopia.com","port":27035,"enabled":true,"region":"eu","cc":"pl","latitude":52.2297,"longitude":21.017532,"reserved":0,"last_update":"0001-01-01T00:00:00Z","name_a2s":"Uncletopia | Warsaw | 3 | All Maps","protocol":17,"map":"koth_cascade","folder":"tf","game":"Team Fortress","app_id":440,"player_count":0,"max_players":24,"Bots":0,"server_type":"Dedicated","server_os":"Linux","password":true,"vac":true,"version":"7961495","steam_id":85568392925397852,"keywords":["cp","nocrits","nodmgspread","uncletopia"],"game_id":440,"stv_port":27036,"stv_name":"Uncletopia | Warsaw | 3 | All Maps | STV","players":null},{"server_id":52,"name":"Uncletopia | Warsaw | 4 | All Maps","name_short":"waw-4","host":"waw-1.pl.uncletopia.com","port":27045,"enabled":true,"region":"eu","cc":"pl","latitude":52.2297,"longitude":21.017532,"reserved":0,"last_update":"0001-01-01T00:00:00Z","name_a2s":"Uncletopia | Warsaw | 4 | All Maps","protocol":17,"map":"pl_frontier_final","folder":"tf","game":"Team Fortress","app_id":440,"player_count":0,"max_players":24,"Bots":0,"server_type":"Dedicated","server_os":"Linux","password":true,"vac":true,"version":"7961495","steam_id":85568392925397853,"keywords":["nocrits","nodmgspread","payload","uncletopia"],"game_id":440,"stv_port":27046,"stv_name":"Uncletopia | Warsaw | 4 | All Maps | STV","players":null},{"server_id":53,"name":"Uncletopia | Warsaw | 5 | Stopwatch","name_short":"waw-5","host":"waw-1.pl.uncletopia.com","port":27055,"enabled":true,"region":"eu","cc":"pl","latitude":52.2297,"longitude":21.017532,"reserved":0,"last_update":"0001-01-01T00:00:00Z","name_a2s":"Uncletopia | Warsaw | 5 | Stopwatch","protocol":17,"map":"koth_lakeside_final","folder":"tf","game":"Team Fortress","app_id":440,"player_count":0,"max_players":24,"Bots":0,"server_type":"Dedicated","server_os":"Linux","password":true,"vac":true,"version":"7961495","steam_id":85568392925397854,"keywords":["cp","nocrits","nodmgspread","uncletopia"],"game_id":440,"stv_port":27056,"stv_name":"Uncletopia | Warsaw | 5 | Stopwatch | STV","players":null},{"server_id":54,"name":"Uncletopia | Warsaw | 6 | Community","name_short":"waw-6","host":"waw-1.pl.uncletopia.com","port":27065,"enabled":true,"region":"eu","cc":"pl","latitude":52.2297,"longitude":21.017532,"reserved":0,"last_update":"0001-01-01T00:00:00Z","name_a2s":"Uncletopia | Warsaw | 6 | Community","protocol":17,"map":"workshop/cp_caldera_rc3.ugc2834196889","folder":"tf","game":"Team Fortress","app_id":440,"player_count":0,"max_players":24,"Bots":0,"server_type":"Dedicated","server_os":"Linux","password":true,"vac":true,"version":"7961495","steam_id":85568392925397856,"keywords":["cp","nocrits","nodmgspread","uncletopia"],"game_id":440,"stv_port":27066,"stv_name":"Uncletopia | Warsaw | 6 | Community | STV","players":null}]}