{"status":true,"message":"","result":[{"server_id":9,"name":"Uncletopia | Atlanta | 1 | All Maps","name_short":"atl-1","host":"atl-1.us.uncletopia.com","port":27015,"enabled":true,"region":"us-east","cc":"us","latitude":33.753746,"longitude":-84.38633,"reserved":0,"last_update":"0001-01-01T00:00:00Z","name_a2s":"Uncletopia | Atlanta | 1 | All Maps","protocol":17,"map":"koth_cascade","folder":"tf","game":"Team Fortress","app_id":440,"player_count":0,"max_players":24,"Bots":0,"server_type":"Dedicated","server_os":"Linux","password":true,"vac":true,"version":"7757534","steam_id":85568392924469982,"keywords":["cp","nocrits","nodmgspread","uncletopia"],"game_id":440,"stv_port":27016,"stv_name":"Uncletopia | Atlanta | 1 | All Maps | STV","players":null},{"server_id":104,"name":"Uncletopia | Atlanta | 2 | All Maps","name_short":"atl-2","host":"atl-1.us.uncletopia.com","port":27025,"enabled":true,"region":"us-east","cc":"us","latitude":33.753746,"longitude":-84.38633,"reserved":0,"last_update":"0001-01-01T00:00:00Z","name_a2s":"Uncletopia | Atlanta | 2 | All Maps","protocol":17,"map":"cp_dustbowl","folder":"tf","game":"Team Fortress","app_id":440,"player_count":1,"max_players":24,"Bots":0,"server_type":"Dedicated","server_os":"Linux","password":true,"vac":true,"version":"7757534","steam_id":85568392924469983,"keywords":["cp","nocrits","nodmgspread","uncletopia"],"game_id":440,"stv_port":27026,"stv_name":"Uncletopia | Atlanta | 2 | All Maps | STV","players":[{"user_id":9,"name":"Drygongames","steam_id":76561198250418424,"connected_time":126000000000,"state":"active","ping":76}]},{"server_id":400,"name":"Uncletopia | Atlanta | 3 | Community","name_short":"atl-3","host":"atl-1.us.uncletopia.com","port":27035,"enabled":true,"region":"us-east","cc":"us","latitude":33.753746,"longitude":-84.38633,"reserved":0,"last_update":"0001-01-01T00:00:00Z","name_a2s":"Uncletopia | Atlanta | 3 | Community","protocol":17,"map":"cp_snakewater_final1","folder":"tf","game":"Team Fortress","app_id":440,"player_count":0,"max_players":24,"Bots":0,"server_type":"Dedicated","server_os":"Linux","password":true,"vac":true,"version":"7757534","steam_id":85568392924515187,"keywords":["cp","nocrits","nodmgspread","uncletopia"],"game_id":440,"stv_port":27036,"stv_name":"Uncletopia | Atlanta | 3 | Community | STV","players":null},{"server_id":401,"name":"Uncletopia | Atlanta | 4 | No Payload","name_short":"atl-4","host":"atl-1.us.uncletopia.com","port":27045,"enabled":true,"region":"us-east","cc":"us","latitude":33.753746,"longitude":-84.38633,"reserved":0,"last_update":"0001-01-01T00:00:00Z","name_a2s":"","protocol":0,"map":"","folder":"","game":"","app_id":0,"player_count":0,"max_players":0,"Bots":0,"server_type":"","server_os":"","password":false,"vac":false,"version":"","steam_id":0,"keywords":null,"game_id":0,"stv_port":0,"stv_name":"","players":null},{"server_id":2,"name":"Uncletopia | Chicago | 1 | All Maps","name_short":"chi-1","host":"chi-1.us.uncletopia.com","port":27015,"enabled":true,"region":"us-central","cc":"us","latitude":41.881832,"longitude":-87.62318,"reserved":0,"last_update":"0001-01-01T00:00:00Z","name_a2s":"Uncletopia | Chicago | 1 | All Maps","protocol":17,"map":"pl_pier","folder":"tf","game":"Team Fortress","app_id":440,"player_count":24,"max_players":24,"Bots":0,"server_type":"Dedicated","server_os":"Linux","password":true,"vac":true,"version":"7757534","steam_id":85568392924469984,"keywords":["nocrits","nodmgspread","payload","uncletopia"],"game_id":440,"stv_port":27016,"stv_name":"Uncletopia | Chicago | 1 | All Maps | STV","players":[{"user_id":116,"name":"Venny","steam_id":76561198422066161,"connected_time":841000000000,"state":"active","ping":74},{"user_id":114,"name":"critterlover1","steam_id":76561198171368297,"connected_time":1153000000000,"state":"active","ping":58},{"user_id":111,"name":"Howard Hamlin","steam_id":76561198881039861,"connected_time":1359000000000,"state":"active","ping":47},{"user_id":65,"name":"iStrava","steam_id":76561198088223717,"connected_time":4877000000000,"state":"active","ping":51},{"user_id":75,"name":"tyg","steam_id":76561198056246867,"connected_time":3898000000000,"state":"active","ping":63},{"user_id":110,"name":"Rec","steam_id":76561198022813906,"connected_time":1366000000000,"state":"active","ping":50},{"user_id":112,"name":"83 DPM medic","steam_id":76561198067994868,"connected_time":1335000000000,"state":"active","ping":58},{"user_id":64,"name":"TATARA","steam_id":76561199098759517,"connected_time":4968000000000,"state":"active","ping":134},{"user_id":73,"name":"ItsRoy","steam_id":76561198119525485,"connected_time":4231000000000,"state":"active","ping":57},{"user_id":85,"name":"SCARY MONSTERS","steam_id":76561198042034176,"connected_time":2797000000000,"state":"active","ping":60},{"user_id":108,"name":"Resh420","steam_id":76561198066619792,"connected_time":1388000000000,"state":"active","ping":64},{"user_id":104,"name":"Russians With Satisfaction","steam_id":76561197993814144,"connected_time":1935000000000,"state":"active","ping":57},{"user_id":87,"name":"Anarchy","steam_id":76561198283240854,"connected_time":2746000000000,"state":"active","ping":76},{"user_id":119,"name":"PISSF****T","steam_id":76561199062570438,"connected_time":82000000000,"state":"active","ping":60},{"user_id":79,"name":"Nebula","steam_id":76561198795878862,"connected_time":3726000000000,"state":"active","ping":67},{"user_id":18,"name":"Richard","steam_id":76561198044115685,"connected_time":8132000000000,"state":"active","ping":60},{"user_id":105,"name":"Thundermonkey (SMOKE)","steam_id":76561198017631728,"connected_time":1880000000000,"state":"active","ping":81},{"user_id":115,"name":"Schleep","steam_id":76561198132879659,"connected_time":1115000000000,"state":"active","ping":58},{"user_id":117,"name":"Rat Bastard","steam_id":76561198153443658,"connected_time":723000000000,"state":"active","ping":79},{"user_id":118,"name":"Scooch","steam_id":76561198083869402,"connected_time":309000000000,"state":"active","ping":84},{"user_id":81,"name":"blakejack226","steam_id":76561199128917566,"connected_time":2838000000000,"state":"active","ping":81},{"user_id":69,"name":"kitsu ♥","steam_id":76561198091741658,"connected_time":4695000000000,"state":"active","ping":70},{"user_id":106,"name":"Mister Frank","steam_id":76561198161473385,"connected_time":1456000000000,"state":"active","ping":66},{"user_id":83,"name":"yomommasabitch","steam_id":76561198323217150,"connected_time":2837000000000,"state":"active","ping":62}]},{"server_id":106,"name":"Uncletopia | Chicago | 2 | All Maps","name_short":"chi-2","host":"chi-1.us.uncletopia.com","port":27025,"enabled":true,"region":"us-central","cc":"us","latitude":41.881832,"longitude":-87.62318,"reserved":0,"last_update":"0001-01-01T00:00:00Z","name_a2s":"Uncletopia | Chicago | 2 | All Maps","protocol":17,"map":"koth_lakeside_final","folder":"tf","game":"Team Fortress","app_id":440,"player_count":24,"max_players":24,"Bots":0,"server_type":"Dedicated","server_os":"Linux","password":true,"vac":true,"version":"7757534","steam_id":85568392924469985,"keywords":["cp","nocrits","nodmgspread","uncletopia"],"game_id":440,"stv_port":27026,"stv_name":"Uncletopia | Chicago | 2 | All Maps | STV","players":[{"user_id":4,"name":"Sparky","steam_id":76561198086845464,"connected_time":3620000000000,"state":"active","ping":49},{"user_id":6,"name":"Kirsk","steam_id":76561198084397649,"connected_time":3358000000000,"state":"active","ping":58},{"user_id":7,"name":"Fangirl (deck gaming)","steam_id":76561198253710690,"connected_time":2671000000000,"state":"active","ping":90},{"user_id":8,"name":"magickxanadu","steam_id":76561199117360103,"connected_time":2162000000000,"state":"active","ping":67},{"user_id":15,"name":"Cookies n Milk","steam_id":76561198071075134,"connected_time":1638000000000,"state":"active","ping":81},{"user_id":11,"name":"Whys there a level 3 there?","steam_id":76561198309696109,"connected_time":1786000000000,"state":"active","ping":79},{"user_id":50,"name":"Zenabie","steam_id":76561198088372680,"connected_time":77000000000,"state":"active","ping":73},{"user_id":37,"name":"BTS | Bumbler","steam_id":76561198048895038,"connected_time":710000000000,"state":"active","ping":75},{"user_id":48,"name":"Mr. Cheesey","steam_id":76561198153462183,"connected_time":247000000000,"state":"active","ping":63},{"user_id":27,"name":"Red","steam_id":76561198082958231,"connected_time":1065000000000,"state":"active","ping":66},{"user_id":41,"name":"Professional Brohamad","steam_id":76561198824025210,"connected_time":525000000000,"state":"active","ping":45},{"user_id":19,"name":"Koishi","steam_id":76561198054541054,"connected_time":1495000000000,"state":"active","ping":55},{"user_id":20,"name":"Sputnuts","steam_id":76561198236857310,"connected_time":1411000000000,"state":"active","ping":55},{"user_id":42,"name":"PolioInc","steam_id":76561199075853488,"connected_time":498000000000,"state":"active","ping":76},{"user_id":24,"name":"ECCO","steam_id":76561198002821513,"connected_time":1162000000000,"state":"active","ping":56},{"user_id":40,"name":"Candy Sparkles","steam_id":76561198126871264,"connected_time":664000000000,"state":"active","ping":84},{"user_id":43,"name":"Mablinlok","steam_id":76561197992718242,"connected_time":473000000000,"state":"active","ping":75},{"user_id":29,"name":"primordialheath","steam_id":76561199386942638,"connected_time":1027000000000,"state":"active","ping":78},{"user_id":49,"name":"Herr Müller","steam_id":76561198064876829,"connected_time":225000000000,"state":"active","ping":96},{"user_id":45,"name":"Joshua31704","steam_id":76561198125898714,"connected_time":450000000000,"state":"active","ping":67},{"user_id":32,"name":"Mopwater","steam_id":76561198113607272,"connected_time":975000000000,"state":"active","ping":76},{"user_id":44,"name":"hatchetax","steam_id":76561199013337543,"connected_time":454000000000,"state":"active","ping":75},{"user_id":46,"name":"Cactus Man","steam_id":76561198358584155,"connected_time":441000000000,"state":"active","ping":81},{"user_id":47,"name":"RileyNiko","steam_id":76561198162093639,"connected_time":429000000000,"state":"active","ping":72}]},{"server_id":402,"name":"Uncletopia | Chicago | 3 | All Maps","name_short":"chi-3","host":"chi-1.us.uncletopia.com","port":27035,"enabled":true,"region":"us-central","cc":"us","latitude":41.881832,"longitude":-87.62318,"reserved":0,"last_update":"0001-01-01T00:00:00Z","name_a2s":"Uncletopia | Chicago | 3 | All Maps","protocol":17,"map":"cp_sunshine","folder":"tf","game":"Team Fortress","app_id":440,"player_count":0,"max_players":24,"Bots":0,"server_type":"Dedicated","server_os":"Linux","password":true,"vac":true,"version":"7757534","steam_id":85568392924515191,"keywords":["cp","nocrits","nodmgspread","uncletopia"],"game_id":440,"stv_port":27036,"stv_name":"Uncletopia | Chicago | 3 | All Maps | STV","players":null},{"server_id":403,"name":"Uncletopia | Chicago | 4 | All Maps","name_short":"chi-4","host":"chi-1.us.uncletopia.com","port":27045,"enabled":true,"region":"us-central","cc":"us","latitude":41.881832,"longitude":-87.62318,"reserved":0,"last_update":"0001-01-01T00:00:00Z","name_a2s":"Uncletopia | Chicago | 4 | All Maps","protocol":17,"map":"koth_lakeside_final","folder":"tf","game":"Team Fortress","app_id":440,"player_count":0,"max_players":24,"Bots":0,"server_type":"Dedicated","server_os":"Linux","password":true,"vac":true,"version":"7757534","steam_id":85568392924515193,"keywords":["cp","nocrits","nodmgspread","uncletopia"],"game_id":440,"stv_port":27046,"stv_name":"Uncletopia | Chicago | 4 | All Maps | STV","players":null},{"server_id":36,"name":"Uncletopia | Chicago | 5 | All Maps","name_short":"chi-5","host":"chi-2.us.uncletopia.com","port":27015,"enabled":true,"region":"us-central","cc":"us","latitude":41.881832,"longitude":-87.62318,"reserved":0,"last_update":"0001-01-01T00:00:00Z","name_a2s":"Uncletopia | Chicago | 5 | All Maps","protocol":17,"map":"koth_cascade","folder":"tf","game":"Team Fortress","app_id":440,"player_count":0,"max_players":24,"Bots":0,"server_type":"Dedicated","server_os":"Linux","password":true,"vac":true,"version":"7757534","steam_id":85568392924866362,"keywords":["cp","nocrits","nodmgspread","uncletopia"],"game_id":440,"stv_port":27016,"stv_name":"Uncletopia | Chicago | 5 | All Maps | STV","players":null},{"server_id":37,"name":"Uncletopia | Chicago | 6 | All Maps","name_short":"chi-6","host":"chi-2.us.uncletopia.com","port":27025,"enabled":true,"region":"us-central","cc":"us","latitude":41.881832,"longitude":-87.62318,"reserved":0,"last_update":"0001-01-01T00:00:00Z","name_a2s":"Uncletopia | Chicago | 6 | All Maps","protocol":17,"map":"pl_borneo","folder":"tf","game":"Team Fortress","app_id":440,"player_count":0,"max_players":24,"Bots":0,"server_type":"Dedicated","server_os":"Linux","password":true,"vac":true,"version":"7757534","steam_id":85568392924866363,"keywords":["nocrits","nodmgspread","payload","uncletopia"],"game_id":440,"stv_port":27026,"stv_name":"Uncletopia | Chicago | 6 | All Maps | STV","players":null},{"server_id":38,"name":"Uncletopia | Chicago | 7 | Stopwatch Beta","name_short":"chi-7","host":"chi-2.us.uncletopia.com","port":27035,"enabled":true,"region":"us-central","cc":"us","latitude":41.881832,"longitude":-87.62318,"reserved":0,"last_update":"0001-01-01T00:00:00Z","name_a2s":"Uncletopia | Chicago | 7 | Stopwatch Beta","protocol":17,"map":"pl_barnblitz","folder":"tf","game":"Team Fortress","app_id":440,"player_count":0,"max_players":24,"Bots":0,"server_type":"Dedicated","server_os":"Linux","password":true,"vac":true,"version":"7757534","steam_id":85568392924866364,"keywords":["nocrits","nodmgspread","payload","uncletopia"],"game_id":440,"stv_port":27036,"stv_name":"Uncletopia | Chicago | 7 | Stopwatch Beta | STV","players":null},{"server_id":39,"name":"Uncletopia | Chicago | 8 | Community","name_short":"chi-8","host":"chi-2.us.uncletopia.com","port":27045,"enabled":true,"region":"us-central","cc":"us","latitude":41.881832,"longitude":-87.62318,"reserved":0,"last_update":"0001-01-01T00:00:00Z","name_a2s":"Uncletopia | Chicago | 8 | Community","protocol":17,"map":"koth_cascade","folder":"tf","game":"Team Fortress","app_id":440,"player_count":0,"max_players":24,"Bots":0,"server_type":"Dedicated","server_os":"Linux","password":true,"vac":true,"version":"7757534","steam_id":85568392924866365,"keywords":["cp","nocrits","nodmgspread","uncletopia"],"game_id":440,"stv_port":27046,"stv_name":"Uncletopia | Chicago | 8 | Community | STV","players":null},{"server_id":8,"name":"Uncletopia | Dallas | 1 | All Maps","name_short":"dal-1","host":"dal-1.us.uncletopia.com","port":27015,"enabled":true,"region":"us-central","cc":"us","latitude":32.779167,"longitude":-96.80889,"reserved":0,"last_update":"0001-01-01T00:00:00Z","name_a2s":"Uncletopia | Dallas | 1 | All Maps","protocol":17,"map":"koth_lakeside_final","folder":"tf","game":"Team Fortress","app_id":440,"player_count":0,"max_players":24,"Bots":0,"server_type":"Dedicated","server_os":"Linux","password":true,"vac":true,"version":"7757534","steam_id":85568392924469986,"keywords":["cp","nocrits","nodmgspread","uncletopia"],"game_id":440,"stv_port":27016,"stv_name":"Uncletopia | Dallas | 1 | All Maps | STV","players":null},{"server_id":108,"name":"Uncletopia | Dallas | 2 | All Maps","name_short":"dal-2","host":"dal-1.us.uncletopia.com","port":27025,"enabled":true,"region":"us-central","cc":"us","latitude":32.779167,"longitude":-96.80889,"reserved":0,"last_update":"0001-01-01T00:00:00Z","name_a2s":"Uncletopia | Dallas | 2 | All Maps","protocol":17,"map":"cp_altitude","folder":"tf","game":"Team Fortress","app_id":440,"player_count":0,"max_players":24,"Bots":0,"server_type":"Dedicated","server_os":"Linux","password":true,"vac":true,"version":"7757534","steam_id":85568392924469988,"keywords":["cp","nocrits","nodmgspread","uncletopia"],"game_id":440,"stv_port":27026,"stv_name":"Uncletopia | Dallas | 2 | All Maps | STV","players":null},{"server_id":5,"name":"Uncletopia | Frankfurt | 1 | All Maps","name_short":"frk-1","host":"frk-1.de.uncletopia.com","port":27015,"enabled":true,"region":"eu","cc":"de","latitude":50.110924,"longitude":8.682127,"reserved":0,"last_update":"0001-01-01T00:00:00Z","name_a2s":"Uncletopia | Frankfurt | 1 | All Maps","protocol":17,"map":"cp_mountainlab","folder":"tf","game":"Team Fortress","app_id":440,"player_count":0,"max_players":24,"Bots":0,"server_type":"Dedicated","server_os":"Linux","password":true,"vac":true,"version":"7757534","steam_id":85568392924469989,"keywords":["cp","nocrits","nodmgspread","uncletopia"],"game_id":440,"stv_port":27016,"stv_name":"Uncletopia | Frankfurt | 1 | All Maps | STV","players":null},{"server_id":110,"name":"Uncletopia | Frankfurt | 2 | All Maps","name_short":"frk-2","host":"frk-1.de.uncletopia.com","port":27025,"enabled":true,"region":"eu","cc":"de","latitude":50.110924,"longitude":8.682127,"reserved":0,"last_update":"0001-01-01T00:00:00Z","name_a2s":"Uncletopia | Frankfurt | 2 | All Maps","protocol":17,"map":"pl_swiftwater_final1","folder":"tf","game":"Team Fortress","app_id":440,"player_count":18,"max_players":24,"Bots":0,"server_type":"Dedicated","server_os":"Linux","password":true,"vac":true,"version":"7757534","steam_id":85568392924469990,"keywords":["nocrits","nodmgspread","payload","uncletopia"],"game_id":440,"stv_port":27026,"stv_name":"Uncletopia | Frankfurt | 2 | All Maps | STV","players":[{"user_id":9,"name":"soppasetä | trade.tf","steam_id":76561198800563349,"connected_time":1162000000000,"state":"active","ping":89},{"user_id":10,"name":"Robsu235","steam_id":76561198387475345,"connected_time":1159000000000,"state":"active","ping":108},{"user_id":25,"name":"engineer drip","steam_id":76561198991032570,"connected_time":122000000000,"state":"active","ping":79},{"user_id":12,"name":"gyfter","steam_id":76561198913806444,"connected_time":1054000000000,"state":"active","ping":119},{"user_id":26,"name":"Cocktor SeeS","steam_id":76561198316614199,"connected_time":90000000000,"state":"active","ping":716},{"user_id":20,"name":"Doriian","steam_id":76561198071438810,"connected_time":511000000000,"state":"active","ping":76},{"user_id":15,"name":"RIPkario","steam_id":76561199068338969,"connected_time":793000000000,"state":"active","ping":55},{"user_id":16,"name":"_Chelik_","steam_id":76561199076069284,"connected_time":749000000000,"state":"active","ping":82},{"user_id":17,"name":"forv","steam_id":76561198326667006,"connected_time":688000000000,"state":"active","ping":62},{"user_id":18,"name":"Hat Lover","steam_id":76561198312283433,"connected_time":649000000000,"state":"active","ping":87},{"user_id":19,"name":"Lobster Overlord","steam_id":76561198144692530,"connected_time":587000000000,"state":"active","ping":41},{"user_id":21,"name":"Poleeyan","steam_id":76561198885522435,"connected_time":468000000000,"state":"active","ping":103},{"user_id":23,"name":"Shark Petter","steam_id":76561198358801819,"connected_time":358000000000,"state":"active","ping":64},{"user_id":24,"name":"HAHAHAE23HWQEH","steam_id":76561198393727973,"connected_time":311000000000,"state":"active","ping":93},{"user_id":28,"name":"Spacerain","steam_id":76561198316971970,"connected_time":29000000000,"state":"active","ping":45},{"user_id":29,"name":"Mowelic","steam_id":76561198873641222,"connected_time":27000000000,"state":"active","ping":75},{"user_id":30,"name":"Polech","steam_id":76561199187916824,"connected_time":20000000000,"state":"active","ping":85},{"user_id":31,"name":"better call selo","steam_id":76561198976793469,"connected_time":2000000000,"state":"spawning","ping":80}]},{"server_id":308,"name":"Uncletopia | Frankfurt | 3 | All Maps","name_short":"frk-3","host":"frk-1.de.uncletopia.com","port":27035,"enabled":true,"region":"eu","cc":"de","latitude":50.110924,"longitude":8.682127,"reserved":0,"last_update":"0001-01-01T00:00:00Z","name_a2s":"Uncletopia | Frankfurt | 3 | All Maps","protocol":17,"map":"cp_dustbowl","folder":"tf","game":"Team Fortress","app_id":440,"player_count":0,"max_players":24,"Bots":0,"server_type":"Dedicated","server_os":"Linux","password":true,"vac":true,"version":"7757534","steam_id":85568392924504274,"keywords":["cp","nocrits","nodmgspread","uncletopia"],"game_id":440,"stv_port":27036,"stv_name":"Uncletopia | Frankfurt | 3 | All Maps | STV","players":null},{"server_id":309,"name":"Uncletopia | Frankfurt | 4 | All Maps","name_short":"frk-4","host":"frk-1.de.uncletopia.com","port":27045,"enabled":true,"region":"eu","cc":"de","latitude":50.110924,"longitude":8.682127,"reserved":0,"last_update":"0001-01-01T00:00:00Z","name_a2s":"Uncletopia | Frankfurt | 4 | All Maps","protocol":17,"map":"koth_viaduct","folder":"tf","game":"Team Fortress","app_id":440,"player_count":0,"max_players":24,"Bots":0,"server_type":"Dedicated","server_os":"Linux","password":true,"vac":true,"version":"7757534","steam_id":85568392924504275,"keywords":["cp","nocrits","nodmgspread","uncletopia"],"game_id":440,"stv_port":27046,"stv_name":"Uncletopia | Frankfurt | 4 | All Maps | STV","players":null},{"server_id":310,"name":"Uncletopia | Frankfurt | 5 | All Maps","name_short":"frk-5","host":"frk-1.de.uncletopia.com","port":27055,"enabled":true,"region":"eu","cc":"de","latitude":50.110924,"longitude":8.682127,"reserved":0,"last_update":"0001-01-01T00:00:00Z","name_a2s":"Uncletopia | Frankfurt | 5 | All Maps","protocol":17,"map":"pl_frontier_final","folder":"tf","game":"Team Fortress","app_id":440,"player_count":24,"max_players":24,"Bots":0,"server_type":"Dedicated","server_os":"Linux","password":true,"vac":true,"version":"7757534","steam_id":85568392924504277,"keywords":["nocrits","nodmgspread","payload","uncletopia"],"game_id":440,"stv_port":27056,"stv_name":"Uncletopia | Frankfurt | 5 | All Maps | STV","players":[{"user_id":98,"name":"___U_w_U___","steam_id":76561198246939740,"connected_time":1947000000000,"state":"active","ping":88},{"user_id":69,"name":"Laxslow","steam_id":76561198065361846,"connected_time":4538000000000,"state":"active","ping":52},{"user_id":106,"name":"XPullaHiiri","steam_id":76561198031652375,"connected_time":1356000000000,"state":"active","ping":88},{"user_id":104,"name":"Gamlader","steam_id":76561198306177608,"connected_time":1603000000000,"state":"active","ping":66},{"user_id":111,"name":"Paxergames","steam_id":76561198977004021,"connected_time":1216000000000,"state":"active","ping":62},{"user_id":68,"name":"e36 1.8","steam_id":76561198134203031,"connected_time":4573000000000,"state":"active","ping":62},{"user_id":99,"name":"JeanCorben","steam_id":76561197965133561,"connected_time":1896000000000,"state":"active","ping":45},{"user_id":120,"name":"Rambi","steam_id":76561199058078505,"connected_time":668000000000,"state":"active","ping":154},{"user_id":97,"name":"lore","steam_id":76561198120984188,"connected_time":2016000000000,"state":"active","ping":52},{"user_id":78,"name":"ÃNVS DRÃNVS","steam_id":76561198138733015,"connected_time":4013000000000,"state":"active","ping":111},{"user_id":64,"name":"Balls","steam_id":76561198086400484,"connected_time":4701000000000,"state":"active","ping":87},{"user_id":118,"name":"7-Zip","steam_id":76561198099726966,"connected_time":752000000000,"state":"active","ping":101},{"user_id":121,"name":"hoovy","steam_id":76561199228653314,"connected_time":611000000000,"state":"active","ping":174},{"user_id":122,"name":"Deacon Dracul","steam_id":76561198046880663,"connected_time":371000000000,"state":"active","ping":105},{"user_id":87,"name":"Anti_Dragon","steam_id":76561198969060607,"connected_time":2930000000000,"state":"active","ping":109},{"user_id":116,"name":"Camellia","steam_id":76561199472917804,"connected_time":1040000000000,"state":"active","ping":93},{"user_id":112,"name":"GunwithLegs","steam_id":76561199010532888,"connected_time":1208000000000,"state":"active","ping":64},{"user_id":77,"name":"ITA-Arma55","steam_id":76561198105782406,"connected_time":4159000000000,"state":"active","ping":63},{"user_id":79,"name":"i am really dead","steam_id":76561199087055541,"connected_time":3702000000000,"state":"active","ping":104},{"user_id":75,"name":"jabar7","steam_id":76561198055137986,"connected_time":4241000000000,"state":"active","ping":48},{"user_id":113,"name":"tralalaOuiOui","steam_id":76561197963471507,"connected_time":1178000000000,"state":"active","ping":56},{"user_id":102,"name":"Lyle","steam_id":76561198145166845,"connected_time":1700000000000,"state":"active","ping":162},{"user_id":114,"name":"Lukas","steam_id":76561198009118452,"connected_time":1158000000000,"state":"active","ping":67},{"user_id":57,"name":"Vibing Wave","steam_id":76561198866358613,"connected_time":4999000000000,"state":"active","ping":164}]},{"server_id":311,"name":"Uncletopia | Frankfurt | 6 | All Maps","name_short":"frk-6","host":"frk-1.de.uncletopia.com","port":27065,"enabled":true,"region":"eu","cc":"de","latitude":50.110924,"longitude":8.682127,"reserved":0,"last_update":"0001-01-01T00:00:00Z","name_a2s":"Uncletopia | Frankfurt | 6 | All Maps","protocol":17,"map":"pl_frontier_final","folder":"tf","game":"Team Fortress","app_id":440,"player_count":0,"max_players":24,"Bots":0,"server_type":"Dedicated","server_os":"Linux","password":true,"vac":true,"version":"7757534","steam_id":85568392924504278,"keywords":["nocrits","nodmgspread","payload","uncletopia"],"game_id":440,"stv_port":27066,"stv_name":"Uncletopia | Frankfurt | 6 | All Maps | STV","players":null},{"server_id":23,"name":"Uncletopia | Frankfurt | 7 | Stopwatch Beta","name_short":"frk-7","host":"frk-1.de.uncletopia.com","port":27075,"enabled":true,"region":"eu","cc":"de","latitude":50.110924,"longitude":8.682127,"reserved":0,"last_update":"0001-01-01T00:00:00Z","name_a2s":"Uncletopia | Frankfurt | 7 | Stopwatch Beta","protocol":17,"map":"workshop/pl_summercoast_rc8e.ugc1761528829","folder":"tf","game":"Team Fortress","app_id":440,"player_count":0,"max_players":24,"Bots":0,"server_type":"Dedicated","server_os":"Linux","password":true,"vac":true,"version":"7757534","steam_id":85568392924742827,"keywords":["nocrits","nodmgspread","payload","uncletopia"],"game_id":440,"stv_port":27076,"stv_name":"Uncletopia | Frankfurt | 7 | Stopwatch Beta | STV","players":null},{"server_id":24,"name":"Uncletopia | Frankfurt | 8 | Community","name_short":"frk-8","host":"frk-1.de.uncletopia.com","port":27085,"enabled":true,"region":"eu","cc":"de","latitude":50.110924,"longitude":8.682127,"reserved":0,"last_update":"0001-01-01T00:00:00Z","name_a2s":"Uncletopia | Frankfurt | 8 | Community","protocol":17,"map":"koth_lakeside_final","folder":"tf","game":"Team Fortress","app_id":440,"player_count":0,"max_players":24,"Bots":0,"server_type":"Dedicated","server_os":"Linux","password":true,"vac":true,"version":"7757534","steam_id":85568392924742828,"keywords":["cp","nocrits","nodmgspread","uncletopia"],"game_id":440,"stv_port":27086,"stv_name":"Uncletopia | Frankfurt | 8 | Community | STV","players":null},{"server_id":202,"name":"Uncletopia | Hong Kong | 1 | All Maps","name_short":"hgk-1","host":"hgk-1.hk.uncletopia.com","port":27015,"enabled":true,"region":"asia","cc":"hk","latitude":22.302711,"longitude":114.177216,"reserved":0,"last_update":"0001-01-01T00:00:00Z","name_a2s":"Uncletopia | Hong Kong | 1 | All Maps","protocol":17,"map":"pl_thundermountain","folder":"tf","game":"Team Fortress","app_id":440,"player_count":24,"max_players":24,"Bots":0,"server_type":"Dedicated","server_os":"Linux","password":true,"vac":true,"version":"7757534","steam_id":85568392924494504,"keywords":["nocrits","nodmgspread","payload","uncletopia"],"game_id":440,"stv_port":27016,"stv_name":"Uncletopia | Hong Kong | 1 | All Maps | STV","players":[{"user_id":339,"name":"쿠키","steam_id":76561197997220367,"connected_time":3331000000000,"state":"active","ping":53},{"user_id":369,"name":"Yee haw chucklenuts","steam_id":76561198210380077,"connected_time":378000000000,"state":"active","ping":126},{"user_id":363,"name":"母の肉団子@hao123.com","steam_id":76561198069561896,"connected_time":1201000000000,"state":"active","ping":43},{"user_id":333,"name":"Noyour","steam_id":76561198323259830,"connected_time":4525000000000,"state":"active","ping":128},{"user_id":359,"name":"BOK","steam_id":76561198095872644,"connected_time":1492000000000,"state":"active","ping":87},{"user_id":308,"name":"yw","steam_id":76561199382726488,"connected_time":6509000000000,"state":"active","ping":44},{"user_id":307,"name":"煙海 | Enkai","steam_id":76561198050460825,"connected_time":6720000000000,"state":"active","ping":76},{"user_id":299,"name":"WoChao","steam_id":76561198234487088,"connected_time":7514000000000,"state":"active","ping":72},{"user_id":354,"name":"haha-manヾ(･ω･｡)ｼ","steam_id":76561198113626204,"connected_time":2181000000000,"state":"active","ping":50},{"user_id":368,"name":"erwynmurphy711","steam_id":76561198288311270,"connected_time":491000000000,"state":"active","ping":90},{"user_id":361,"name":"Lelouch","steam_id":76561198828840546,"connected_time":1370000000000,"state":"active","ping":79},{"user_id":335,"name":"RedBee (Femboy Nurse 雙)","steam_id":76561198976736971,"connected_time":4092000000000,"state":"active","ping":39},{"user_id":348,"name":"Milf (The Milk fan)","steam_id":76561198213031155,"connected_time":2800000000000,"state":"active","ping":96},{"user_id":355,"name":"siyu","steam_id":76561198952342211,"connected_time":2176000000000,"state":"active","ping":70},{"user_id":344,"name":"dumgall","steam_id":76561198061634407,"connected_time":3294000000000,"state":"active","ping":128},{"user_id":366,"name":"Nerdy Virgin","steam_id":76561198039478798,"connected_time":623000000000,"state":"active","ping":87},{"user_id":345,"name":"Ivy","steam_id":76561198400698408,"connected_time":3215000000000,"state":"active","ping":90},{"user_id":367,"name":"Yuudachi0228","steam_id":76561199059472783,"connected_time":606000000000,"state":"active","ping":77},{"user_id":324,"name":"UltraFat","steam_id":76561198253918132,"connected_time":5128000000000,"state":"active","ping":96},{"user_id":341,"name":"shenko","steam_id":76561198082921407,"connected_time":3329000000000,"state":"active","ping":98},{"user_id":352,"name":"bocchini","steam_id":76561198138187921,"connected_time":2644000000000,"state":"active","ping":51},{"user_id":331,"name":"Momoxhien","steam_id":76561198414997429,"connected_time":4750000000000,"state":"active","ping":69},{"user_id":370,"name":"AmaiRetarded","steam_id":76561199122491157,"connected_time":57000000000,"state":"active","ping":134},{"user_id":362,"name":"OmpR","steam_id":76561198139734756,"connected_time":1306000000000,"state":"active","ping":77}]},{"server_id":1,"name":"Uncletopia | Los Angeles | 1 | All Maps","name_short":"lax-1","host":"lax-1.us.uncletopia.com","port":27015,"enabled":true,"region":"us-west","cc":"us","latitude":33.94279,"longitude":-118.41004,"reserved":0,"last_update":"0001-01-01T00:00:00Z","name_a2s":"Uncletopia | Los Angeles | 1 | All Maps","protocol":17,"map":"koth_lakeside_final","folder":"tf","game":"Team Fortress","app_id":440,"player_count":0,"max_players":24,"Bots":0,"server_type":"Dedicated","server_os":"Linux","password":true,"vac":true,"version":"7757534","steam_id":85568392924469991,"keywords":["cp","nocrits","nodmgspread","uncletopia"],"game_id":440,"stv_port":27016,"stv_name":"Uncletopia | Los Angeles | 1 | All Maps | STV","players":null},{"server_id":112,"name":"Uncletopia | Los Angeles | 2 | All Maps","name_short":"lax-2","host":"lax-1.us.uncletopia.com","port":27025,"enabled":true,"region":"us-west","cc":"us","latitude":33.94279,"longitude":-118.41004,"reserved":0,"last_update":"0001-01-01T00:00:00Z","name_a2s":"Uncletopia | Los Angeles | 2 | All Maps","protocol":17,"map":"pl_badwater","folder":"tf","game":"Team Fortress","app_id":440,"player_count":15,"max_players":24,"Bots":0,"server_type":"Dedicated","server_os":"Linux","password":true,"vac":true,"version":"7757534","steam_id":85568392924469992,"keywords":["nocrits","nodmgspread","payload","uncletopia"],"game_id":440,"stv_port":27026,"stv_name":"Uncletopia | Los Angeles | 2 | All Maps | STV","players":[{"user_id":19,"name":"PiNKWiTCH","steam_id":76561199184728918,"connected_time":735000000000,"state":"active","ping":114},{"user_id":4,"name":"Conclusion E²","steam_id":76561198100017156,"connected_time":1049000000000,"state":"active","ping":94},{"user_id":18,"name":"oh wow","steam_id":76561199187075221,"connected_time":762000000000,"state":"active","ping":104},{"user_id":6,"name":"Grassman (Cc)","steam_id":76561198026488532,"connected_time":1045000000000,"state":"active","ping":49},{"user_id":20,"name":"Lobotomite Scout Player","steam_id":76561198046526036,"connected_time":712000000000,"state":"active","ping":44},{"user_id":8,"name":"virtualmaryjuana","steam_id":76561198114603745,"connected_time":1041000000000,"state":"active","ping":59},{"user_id":9,"name":"Slumpbuster23","steam_id":76561198890029912,"connected_time":1037000000000,"state":"active","ping":45},{"user_id":10,"name":"blozet","steam_id":76561199120161035,"connected_time":1031000000000,"state":"active","ping":155},{"user_id":11,"name":"William Murdoch","steam_id":76561198031394373,"connected_time":1015000000000,"state":"active","ping":112},{"user_id":14,"name":"Mr.Kevin120","steam_id":76561199186919096,"connected_time":982000000000,"state":"active","ping":146},{"user_id":25,"name":"Isaac","steam_id":76561198142142680,"connected_time":0,"state":"spawning","ping":28},{"user_id":15,"name":"Pro Box","steam_id":76561198035990809,"connected_time":953000000000,"state":"active","ping":134},{"user_id":16,"name":"kris the deer","steam_id":76561198170928310,"connected_time":943000000000,"state":"active","ping":111},{"user_id":23,"name":"UzuNep","steam_id":76561198451679346,"connected_time":328000000000,"state":"active","ping":78},{"user_id":24,"name":"Have some faith","steam_id":76561198978665598,"connected_time":285000000000,"state":"active","ping":49}]},{"server_id":324,"name":"Uncletopia | Los Angeles | 3 | All Maps","name_short":"lax-3","host":"lax-1.us.uncletopia.com","port":27035,"enabled":true,"region":"us-west","cc":"us","latitude":33.94279,"longitude":-118.41004,"reserved":0,"last_update":"0001-01-01T00:00:00Z","name_a2s":"Uncletopia | Los Angeles | 3 | All Maps","protocol":17,"map":"pl_barnblitz","folder":"tf","game":"Team Fortress","app_id":440,"player_count":0,"max_players":24,"Bots":0,"server_type":"Dedicated","server_os":"Linux","password":true,"vac":true,"version":"7757534","steam_id":85568392924510198,"keywords":["nocrits","nodmgspread","payload","uncletopia"],"game_id":440,"stv_port":27036,"stv_name":"Uncletopia | Los Angeles | 3 | All Maps | STV","players":null},{"server_id":25,"name":"Uncletopia | Los Angeles | 4 | Stopwatch Beta","name_short":"lax-4","host":"lax-1.us.uncletopia.com","port":27045,"enabled":true,"region":"us-west","cc":"us","latitude":33.94279,"longitude":-118.41004,"reserved":0,"last_update":"0001-01-01T00:00:00Z","name_a2s":"Uncletopia | Los Angeles | 4 | Stopwatch Beta","protocol":17,"map":"pl_swiftwater_final1","folder":"tf","game":"Team Fortress","app_id":440,"player_count":0,"max_players":24,"Bots":0,"server_type":"Dedicated","server_os":"Linux","password":true,"vac":true,"version":"7757534","steam_id":85568392924510199,"keywords":["nocrits","nodmgspread","payload","uncletopia"],"game_id":440,"stv_port":27046,"stv_name":"Uncletopia | Los Angeles | 4 | Stopwatch Beta | STV","players":null},{"server_id":11,"name":"Uncletopia | London | 1 | All Maps","name_short":"lon-1","host":"lon-1.uk.uncletopia.com","port":27015,"enabled":true,"region":"eu","cc":"gb","latitude":51.509865,"longitude":-0.118092,"reserved":0,"last_update":"0001-01-01T00:00:00Z","name_a2s":"Uncletopia | London | 1 | All Maps","protocol":17,"map":"pl_swiftwater_final1","folder":"tf","game":"Team Fortress","app_id":440,"player_count":24,"max_players":24,"Bots":0,"server_type":"Dedicated","server_os":"Linux","password":true,"vac":true,"version":"7757534","steam_id":85568392924367362,"keywords":["nocrits","nodmgspread","payload","uncletopia"],"game_id":440,"stv_port":27016,"stv_name":"Uncletopia | London | 1 | All Maps | STV","players":[{"user_id":248,"name":"Ziemniaczki z koperkiem","steam_id":76561198829123464,"connected_time":3242000000000,"state":"active","ping":83},{"user_id":273,"name":"Zoran Snajper","steam_id":76561198312564061,"connected_time":1326000000000,"state":"active","ping":72},{"user_id":274,"name":"ThatTFguy","steam_id":76561198056794321,"connected_time":1289000000000,"state":"active","ping":58},{"user_id":286,"name":"SRMIGUEL","steam_id":76561198991944373,"connected_time":680000000000,"state":"active","ping":60},{"user_id":287,"name":"DocTwoEight","steam_id":76561198153488940,"connected_time":676000000000,"state":"active","ping":76},{"user_id":288,"name":"TheFallenFox","steam_id":76561199074190919,"connected_time":651000000000,"state":"active","ping":61},{"user_id":272,"name":"iAmBack!\u003c3","steam_id":76561198004525276,"connected_time":1362000000000,"state":"active","ping":82},{"user_id":297,"name":"Big Al","steam_id":76561198067692439,"connected_time":102000000000,"state":"active","ping":118},{"user_id":260,"name":"Kotlet schabowy","steam_id":76561198048983509,"connected_time":2212000000000,"state":"active","ping":84},{"user_id":298,"name":"Lucoa Enjoyer","steam_id":76561198842622419,"connected_time":98000000000,"state":"active","ping":96},{"user_id":269,"name":"MeBandae","steam_id":76561198910770432,"connected_time":1442000000000,"state":"active","ping":92},{"user_id":292,"name":"Some Guy","steam_id":76561198137335527,"connected_time":340000000000,"state":"active","ping":53},{"user_id":188,"name":"Dehydrated","steam_id":76561198970587989,"connected_time":7178000000000,"state":"active","ping":92},{"user_id":278,"name":"El Pybro","steam_id":76561198104675157,"connected_time":1000000000000,"state":"active","ping":91},{"user_id":153,"name":"poliakov.noam","steam_id":76561199259322961,"connected_time":9069000000000,"state":"active","ping":105},{"user_id":275,"name":"Mr. Pinkie","steam_id":76561198002258053,"connected_time":1274000000000,"state":"active","ping":71},{"user_id":210,"name":"keen zoomer","steam_id":76561198281647082,"connected_time":5679000000000,"state":"active","ping":108},{"user_id":238,"name":"NLSAM","steam_id":76561199111154916,"connected_time":4205000000000,"state":"active","ping":59},{"user_id":279,"name":"BIG JOEY","steam_id":76561198045634257,"connected_time":978000000000,"state":"active","ping":123},{"user_id":284,"name":"romaingallo","steam_id":76561198268112907,"connected_time":815000000000,"state":"active","ping":79},{"user_id":237,"name":"Dakeyras","steam_id":76561198057069564,"connected_time":4312000000000,"state":"active","ping":100},{"user_id":293,"name":"bILLY","steam_id":76561198196939855,"connected_time":266000000000,"state":"active","ping":59},{"user_id":289,"name":"Sirky","steam_id":76561198082407725,"connected_time":599000000000,"state":"active","ping":54},{"user_id":283,"name":"lynceus","steam_id":76561198131209426,"connected_time":880000000000,"state":"active","ping":56}]},{"server_id":114,"name":"Uncletopia | London | 2 | All Maps","name_short":"lon-2","host":"lon-1.uk.uncletopia.com","port":27025,"enabled":true,"region":"eu","cc":"gb","latitude":51.509865,"longitude":-0.118092,"reserved":0,"last_update":"0001-01-01T00:00:00Z","name_a2s":"Uncletopia | London | 2 | All Maps","protocol":17,"map":"pl_pier","folder":"tf","game":"Team Fortress","app_id":440,"player_count":24,"max_players":24,"Bots":0,"server_type":"Dedicated","server_os":"Linux","password":true,"vac":true,"version":"7757534","steam_id":85568392924470941,"keywords":["nocrits","nodmgspread","payload","uncletopia"],"game_id":440,"stv_port":27026,"stv_name":"Uncletopia | London | 2 | All Maps | STV","players":[{"user_id":328,"name":"Valentine","steam_id":76561198121343565,"connected_time":2149000000000,"state":"active","ping":58},{"user_id":100,"name":"finger","steam_id":76561198133782205,"connected_time":20958000000000,"state":"active","ping":141},{"user_id":360,"name":"God's Goofiest Goober","steam_id":76561198103175187,"connected_time":25000000000,"state":"active","ping":66},{"user_id":355,"name":"Le père Volca","steam_id":76561198235814492,"connected_time":1118000000000,"state":"active","ping":77},{"user_id":338,"name":"piss™","steam_id":76561198108098760,"connected_time":1850000000000,"state":"active","ping":41},{"user_id":351,"name":"i am bread","steam_id":76561199180277321,"connected_time":1253000000000,"state":"active","ping":55},{"user_id":311,"name":"Greenmaker","steam_id":76561198060466591,"connected_time":3485000000000,"state":"active","ping":88},{"user_id":352,"name":"Redkiller","steam_id":76561199453655288,"connected_time":1250000000000,"state":"active","ping":130},{"user_id":341,"name":"AmericanHessian","steam_id":76561198236694548,"connected_time":1643000000000,"state":"active","ping":160},{"user_id":346,"name":"Capu","steam_id":76561198114301162,"connected_time":1518000000000,"state":"active","ping":72},{"user_id":342,"name":"++Old_M@N++","steam_id":76561197994792094,"connected_time":1635000000000,"state":"active","ping":77},{"user_id":348,"name":"Jacknerik","steam_id":76561198041365662,"connected_time":1423000000000,"state":"active","ping":130},{"user_id":350,"name":"Jack","steam_id":76561198325505238,"connected_time":1314000000000,"state":"active","ping":82},{"user_id":361,"name":"Saint","steam_id":76561198003296382,"connected_time":20000000000,"state":"active","ping":76},{"user_id":358,"name":"The Weakest Brazilian Male","steam_id":76561198273215396,"connected_time":490000000000,"state":"active","ping":33},{"user_id":335,"name":"Jakk","steam_id":76561198041537908,"connected_time":1991000000000,"state":"active","ping":95},{"user_id":340,"name":"BOZZO","steam_id":76561198044210844,"connected_time":1833000000000,"state":"active","ping":77},{"user_id":359,"name":"Fish (laggy)","steam_id":76561199133635066,"connected_time":410000000000,"state":"active","ping":82},{"user_id":354,"name":"Wir suchen dich!","steam_id":76561198307613521,"connected_time":1201000000000,"state":"active","ping":56},{"user_id":345,"name":"Mr.Cobretti","steam_id":76561198089905715,"connected_time":1582000000000,"state":"active","ping":81},{"user_id":357,"name":"apple","steam_id":76561198350676879,"connected_time":848000000000,"state":"active","ping":106},{"user_id":327,"name":"Tremilta","steam_id":76561198063299674,"connected_time":2181000000000,"state":"active","ping":61},{"user_id":347,"name":"Sneikijs","steam_id":76561198052549308,"connected_time":1504000000000,"state":"active","ping":51},{"user_id":349,"name":"Lewylow","steam_id":76561198005425686,"connected_time":1398000000000,"state":"active","ping":53}]},{"server_id":320,"name":"Uncletopia | London | 3 | All Maps","name_short":"lon-3","host":"lon-1.uk.uncletopia.com","port":27035,"enabled":true,"region":"eu","cc":"gb","latitude":51.509865,"longitude":-0.118092,"reserved":0,"last_update":"0001-01-01T00:00:00Z","name_a2s":"Uncletopia | London | 3 | All Maps","protocol":17,"map":"pl_upward","folder":"tf","game":"Team Fortress","app_id":440,"player_count":23,"max_players":24,"Bots":0,"server_type":"Dedicated","server_os":"Linux","password":true,"vac":true,"version":"7757534","steam_id":85568392924510192,"keywords":["nocrits","nodmgspread","payload","uncletopia"],"game_id":440,"stv_port":27036,"stv_name":"Uncletopia | London | 3 | All Maps | STV","players":[{"user_id":29,"name":"Dr.Ludwig Sex (F2P)","steam_id":76561199230379349,"connected_time":2483000000000,"state":"active","ping":71},{"user_id":22,"name":"tummaluppo taivaltaja","steam_id":76561198093458326,"connected_time":3735000000000,"state":"active","ping":60},{"user_id":58,"name":"det","steam_id":76561198261505536,"connected_time":890000000000,"state":"active","ping":67},{"user_id":62,"name":"chocolate flavoured femboy","steam_id":76561198819353867,"connected_time":521000000000,"state":"active","ping":34},{"user_id":60,"name":"generic alias","steam_id":76561198271607226,"connected_time":573000000000,"state":"active","ping":90},{"user_id":63,"name":"elli","steam_id":76561198279637513,"connected_time":325000000000,"state":"active","ping":76},{"user_id":35,"name":"FishtankBen","steam_id":76561198193950215,"connected_time":2006000000000,"state":"active","ping":49},{"user_id":33,"name":"Avannah","steam_id":76561198173174046,"connected_time":2246000000000,"state":"active","ping":55},{"user_id":34,"name":"Enigmus","steam_id":76561197994063627,"connected_time":2213000000000,"state":"active","ping":82},{"user_id":49,"name":"minespweper","steam_id":76561199096919345,"connected_time":1319000000000,"state":"active","ping":90},{"user_id":64,"name":"Caro-Kann","steam_id":76561198065506317,"connected_time":288000000000,"state":"active","ping":69},{"user_id":40,"name":"PlushtrapDev","steam_id":76561199109026519,"connected_time":1766000000000,"state":"active","ping":101},{"user_id":43,"name":"Largo","steam_id":76561198844368927,"connected_time":1531000000000,"state":"active","ping":72},{"user_id":59,"name":"Haha?","steam_id":76561198056882245,"connected_time":658000000000,"state":"active","ping":33},{"user_id":65,"name":"Eggcracker","steam_id":76561199274850641,"connected_time":271000000000,"state":"active","ping":84},{"user_id":50,"name":"where is my egg?","steam_id":76561198172542535,"connected_time":1297000000000,"state":"active","ping":71},{"user_id":47,"name":"Gordon","steam_id":76561198088042034,"connected_time":1393000000000,"state":"active","ping":101},{"user_id":52,"name":"Lag","steam_id":76561198159360376,"connected_time":1260000000000,"state":"active","ping":45},{"user_id":53,"name":"swueuws","steam_id":76561198020716743,"connected_time":1154000000000,"state":"active","ping":62},{"user_id":54,"name":"Infantile Pillock","steam_id":76561198283851362,"connected_time":1127000000000,"state":"active","ping":61},{"user_id":55,"name":"Toples","steam_id":76561198259218982,"connected_time":1109000000000,"state":"active","ping":82},{"user_id":56,"name":"RiX","steam_id":76561197969053733,"connected_time":1092000000000,"state":"active","ping":67},{"user_id":57,"name":"Cheers Mate!","steam_id":76561198265192382,"connected_time":984000000000,"state":"active","ping":73}]},{"server_id":321,"name":"Uncletopia | London | 4 | All Maps","name_short":"lon-4","host":"lon-1.uk.uncletopia.com","port":27045,"enabled":true,"region":"eu","cc":"gb","latitude":51.509865,"longitude":-0.118092,"reserved":0,"last_update":"0001-01-01T00:00:00Z","name_a2s":"Uncletopia | London | 4 | All Maps","protocol":17,"map":"cp_dustbowl","folder":"tf","game":"Team Fortress","app_id":440,"player_count":0,"max_players":24,"Bots":0,"server_type":"Dedicated","server_os":"Linux","password":true,"vac":true,"version":"7757534","steam_id":85568392924510193,"keywords":["cp","nocrits","nodmgspread","uncletopia"],"game_id":440,"stv_port":27046,"stv_name":"Uncletopia | London | 4 | All Maps | STV","players":null},{"server_id":21,"name":"Uncletopia | London | 5 | All Maps","name_short":"lon-5","host":"lon-1.uk.uncletopia.com","port":27055,"enabled":true,"region":"eu","cc":"gb","latitude":51.509865,"longitude":-0.118092,"reserved":0,"last_update":"0001-01-01T00:00:00Z","name_a2s":"Uncletopia | London | 5 | All Maps","protocol":17,"map":"pl_badwater","folder":"tf","game":"Team Fortress","app_id":440,"player_count":22,"max_players":24,"Bots":0,"server_type":"Dedicated","server_os":"Linux","password":true,"vac":true,"version":"7757534","steam_id":85568392924742829,"keywords":["nocrits","nodmgspread","payload","uncletopia"],"game_id":440,"stv_port":27056,"stv_name":"Uncletopia | London | 5 | All Maps | STV","players":[{"user_id":78,"name":"texory","steam_id":76561198060339391,"connected_time":2737000000000,"state":"active","ping":53},{"user_id":116,"name":"Scent Tree Ahead","steam_id":76561198020270981,"connected_time":23000000000,"state":"active","ping":130},{"user_id":102,"name":"Jyghc","steam_id":76561198405980575,"connected_time":1017000000000,"state":"active","ping":65},{"user_id":79,"name":"Sir.Wheatly","steam_id":76561197995938007,"connected_time":2660000000000,"state":"active","ping":108},{"user_id":87,"name":"Flare","steam_id":76561198039098320,"connected_time":2305000000000,"state":"active","ping":47},{"user_id":110,"name":"godspeed","steam_id":76561198216693185,"connected_time":677000000000,"state":"active","ping":67},{"user_id":14,"name":"Psychicpie","steam_id":76561198126065206,"connected_time":5783000000000,"state":"active","ping":50},{"user_id":82,"name":"Chad","steam_id":76561198037309490,"connected_time":2493000000000,"state":"active","ping":75},{"user_id":86,"name":"。。。","steam_id":76561198101624996,"connected_time":2346000000000,"state":"active","ping":98},{"user_id":117,"name":"꧁๖乡Ðe·SexyLion乡꧂","steam_id":76561198123539320,"connected_time":6000000000,"state":"spawning","ping":93},{"user_id":104,"name":"SÜLEYMAN ÇAKIR","steam_id":76561199068170005,"connected_time":951000000000,"state":"active","ping":92},{"user_id":114,"name":"roog","steam_id":76561198188652402,"connected_time":199000000000,"state":"active","ping":83},{"user_id":106,"name":"the bron jame","steam_id":76561198069249293,"connected_time":840000000000,"state":"active","ping":78},{"user_id":112,"name":"Pink Cheese","steam_id":76561198972186436,"connected_time":512000000000,"state":"active","ping":60},{"user_id":100,"name":"Spinyapickle","steam_id":76561198086653667,"connected_time":1331000000000,"state":"active","ping":48},{"user_id":115,"name":"THUG2HARD2004","steam_id":76561198108896306,"connected_time":184000000000,"state":"active","ping":129},{"user_id":107,"name":"Farmercy","steam_id":76561198000038039,"connected_time":816000000000,"state":"active","ping":73},{"user_id":111,"name":"elijah","steam_id":76561198093936708,"connected_time":661000000000,"state":"active","ping":60},{"user_id":108,"name":"Mr. Hunts","steam_id":76561197981910397,"connected_time":811000000000,"state":"active","ping":63},{"user_id":98,"name":"---","steam_id":76561198027463207,"connected_time":1532000000000,"state":"active","ping":51},{"user_id":99,"name":"Fluffy","steam_id":76561198084447725,"connected_time":1384000000000,"state":"active","ping":45},{"user_id":109,"name":"jose.gonzales2007","steam_id":76561198361643762,"connected_time":780000000000,"state":"active","ping":78}]},{"server_id":22,"name":"Uncletopia | London | 6 | All Maps","name_short":"lon-6","host":"lon-1.uk.uncletopia.com","port":27065,"enabled":true,"region":"eu","cc":"gb","latitude":51.509865,"longitude":-0.118092,"reserved":0,"last_update":"0001-01-01T00:00:00Z","name_a2s":"Uncletopia | London | 6 | All Maps","protocol":17,"map":"cp_mountainlab","folder":"tf","game":"Team Fortress","app_id":440,"player_count":0,"max_players":24,"Bots":0,"server_type":"Dedicated","server_os":"Linux","password":true,"vac":true,"version":"7757534","steam_id":85568392924742830,"keywords":["cp","nocrits","nodmgspread","uncletopia"],"game_id":440,"stv_port":27066,"stv_name":"Uncletopia | London | 6 | All Maps | STV","players":null},{"server_id":40,"name":"Uncletopia | London | 7 | No Payload","name_short":"lon-7","host":"lon-1.uk.uncletopia.com","port":27075,"enabled":true,"region":"eu","cc":"gb","latitude":51.509865,"longitude":-0.118092,"reserved":0,"last_update":"0001-01-01T00:00:00Z","name_a2s":"Uncletopia | London | 7 | No Payload","protocol":17,"map":"pl_badwater","folder":"tf","game":"Team Fortress","app_id":440,"player_count":0,"max_players":24,"Bots":0,"server_type":"Dedicated","server_os":"Linux","password":true,"vac":true,"version":"7757534","steam_id":85568392924964314,"keywords":["nocrits","nodmgspread","payload","uncletopia"],"game_id":440,"stv_port":27076,"stv_name":"Uncletopia | London | 7 | No Payload | STV","players":null},{"server_id":41,"name":"Uncletopia | London | 8 | Community","name_short":"lon-8","host":"lon-1.uk.uncletopia.com","port":27085,"enabled":true,"region":"eu","cc":"gb","latitude":51.509865,"longitude":-0.118092,"reserved":0,"last_update":"0001-01-01T00:00:00Z","name_a2s":"Uncletopia | London | 8 | Community","protocol":17,"map":"pl_barnblitz","folder":"tf","game":"Team Fortress","app_id":440,"player_count":0,"max_players":24,"Bots":0,"server_type":"Dedicated","server_os":"Linux","password":true,"vac":true,"version":"7757534","steam_id":85568392924964315,"keywords":["nocrits","nodmgspread","payload","uncletopia"],"game_id":440,"stv_port":27086,"stv_name":"Uncletopia | London | 8 | Community | STV","players":null},{"server_id":300,"name":"Uncletopia | Montréal | 1 | All Maps","name_short":"mtl-1","host":"mtl-1.ca.uncletopia.com","port":27015,"enabled":true,"region":"us-east","cc":"ca","latitude":45.50889,"longitude":-73.56167,"reserved":0,"last_update":"0001-01-01T00:00:00Z","name_a2s":"Uncletopia | Montréal | 1 | All Maps","protocol":17,"map":"pl_upward","folder":"tf","game":"Team Fortress","app_id":440,"player_count":0,"max_players":24,"Bots":0,"server_type":"Dedicated","server_os":"Linux","password":true,"vac":true,"version":"7757534","steam_id":85568392924500087,"keywords":["nocrits","nodmgspread","payload","uncletopia"],"game_id":440,"stv_port":27016,"stv_name":"Uncletopia | Montréal | 1 | All Maps | STV","players":null},{"server_id":301,"name":"Uncletopia | Montréal | 2 | All Maps","name_short":"mtl-2","host":"mtl-1.ca.uncletopia.com","port":27025,"enabled":true,"region":"us-east","cc":"ca","latitude":45.50889,"longitude":-73.56167,"reserved":0,"last_update":"0001-01-01T00:00:00Z","name_a2s":"Uncletopia | Montréal | 2 | All Maps","protocol":17,"map":"pl_snowycoast","folder":"tf","game":"Team Fortress","app_id":440,"player_count":0,"max_players":24,"Bots":0,"server_type":"Dedicated","server_os":"Linux","password":true,"vac":true,"version":"7757534","steam_id":85568392924500088,"keywords":["nocrits","nodmgspread","payload","uncletopia"],"game_id":440,"stv_port":27026,"stv_name":"Uncletopia | Montréal | 2 | All Maps | STV","players":null},{"server_id":302,"name":"Uncletopia | Montréal | 3 | All Maps","name_short":"mtl-3","host":"mtl-1.ca.uncletopia.com","port":27035,"enabled":true,"region":"us-east","cc":"ca","latitude":45.50889,"longitude":-73.56167,"reserved":0,"last_update":"0001-01-01T00:00:00Z","name_a2s":"Uncletopia | Montréal | 3 | All Maps","protocol":17,"map":"pl_swiftwater_final1","folder":"tf","game":"Team Fortress","app_id":440,"player_count":0,"max_players":24,"Bots":0,"server_type":"Dedicated","server_os":"Linux","password":true,"vac":true,"version":"7757534","steam_id":85568392924500089,"keywords":["nocrits","nodmgspread","payload","uncletopia"],"game_id":440,"stv_port":27036,"stv_name":"Uncletopia | Montréal | 3 | All Maps | STV","players":null},{"server_id":303,"name":"Uncletopia | Montréal | 4 | No Payload","name_short":"mtl-4","host":"mtl-1.ca.uncletopia.com","port":27045,"enabled":true,"region":"us-east","cc":"ca","latitude":45.50889,"longitude":-73.56167,"reserved":0,"last_update":"0001-01-01T00:00:00Z","name_a2s":"Uncletopia | Montréal | 4 | No Payload","protocol":17,"map":"pl_pier","folder":"tf","game":"Team Fortress","app_id":440,"player_count":0,"max_players":24,"Bots":0,"server_type":"Dedicated","server_os":"Linux","password":true,"vac":true,"version":"7757534","steam_id":85568392924500090,"keywords":["nocrits","nodmgspread","payload","uncletopia"],"game_id":440,"stv_port":27046,"stv_name":"Uncletopia | Montréal | 4 | No Payload | STV","players":null},{"server_id":13,"name":"Uncletopia | New York City | 1 | All Maps","name_short":"nyc-1","host":"nyc-1.us.uncletopia.com","port":27015,"enabled":true,"region":"us-east","cc":"us","latitude":40.73061,"longitude":-73.93524,"reserved":0,"last_update":"0001-01-01T00:00:00Z","name_a2s":"Uncletopia | New York City | 1 | All Maps","protocol":17,"map":"koth_viaduct","folder":"tf","game":"Team Fortress","app_id":440,"player_count":0,"max_players":24,"Bots":0,"server_type":"Dedicated","server_os":"Linux","password":true,"vac":true,"version":"7757534","steam_id":85568392924469993,"keywords":["cp","nocrits","nodmgspread","uncletopia"],"game_id":440,"stv_port":27016,"stv_name":"Uncletopia | New York City | 1 | All Maps | STV","players":null},{"server_id":14,"name":"Uncletopia | New York City | 2 | All Maps","name_short":"nyc-2","host":"nyc-1.us.uncletopia.com","port":27025,"enabled":true,"region":"us-east","cc":"us","latitude":40.73061,"longitude":-73.93524,"reserved":0,"last_update":"0001-01-01T00:00:00Z","name_a2s":"Uncletopia | New York City | 2 | All Maps","protocol":17,"map":"pl_snowycoast","folder":"tf","game":"Team Fortress","app_id":440,"player_count":22,"max_players":24,"Bots":0,"server_type":"Dedicated","server_os":"Linux","password":true,"vac":true,"version":"7757534","steam_id":85568392924469994,"keywords":["nocrits","nodmgspread","payload","uncletopia"],"game_id":440,"stv_port":27026,"stv_name":"Uncletopia | New York City | 2 | All Maps | STV","players":[{"user_id":6,"name":"MagicMuffinman","steam_id":76561198149255313,"connected_time":6539000000000,"state":"active","ping":77},{"user_id":10,"name":"That70sDog","steam_id":76561198119396142,"connected_time":4200000000000,"state":"active","ping":99},{"user_id":49,"name":"Aleph","steam_id":76561198020484549,"connected_time":1888000000000,"state":"active","ping":57},{"user_id":52,"name":"Duke Nukem","steam_id":76561198925514486,"connected_time":1415000000000,"state":"active","ping":60},{"user_id":13,"name":"The Responder","steam_id":76561198080822379,"connected_time":4054000000000,"state":"active","ping":89},{"user_id":40,"name":"you forgot the sauce","steam_id":76561198387016713,"connected_time":2244000000000,"state":"active","ping":61},{"user_id":15,"name":"Typhon","steam_id":76561198252124564,"connected_time":3467000000000,"state":"active","ping":50},{"user_id":63,"name":"FUNKY TOWN SLAYER","steam_id":76561198119489292,"connected_time":0,"state":"spawning","ping":0},{"user_id":17,"name":"carrion goat she/it","steam_id":76561198262064871,"connected_time":3307000000000,"state":"active","ping":37},{"user_id":53,"name":"Skelloton","steam_id":76561198012298599,"connected_time":1362000000000,"state":"active","ping":142},{"user_id":42,"name":"PappieJackie","steam_id":76561198450425425,"connected_time":2219000000000,"state":"active","ping":73},{"user_id":32,"name":"Blanc","steam_id":76561197988243546,"connected_time":2597000000000,"state":"active","ping":83},{"user_id":58,"name":"Slice","steam_id":76561198046508636,"connected_time":376000000000,"state":"active","ping":68},{"user_id":50,"name":"Just Luke","steam_id":76561198072134257,"connected_time":1796000000000,"state":"active","ping":58},{"user_id":43,"name":"John","steam_id":76561197960965850,"connected_time":2113000000000,"state":"active","ping":146},{"user_id":56,"name":"ZellowJaques","steam_id":76561198230908488,"connected_time":933000000000,"state":"active","ping":80},{"user_id":27,"name":"Oppressor","steam_id":76561198880977190,"connected_time":2814000000000,"state":"active","ping":77},{"user_id":55,"name":"Roc","steam_id":76561197988484579,"connected_time":982000000000,"state":"active","ping":55},{"user_id":62,"name":"ṽ⧉ ☮Pro☯","steam_id":76561198000173889,"connected_time":53000000000,"state":"active","ping":53},{"user_id":45,"name":"Bill Carr","steam_id":76561198110033943,"connected_time":2038000000000,"state":"active","ping":105},{"user_id":61,"name":"{Arp} Ðesider","steam_id":76561198046754508,"connected_time":138000000000,"state":"active","ping":91},{"user_id":46,"name":"Torime","steam_id":76561198386516381,"connected_time":2035000000000,"state":"active","ping":83}]},{"server_id":15,"name":"Uncletopia | New York City | 3 | Stopwatch Beta","name_short":"nyc-3","host":"nyc-1.us.uncletopia.com","port":27035,"enabled":true,"region":"us-east","cc":"us","latitude":40.73061,"longitude":-73.93524,"reserved":0,"last_update":"0001-01-01T00:00:00Z","name_a2s":"Uncletopia | New York City | 3 | Stopwatch Beta","protocol":17,"map":"pl_upward","folder":"tf","game":"Team Fortress","app_id":440,"player_count":0,"max_players":24,"Bots":0,"server_type":"Dedicated","server_os":"Linux","password":true,"vac":true,"version":"7757534","steam_id":85568392924742820,"keywords":["nocrits","nodmgspread","payload","uncletopia"],"game_id":440,"stv_port":27036,"stv_name":"Uncletopia | New York City | 3 | Stopwatch Beta | STV","players":null},{"server_id":16,"name":"Uncletopia | New York City | 4 | Community","name_short":"nyc-4","host":"nyc-1.us.uncletopia.com","port":27045,"enabled":true,"region":"us-east","cc":"us","latitude":40.73061,"longitude":-73.93524,"reserved":0,"last_update":"0001-01-01T00:00:00Z","name_a2s":"Uncletopia | New York City | 4 | Community","protocol":17,"map":"pl_swiftwater_final1","folder":"tf","game":"Team Fortress","app_id":440,"player_count":0,"max_players":24,"Bots":0,"server_type":"Dedicated","server_os":"Linux","password":true,"vac":true,"version":"7757534","steam_id":85568392924742821,"keywords":["nocrits","nodmgspread","payload","uncletopia"],"game_id":440,"stv_port":27046,"stv_name":"Uncletopia | New York City | 4 | Community | STV","players":null},{"server_id":142,"name":"Uncletopia | São Paulo | 1 | All Maps","name_short":"sao-1","host":"sao-1.br.uncletopia.com","port":27015,"enabled":true,"region":"sa","cc":"br","latitude":-23.533773,"longitude":-46.62529,"reserved":0,"last_update":"0001-01-01T00:00:00Z","name_a2s":"Uncletopia | São Paulo | 1 | All Maps","protocol":17,"map":"koth_cascade","folder":"tf","game":"Team Fortress","app_id":440,"player_count":0,"max_players":24,"Bots":0,"server_type":"Dedicated","server_os":"Linux","password":true,"vac":true,"version":"7757534","steam_id":85568392924469996,"keywords":["cp","nocrits","nodmgspread","uncletopia"],"game_id":440,"stv_port":27016,"stv_name":"Uncletopia | São Paulo | 1 | All Maps | STV","players":null},{"server_id":143,"name":"Uncletopia | São Paulo | 2 | All Maps","name_short":"sao-2","host":"sao-2.br.uncletopia.com","port":27015,"enabled":true,"region":"sa","cc":"br","latitude":-23.533773,"longitude":-46.62529,"reserved":0,"last_update":"0001-01-01T00:00:00Z","name_a2s":"Uncletopia | São Paulo | 2 | All Maps","protocol":17,"map":"pl_swiftwater_final1","folder":"tf","game":"Team Fortress","app_id":440,"player_count":0,"max_players":24,"Bots":0,"server_type":"Dedicated","server_os":"Linux","password":true,"vac":true,"version":"7757534","steam_id":85568392924485349,"keywords":["nocrits","nodmgspread","payload","uncletopia"],"game_id":440,"stv_port":27016,"stv_name":"Uncletopia | São Paulo | 2 | All Maps | STV","players":null},{"server_id":7,"name":"Uncletopia | Seattle | 1 | All Maps","name_short":"sea-1","host":"sea-1.us.uncletopia.com","port":27015,"enabled":true,"region":"us-west","cc":"us","latitude":47.608013,"longitude":-122.33517,"reserved":0,"last_update":"0001-01-01T00:00:00Z","name_a2s":"Uncletopia | Seattle | 1 | All Maps","protocol":17,"map":"koth_lakeside_final","folder":"tf","game":"Team Fortress","app_id":440,"player_count":23,"max_players":24,"Bots":0,"server_type":"Dedicated","server_os":"Linux","password":true,"vac":true,"version":"7757534","steam_id":85568392924469997,"keywords":["cp","nocrits","nodmgspread","uncletopia"],"game_id":440,"stv_port":27016,"stv_name":"Uncletopia | Seattle | 1 | All Maps | STV","players":[{"user_id":3,"name":"Tyler\u0026Fingers","steam_id":76561198085154485,"connected_time":1041000000000,"state":"active","ping":133},{"user_id":4,"name":"Atom","steam_id":76561198093453524,"connected_time":1040000000000,"state":"active","ping":97},{"user_id":5,"name":"lucil3 on Bandcamp","steam_id":76561198149063013,"connected_time":1039000000000,"state":"active","ping":105},{"user_id":6,"name":"SadFapping","steam_id":76561198076651049,"connected_time":1039000000000,"state":"active","ping":52},{"user_id":25,"name":"BANGARANG","steam_id":76561198816597453,"connected_time":751000000000,"state":"active","ping":89},{"user_id":18,"name":"M.T. [IT/ITS]","steam_id":76561198001371063,"connected_time":972000000000,"state":"active","ping":57},{"user_id":9,"name":"aisu","steam_id":76561198043768507,"connected_time":1036000000000,"state":"active","ping":84},{"user_id":10,"name":"Bryguy","steam_id":76561198092096120,"connected_time":1034000000000,"state":"active","ping":91},{"user_id":11,"name":"fountain Mann","steam_id":76561198834350355,"connected_time":1032000000000,"state":"active","ping":64},{"user_id":12,"name":"gay but mostly not","steam_id":76561198141873995,"connected_time":1028000000000,"state":"active","ping":71},{"user_id":13,"name":"^2Moving^1shadoW","steam_id":76561198078674411,"connected_time":1025000000000,"state":"active","ping":100},{"user_id":14,"name":"Tommy Pickles (Very Cool)","steam_id":76561198391261463,"connected_time":1011000000000,"state":"active","ping":92},{"user_id":15,"name":"Unikson","steam_id":76561198351504294,"connected_time":1010000000000,"state":"active","ping":111},{"user_id":16,"name":"LesserAce","steam_id":76561198153258132,"connected_time":1006000000000,"state":"active","ping":120},{"user_id":34,"name":"obese farts","steam_id":76561198206922028,"connected_time":65000000000,"state":"active","ping":75},{"user_id":20,"name":"TheGreatDong","steam_id":76561198000634178,"connected_time":811000000000,"state":"active","ping":60},{"user_id":32,"name":"LORD MC CHUBS","steam_id":76561199396661854,"connected_time":356000000000,"state":"active","ping":98},{"user_id":22,"name":"Jack","steam_id":76561198007119980,"connected_time":804000000000,"state":"active","ping":186},{"user_id":23,"name":"mobe","steam_id":76561198121633820,"connected_time":758000000000,"state":"active","ping":72},{"user_id":26,"name":"Deltaco","steam_id":76561198094572694,"connected_time":743000000000,"state":"active","ping":155},{"user_id":27,"name":"xXBootysquirterXx","steam_id":76561198958369544,"connected_time":742000000000,"state":"active","ping":98},{"user_id":29,"name":"pantherfan001","steam_id":76561198329658895,"connected_time":611000000000,"state":"active","ping":117},{"user_id":30,"name":"AceDeuce","steam_id":76561198049904924,"connected_time":586000000000,"state":"active","ping":99}]},{"server_id":119,"name":"Uncletopia | Seattle | 2 | All Maps","name_short":"sea-2","host":"sea-1.us.uncletopia.com","port":27025,"enabled":true,"region":"us-west","cc":"us","latitude":47.608013,"longitude":-122.33517,"reserved":0,"last_update":"0001-01-01T00:00:00Z","name_a2s":"Uncletopia | Seattle | 2 | All Maps","protocol":17,"map":"pl_badwater","folder":"tf","game":"Team Fortress","app_id":440,"player_count":0,"max_players":24,"Bots":0,"server_type":"Dedicated","server_os":"Linux","password":true,"vac":true,"version":"7757534","steam_id":85568392924469998,"keywords":["nocrits","nodmgspread","payload","uncletopia"],"game_id":440,"stv_port":27026,"stv_name":"Uncletopia | Seattle | 2 | All Maps | STV","players":null},{"server_id":406,"name":"Uncletopia | Seattle | 3 | Stopwatch Beta","name_short":"sea-3","host":"sea-1.us.uncletopia.com","port":27035,"enabled":true,"region":"us-west","cc":"us","latitude":47.608013,"longitude":-122.33517,"reserved":0,"last_update":"0001-01-01T00:00:00Z","name_a2s":"Uncletopia | Seattle | 3 | Stopwatch Beta","protocol":17,"map":"cp_dustbowl","folder":"tf","game":"Team Fortress","app_id":440,"player_count":0,"max_players":24,"Bots":0,"server_type":"Dedicated","server_os":"Linux","password":true,"vac":true,"version":"7757534","steam_id":85568392924515217,"keywords":["cp","nocrits","nodmgspread","uncletopia"],"game_id":440,"stv_port":27036,"stv_name":"Uncletopia | Seattle | 3 | Stopwatch Beta | STV","players":null},{"server_id":17,"name":"Uncletopia | San Francisco | 1 | All Maps","name_short":"sfo-1","host":"sfo-1.us.uncletopia.com","port":27015,"enabled":true,"region":"us-west","cc":"us","latitude":37.77397,"longitude":-122.4313,"reserved":0,"last_update":"0001-01-01T00:00:00Z","name_a2s":"Uncletopia | San Francisco | 1 | All Maps","protocol":17,"map":"cp_process_final","folder":"tf","game":"Team Fortress","app_id":440,"player_count":0,"max_players":24,"Bots":0,"server_type":"Dedicated","server_os":"Linux","password":true,"vac":true,"version":"7757534","steam_id":85568392924469999,"keywords":["cp","nocrits","nodmgspread","uncletopia"],"game_id":440,"stv_port":27016,"stv_name":"Uncletopia | San Francisco | 1 | All Maps | STV","players":null},{"server_id":18,"name":"Uncletopia | San Francisco | 2 | All Maps","name_short":"sfo-2","host":"sfo-1.us.uncletopia.com","port":27025,"enabled":true,"region":"us-west","cc":"us","latitude":37.77397,"longitude":-122.4313,"reserved":0,"last_update":"0001-01-01T00:00:00Z","name_a2s":"Uncletopia | San Francisco | 2 | All Maps","protocol":17,"map":"koth_highpass","folder":"tf","game":"Team Fortress","app_id":440,"player_count":0,"max_players":24,"Bots":0,"server_type":"Dedicated","server_os":"Linux","password":true,"vac":true,"version":"7757534","steam_id":85568392924470000,"keywords":["cp","nocrits","nodmgspread","uncletopia"],"game_id":440,"stv_port":27026,"stv_name":"Uncletopia | San Francisco | 2 | All Maps | STV","players":null},{"server_id":19,"name":"Uncletopia | San Francisco | 3 | Stopwatch Beta","name_short":"sfo-3","host":"sfo-1.us.uncletopia.com","port":27035,"enabled":true,"region":"us-west","cc":"us","latitude":37.77397,"longitude":-122.4313,"reserved":0,"last_update":"0001-01-01T00:00:00Z","name_a2s":"Uncletopia | San Francisco | 3 | Stopwatch Beta","protocol":17,"map":"koth_lakeside_final","folder":"tf","game":"Team Fortress","app_id":440,"player_count":0,"max_players":24,"Bots":0,"server_type":"Dedicated","server_os":"Linux","password":true,"vac":true,"version":"7757534","steam_id":85568392924742824,"keywords":["cp","nocrits","nodmgspread","uncletopia"],"game_id":440,"stv_port":27036,"stv_name":"Uncletopia | San Francisco | 3 | Stopwatch Beta | STV","players":null},{"server_id":20,"name":"Uncletopia | San Francisco | 4 | Community","name_short":"sfo-4","host":"sfo-1.us.uncletopia.com","port":27045,"enabled":true,"region":"us-west","cc":"us","latitude":37.77397,"longitude":-122.4313,"reserved":0,"last_update":"0001-01-01T00:00:00Z","name_a2s":"Uncletopia | San Francisco | 4 | Community","protocol":17,"map":"cp_altitude","folder":"tf","game":"Team Fortress","app_id":440,"player_count":0,"max_players":24,"Bots":0,"server_type":"Dedicated","server_os":"Linux","password":true,"vac":true,"version":"7757534","steam_id":85568392924742826,"keywords":["cp","nocrits","nodmgspread","uncletopia"],"game_id":440,"stv_port":27046,"stv_name":"Uncletopia | San Francisco | 4 | Community | STV","players":null},{"server_id":141,"name":"Uncletopia | Sydney | 1 | All Maps","name_short":"syd-1","host":"syd-1.au.uncletopia.com","port":27015,"enabled":true,"region":"au","cc":"au","latitude":-33.865143,"longitude":151.2099,"reserved":0,"last_update":"0001-01-01T00:00:00Z","name_a2s":"Uncletopia | Sydney | 1 | All Maps","protocol":17,"map":"pl_upward","folder":"tf","game":"Team Fortress","app_id":440,"player_count":0,"max_players":24,"Bots":0,"server_type":"Dedicated","server_os":"Linux","password":true,"vac":true,"version":"7757534","steam_id":85568392924470001,"keywords":["nocrits","nodmgspread","payload","uncletopia"],"game_id":440,"stv_port":27016,"stv_name":"Uncletopia | Sydney | 1 | All Maps | STV","players":null},{"server_id":123,"name":"Uncletopia | Sydney | 2 | All Maps","name_short":"syd-2","host":"syd-1.au.uncletopia.com","port":27025,"enabled":true,"region":"au","cc":"au","latitude":-33.865143,"longitude":151.2099,"reserved":0,"last_update":"0001-01-01T00:00:00Z","name_a2s":"Uncletopia | Sydney | 2 | All Maps","protocol":17,"map":"pl_snowycoast","folder":"tf","game":"Team Fortress","app_id":440,"player_count":11,"max_players":24,"Bots":0,"server_type":"Dedicated","server_os":"Linux","password":true,"vac":true,"version":"7757534","steam_id":85568392924470002,"keywords":["nocrits","nodmgspread","payload","uncletopia"],"game_id":440,"stv_port":27026,"stv_name":"Uncletopia | Sydney | 2 | All Maps | STV","players":[{"user_id":519,"name":"IZ*","steam_id":76561198834621927,"connected_time":29000000000,"state":"active","ping":167},{"user_id":510,"name":"Morterkai","steam_id":76561198048247068,"connected_time":837000000000,"state":"active","ping":47},{"user_id":515,"name":"Branko","steam_id":76561199262196710,"connected_time":537000000000,"state":"active","ping":42},{"user_id":492,"name":"Certified Virgin","steam_id":76561198295183353,"connected_time":2136000000000,"state":"active","ping":69},{"user_id":504,"name":"Dung Pie","steam_id":76561198172990938,"connected_time":1116000000000,"state":"active","ping":105},{"user_id":500,"name":"Waltar","steam_id":76561199369603059,"connected_time":1855000000000,"state":"active","ping":63},{"user_id":491,"name":"Cafe","steam_id":76561198061587693,"connected_time":2176000000000,"state":"active","ping":92},{"user_id":499,"name":"A threat unbeknownst","steam_id":76561198293776102,"connected_time":2010000000000,"state":"active","ping":41},{"user_id":448,"name":"¿eTheRealMe?","steam_id":76561198033297147,"connected_time":5126000000000,"state":"active","ping":92},{"user_id":503,"name":"Liam","steam_id":76561198110580096,"connected_time":1266000000000,"state":"active","ping":71},{"user_id":475,"name":"hush","steam_id":76561198348492407,"connected_time":3095000000000,"state":"active","ping":56}]},{"server_id":395,"name":"Uncletopia | Sydney | 3 | All Maps","name_short":"syd-3","host":"syd-1.au.uncletopia.com","port":27035,"enabled":true,"region":"au","cc":"au","latitude":-33.865143,"longitude":151.2099,"reserved":0,"last_update":"0001-01-01T00:00:00Z","name_a2s":"Uncletopia | Sydney | 3 | All Maps","protocol":17,"map":"koth_lakeside_final","folder":"tf","game":"Team Fortress","app_id":440,"player_count":0,"max_players":24,"Bots":0,"server_type":"Dedicated","server_os":"Linux","password":true,"vac":true,"version":"7757534","steam_id":85568392925194467,"keywords":["cp","nocrits","nodmgspread","uncletopia"],"game_id":440,"stv_port":27036,"stv_name":"Uncletopia | Sydney | 3 | All Maps | STV","players":null},{"server_id":396,"name":"Uncletopia | Sydney | 4 | All Maps","name_short":"syd-4","host":"syd-1.au.uncletopia.com","port":27045,"enabled":true,"region":"au","cc":"au","latitude":-33.865143,"longitude":151.2099,"reserved":0,"last_update":"0001-01-01T00:00:00Z","name_a2s":"Uncletopia | Sydney | 4 | All Maps","protocol":17,"map":"cp_altitude","folder":"tf","game":"Team Fortress","app_id":440,"player_count":0,"max_players":24,"Bots":0,"server_type":"Dedicated","server_os":"Linux","password":true,"vac":true,"version":"7757534","steam_id":85568392925397958,"keywords":["cp","nocrits","nodmgspread","uncletopia"],"game_id":440,"stv_port":27046,"stv_name":"Uncletopia | Sydney | 4 | All Maps | STV","players":null},{"server_id":58,"name":"Uncletopia | Sydney | 5 | Stopwatch Beta","name_short":"syd-5","host":"syd-1.au.uncletopia.com","port":27055,"enabled":true,"region":"au","cc":"au","latitude":-33.865143,"longitude":151.2099,"reserved":0,"last_update":"0001-01-01T00:00:00Z","name_a2s":"Uncletopia | Sydney | 5 | Stopwatch Beta","protocol":17,"map":"koth_cascade","folder":"tf","game":"Team Fortress","app_id":440,"player_count":0,"max_players":24,"Bots":0,"server_type":"Dedicated","server_os":"Linux","password":true,"vac":true,"version":"7757534","steam_id":85568392925397959,"keywords":["cp","nocrits","nodmgspread","uncletopia"],"game_id":440,"stv_port":27056,"stv_name":"Uncletopia | Sydney | 5 | Stopwatch Beta | STV","players":null},{"server_id":59,"name":"Uncletopia | Sydney | 6 | Community","name_short":"syd-6","host":"syd-1.au.uncletopia.com","port":27065,"enabled":true,"region":"au","cc":"au","latitude":-33.865143,"longitude":151.2099,"reserved":0,"last_update":"0001-01-01T00:00:00Z","name_a2s":"Uncletopia | Sydney | 6 | Community","protocol":17,"map":"workshop/pl_divulgence_b4b.ugc2884808746","folder":"tf","game":"Team Fortress","app_id":440,"player_count":0,"max_players":24,"Bots":0,"server_type":"Dedicated","server_os":"Linux","password":true,"vac":true,"version":"7757534","steam_id":85568392925397960,"keywords":["nocrits","nodmgspread","payload","uncletopia"],"game_id":440,"stv_port":27066,"stv_name":"Uncletopia | Sydney | 6 | Community | STV","players":null},{"server_id":49,"name":"Uncletopia | Warsaw | 1 | All Maps","name_short":"waw-1","host":"waw-1.pl.uncletopia.com","port":27015,"enabled":true,"region":"eu","cc":"pl","latitude":52.2297,"longitude":21.017532,"reserved":0,"last_update":"0001-01-01T00:00:00Z","name_a2s":"","protocol":0,"map":"","folder":"","game":"","app_id":0,"player_count":0,"max_players":0,"Bots":0,"server_type":"","server_os":"","password":false,"vac":false,"version":"","steam_id":0,"keywords":null,"game_id":0,"stv_port":0,"stv_name":"","players":null},{"server_id":50,"name":"Uncletopia | Warsaw | 2 | All Maps","name_short":"waw-2","host":"waw-1.pl.uncletopia.com","port":27025,"enabled":true,"region":"eu","cc":"pl","latitude":52.2297,"longitude":21.017532,"reserved":0,"last_update":"0001-01-01T00:00:00Z","name_a2s":"Uncletopia | Warsaw | 2 | All Maps","protocol":17,"map":"koth_viaduct","folder":"tf","game":"Team Fortress","app_id":440,"player_count":0,"max_players":24,"Bots":0,"server_type":"Dedicated","server_os":"Linux","password":true,"vac":true,"version":"7757534","steam_id":85568392925397851,"keywords":["cp","nocrits","nodmgspread","uncletopia"],"game_id":440,"stv_port":27026,"stv_name":"Uncletopia | Warsaw | 2 | All Maps | STV","players":null},{"server_id":51,"name":"Uncletopia | Warsaw | 3 | All Maps","name_short":"waw-3","host":"waw-1.pl.uncletopia.com","port":27035,"enabled":true,"region":"eu","cc":"pl","latitude":52.2297,"longitude":21.017532,"reserved":0,"last_update":"0001-01-01T00:00:00Z","name_a2s":"Uncletopia | Warsaw | 3 | All Maps","protocol":17,"map":"pl_badwater","folder":"tf","game":"Team Fortress","app_id":440,"player_count":0,"max_players":24,"Bots":0,"server_type":"Dedicated","server_os":"Linux","password":true,"vac":true,"version":"7757534","steam_id":85568392925397852,"keywords":["nocrits","nodmgspread","payload","uncletopia"],"game_id":440,"stv_port":27036,"stv_name":"Uncletopia | Warsaw | 3 | All Maps | STV","players":null},{"server_id":52,"name":"Uncletopia | Warsaw | 4 | All Maps","name_short":"waw-4","host":"waw-1.pl.uncletopia.com","port":27045,"enabled":true,"region":"eu","cc":"pl","latitude":52.2297,"longitude":21.017532,"reserved":0,"last_update":"0001-01-01T00:00:00Z","name_a2s":"Uncletopia | Warsaw | 4 | All Maps","protocol":17,"map":"koth_lakeside_final","folder":"tf","game":"Team Fortress","app_id":440,"player_count":0,"max_players":24,"Bots":0,"server_type":"Dedicated","server_os":"Linux","password":true,"vac":true,"version":"7757534","steam_id":85568392925397853,"keywords":["cp","nocrits","nodmgspread","uncletopia"],"game_id":440,"stv_port":27046,"stv_name":"Uncletopia | Warsaw | 4 | All Maps | STV","players":null},{"server_id":53,"name":"Uncletopia | Warsaw | 5 | Stopwatch Beta","name_short":"waw-5","host":"waw-1.pl.uncletopia.com","port":27055,"enabled":true,"region":"eu","cc":"pl","latitude":52.2297,"longitude":21.017532,"reserved":0,"last_update":"0001-01-01T00:00:00Z","name_a2s":"Uncletopia | Warsaw | 5 | Stopwatch Beta","protocol":17,"map":"pl_borneo","folder":"tf","game":"Team Fortress","app_id":440,"player_count":0,"max_players":24,"Bots":0,"server_type":"Dedicated","server_os":"Linux","password":true,"vac":true,"version":"7757534","steam_id":85568392925397854,"keywords":["nocrits","nodmgspread","payload","uncletopia"],"game_id":440,"stv_port":27056,"stv_name":"Uncletopia | Warsaw | 5 | Stopwatch Beta | STV","players":null},{"server_id":54,"name":"Uncletopia | Warsaw | 6 | Community","name_short":"waw-6","host":"waw-1.pl.uncletopia.com","port":27065,"enabled":true,"region":"eu","cc":"pl","latitude":52.2297,"longitude":21.017532,"reserved":0,"last_update":"0001-01-01T00:00:00Z","name_a2s":"Uncletopia | Warsaw | 6 | Community","protocol":17,"map":"koth_lakeside_final","folder":"tf","game":"Team Fortress","app_id":440,"player_count":0,"max_players":24,"Bots":0,"server_type":"Dedicated","server_os":"Linux","password":true,"vac":true,"version":"7757534","steam_id":85568392925397856,"keywords":["cp","nocrits","nodmgspread","uncletopia"],"game_id":440,"stv_port":27066,"stv_name":"Uncletopia | Warsaw | 6 | Community | STV","players":null}]}