{"status":true,"message":"","result":[{"server_id":9,"name":"Uncletopia | Atlanta | 1 | All Maps","name_short":"atl-1","host":"atl-1.us.uncletopia.com","port":27015,"enabled":true,"region":"us-east","cc":"us","latitude":33.753746,"longitude":-84.38633,"reserved":0,"last_update":"0001-01-01T00:00:00Z","name_a2s":"Uncletopia | Atlanta | 1 | All Maps","protocol":17,"map":"pl_frontier_final","folder":"tf","game":"Team Fortress","app_id":440,"player_count":23,"max_players":24,"Bots":0,"server_type":"Dedicated","server_os":"Linux","password":true,"vac":true,"version":"7723704","steam_id":85568392924469982,"keywords":["nocrits","nodmgspread","payload","uncletopia"],"game_id":440,"stv_port":27016,"stv_name":"Uncletopia | Atlanta | 1 | All Maps | STV","players":[{"user_id":778,"name":"jrmadmallard","steam_id":76561198275994616,"connected_time":5000000000,"state":"spawning","ping":117},{"user_id":765,"name":"Yaogwai velk.ca","steam_id":76561198274501963,"connected_time":1172000000000,"state":"active","ping":89},{"user_id":766,"name":"Chap","steam_id":76561198294226443,"connected_time":1069000000000,"state":"active","ping":115},{"user_id":737,"name":"Souper Scott","steam_id":76561198045518926,"connected_time":2873000000000,"state":"active","ping":67},{"user_id":761,"name":"nuts","steam_id":76561199089196165,"connected_time":1341000000000,"state":"active","ping":75},{"user_id":677,"name":"Rat","steam_id":76561198137925582,"connected_time":6907000000000,"state":"active","ping":76},{"user_id":740,"name":"psy¬∑cho¬∑so¬∑cial","steam_id":76561197962696818,"connected_time":2716000000000,"state":"active","ping":68},{"user_id":775,"name":"lu","steam_id":76561198080731872,"connected_time":304000000000,"state":"active","ping":73},{"user_id":748,"name":"Glitchy stick","steam_id":76561199013429386,"connected_time":2114000000000,"state":"active","ping":82},{"user_id":767,"name":"[]{}#^*+=","steam_id":76561198127039453,"connected_time":1050000000000,"state":"active","ping":77},{"user_id":749,"name":"FemboyNate","steam_id":76561198146636410,"connected_time":2079000000000,"state":"active","ping":61},{"user_id":768,"name":"Strike The Earth!","steam_id":76561198090891781,"connected_time":1046000000000,"state":"active","ping":62},{"user_id":769,"name":"sweaterfan","steam_id":76561199389567214,"connected_time":1030000000000,"state":"active","ping":62},{"user_id":755,"name":"collacot","steam_id":76561198243248798,"connected_time":1712000000000,"state":"active","ping":58},{"user_id":685,"name":"namaste at home dad","steam_id":76561198056971063,"connected_time":6257000000000,"state":"active","ping":36},{"user_id":777,"name":"Vladimir Chirgin","steam_id":76561198170035235,"connected_time":110000000000,"state":"active","ping":59},{"user_id":771,"name":"Mortadella","steam_id":76561198057716113,"connected_time":891000000000,"state":"active","ping":157},{"user_id":687,"name":"+","steam_id":76561198262422184,"connected_time":6171000000000,"state":"active","ping":74},{"user_id":756,"name":"mana","steam_id":76561198193802523,"connected_time":1710000000000,"state":"active","ping":121},{"user_id":757,"name":"ToiletBowlJourney76","steam_id":76561198274112032,"connected_time":1701000000000,"state":"active","ping":90},{"user_id":760,"name":"mommy claus","steam_id":76561199230929836,"connected_time":1644000000000,"state":"active","ping":84},{"user_id":759,"name":"HurricanePootis","steam_id":76561198152518803,"connected_time":1669000000000,"state":"active","ping":60},{"user_id":772,"name":"JFK Gamer","steam_id":76561199229169396,"connected_time":886000000000,"state":"active","ping":105}]},{"server_id":400,"name":"Uncletopia | Atlanta | 3 | All Maps","name_short":"atl-3","host":"atl-1.us.uncletopia.com","port":27035,"enabled":true,"region":"us-east","cc":"us","latitude":33.753746,"longitude":-84.38633,"reserved":0,"last_update":"0001-01-01T00:00:00Z","name_a2s":"Uncletopia | Atlanta | 3 | All Maps","protocol":17,"map":"pl_snowycoast","folder":"tf","game":"Team Fortress","app_id":440,"player_count":0,"max_players":24,"Bots":0,"server_type":"Dedicated","server_os":"Linux","password":true,"vac":true,"version":"7723704","steam_id":85568392924515187,"keywords":["nocrits","nodmgspread","payload","uncletopia"],"game_id":440,"stv_port":27036,"stv_name":"Uncletopia | Atlanta | 3 | All Maps | STV","players":null},{"server_id":401,"name":"Uncletopia | Atlanta | 4 | No Payload","name_short":"atl-4","host":"atl-1.us.uncletopia.com","port":27045,"enabled":true,"region":"us-east","cc":"us","latitude":33.753746,"longitude":-84.38633,"reserved":0,"last_update":"0001-01-01T00:00:00Z","name_a2s":"Uncletopia | Atlanta | 4 | No Payload","protocol":17,"map":"cp_sunshine","folder":"tf","game":"Team Fortress","app_id":440,"player_count":0,"max_players":24,"Bots":0,"server_type":"Dedicated","server_os":"Linux","password":true,"vac":true,"version":"7723704","steam_id":85568392924515188,"keywords":["cp","nocrits","nodmgspread","uncletopia"],"game_id":440,"stv_port":27046,"stv_name":"Uncletopia | Atlanta | 4 | No Payload | STV","players":null},{"server_id":2,"name":"Uncletopia | Chicago | 1 | All Maps","name_short":"chi-1","host":"chi-1.us.uncletopia.com","port":27015,"enabled":true,"region":"us-central","cc":"us","latitude":41.881832,"longitude":-87.62318,"reserved":0,"last_update":"0001-01-01T00:00:00Z","name_a2s":"Uncletopia | Chicago | 1 | All Maps","protocol":17,"map":"koth_highpass","folder":"tf","game":"Team Fortress","app_id":440,"player_count":23,"max_players":24,"Bots":0,"server_type":"Dedicated","server_os":"Linux","password":true,"vac":true,"version":"7723704","steam_id":85568392924469984,"keywords":["cp","nocrits","nodmgspread","uncletopia"],"game_id":440,"stv_port":27016,"stv_name":"Uncletopia | Chicago | 1 | All Maps | STV","players":[{"user_id":909,"name":"Soap Man","steam_id":76561198000490235,"connected_time":920000000000,"state":"active","ping":109},{"user_id":914,"name":"SnKcx","steam_id":76561199035992017,"connected_time":738000000000,"state":"active","ping":83},{"user_id":903,"name":"‡πá","steam_id":76561198039763676,"connected_time":1448000000000,"state":"active","ping":62},{"user_id":923,"name":"Beejs","steam_id":76561197969658335,"connected_time":452000000000,"state":"active","ping":74},{"user_id":897,"name":"griptape","steam_id":76561198078415931,"connected_time":1901000000000,"state":"active","ping":60},{"user_id":910,"name":"River Rat","steam_id":76561198116383976,"connected_time":906000000000,"state":"active","ping":107},{"user_id":911,"name":"draconisblaze","steam_id":76561198805868121,"connected_time":906000000000,"state":"active","ping":58},{"user_id":915,"name":"hubi","steam_id":76561198047377604,"connected_time":627000000000,"state":"active","ping":75},{"user_id":913,"name":"Okas8","steam_id":76561198100697096,"connected_time":841000000000,"state":"active","ping":78},{"user_id":901,"name":"valtiel","steam_id":76561198165212575,"connected_time":1563000000000,"state":"active","ping":71},{"user_id":929,"name":"gen tso tofu","steam_id":76561198026589960,"connected_time":74000000000,"state":"active","ping":49},{"user_id":917,"name":"Jeek","steam_id":76561198123010863,"connected_time":592000000000,"state":"active","ping":151},{"user_id":918,"name":"Ebenezer Splooge","steam_id":76561198063146571,"connected_time":585000000000,"state":"active","ping":74},{"user_id":920,"name":"Antwan","steam_id":76561198246200638,"connected_time":518000000000,"state":"active","ping":69},{"user_id":921,"name":"„ÄéHazon„Äè","steam_id":76561198119852107,"connected_time":514000000000,"state":"active","ping":63},{"user_id":928,"name":"Demonfax04","steam_id":76561198243551652,"connected_time":257000000000,"state":"active","ping":98},{"user_id":887,"name":"aeop","steam_id":76561198153671643,"connected_time":2198000000000,"state":"active","ping":60},{"user_id":924,"name":"NoShen","steam_id":76561198147434663,"connected_time":408000000000,"state":"active","ping":64},{"user_id":889,"name":"slothful jeremiah","steam_id":76561198170276601,"connected_time":2188000000000,"state":"active","ping":86},{"user_id":894,"name":"Function with no Hennessy","steam_id":76561198070214668,"connected_time":2068000000000,"state":"active","ping":60},{"user_id":926,"name":"Quantum Sauce","steam_id":76561198164034337,"connected_time":288000000000,"state":"active","ping":89},{"user_id":875,"name":"Cleric.UTC.TF2","steam_id":76561198045887994,"connected_time":2539000000000,"state":"active","ping":43},{"user_id":900,"name":"The Rambler","steam_id":76561198109648603,"connected_time":1576000000000,"state":"active","ping":79}]},{"server_id":106,"name":"Uncletopia | Chicago | 2 | All Maps","name_short":"chi-2","host":"chi-1.us.uncletopia.com","port":27025,"enabled":true,"region":"us-central","cc":"us","latitude":41.881832,"longitude":-87.62318,"reserved":0,"last_update":"0001-01-01T00:00:00Z","name_a2s":"Uncletopia | Chicago | 2 | All Maps","protocol":17,"map":"cp_process_final","folder":"tf","game":"Team Fortress","app_id":440,"player_count":0,"max_players":24,"Bots":0,"server_type":"Dedicated","server_os":"Linux","password":true,"vac":true,"version":"7723704","steam_id":85568392924469985,"keywords":["cp","nocrits","nodmgspread","uncletopia"],"game_id":440,"stv_port":27026,"stv_name":"Uncletopia | Chicago | 2 | All Maps | STV","players":null},{"server_id":402,"name":"Uncletopia | Chicago | 3 | All Maps","name_short":"chi-3","host":"chi-1.us.uncletopia.com","port":27035,"enabled":true,"region":"us-central","cc":"us","latitude":41.881832,"longitude":-87.62318,"reserved":0,"last_update":"0001-01-01T00:00:00Z","name_a2s":"Uncletopia | Chicago | 3 | All Maps","protocol":17,"map":"koth_harvest_final","folder":"tf","game":"Team Fortress","app_id":440,"player_count":0,"max_players":24,"Bots":0,"server_type":"Dedicated","server_os":"Linux","password":true,"vac":true,"version":"7723704","steam_id":85568392924515191,"keywords":["cp","nocrits","nodmgspread","uncletopia"],"game_id":440,"stv_port":27036,"stv_name":"Uncletopia | Chicago | 3 | All Maps | STV","players":null},{"server_id":403,"name":"Uncletopia | Chicago | 4 | All Maps","name_short":"chi-4","host":"chi-1.us.uncletopia.com","port":27045,"enabled":true,"region":"us-central","cc":"us","latitude":41.881832,"longitude":-87.62318,"reserved":0,"last_update":"0001-01-01T00:00:00Z","name_a2s":"Uncletopia | Chicago | 4 | All Maps","protocol":17,"map":"cp_altitude","folder":"tf","game":"Team Fortress","app_id":440,"player_count":0,"max_players":24,"Bots":0,"server_type":"Dedicated","server_os":"Linux","password":true,"vac":true,"version":"7723704","steam_id":85568392924515193,"keywords":["cp","nocrits","nodmgspread","uncletopia"],"game_id":440,"stv_port":27046,"stv_name":"Uncletopia | Chicago | 4 | All Maps | STV","players":null},{"server_id":36,"name":"Uncletopia | Chicago | 5 | All Maps","name_short":"chi-5","host":"chi-2.us.uncletopia.com","port":27015,"enabled":true,"region":"us-central","cc":"us","latitude":41.881832,"longitude":-87.62318,"reserved":0,"last_update":"0001-01-01T00:00:00Z","name_a2s":"Uncletopia | Chicago | 5 | All Maps","protocol":17,"map":"koth_viaduct","folder":"tf","game":"Team Fortress","app_id":440,"player_count":0,"max_players":24,"Bots":0,"server_type":"Dedicated","server_os":"Linux","password":true,"vac":true,"version":"7723704","steam_id":85568392924866362,"keywords":["cp","nocrits","nodmgspread","uncletopia"],"game_id":440,"stv_port":27016,"stv_name":"Uncletopia | Chicago | 5 | All Maps | STV","players":null},{"server_id":37,"name":"Uncletopia | Chicago | 6 | All Maps","name_short":"chi-6","host":"chi-2.us.uncletopia.com","port":27025,"enabled":true,"region":"us-central","cc":"us","latitude":41.881832,"longitude":-87.62318,"reserved":0,"last_update":"0001-01-01T00:00:00Z","name_a2s":"Uncletopia | Chicago | 6 | All Maps","protocol":17,"map":"cp_snakewater_final1","folder":"tf","game":"Team Fortress","app_id":440,"player_count":0,"max_players":24,"Bots":0,"server_type":"Dedicated","server_os":"Linux","password":true,"vac":true,"version":"7723704","steam_id":85568392924866363,"keywords":["cp","nocrits","nodmgspread","uncletopia"],"game_id":440,"stv_port":27026,"stv_name":"Uncletopia | Chicago | 6 | All Maps | STV","players":null},{"server_id":38,"name":"Uncletopia | Chicago | 7 | No Payload","name_short":"chi-7","host":"chi-2.us.uncletopia.com","port":27035,"enabled":true,"region":"us-central","cc":"us","latitude":41.881832,"longitude":-87.62318,"reserved":0,"last_update":"0001-01-01T00:00:00Z","name_a2s":"","protocol":0,"map":"","folder":"","game":"","app_id":0,"player_count":0,"max_players":0,"Bots":0,"server_type":"","server_os":"","password":false,"vac":false,"version":"","steam_id":0,"keywords":null,"game_id":0,"stv_port":0,"stv_name":"","players":null},{"server_id":39,"name":"Uncletopia | Chicago | 8 | Community","name_short":"chi-8","host":"chi-2.us.uncletopia.com","port":27045,"enabled":true,"region":"us-central","cc":"us","latitude":41.881832,"longitude":-87.62318,"reserved":0,"last_update":"0001-01-01T00:00:00Z","name_a2s":"Uncletopia | Chicago | 8 | Community","protocol":17,"map":"workshop/pl_cactuscanyon_redux_rc4b.ugc2579644293","folder":"tf","game":"Team Fortress","app_id":440,"player_count":3,"max_players":24,"Bots":0,"server_type":"Dedicated","server_os":"Linux","password":true,"vac":true,"version":"7723704","steam_id":85568392924866365,"keywords":["nocrits","nodmgspread","payload","uncletopia"],"game_id":440,"stv_port":27046,"stv_name":"Uncletopia | Chicago | 8 | Community | STV","players":[{"user_id":365,"name":"someone","steam_id":76561198867616480,"connected_time":295000000000,"state":"active","ping":278},{"user_id":364,"name":"bee","steam_id":76561198025553902,"connected_time":1906000000000,"state":"active","ping":44},{"user_id":358,"name":"sheep","steam_id":76561198172943006,"connected_time":3239000000000,"state":"active","ping":35}]},{"server_id":8,"name":"Uncletopia | Dallas | 1 | All Maps","name_short":"dal-1","host":"dal-1.us.uncletopia.com","port":27015,"enabled":true,"region":"us-central","cc":"us","latitude":32.779167,"longitude":-96.80889,"reserved":0,"last_update":"0001-01-01T00:00:00Z","name_a2s":"Uncletopia | Dallas | 1 | All Maps","protocol":17,"map":"koth_cascade","folder":"tf","game":"Team Fortress","app_id":440,"player_count":0,"max_players":24,"Bots":0,"server_type":"Dedicated","server_os":"Linux","password":true,"vac":true,"version":"7723704","steam_id":85568392924469986,"keywords":["cp","nocrits","nodmgspread","uncletopia"],"game_id":440,"stv_port":27016,"stv_name":"Uncletopia | Dallas | 1 | All Maps | STV","players":null},{"server_id":108,"name":"Uncletopia | Dallas | 2 | All Maps","name_short":"dal-2","host":"dal-1.us.uncletopia.com","port":27025,"enabled":true,"region":"us-central","cc":"us","latitude":32.779167,"longitude":-96.80889,"reserved":0,"last_update":"0001-01-01T00:00:00Z","name_a2s":"Uncletopia | Dallas | 2 | All Maps","protocol":17,"map":"koth_viaduct","folder":"tf","game":"Team Fortress","app_id":440,"player_count":0,"max_players":24,"Bots":0,"server_type":"Dedicated","server_os":"Linux","password":true,"vac":true,"version":"7723704","steam_id":85568392924469988,"keywords":["cp","nocrits","nodmgspread","uncletopia"],"game_id":440,"stv_port":27026,"stv_name":"Uncletopia | Dallas | 2 | All Maps | STV","players":null},{"server_id":5,"name":"Uncletopia | Frankfurt | 1 | All Maps","name_short":"frk-1","host":"frk-1.de.uncletopia.com","port":27015,"enabled":true,"region":"eu","cc":"de","latitude":50.110924,"longitude":8.682127,"reserved":0,"last_update":"0001-01-01T00:00:00Z","name_a2s":"Uncletopia | Frankfurt | 1 | All Maps","protocol":17,"map":"pl_barnblitz","folder":"tf","game":"Team Fortress","app_id":440,"player_count":0,"max_players":24,"Bots":0,"server_type":"Dedicated","server_os":"Linux","password":true,"vac":true,"version":"7723704","steam_id":85568392924469989,"keywords":["nocrits","nodmgspread","payload","uncletopia"],"game_id":440,"stv_port":27016,"stv_name":"Uncletopia | Frankfurt | 1 | All Maps | STV","players":null},{"server_id":110,"name":"Uncletopia | Frankfurt | 2 | All Maps","name_short":"frk-2","host":"frk-1.de.uncletopia.com","port":27025,"enabled":true,"region":"eu","cc":"de","latitude":50.110924,"longitude":8.682127,"reserved":0,"last_update":"0001-01-01T00:00:00Z","name_a2s":"Uncletopia | Frankfurt | 2 | All Maps","protocol":17,"map":"pl_pier","folder":"tf","game":"Team Fortress","app_id":440,"player_count":15,"max_players":24,"Bots":0,"server_type":"Dedicated","server_os":"Linux","password":true,"vac":true,"version":"7723704","steam_id":85568392924469990,"keywords":["nocrits","nodmgspread","payload","uncletopia"],"game_id":440,"stv_port":27026,"stv_name":"Uncletopia | Frankfurt | 2 | All Maps | STV","players":[{"user_id":4,"name":"tahayusab","steam_id":76561198282218337,"connected_time":1960000000000,"state":"active","ping":84},{"user_id":5,"name":"PeePee PooPoo","steam_id":76561198305920952,"connected_time":1839000000000,"state":"active","ping":55},{"user_id":6,"name":"Nickel (28) [F2P]","steam_id":76561199082683456,"connected_time":1806000000000,"state":"active","ping":125},{"user_id":7,"name":"TittiesMcDripler","steam_id":76561198278451106,"connected_time":1449000000000,"state":"active","ping":46},{"user_id":8,"name":"catgirl (real)","steam_id":76561199045736884,"connected_time":1359000000000,"state":"active","ping":60},{"user_id":9,"name":"Susie","steam_id":76561198330190696,"connected_time":1219000000000,"state":"active","ping":63},{"user_id":12,"name":"void monad","steam_id":76561198117012334,"connected_time":1038000000000,"state":"active","ping":87},{"user_id":11,"name":"GlassesMode","steam_id":76561199142786677,"connected_time":1089000000000,"state":"active","ping":64},{"user_id":20,"name":"PerskuleBenener","steam_id":76561198156899375,"connected_time":480000000000,"state":"active","ping":78},{"user_id":14,"name":"alienndrago #saveTF2","steam_id":76561198815566591,"connected_time":924000000000,"state":"active","ping":63},{"user_id":21,"name":"Kodutah","steam_id":76561198203405574,"connected_time":349000000000,"state":"active","ping":61},{"user_id":16,"name":"Sheerluck Holmes","steam_id":76561198051161936,"connected_time":853000000000,"state":"active","ping":59},{"user_id":17,"name":"Û†Ä°Û†Ä°Û†Ä°Û†Ä°","steam_id":76561198882254503,"connected_time":754000000000,"state":"active","ping":60},{"user_id":22,"name":"Per√§miehen√§","steam_id":76561197968945306,"connected_time":214000000000,"state":"active","ping":74},{"user_id":23,"name":"Grel[C.E.O]","steam_id":76561199372198864,"connected_time":79000000000,"state":"active","ping":81}]},{"server_id":308,"name":"Uncletopia | Frankfurt | 3 | All Maps","name_short":"frk-3","host":"frk-1.de.uncletopia.com","port":27035,"enabled":true,"region":"eu","cc":"de","latitude":50.110924,"longitude":8.682127,"reserved":0,"last_update":"0001-01-01T00:00:00Z","name_a2s":"Uncletopia | Frankfurt | 3 | All Maps","protocol":17,"map":"pl_upward","folder":"tf","game":"Team Fortress","app_id":440,"player_count":23,"max_players":24,"Bots":0,"server_type":"Dedicated","server_os":"Linux","password":true,"vac":true,"version":"7723704","steam_id":85568392924504274,"keywords":["nocrits","nodmgspread","payload","uncletopia"],"game_id":440,"stv_port":27036,"stv_name":"Uncletopia | Frankfurt | 3 | All Maps | STV","players":[{"user_id":128,"name":"Oscy011","steam_id":76561198835503420,"connected_time":326000000000,"state":"active","ping":56},{"user_id":84,"name":"Jeg","steam_id":76561198405291408,"connected_time":2790000000000,"state":"active","ping":59},{"user_id":131,"name":"MikeOldseeker","steam_id":76561198249405086,"connected_time":8000000000,"state":"spawning","ping":79},{"user_id":121,"name":"Zenixic","steam_id":76561198085232233,"connected_time":508000000000,"state":"active","ping":100},{"user_id":91,"name":"pompom:3","steam_id":76561199057953617,"connected_time":2483000000000,"state":"active","ping":60},{"user_id":39,"name":"gagalak","steam_id":76561198089979108,"connected_time":6203000000000,"state":"active","ping":90},{"user_id":104,"name":"Izzermann","steam_id":76561199100131945,"connected_time":2249000000000,"state":"active","ping":50},{"user_id":92,"name":"dairy","steam_id":76561198117033273,"connected_time":2441000000000,"state":"active","ping":62},{"user_id":111,"name":"Numbe","steam_id":76561198269614930,"connected_time":1353000000000,"state":"active","ping":95},{"user_id":14,"name":"Vol't","steam_id":76561198808294219,"connected_time":7298000000000,"state":"active","ping":164},{"user_id":129,"name":"tristan","steam_id":76561198096097448,"connected_time":287000000000,"state":"active","ping":54},{"user_id":83,"name":"The Cranius Mage","steam_id":76561199151501467,"connected_time":2973000000000,"state":"active","ping":99},{"user_id":69,"name":"frying pan (real)","steam_id":76561198875409640,"connected_time":3893000000000,"state":"active","ping":66},{"user_id":115,"name":"gus","steam_id":76561198876303958,"connected_time":1167000000000,"state":"active","ping":110},{"user_id":109,"name":"ratoshin","steam_id":76561198194433657,"connected_time":2090000000000,"state":"active","ping":47},{"user_id":107,"name":"dafydd","steam_id":76561198052200325,"connected_time":2139000000000,"state":"active","ping":79},{"user_id":130,"name":"Teffg","steam_id":76561198274386094,"connected_time":180000000000,"state":"active","ping":81},{"user_id":110,"name":"Layton","steam_id":76561198087221314,"connected_time":1468000000000,"state":"active","ping":53},{"user_id":132,"name":"advanced polish lifeform","steam_id":76561198062107879,"connected_time":5000000000,"state":"spawning","ping":88},{"user_id":108,"name":"60HZ AND INPUT LAG","steam_id":76561198043601838,"connected_time":2132000000000,"state":"active","ping":69},{"user_id":114,"name":"vahas","steam_id":76561198173818374,"connected_time":1182000000000,"state":"active","ping":86},{"user_id":34,"name":".::[SerafeTTiN]::.","steam_id":76561198009471724,"connected_time":6390000000000,"state":"active","ping":89},{"user_id":77,"name":"Vikud","steam_id":76561199110575856,"connected_time":3325000000000,"state":"active","ping":128}]},{"server_id":309,"name":"Uncletopia | Frankfurt | 4 | All Maps","name_short":"frk-4","host":"frk-1.de.uncletopia.com","port":27045,"enabled":true,"region":"eu","cc":"de","latitude":50.110924,"longitude":8.682127,"reserved":0,"last_update":"0001-01-01T00:00:00Z","name_a2s":"Uncletopia | Frankfurt | 4 | All Maps","protocol":17,"map":"pl_hoodoo_final","folder":"tf","game":"Team Fortress","app_id":440,"player_count":20,"max_players":24,"Bots":0,"server_type":"Dedicated","server_os":"Linux","password":true,"vac":true,"version":"7723704","steam_id":85568392924504275,"keywords":["nocrits","nodmgspread","payload","uncletopia"],"game_id":440,"stv_port":27046,"stv_name":"Uncletopia | Frankfurt | 4 | All Maps | STV","players":[{"user_id":56,"name":"Bananagame (Youtube)","steam_id":76561199275399457,"connected_time":1757000000000,"state":"active","ping":85},{"user_id":52,"name":"dank pank","steam_id":76561198995052713,"connected_time":2750000000000,"state":"active","ping":53},{"user_id":74,"name":"Rkn innit fam","steam_id":76561198279719652,"connected_time":545000000000,"state":"active","ping":208},{"user_id":69,"name":"Exxon","steam_id":76561198997885594,"connected_time":900000000000,"state":"active","ping":54},{"user_id":48,"name":"zoro","steam_id":76561198083657017,"connected_time":2810000000000,"state":"active","ping":88},{"user_id":76,"name":"M3talBlue","steam_id":76561198966031884,"connected_time":266000000000,"state":"active","ping":63},{"user_id":50,"name":"‚ô¶Silvia‚ô¶","steam_id":76561198373039444,"connected_time":2781000000000,"state":"active","ping":115},{"user_id":72,"name":"Leibeigener","steam_id":76561199275478305,"connected_time":732000000000,"state":"active","ping":44},{"user_id":54,"name":"‚ô• Cirno ‚ô•","steam_id":76561198834982738,"connected_time":1920000000000,"state":"active","ping":67},{"user_id":26,"name":"moopviii","steam_id":76561199177831851,"connected_time":3500000000000,"state":"active","ping":145},{"user_id":34,"name":"Dictatorial Karelian","steam_id":76561198196736457,"connected_time":3170000000000,"state":"active","ping":81},{"user_id":41,"name":"kebab","steam_id":76561198821444115,"connected_time":3057000000000,"state":"active","ping":62},{"user_id":73,"name":"waddle dork","steam_id":76561198297349985,"connected_time":706000000000,"state":"active","ping":53},{"user_id":77,"name":"Insain Bolt!","steam_id":76561198025687726,"connected_time":261000000000,"state":"active","ping":50},{"user_id":67,"name":"Jab the Flower","steam_id":76561198094987503,"connected_time":1007000000000,"state":"active","ping":93},{"user_id":68,"name":"del2o","steam_id":76561199072601822,"connected_time":951000000000,"state":"active","ping":117},{"user_id":78,"name":"balkanpresident","steam_id":76561199137677645,"connected_time":225000000000,"state":"active","ping":96},{"user_id":37,"name":"Andy","steam_id":76561198046918834,"connected_time":3149000000000,"state":"active","ping":64},{"user_id":75,"name":"--","steam_id":76561198416527370,"connected_time":353000000000,"state":"active","ping":71},{"user_id":44,"name":"Jonkheervanflep","steam_id":76561198006853101,"connected_time":2958000000000,"state":"active","ping":103}]},{"server_id":310,"name":"Uncletopia | Frankfurt | 5 | All Maps","name_short":"frk-5","host":"frk-1.de.uncletopia.com","port":27055,"enabled":true,"region":"eu","cc":"de","latitude":50.110924,"longitude":8.682127,"reserved":0,"last_update":"0001-01-01T00:00:00Z","name_a2s":"Uncletopia | Frankfurt | 5 | All Maps","protocol":17,"map":"cp_process_final","folder":"tf","game":"Team Fortress","app_id":440,"player_count":0,"max_players":24,"Bots":0,"server_type":"Dedicated","server_os":"Linux","password":true,"vac":true,"version":"7723704","steam_id":85568392924504277,"keywords":["cp","nocrits","nodmgspread","uncletopia"],"game_id":440,"stv_port":27056,"stv_name":"Uncletopia | Frankfurt | 5 | All Maps | STV","players":null},{"server_id":311,"name":"Uncletopia | Frankfurt | 6 | All Maps","name_short":"frk-6","host":"frk-1.de.uncletopia.com","port":27065,"enabled":true,"region":"eu","cc":"de","latitude":50.110924,"longitude":8.682127,"reserved":0,"last_update":"0001-01-01T00:00:00Z","name_a2s":"Uncletopia | Frankfurt | 6 | All Maps","protocol":17,"map":"cp_sunshine","folder":"tf","game":"Team Fortress","app_id":440,"player_count":1,"max_players":24,"Bots":0,"server_type":"Dedicated","server_os":"Linux","password":true,"vac":true,"version":"7723704","steam_id":85568392924504278,"keywords":["cp","nocrits","nodmgspread","uncletopia"],"game_id":440,"stv_port":27066,"stv_name":"Uncletopia | Frankfurt | 6 | All Maps | STV","players":[{"user_id":3,"name":"walk√ºre_","steam_id":76561199245051414,"connected_time":232000000000,"state":"active","ping":94}]},{"server_id":23,"name":"Uncletopia | Frankfurt | 7 | No Payload","name_short":"frk-7","host":"frk-1.de.uncletopia.com","port":27075,"enabled":true,"region":"eu","cc":"de","latitude":50.110924,"longitude":8.682127,"reserved":0,"last_update":"0001-01-01T00:00:00Z","name_a2s":"Uncletopia | Frankfurt | 7 | No Payload","protocol":17,"map":"pl_upward","folder":"tf","game":"Team Fortress","app_id":440,"player_count":0,"max_players":24,"Bots":0,"server_type":"Dedicated","server_os":"Linux","password":true,"vac":true,"version":"7723704","steam_id":85568392924742827,"keywords":["nocrits","nodmgspread","payload","uncletopia"],"game_id":440,"stv_port":27076,"stv_name":"Uncletopia | Frankfurt | 7 | No Payload | STV","players":null},{"server_id":24,"name":"Uncletopia | Frankfurt | 8 | Community","name_short":"frk-8","host":"frk-1.de.uncletopia.com","port":27085,"enabled":true,"region":"eu","cc":"de","latitude":50.110924,"longitude":8.682127,"reserved":0,"last_update":"0001-01-01T00:00:00Z","name_a2s":"Uncletopia | Frankfurt | 8 | Community","protocol":17,"map":"cp_altitude","folder":"tf","game":"Team Fortress","app_id":440,"player_count":0,"max_players":24,"Bots":0,"server_type":"Dedicated","server_os":"Linux","password":true,"vac":true,"version":"7723704","steam_id":85568392924742828,"keywords":["cp","nocrits","nodmgspread","uncletopia"],"game_id":440,"stv_port":27086,"stv_name":"Uncletopia | Frankfurt | 8 | Community | STV","players":null},{"server_id":202,"name":"Uncletopia | Hong Kong | 1 | All Maps","name_short":"hgk-1","host":"hgk-1.hk.uncletopia.com","port":27015,"enabled":true,"region":"asia","cc":"hk","latitude":22.302711,"longitude":114.177216,"reserved":0,"last_update":"0001-01-01T00:00:00Z","name_a2s":"Uncletopia | Hong Kong | 1 | All Maps","protocol":17,"map":"cp_dustbowl","folder":"tf","game":"Team Fortress","app_id":440,"player_count":24,"max_players":24,"Bots":0,"server_type":"Dedicated","server_os":"Linux","password":true,"vac":true,"version":"7723704","steam_id":85568392924494504,"keywords":["cp","nocrits","nodmgspread","uncletopia"],"game_id":440,"stv_port":27016,"stv_name":"Uncletopia | Hong Kong | 1 | All Maps | STV","players":[{"user_id":343,"name":"C√° Th√°ng 4","steam_id":76561198047162026,"connected_time":583000000000,"state":"active","ping":65},{"user_id":353,"name":"Mystery cheese üßÄ","steam_id":76561198304002409,"connected_time":19000000000,"state":"active","ping":76},{"user_id":341,"name":"Noyour","steam_id":76561198323259830,"connected_time":1500000000000,"state":"active","ping":114},{"user_id":326,"name":"screaming sniper","steam_id":76561199085568674,"connected_time":3812000000000,"state":"active","ping":68},{"user_id":259,"name":"MeeLee [ Enemy Med Phobic ]","steam_id":76561199227871384,"connected_time":10223000000000,"state":"active","ping":58},{"user_id":339,"name":"Milk‚ù§","steam_id":76561198163911560,"connected_time":2093000000000,"state":"active","ping":102},{"user_id":225,"name":"Firefang099","steam_id":76561198136685157,"connected_time":12562000000000,"state":"active","ping":61},{"user_id":245,"name":"hardstyle mix 17","steam_id":76561198413116920,"connected_time":11257000000000,"state":"active","ping":77},{"user_id":265,"name":"Michael Scott","steam_id":76561198023082794,"connected_time":9465000000000,"state":"active","ping":47},{"user_id":189,"name":"L√∫d","steam_id":76561198828840546,"connected_time":14826000000000,"state":"active","ping":76},{"user_id":331,"name":"Othopeus","steam_id":76561198283534382,"connected_time":2901000000000,"state":"active","ping":101},{"user_id":329,"name":"ZeniaPY (Playing on Wacom)","steam_id":76561198404352831,"connected_time":3206000000000,"state":"active","ping":59},{"user_id":318,"name":"cellum95","steam_id":76561198172146871,"connected_time":4232000000000,"state":"active","ping":63},{"user_id":347,"name":"max121357","steam_id":76561199280466437,"connected_time":365000000000,"state":"active","ping":96},{"user_id":350,"name":"bistek","steam_id":76561198230213828,"connected_time":261000000000,"state":"active","ping":131},{"user_id":263,"name":"can we get much higher","steam_id":76561199390507975,"connected_time":9571000000000,"state":"active","ping":49},{"user_id":351,"name":"Alan the Annihilator","steam_id":76561198346128694,"connected_time":251000000000,"state":"active","ping":73},{"user_id":333,"name":"Cheesey","steam_id":76561198975684137,"connected_time":2702000000000,"state":"active","ping":93},{"user_id":352,"name":"tuxy","steam_id":76561198996816684,"connected_time":143000000000,"state":"active","ping":68},{"user_id":266,"name":"i like cheese","steam_id":76561198085893796,"connected_time":9129000000000,"state":"active","ping":103},{"user_id":349,"name":"MR. T","steam_id":76561198847421088,"connected_time":333000000000,"state":"active","ping":139},{"user_id":346,"name":"AzureWares","steam_id":76561199439340850,"connected_time":506000000000,"state":"active","ping":71},{"user_id":308,"name":"17","steam_id":76561198241530712,"connected_time":5167000000000,"state":"active","ping":62},{"user_id":337,"name":"TomProPlayer","steam_id":76561199223292521,"connected_time":2105000000000,"state":"active","ping":66}]},{"server_id":1,"name":"Uncletopia | Los Angeles | 1 | All Maps","name_short":"lax-1","host":"lax-1.us.uncletopia.com","port":27015,"enabled":true,"region":"us-west","cc":"us","latitude":33.94279,"longitude":-118.41004,"reserved":0,"last_update":"0001-01-01T00:00:00Z","name_a2s":"Uncletopia | Los Angeles | 1 | All Maps","protocol":17,"map":"pl_pier","folder":"tf","game":"Team Fortress","app_id":440,"player_count":0,"max_players":24,"Bots":0,"server_type":"Dedicated","server_os":"Linux","password":true,"vac":true,"version":"7723704","steam_id":85568392924469991,"keywords":["nocrits","nodmgspread","payload","uncletopia"],"game_id":440,"stv_port":27016,"stv_name":"Uncletopia | Los Angeles | 1 | All Maps | STV","players":null},{"server_id":112,"name":"Uncletopia | Los Angeles | 2 | All Maps","name_short":"lax-2","host":"lax-1.us.uncletopia.com","port":27025,"enabled":true,"region":"us-west","cc":"us","latitude":33.94279,"longitude":-118.41004,"reserved":0,"last_update":"0001-01-01T00:00:00Z","name_a2s":"Uncletopia | Los Angeles | 2 | All Maps","protocol":17,"map":"pl_snowycoast","folder":"tf","game":"Team Fortress","app_id":440,"player_count":4,"max_players":24,"Bots":0,"server_type":"Dedicated","server_os":"Linux","password":true,"vac":true,"version":"7723704","steam_id":85568392924469992,"keywords":["nocrits","nodmgspread","payload","uncletopia"],"game_id":440,"stv_port":27026,"stv_name":"Uncletopia | Los Angeles | 2 | All Maps | STV","players":[{"user_id":345,"name":"DoomFox/Carcoon","steam_id":76561198435625652,"connected_time":1972000000000,"state":"active","ping":54},{"user_id":347,"name":"Guestjohnkenji","steam_id":76561199173798136,"connected_time":1411000000000,"state":"active","ping":245},{"user_id":348,"name":"ztnt1000","steam_id":76561198245073566,"connected_time":959000000000,"state":"active","ping":65},{"user_id":320,"name":"The Biggest Nobody of Them All","steam_id":76561198168730243,"connected_time":5796000000000,"state":"active","ping":57}]},{"server_id":324,"name":"Uncletopia | Los Angeles | 3 | All Maps","name_short":"lax-3","host":"lax-1.us.uncletopia.com","port":27035,"enabled":true,"region":"us-west","cc":"us","latitude":33.94279,"longitude":-118.41004,"reserved":0,"last_update":"0001-01-01T00:00:00Z","name_a2s":"Uncletopia | Los Angeles | 3 | All Maps","protocol":17,"map":"plr_hightower","folder":"tf","game":"Team Fortress","app_id":440,"player_count":22,"max_players":24,"Bots":0,"server_type":"Dedicated","server_os":"Linux","password":true,"vac":true,"version":"7723704","steam_id":85568392924510198,"keywords":["nocrits","nodmgspread","payload","uncletopia"],"game_id":440,"stv_port":27036,"stv_name":"Uncletopia | Los Angeles | 3 | All Maps | STV","players":[{"user_id":92,"name":"CrispyToes","steam_id":76561198173624978,"connected_time":2041000000000,"state":"active","ping":89},{"user_id":124,"name":"tacofever","steam_id":76561198010966507,"connected_time":12000000000,"state":"spawning","ping":92},{"user_id":30,"name":"üê∫-Iwky-ü¶ä","steam_id":76561198185616311,"connected_time":11242000000000,"state":"active","ping":72},{"user_id":112,"name":"Cave Dweller","steam_id":76561198374825685,"connected_time":821000000000,"state":"active","ping":67},{"user_id":122,"name":"Koyota","steam_id":76561198069878114,"connected_time":198000000000,"state":"active","ping":62},{"user_id":107,"name":"jrd101721","steam_id":76561198154812975,"connected_time":1220000000000,"state":"active","ping":51},{"user_id":93,"name":"Nezumi Otokonoko","steam_id":76561198050083859,"connected_time":2036000000000,"state":"active","ping":54},{"user_id":113,"name":"Tachi","steam_id":76561198158581216,"connected_time":783000000000,"state":"active","ping":52},{"user_id":46,"name":"Phil Collins","steam_id":76561198068868644,"connected_time":5502000000000,"state":"active","ping":55},{"user_id":105,"name":"diymo","steam_id":76561198017600790,"connected_time":1281000000000,"state":"active","ping":70},{"user_id":95,"name":"breathing meat donut","steam_id":76561198123566649,"connected_time":1993000000000,"state":"active","ping":87},{"user_id":80,"name":"Jesus Loves You57","steam_id":76561199058833769,"connected_time":2965000000000,"state":"active","ping":58},{"user_id":108,"name":"PunishedCrab","steam_id":76561198079650017,"connected_time":1157000000000,"state":"active","ping":51},{"user_id":101,"name":"alpharuby","steam_id":76561198051638462,"connected_time":1483000000000,"state":"active","ping":45},{"user_id":74,"name":"Stupid frogs!","steam_id":76561198069415057,"connected_time":3874000000000,"state":"active","ping":46},{"user_id":109,"name":"Coolest Guy inside the Big Pit","steam_id":76561198296867197,"connected_time":1152000000000,"state":"active","ping":108},{"user_id":123,"name":"Snow","steam_id":76561198038761855,"connected_time":62000000000,"state":"active","ping":137},{"user_id":114,"name":"Gamut","steam_id":76561199185822800,"connected_time":746000000000,"state":"active","ping":99},{"user_id":120,"name":"Kaui","steam_id":76561198052249003,"connected_time":361000000000,"state":"active","ping":50},{"user_id":121,"name":"greg club","steam_id":76561198370506193,"connected_time":331000000000,"state":"active","ping":90},{"user_id":118,"name":"June","steam_id":76561198141803658,"connected_time":472000000000,"state":"active","ping":46},{"user_id":65,"name":"sly1","steam_id":76561198049014977,"connected_time":4671000000000,"state":"active","ping":56}]},{"server_id":25,"name":"Uncletopia | Los Angeles | 4 | No Payload","name_short":"lax-4","host":"lax-1.us.uncletopia.com","port":27045,"enabled":true,"region":"us-west","cc":"us","latitude":33.94279,"longitude":-118.41004,"reserved":0,"last_update":"0001-01-01T00:00:00Z","name_a2s":"Uncletopia | Los Angeles | 4 | No Payload","protocol":17,"map":"koth_lazarus","folder":"tf","game":"Team Fortress","app_id":440,"player_count":0,"max_players":24,"Bots":0,"server_type":"Dedicated","server_os":"Linux","password":true,"vac":true,"version":"7723704","steam_id":85568392924510199,"keywords":["cp","nocrits","nodmgspread","uncletopia"],"game_id":440,"stv_port":27046,"stv_name":"Uncletopia | Los Angeles | 4 | No Payload | STV","players":null},{"server_id":11,"name":"Uncletopia | London | 1 | All Maps","name_short":"lon-1","host":"lon-1.uk.uncletopia.com","port":27015,"enabled":true,"region":"eu","cc":"gb","latitude":51.509865,"longitude":-0.118092,"reserved":0,"last_update":"0001-01-01T00:00:00Z","name_a2s":"Uncletopia | London | 1 | All Maps","protocol":17,"map":"koth_viaduct","folder":"tf","game":"Team Fortress","app_id":440,"player_count":0,"max_players":24,"Bots":0,"server_type":"Dedicated","server_os":"Linux","password":true,"vac":true,"version":"7723704","steam_id":85568392924367362,"keywords":["cp","nocrits","nodmgspread","uncletopia"],"game_id":440,"stv_port":27016,"stv_name":"Uncletopia | London | 1 | All Maps | STV","players":null},{"server_id":114,"name":"Uncletopia | London | 2 | All Maps","name_short":"lon-2","host":"lon-1.uk.uncletopia.com","port":27025,"enabled":true,"region":"eu","cc":"gb","latitude":51.509865,"longitude":-0.118092,"reserved":0,"last_update":"0001-01-01T00:00:00Z","name_a2s":"Uncletopia | London | 2 | All Maps","protocol":17,"map":"cp_mountainlab","folder":"tf","game":"Team Fortress","app_id":440,"player_count":24,"max_players":24,"Bots":0,"server_type":"Dedicated","server_os":"Linux","password":true,"vac":true,"version":"7723704","steam_id":85568392924470941,"keywords":["cp","nocrits","nodmgspread","uncletopia"],"game_id":440,"stv_port":27026,"stv_name":"Uncletopia | London | 2 | All Maps | STV","players":[{"user_id":33,"name":"The Funny Cat-Heaby","steam_id":76561198439978112,"connected_time":453000000000,"state":"active","ping":99},{"user_id":7,"name":"licken ze dicken","steam_id":76561198211621756,"connected_time":1612000000000,"state":"active","ping":64},{"user_id":20,"name":"BAPELIS","steam_id":76561198139157427,"connected_time":1154000000000,"state":"active","ping":91},{"user_id":34,"name":"psychogoat101","steam_id":76561198156146805,"connected_time":438000000000,"state":"active","ping":43},{"user_id":9,"name":"beardexpse","steam_id":76561198929162354,"connected_time":1589000000000,"state":"active","ping":90},{"user_id":28,"name":"Kobeni car ( :D )","steam_id":76561199052772727,"connected_time":670000000000,"state":"active","ping":76},{"user_id":21,"name":"|not|dan|the|epic|gamer|","steam_id":76561198278561932,"connected_time":1127000000000,"state":"active","ping":100},{"user_id":12,"name":"forv","steam_id":76561198326667006,"connected_time":1481000000000,"state":"active","ping":73},{"user_id":35,"name":"Borse","steam_id":76561198028229913,"connected_time":428000000000,"state":"active","ping":54},{"user_id":42,"name":"Wilson #savetf2","steam_id":76561198992452882,"connected_time":103000000000,"state":"active","ping":76},{"user_id":15,"name":"Goofball","steam_id":76561198074189084,"connected_time":1348000000000,"state":"active","ping":105},{"user_id":16,"name":"Elena Manetta","steam_id":76561197998344054,"connected_time":1345000000000,"state":"active","ping":105},{"user_id":29,"name":"Xydran","steam_id":76561198042397402,"connected_time":646000000000,"state":"active","ping":74},{"user_id":25,"name":"Mankor","steam_id":76561198020439322,"connected_time":934000000000,"state":"active","ping":60},{"user_id":19,"name":"snazyyy","steam_id":76561198143529110,"connected_time":1200000000000,"state":"active","ping":46},{"user_id":37,"name":"cherry","steam_id":76561199006915718,"connected_time":392000000000,"state":"active","ping":63},{"user_id":26,"name":"mesoni","steam_id":76561199141290973,"connected_time":807000000000,"state":"active","ping":86},{"user_id":27,"name":"lofi hip hop beats","steam_id":76561198348048790,"connected_time":744000000000,"state":"active","ping":55},{"user_id":30,"name":"clean carp","steam_id":76561198127053294,"connected_time":646000000000,"state":"active","ping":66},{"user_id":31,"name":"T0bias","steam_id":76561199256229877,"connected_time":639000000000,"state":"active","ping":85},{"user_id":32,"name":"Fluffy","steam_id":76561198084447725,"connected_time":551000000000,"state":"active","ping":49},{"user_id":38,"name":"el'bingel","steam_id":76561199069243192,"connected_time":327000000000,"state":"active","ping":60},{"user_id":39,"name":"huge ball busting sneeze schemk","steam_id":76561198400406140,"connected_time":320000000000,"state":"active","ping":46},{"user_id":40,"name":"gamerweed5","steam_id":76561198087651151,"connected_time":286000000000,"state":"active","ping":41}]},{"server_id":320,"name":"Uncletopia | London | 3 | All Maps","name_short":"lon-3","host":"lon-1.uk.uncletopia.com","port":27035,"enabled":true,"region":"eu","cc":"gb","latitude":51.509865,"longitude":-0.118092,"reserved":0,"last_update":"0001-01-01T00:00:00Z","name_a2s":"Uncletopia | London | 3 | All Maps","protocol":17,"map":"pl_upward","folder":"tf","game":"Team Fortress","app_id":440,"player_count":0,"max_players":24,"Bots":0,"server_type":"Dedicated","server_os":"Linux","password":true,"vac":true,"version":"7723704","steam_id":85568392924510192,"keywords":["nocrits","nodmgspread","payload","uncletopia"],"game_id":440,"stv_port":27036,"stv_name":"Uncletopia | London | 3 | All Maps | STV","players":null},{"server_id":321,"name":"Uncletopia | London | 4 | All Maps","name_short":"lon-4","host":"lon-1.uk.uncletopia.com","port":27045,"enabled":true,"region":"eu","cc":"gb","latitude":51.509865,"longitude":-0.118092,"reserved":0,"last_update":"0001-01-01T00:00:00Z","name_a2s":"Uncletopia | London | 4 | All Maps","protocol":17,"map":"koth_highpass","folder":"tf","game":"Team Fortress","app_id":440,"player_count":0,"max_players":24,"Bots":0,"server_type":"Dedicated","server_os":"Linux","password":true,"vac":true,"version":"7723704","steam_id":85568392924510193,"keywords":["cp","nocrits","nodmgspread","uncletopia"],"game_id":440,"stv_port":27046,"stv_name":"Uncletopia | London | 4 | All Maps | STV","players":null},{"server_id":21,"name":"Uncletopia | London | 5 | All Maps","name_short":"lon-5","host":"lon-1.uk.uncletopia.com","port":27055,"enabled":true,"region":"eu","cc":"gb","latitude":51.509865,"longitude":-0.118092,"reserved":0,"last_update":"0001-01-01T00:00:00Z","name_a2s":"Uncletopia | London | 5 | All Maps","protocol":17,"map":"pl_badwater","folder":"tf","game":"Team Fortress","app_id":440,"player_count":0,"max_players":24,"Bots":0,"server_type":"Dedicated","server_os":"Linux","password":true,"vac":true,"version":"7723704","steam_id":85568392924742829,"keywords":["nocrits","nodmgspread","payload","uncletopia"],"game_id":440,"stv_port":27056,"stv_name":"Uncletopia | London | 5 | All Maps | STV","players":null},{"server_id":22,"name":"Uncletopia | London | 6 | All Maps","name_short":"lon-6","host":"lon-1.uk.uncletopia.com","port":27065,"enabled":true,"region":"eu","cc":"gb","latitude":51.509865,"longitude":-0.118092,"reserved":0,"last_update":"0001-01-01T00:00:00Z","name_a2s":"Uncletopia | London | 6 | All Maps","protocol":17,"map":"cp_altitude","folder":"tf","game":"Team Fortress","app_id":440,"player_count":0,"max_players":24,"Bots":0,"server_type":"Dedicated","server_os":"Linux","password":true,"vac":true,"version":"7723704","steam_id":85568392924742830,"keywords":["cp","nocrits","nodmgspread","uncletopia"],"game_id":440,"stv_port":27066,"stv_name":"Uncletopia | London | 6 | All Maps | STV","players":null},{"server_id":40,"name":"Uncletopia | London | 7 | No Payload","name_short":"lon-7","host":"lon-1.uk.uncletopia.com","port":27075,"enabled":true,"region":"eu","cc":"gb","latitude":51.509865,"longitude":-0.118092,"reserved":0,"last_update":"0001-01-01T00:00:00Z","name_a2s":"Uncletopia | London | 7 | No Payload","protocol":17,"map":"koth_cascade","folder":"tf","game":"Team Fortress","app_id":440,"player_count":0,"max_players":24,"Bots":0,"server_type":"Dedicated","server_os":"Linux","password":true,"vac":true,"version":"7723704","steam_id":85568392924964314,"keywords":["cp","nocrits","nodmgspread","uncletopia"],"game_id":440,"stv_port":27076,"stv_name":"Uncletopia | London | 7 | No Payload | STV","players":null},{"server_id":41,"name":"Uncletopia | London | 8 | Community","name_short":"lon-8","host":"lon-1.uk.uncletopia.com","port":27085,"enabled":true,"region":"eu","cc":"gb","latitude":51.509865,"longitude":-0.118092,"reserved":0,"last_update":"0001-01-01T00:00:00Z","name_a2s":"Uncletopia | London | 8 | Community","protocol":17,"map":"pl_snowycoast","folder":"tf","game":"Team Fortress","app_id":440,"player_count":0,"max_players":24,"Bots":0,"server_type":"Dedicated","server_os":"Linux","password":true,"vac":true,"version":"7723704","steam_id":85568392924964315,"keywords":["nocrits","nodmgspread","payload","uncletopia"],"game_id":440,"stv_port":27086,"stv_name":"Uncletopia | London | 8 | Community | STV","players":null},{"server_id":300,"name":"Uncletopia | Montr√©al | 1 | All Maps","name_short":"mtl-1","host":"mtl-1.ca.uncletopia.com","port":27015,"enabled":true,"region":"us-east","cc":"ca","latitude":45.50889,"longitude":-73.56167,"reserved":0,"last_update":"0001-01-01T00:00:00Z","name_a2s":"","protocol":0,"map":"","folder":"","game":"","app_id":0,"player_count":0,"max_players":0,"Bots":0,"server_type":"","server_os":"","password":false,"vac":false,"version":"","steam_id":0,"keywords":null,"game_id":0,"stv_port":0,"stv_name":"","players":null},{"server_id":301,"name":"Uncletopia | Montr√©al | 2 | All Maps","name_short":"mtl-2","host":"mtl-1.ca.uncletopia.com","port":27025,"enabled":true,"region":"us-east","cc":"ca","latitude":45.50889,"longitude":-73.56167,"reserved":0,"last_update":"0001-01-01T00:00:00Z","name_a2s":"","protocol":0,"map":"","folder":"","game":"","app_id":0,"player_count":0,"max_players":0,"Bots":0,"server_type":"","server_os":"","password":false,"vac":false,"version":"","steam_id":0,"keywords":null,"game_id":0,"stv_port":0,"stv_name":"","players":null},{"server_id":302,"name":"Uncletopia | Montr√©al | 3 | All Maps","name_short":"mtl-3","host":"mtl-1.ca.uncletopia.com","port":27035,"enabled":true,"region":"us-east","cc":"ca","latitude":45.50889,"longitude":-73.56167,"reserved":0,"last_update":"0001-01-01T00:00:00Z","name_a2s":"","protocol":0,"map":"","folder":"","game":"","app_id":0,"player_count":0,"max_players":0,"Bots":0,"server_type":"","server_os":"","password":false,"vac":false,"version":"","steam_id":0,"keywords":null,"game_id":0,"stv_port":0,"stv_name":"","players":null},{"server_id":303,"name":"Uncletopia | Montr√©al | 4 | No Payload","name_short":"mtl-4","host":"mtl-1.ca.uncletopia.com","port":27045,"enabled":true,"region":"us-east","cc":"ca","latitude":45.50889,"longitude":-73.56167,"reserved":0,"last_update":"0001-01-01T00:00:00Z","name_a2s":"","protocol":0,"map":"","folder":"","game":"","app_id":0,"player_count":0,"max_players":0,"Bots":0,"server_type":"","server_os":"","password":false,"vac":false,"version":"","steam_id":0,"keywords":null,"game_id":0,"stv_port":0,"stv_name":"","players":null},{"server_id":13,"name":"Uncletopia | New York City | 1 | All Maps","name_short":"nyc-1","host":"nyc-1.us.uncletopia.com","port":27015,"enabled":true,"region":"us-east","cc":"us","latitude":40.73061,"longitude":-73.93524,"reserved":0,"last_update":"0001-01-01T00:00:00Z","name_a2s":"Uncletopia | New York City | 1 | All Maps","protocol":17,"map":"plr_bananabay","folder":"tf","game":"Team Fortress","app_id":440,"player_count":0,"max_players":24,"Bots":0,"server_type":"Dedicated","server_os":"Linux","password":true,"vac":true,"version":"7723704","steam_id":85568392924469993,"keywords":["nocrits","nodmgspread","payload","uncletopia"],"game_id":440,"stv_port":27016,"stv_name":"Uncletopia | New York City | 1 | All Maps | STV","players":null},{"server_id":14,"name":"Uncletopia | New York City | 2 | All Maps","name_short":"nyc-2","host":"nyc-1.us.uncletopia.com","port":27025,"enabled":true,"region":"us-east","cc":"us","latitude":40.73061,"longitude":-73.93524,"reserved":0,"last_update":"0001-01-01T00:00:00Z","name_a2s":"Uncletopia | New York City | 2 | All Maps","protocol":17,"map":"cp_mountainlab","folder":"tf","game":"Team Fortress","app_id":440,"player_count":0,"max_players":24,"Bots":0,"server_type":"Dedicated","server_os":"Linux","password":true,"vac":true,"version":"7723704","steam_id":85568392924469994,"keywords":["cp","nocrits","nodmgspread","uncletopia"],"game_id":440,"stv_port":27026,"stv_name":"Uncletopia | New York City | 2 | All Maps | STV","players":null},{"server_id":15,"name":"Uncletopia | New York City | 3 | All Maps","name_short":"nyc-3","host":"nyc-1.us.uncletopia.com","port":27035,"enabled":true,"region":"us-east","cc":"us","latitude":40.73061,"longitude":-73.93524,"reserved":0,"last_update":"0001-01-01T00:00:00Z","name_a2s":"Uncletopia | New York City | 3 | All Maps","protocol":17,"map":"cp_dustbowl","folder":"tf","game":"Team Fortress","app_id":440,"player_count":0,"max_players":24,"Bots":0,"server_type":"Dedicated","server_os":"Linux","password":true,"vac":true,"version":"7723704","steam_id":85568392924742820,"keywords":["cp","nocrits","nodmgspread","uncletopia"],"game_id":440,"stv_port":27036,"stv_name":"Uncletopia | New York City | 3 | All Maps | STV","players":null},{"server_id":16,"name":"Uncletopia | New York City | 4 | Community","name_short":"nyc-4","host":"nyc-1.us.uncletopia.com","port":27045,"enabled":true,"region":"us-east","cc":"us","latitude":40.73061,"longitude":-73.93524,"reserved":0,"last_update":"0001-01-01T00:00:00Z","name_a2s":"Uncletopia | New York City | 4 | Community","protocol":17,"map":"workshop/koth_ashville_final.ugc2130459942","folder":"tf","game":"Team Fortress","app_id":440,"player_count":0,"max_players":24,"Bots":0,"server_type":"Dedicated","server_os":"Linux","password":true,"vac":true,"version":"7723704","steam_id":85568392924742821,"keywords":["cp","nocrits","nodmgspread","uncletopia"],"game_id":440,"stv_port":27046,"stv_name":"Uncletopia | New York City | 4 | Community | STV","players":null},{"server_id":142,"name":"Uncletopia | S√£o Paulo | 1 | All Maps","name_short":"sao-1","host":"sao-1.br.uncletopia.com","port":27015,"enabled":true,"region":"sa","cc":"br","latitude":-23.533773,"longitude":-46.62529,"reserved":0,"last_update":"0001-01-01T00:00:00Z","name_a2s":"Uncletopia | S√£o Paulo | 1 | All Maps","protocol":17,"map":"pl_upward","folder":"tf","game":"Team Fortress","app_id":440,"player_count":0,"max_players":24,"Bots":0,"server_type":"Dedicated","server_os":"Linux","password":true,"vac":true,"version":"7723704","steam_id":85568392924469996,"keywords":["nocrits","nodmgspread","payload","uncletopia"],"game_id":440,"stv_port":27016,"stv_name":"Uncletopia | S√£o Paulo | 1 | All Maps | STV","players":null},{"server_id":143,"name":"Uncletopia | S√£o Paulo | 2 | All Maps","name_short":"sao-2","host":"sao-2.br.uncletopia.com","port":27015,"enabled":true,"region":"sa","cc":"br","latitude":-23.533773,"longitude":-46.62529,"reserved":0,"last_update":"0001-01-01T00:00:00Z","name_a2s":"Uncletopia | S√£o Paulo | 2 | All Maps","protocol":17,"map":"pl_barnblitz","folder":"tf","game":"Team Fortress","app_id":440,"player_count":0,"max_players":24,"Bots":0,"server_type":"Dedicated","server_os":"Linux","password":true,"vac":true,"version":"7723704","steam_id":85568392924485349,"keywords":["nocrits","nodmgspread","payload","uncletopia"],"game_id":440,"stv_port":27016,"stv_name":"Uncletopia | S√£o Paulo | 2 | All Maps | STV","players":null},{"server_id":7,"name":"Uncletopia | Seattle | 1 | All Maps","name_short":"sea-1","host":"sea-1.us.uncletopia.com","port":27015,"enabled":true,"region":"us-west","cc":"us","latitude":47.608013,"longitude":-122.33517,"reserved":0,"last_update":"0001-01-01T00:00:00Z","name_a2s":"Uncletopia | Seattle | 1 | All Maps","protocol":17,"map":"koth_highpass","folder":"tf","game":"Team Fortress","app_id":440,"player_count":0,"max_players":24,"Bots":0,"server_type":"Dedicated","server_os":"Linux","password":true,"vac":true,"version":"7723704","steam_id":85568392924469997,"keywords":["cp","nocrits","nodmgspread","uncletopia"],"game_id":440,"stv_port":27016,"stv_name":"Uncletopia | Seattle | 1 | All Maps | STV","players":null},{"server_id":119,"name":"Uncletopia | Seattle | 2 | All Maps","name_short":"sea-2","host":"sea-1.us.uncletopia.com","port":27025,"enabled":true,"region":"us-west","cc":"us","latitude":47.608013,"longitude":-122.33517,"reserved":0,"last_update":"0001-01-01T00:00:00Z","name_a2s":"Uncletopia | Seattle | 2 | All Maps","protocol":17,"map":"pl_badwater","folder":"tf","game":"Team Fortress","app_id":440,"player_count":24,"max_players":24,"Bots":0,"server_type":"Dedicated","server_os":"Linux","password":true,"vac":true,"version":"7723704","steam_id":85568392924469998,"keywords":["nocrits","nodmgspread","payload","uncletopia"],"game_id":440,"stv_port":27026,"stv_name":"Uncletopia | Seattle | 2 | All Maps | STV","players":[{"user_id":417,"name":"DonJam√≥n","steam_id":76561198319090131,"connected_time":1472000000000,"state":"active","ping":74},{"user_id":390,"name":"Tom Skirrett","steam_id":76561198014600788,"connected_time":4765000000000,"state":"active","ping":67},{"user_id":421,"name":"ryan","steam_id":76561198083851689,"connected_time":466000000000,"state":"active","ping":87},{"user_id":408,"name":"Matt","steam_id":76561199122703238,"connected_time":2306000000000,"state":"active","ping":79},{"user_id":422,"name":"Marv_L","steam_id":76561198035709541,"connected_time":373000000000,"state":"active","ping":70},{"user_id":377,"name":"PopcornNinja101","steam_id":76561198330680181,"connected_time":5912000000000,"state":"active","ping":45},{"user_id":419,"name":"Dominus Extra","steam_id":76561198035698704,"connected_time":591000000000,"state":"active","ping":75},{"user_id":424,"name":"Soldie","steam_id":76561198118414372,"connected_time":258000000000,"state":"active","ping":136},{"user_id":418,"name":"gorlab","steam_id":76561198025089694,"connected_time":890000000000,"state":"active","ping":63},{"user_id":373,"name":"Ayayahuasca","steam_id":76561199002906056,"connected_time":6356000000000,"state":"active","ping":50},{"user_id":399,"name":"Sniff","steam_id":76561198010270922,"connected_time":3954000000000,"state":"active","ping":44},{"user_id":416,"name":"3.dlc","steam_id":76561198234377776,"connected_time":1556000000000,"state":"active","ping":81},{"user_id":423,"name":"isco","steam_id":76561198046014847,"connected_time":335000000000,"state":"active","ping":76},{"user_id":426,"name":"Xd","steam_id":76561198115731144,"connected_time":176000000000,"state":"active","ping":45},{"user_id":386,"name":"bbbbb","steam_id":76561198095480838,"connected_time":5793000000000,"state":"active","ping":45},{"user_id":393,"name":"rorytherednosedreindeer","steam_id":76561198065825165,"connected_time":4686000000000,"state":"active","ping":79},{"user_id":306,"name":"squash","steam_id":76561198150281353,"connected_time":11638000000000,"state":"active","ping":57},{"user_id":414,"name":"served","steam_id":76561199438267625,"connected_time":1591000000000,"state":"active","ping":96},{"user_id":332,"name":"delight","steam_id":76561197980280272,"connected_time":9595000000000,"state":"active","ping":54},{"user_id":413,"name":"soup","steam_id":76561198043209046,"connected_time":1593000000000,"state":"active","ping":80},{"user_id":410,"name":"smeasly","steam_id":76561198028718812,"connected_time":2077000000000,"state":"active","ping":41},{"user_id":406,"name":"My bday I guess","steam_id":76561198056075147,"connected_time":2534000000000,"state":"active","ping":188},{"user_id":395,"name":"Zee‚ù§","steam_id":76561198274550638,"connected_time":4083000000000,"state":"active","ping":113},{"user_id":412,"name":"jorts","steam_id":76561199041179985,"connected_time":1939000000000,"state":"active","ping":63}]},{"server_id":17,"name":"Uncletopia | San Francisco | 1 | All Maps","name_short":"sfo-1","host":"sfo-1.us.uncletopia.com","port":27015,"enabled":true,"region":"us-west","cc":"us","latitude":37.77397,"longitude":-122.4313,"reserved":0,"last_update":"0001-01-01T00:00:00Z","name_a2s":"Uncletopia | San Francisco | 1 | All Maps","protocol":17,"map":"cp_dustbowl","folder":"tf","game":"Team Fortress","app_id":440,"player_count":0,"max_players":24,"Bots":0,"server_type":"Dedicated","server_os":"Linux","password":true,"vac":true,"version":"7723704","steam_id":85568392924469999,"keywords":["cp","nocrits","nodmgspread","uncletopia"],"game_id":440,"stv_port":27016,"stv_name":"Uncletopia | San Francisco | 1 | All Maps | STV","players":null},{"server_id":18,"name":"Uncletopia | San Francisco | 2 | All Maps","name_short":"sfo-2","host":"sfo-1.us.uncletopia.com","port":27025,"enabled":true,"region":"us-west","cc":"us","latitude":37.77397,"longitude":-122.4313,"reserved":0,"last_update":"0001-01-01T00:00:00Z","name_a2s":"Uncletopia | San Francisco | 2 | All Maps","protocol":17,"map":"koth_king","folder":"tf","game":"Team Fortress","app_id":440,"player_count":0,"max_players":24,"Bots":0,"server_type":"Dedicated","server_os":"Linux","password":true,"vac":true,"version":"7723704","steam_id":85568392924470000,"keywords":["cp","nocrits","nodmgspread","uncletopia"],"game_id":440,"stv_port":27026,"stv_name":"Uncletopia | San Francisco | 2 | All Maps | STV","players":null},{"server_id":19,"name":"Uncletopia | San Francisco | 3 | No Payload","name_short":"sfo-3","host":"sfo-1.us.uncletopia.com","port":27035,"enabled":true,"region":"us-west","cc":"us","latitude":37.77397,"longitude":-122.4313,"reserved":0,"last_update":"0001-01-01T00:00:00Z","name_a2s":"Uncletopia | San Francisco | 3 | No Payload","protocol":17,"map":"cp_snakewater_final1","folder":"tf","game":"Team Fortress","app_id":440,"player_count":0,"max_players":24,"Bots":0,"server_type":"Dedicated","server_os":"Linux","password":true,"vac":true,"version":"7723704","steam_id":85568392924742824,"keywords":["cp","nocrits","nodmgspread","uncletopia"],"game_id":440,"stv_port":27036,"stv_name":"Uncletopia | San Francisco | 3 | No Payload | STV","players":null},{"server_id":20,"name":"Uncletopia | San Francisco | 4 | Community","name_short":"sfo-4","host":"sfo-1.us.uncletopia.com","port":27045,"enabled":true,"region":"us-west","cc":"us","latitude":37.77397,"longitude":-122.4313,"reserved":0,"last_update":"0001-01-01T00:00:00Z","name_a2s":"Uncletopia | San Francisco | 4 | Community","protocol":17,"map":"workshop/koth_synthetic_rc6a.ugc1549817316","folder":"tf","game":"Team Fortress","app_id":440,"player_count":0,"max_players":24,"Bots":0,"server_type":"Dedicated","server_os":"Linux","password":true,"vac":true,"version":"7723704","steam_id":85568392924742826,"keywords":["cp","nocrits","nodmgspread","uncletopia"],"game_id":440,"stv_port":27046,"stv_name":"Uncletopia | San Francisco | 4 | Community | STV","players":null},{"server_id":141,"name":"Uncletopia | Sydney | 1 | All Maps","name_short":"syd-1","host":"syd-1.au.uncletopia.com","port":27015,"enabled":true,"region":"au","cc":"au","latitude":-33.865143,"longitude":151.2099,"reserved":0,"last_update":"0001-01-01T00:00:00Z","name_a2s":"Uncletopia | Sydney | 1 | All Maps","protocol":17,"map":"pl_goldrush","folder":"tf","game":"Team Fortress","app_id":440,"player_count":22,"max_players":24,"Bots":0,"server_type":"Dedicated","server_os":"Linux","password":true,"vac":true,"version":"7723704","steam_id":85568392924470001,"keywords":["nocrits","nodmgspread","payload","uncletopia"],"game_id":440,"stv_port":27016,"stv_name":"Uncletopia | Sydney | 1 | All Maps | STV","players":[{"user_id":476,"name":"sweet","steam_id":76561198075311236,"connected_time":102000000000,"state":"active","ping":48},{"user_id":409,"name":"LightningBlock","steam_id":76561198289997742,"connected_time":5795000000000,"state":"active","ping":36},{"user_id":477,"name":"Chrstufr","steam_id":76561198028065572,"connected_time":81000000000,"state":"active","ping":45},{"user_id":375,"name":"EpicGuy4227","steam_id":76561198094132328,"connected_time":7058000000000,"state":"active","ping":53},{"user_id":428,"name":"fish man","steam_id":76561198385644335,"connected_time":4552000000000,"state":"active","ping":43},{"user_id":461,"name":"FrOStY","steam_id":76561198088155805,"connected_time":997000000000,"state":"active","ping":72},{"user_id":480,"name":"chaquitabananaobama","steam_id":76561198011034463,"connected_time":17000000000,"state":"active","ping":67},{"user_id":456,"name":"Hally","steam_id":76561198045236233,"connected_time":1074000000000,"state":"active","ping":60},{"user_id":438,"name":"squrrel","steam_id":76561198083429611,"connected_time":3890000000000,"state":"active","ping":73},{"user_id":464,"name":"bill","steam_id":76561198066726621,"connected_time":979000000000,"state":"active","ping":46},{"user_id":460,"name":"cedrick highsmith","steam_id":76561198380568764,"connected_time":1000000000000,"state":"active","ping":68},{"user_id":478,"name":"SpacePan","steam_id":76561199164052617,"connected_time":69000000000,"state":"active","ping":44},{"user_id":458,"name":"ericacummins","steam_id":76561198946280912,"connected_time":1003000000000,"state":"active","ping":87},{"user_id":420,"name":"tim88435","steam_id":76561198089653987,"connected_time":5309000000000,"state":"active","ping":34},{"user_id":450,"name":"Zoey","steam_id":76561198126153554,"connected_time":1639000000000,"state":"active","ping":83},{"user_id":467,"name":"Speed-moment","steam_id":76561198138604894,"connected_time":938000000000,"state":"active","ping":47},{"user_id":465,"name":"misa","steam_id":76561199079218182,"connected_time":969000000000,"state":"active","ping":45},{"user_id":479,"name":"Dr Barry Mundy PhD","steam_id":76561198034512686,"connected_time":32000000000,"state":"active","ping":40},{"user_id":454,"name":"Huski","steam_id":76561198108956967,"connected_time":1217000000000,"state":"active","ping":62},{"user_id":468,"name":"4pl8s bby","steam_id":76561198420572723,"connected_time":936000000000,"state":"active","ping":77},{"user_id":443,"name":"zen","steam_id":76561198302670452,"connected_time":2614000000000,"state":"active","ping":60},{"user_id":471,"name":"grandma","steam_id":76561198291170267,"connected_time":581000000000,"state":"active","ping":55}]},{"server_id":123,"name":"Uncletopia | Sydney | 2 | All Maps","name_short":"syd-2","host":"syd-1.au.uncletopia.com","port":27025,"enabled":true,"region":"au","cc":"au","latitude":-33.865143,"longitude":151.2099,"reserved":0,"last_update":"0001-01-01T00:00:00Z","name_a2s":"Uncletopia | Sydney | 2 | All Maps","protocol":17,"map":"pl_frontier_final","folder":"tf","game":"Team Fortress","app_id":440,"player_count":24,"max_players":24,"Bots":0,"server_type":"Dedicated","server_os":"Linux","password":true,"vac":true,"version":"7723704","steam_id":85568392924470002,"keywords":["nocrits","nodmgspread","payload","uncletopia"],"game_id":440,"stv_port":27026,"stv_name":"Uncletopia | Sydney | 2 | All Maps | STV","players":[{"user_id":80,"name":"Evojr","steam_id":76561198211512664,"connected_time":2028000000000,"state":"active","ping":42},{"user_id":88,"name":"Chrisy","steam_id":76561198092382473,"connected_time":1196000000000,"state":"active","ping":86},{"user_id":94,"name":"thog","steam_id":76561198186010262,"connected_time":626000000000,"state":"active","ping":98},{"user_id":95,"name":"KeeperOfBalance","steam_id":76561198028070089,"connected_time":579000000000,"state":"active","ping":83},{"user_id":70,"name":"bro","steam_id":76561198310908346,"connected_time":2436000000000,"state":"active","ping":64},{"user_id":82,"name":"Scout","steam_id":76561198322807454,"connected_time":1876000000000,"state":"active","ping":86},{"user_id":89,"name":"TheSticky_Studio","steam_id":76561198428683022,"connected_time":1191000000000,"state":"active","ping":165},{"user_id":35,"name":"The Inked Rabbit","steam_id":76561199158680285,"connected_time":4183000000000,"state":"active","ping":44},{"user_id":42,"name":"Mungbean","steam_id":76561198192300679,"connected_time":3573000000000,"state":"active","ping":80},{"user_id":84,"name":"whiteshaq","steam_id":76561198131988811,"connected_time":1728000000000,"state":"active","ping":76},{"user_id":50,"name":"Barchel (She/Her)","steam_id":76561197984629970,"connected_time":3154000000000,"state":"active","ping":72},{"user_id":99,"name":"Morc","steam_id":76561198244778782,"connected_time":432000000000,"state":"active","ping":66},{"user_id":41,"name":"A Burnt Cheeseburger","steam_id":76561198044178223,"connected_time":3652000000000,"state":"active","ping":65},{"user_id":43,"name":"clout","steam_id":76561198073310502,"connected_time":3460000000000,"state":"active","ping":65},{"user_id":91,"name":"APVC","steam_id":76561199090168813,"connected_time":762000000000,"state":"active","ping":51},{"user_id":97,"name":"james16","steam_id":76561198362678073,"connected_time":554000000000,"state":"active","ping":38},{"user_id":98,"name":"Nick","steam_id":76561198056731402,"connected_time":515000000000,"state":"active","ping":44},{"user_id":77,"name":"Eddie","steam_id":76561198081031350,"connected_time":2074000000000,"state":"active","ping":143},{"user_id":86,"name":"Pew pew pew!","steam_id":76561198004120277,"connected_time":1645000000000,"state":"active","ping":44},{"user_id":57,"name":"LastLAN","steam_id":76561199242851514,"connected_time":2899000000000,"state":"active","ping":59},{"user_id":78,"name":"Homebrand Chronic","steam_id":76561198941549137,"connected_time":2063000000000,"state":"active","ping":84},{"user_id":79,"name":"michael","steam_id":76561198052848358,"connected_time":2056000000000,"state":"active","ping":56},{"user_id":100,"name":"Anemone","steam_id":76561198958131057,"connected_time":406000000000,"state":"active","ping":62},{"user_id":92,"name":"KillerBlow","steam_id":76561198930232832,"connected_time":729000000000,"state":"active","ping":80}]},{"server_id":395,"name":"Uncletopia | Sydney | 3 | All Maps","name_short":"syd-3","host":"syd-1.au.uncletopia.com","port":27035,"enabled":true,"region":"au","cc":"au","latitude":-33.865143,"longitude":151.2099,"reserved":0,"last_update":"0001-01-01T00:00:00Z","name_a2s":"Uncletopia | Sydney | 3 | All Maps","protocol":17,"map":"cp_sunshine","folder":"tf","game":"Team Fortress","app_id":440,"player_count":0,"max_players":24,"Bots":0,"server_type":"Dedicated","server_os":"Linux","password":true,"vac":true,"version":"7723704","steam_id":85568392925194467,"keywords":["cp","nocrits","nodmgspread","uncletopia"],"game_id":440,"stv_port":27036,"stv_name":"Uncletopia | Sydney | 3 | All Maps | STV","players":null},{"server_id":396,"name":"Uncletopia | Sydney | 4 | All Maps","name_short":"syd-4","host":"syd-1.au.uncletopia.com","port":27045,"enabled":true,"region":"au","cc":"au","latitude":-33.865143,"longitude":151.2099,"reserved":0,"last_update":"0001-01-01T00:00:00Z","name_a2s":"Uncletopia | Sydney | 4 | All Maps","protocol":17,"map":"cp_altitude","folder":"tf","game":"Team Fortress","app_id":440,"player_count":0,"max_players":24,"Bots":0,"server_type":"Dedicated","server_os":"Linux","password":true,"vac":true,"version":"7723704","steam_id":85568392925397958,"keywords":["cp","nocrits","nodmgspread","uncletopia"],"game_id":440,"stv_port":27046,"stv_name":"Uncletopia | Sydney | 4 | All Maps | STV","players":null},{"server_id":58,"name":"Uncletopia | Sydney | 5 | No Payload","name_short":"syd-5","host":"syd-1.au.uncletopia.com","port":27055,"enabled":true,"region":"au","cc":"au","latitude":-33.865143,"longitude":151.2099,"reserved":0,"last_update":"0001-01-01T00:00:00Z","name_a2s":"Uncletopia | Sydney | 5 | No Payload","protocol":17,"map":"koth_cascade","folder":"tf","game":"Team Fortress","app_id":440,"player_count":0,"max_players":24,"Bots":0,"server_type":"Dedicated","server_os":"Linux","password":true,"vac":true,"version":"7723704","steam_id":85568392925397959,"keywords":["cp","nocrits","nodmgspread","uncletopia"],"game_id":440,"stv_port":27056,"stv_name":"Uncletopia | Sydney | 5 | No Payload | STV","players":null},{"server_id":59,"name":"Uncletopia | Sydney | 6 | Community","name_short":"syd-6","host":"syd-1.au.uncletopia.com","port":27065,"enabled":true,"region":"au","cc":"au","latitude":-33.865143,"longitude":151.2099,"reserved":0,"last_update":"0001-01-01T00:00:00Z","name_a2s":"Uncletopia | Sydney | 6 | Community","protocol":17,"map":"koth_lakeside_final","folder":"tf","game":"Team Fortress","app_id":440,"player_count":0,"max_players":24,"Bots":0,"server_type":"Dedicated","server_os":"Linux","password":true,"vac":true,"version":"7723704","steam_id":85568392925397960,"keywords":["cp","nocrits","nodmgspread","uncletopia"],"game_id":440,"stv_port":27066,"stv_name":"Uncletopia | Sydney | 6 | Community | STV","players":null},{"server_id":49,"name":"Uncletopia | Warsaw | 1 | All Maps","name_short":"waw-1","host":"waw-1.pl.uncletopia.com","port":27015,"enabled":true,"region":"eu","cc":"pl","latitude":52.2297,"longitude":21.017532,"reserved":0,"last_update":"0001-01-01T00:00:00Z","name_a2s":"Uncletopia | Warsaw | 1 | All Maps","protocol":17,"map":"cp_process_final","folder":"tf","game":"Team Fortress","app_id":440,"player_count":0,"max_players":24,"Bots":0,"server_type":"Dedicated","server_os":"Linux","password":true,"vac":true,"version":"7723704","steam_id":85568392925397850,"keywords":["cp","nocrits","nodmgspread","uncletopia"],"game_id":440,"stv_port":27016,"stv_name":"Uncletopia | Warsaw | 1 | All Maps | STV","players":null},{"server_id":50,"name":"Uncletopia | Warsaw | 2 | All Maps","name_short":"waw-2","host":"waw-1.pl.uncletopia.com","port":27025,"enabled":true,"region":"eu","cc":"pl","latitude":52.2297,"longitude":21.017532,"reserved":0,"last_update":"0001-01-01T00:00:00Z","name_a2s":"Uncletopia | Warsaw | 2 | All Maps","protocol":17,"map":"pl_snowycoast","folder":"tf","game":"Team Fortress","app_id":440,"player_count":0,"max_players":24,"Bots":0,"server_type":"Dedicated","server_os":"Linux","password":true,"vac":true,"version":"7723704","steam_id":85568392925397851,"keywords":["nocrits","nodmgspread","payload","uncletopia"],"game_id":440,"stv_port":27026,"stv_name":"Uncletopia | Warsaw | 2 | All Maps | STV","players":null},{"server_id":51,"name":"Uncletopia | Warsaw | 3 | All Maps","name_short":"waw-3","host":"waw-1.pl.uncletopia.com","port":27035,"enabled":true,"region":"eu","cc":"pl","latitude":52.2297,"longitude":21.017532,"reserved":0,"last_update":"0001-01-01T00:00:00Z","name_a2s":"Uncletopia | Warsaw | 3 | All Maps","protocol":17,"map":"koth_lakeside_final","folder":"tf","game":"Team Fortress","app_id":440,"player_count":0,"max_players":24,"Bots":0,"server_type":"Dedicated","server_os":"Linux","password":true,"vac":true,"version":"7723704","steam_id":85568392925397852,"keywords":["cp","nocrits","nodmgspread","uncletopia"],"game_id":440,"stv_port":27036,"stv_name":"Uncletopia | Warsaw | 3 | All Maps | STV","players":null},{"server_id":52,"name":"Uncletopia | Warsaw | 4 | All Maps","name_short":"waw-4","host":"waw-1.pl.uncletopia.com","port":27045,"enabled":true,"region":"eu","cc":"pl","latitude":52.2297,"longitude":21.017532,"reserved":0,"last_update":"0001-01-01T00:00:00Z","name_a2s":"Uncletopia | Warsaw | 4 | All Maps","protocol":17,"map":"pl_upward","folder":"tf","game":"Team Fortress","app_id":440,"player_count":0,"max_players":24,"Bots":0,"server_type":"Dedicated","server_os":"Linux","password":true,"vac":true,"version":"7723704","steam_id":85568392925397853,"keywords":["nocrits","nodmgspread","payload","uncletopia"],"game_id":440,"stv_port":27046,"stv_name":"Uncletopia | Warsaw | 4 | All Maps | STV","players":null},{"server_id":53,"name":"Uncletopia | Warsaw | 5 | No Payload","name_short":"waw-5","host":"waw-1.pl.uncletopia.com","port":27055,"enabled":true,"region":"eu","cc":"pl","latitude":52.2297,"longitude":21.017532,"reserved":0,"last_update":"0001-01-01T00:00:00Z","name_a2s":"Uncletopia | Warsaw | 5 | No Payload","protocol":17,"map":"koth_highpass","folder":"tf","game":"Team Fortress","app_id":440,"player_count":0,"max_players":24,"Bots":0,"server_type":"Dedicated","server_os":"Linux","password":true,"vac":true,"version":"7723704","steam_id":85568392925397854,"keywords":["cp","nocrits","nodmgspread","uncletopia"],"game_id":440,"stv_port":27056,"stv_name":"Uncletopia | Warsaw | 5 | No Payload | STV","players":null},{"server_id":54,"name":"Uncletopia | Warsaw | 6 | Community","name_short":"waw-6","host":"waw-1.pl.uncletopia.com","port":27065,"enabled":true,"region":"eu","cc":"pl","latitude":52.2297,"longitude":21.017532,"reserved":0,"last_update":"0001-01-01T00:00:00Z","name_a2s":"Uncletopia | Warsaw | 6 | Community","protocol":17,"map":"koth_viaduct","folder":"tf","game":"Team Fortress","app_id":440,"player_count":0,"max_players":24,"Bots":0,"server_type":"Dedicated","server_os":"Linux","password":true,"vac":true,"version":"7723704","steam_id":85568392925397856,"keywords":["cp","nocrits","nodmgspread","uncletopia"],"game_id":440,"stv_port":27066,"stv_name":"Uncletopia | Warsaw | 6 | Community | STV","players":null}]}