{"status":true,"message":"","result":[{"server_id":9,"name":"Uncletopia | Atlanta | 1 | All Maps","name_short":"atl-1","host":"atl-1.us.uncletopia.com","port":27015,"enabled":true,"region":"us-east","cc":"us","latitude":33.753746,"longitude":-84.38633,"reserved":0,"last_update":"0001-01-01T00:00:00Z","name_a2s":"Uncletopia | Atlanta | 1 | All Maps","protocol":17,"map":"pl_pier","folder":"tf","game":"Team Fortress","app_id":440,"player_count":21,"max_players":24,"Bots":0,"server_type":"Dedicated","server_os":"Linux","password":true,"vac":true,"version":"7757534","steam_id":85568392924469982,"keywords":["nocrits","nodmgspread","payload","uncletopia"],"game_id":440,"stv_port":27016,"stv_name":"Uncletopia | Atlanta | 1 | All Maps | STV","players":[{"user_id":541,"name":"nomad","steam_id":76561197998740399,"connected_time":14240000000000,"state":"active","ping":69},{"user_id":664,"name":"Saikou!!!","steam_id":76561198044045406,"connected_time":2229000000000,"state":"active","ping":70},{"user_id":666,"name":"murder drone","steam_id":76561199149210631,"connected_time":1797000000000,"state":"active","ping":63},{"user_id":332,"name":"eish","steam_id":76561198089463603,"connected_time":31617000000000,"state":"active","ping":113},{"user_id":631,"name":"Onyx","steam_id":76561198275349640,"connected_time":7186000000000,"state":"active","ping":72},{"user_id":626,"name":"fitotutus","steam_id":76561197974993253,"connected_time":7691000000000,"state":"active","ping":99},{"user_id":653,"name":"Raine","steam_id":76561198098860903,"connected_time":3574000000000,"state":"active","ping":148},{"user_id":668,"name":"RoboWarrior0410a","steam_id":76561199106531261,"connected_time":1724000000000,"state":"active","ping":47},{"user_id":640,"name":"Sophie","steam_id":76561198170408057,"connected_time":5675000000000,"state":"active","ping":45},{"user_id":670,"name":"Jin","steam_id":76561198119873148,"connected_time":1259000000000,"state":"active","ping":62},{"user_id":665,"name":"Aniz","steam_id":76561199226665024,"connected_time":2141000000000,"state":"active","ping":142},{"user_id":642,"name":"Mage","steam_id":76561198285026879,"connected_time":4653000000000,"state":"active","ping":77},{"user_id":634,"name":"morphine","steam_id":76561198072124799,"connected_time":6546000000000,"state":"active","ping":91},{"user_id":667,"name":"chr","steam_id":76561198129676737,"connected_time":1771000000000,"state":"active","ping":36},{"user_id":643,"name":"p4ka","steam_id":76561198315291317,"connected_time":4570000000000,"state":"active","ping":74},{"user_id":646,"name":"Gichael","steam_id":76561198040602075,"connected_time":4231000000000,"state":"active","ping":91},{"user_id":662,"name":"shaun0201","steam_id":76561198277115258,"connected_time":2395000000000,"state":"active","ping":86},{"user_id":672,"name":"Intestinal Straw","steam_id":76561198082095303,"connected_time":277000000000,"state":"active","ping":72},{"user_id":654,"name":"KBoneski ♡","steam_id":76561198307409065,"connected_time":3555000000000,"state":"active","ping":97},{"user_id":669,"name":"Broken Cereal√","steam_id":76561198087489795,"connected_time":1694000000000,"state":"active","ping":60},{"user_id":671,"name":"Cosmic sR","steam_id":76561198081738675,"connected_time":363000000000,"state":"active","ping":57}]},{"server_id":104,"name":"Uncletopia | Atlanta | 2 | All Maps","name_short":"atl-2","host":"atl-1.us.uncletopia.com","port":27025,"enabled":true,"region":"us-east","cc":"us","latitude":33.753746,"longitude":-84.38633,"reserved":0,"last_update":"0001-01-01T00:00:00Z","name_a2s":"Uncletopia | Atlanta | 2 | All Maps","protocol":17,"map":"pl_barnblitz","folder":"tf","game":"Team Fortress","app_id":440,"player_count":0,"max_players":24,"Bots":0,"server_type":"Dedicated","server_os":"Linux","password":true,"vac":true,"version":"7757534","steam_id":85568392924469983,"keywords":["nocrits","nodmgspread","payload","uncletopia"],"game_id":440,"stv_port":27026,"stv_name":"Uncletopia | Atlanta | 2 | All Maps | STV","players":null},{"server_id":400,"name":"Uncletopia | Atlanta | 3 | Community","name_short":"atl-3","host":"atl-1.us.uncletopia.com","port":27035,"enabled":true,"region":"us-east","cc":"us","latitude":33.753746,"longitude":-84.38633,"reserved":0,"last_update":"0001-01-01T00:00:00Z","name_a2s":"Uncletopia | Atlanta | 3 | Community","protocol":17,"map":"workshop/cp_alloy_rc3.ugc592805587","folder":"tf","game":"Team Fortress","app_id":440,"player_count":1,"max_players":24,"Bots":0,"server_type":"Dedicated","server_os":"Linux","password":true,"vac":true,"version":"7757534","steam_id":85568392924515187,"keywords":["cp","nocrits","nodmgspread","uncletopia"],"game_id":440,"stv_port":27036,"stv_name":"Uncletopia | Atlanta | 3 | Community | STV","players":[{"user_id":4341,"name":"The Final Terminus","steam_id":76561197964985183,"connected_time":0,"state":"connecting","ping":0}]},{"server_id":401,"name":"Uncletopia | Atlanta | 4 | No Payload","name_short":"atl-4","host":"atl-1.us.uncletopia.com","port":27045,"enabled":true,"region":"us-east","cc":"us","latitude":33.753746,"longitude":-84.38633,"reserved":0,"last_update":"0001-01-01T00:00:00Z","name_a2s":"","protocol":0,"map":"","folder":"","game":"","app_id":0,"player_count":0,"max_players":0,"Bots":0,"server_type":"","server_os":"","password":false,"vac":false,"version":"","steam_id":0,"keywords":null,"game_id":0,"stv_port":0,"stv_name":"","players":null},{"server_id":2,"name":"Uncletopia | Chicago | 1 | All Maps","name_short":"chi-1","host":"chi-1.us.uncletopia.com","port":27015,"enabled":true,"region":"us-central","cc":"us","latitude":41.881832,"longitude":-87.62318,"reserved":0,"last_update":"0001-01-01T00:00:00Z","name_a2s":"Uncletopia | Chicago | 1 | All Maps","protocol":17,"map":"cp_powerhouse","folder":"tf","game":"Team Fortress","app_id":440,"player_count":19,"max_players":24,"Bots":0,"server_type":"Dedicated","server_os":"Linux","password":true,"vac":true,"version":"7757534","steam_id":85568392924469984,"keywords":["cp","nocrits","nodmgspread","uncletopia"],"game_id":440,"stv_port":27016,"stv_name":"Uncletopia | Chicago | 1 | All Maps | STV","players":[{"user_id":703,"name":"Zing","steam_id":76561198097160898,"connected_time":264000000000,"state":"active","ping":51},{"user_id":628,"name":"Cutie","steam_id":76561198126686695,"connected_time":7167000000000,"state":"active","ping":73},{"user_id":680,"name":"Xevon","steam_id":76561198355618921,"connected_time":2870000000000,"state":"active","ping":106},{"user_id":604,"name":"Merci?","steam_id":76561198096823118,"connected_time":9384000000000,"state":"active","ping":77},{"user_id":643,"name":"Thundermonkey (SMOKE)","steam_id":76561198017631728,"connected_time":5289000000000,"state":"active","ping":65},{"user_id":700,"name":"manz","steam_id":76561198059065906,"connected_time":908000000000,"state":"active","ping":70},{"user_id":699,"name":"krakowski","steam_id":76561198119536224,"connected_time":982000000000,"state":"active","ping":73},{"user_id":682,"name":"vaccine dildo","steam_id":76561198092139690,"connected_time":2853000000000,"state":"active","ping":105},{"user_id":683,"name":"loyaldandan0764","steam_id":76561199231020424,"connected_time":2802000000000,"state":"active","ping":99},{"user_id":587,"name":"Lavender","steam_id":76561198142770666,"connected_time":10570000000000,"state":"active","ping":64},{"user_id":697,"name":"Tekona","steam_id":76561198258134639,"connected_time":1771000000000,"state":"active","ping":90},{"user_id":691,"name":"Commit tax fraud","steam_id":76561197991015780,"connected_time":2140000000000,"state":"active","ping":61},{"user_id":692,"name":"Irons","steam_id":76561198200653267,"connected_time":1893000000000,"state":"active","ping":84},{"user_id":673,"name":"Mann","steam_id":76561199030987614,"connected_time":3389000000000,"state":"active","ping":85},{"user_id":704,"name":"Garrison Ford","steam_id":76561198060411325,"connected_time":133000000000,"state":"active","ping":66},{"user_id":675,"name":"Steve Burns","steam_id":76561198069968316,"connected_time":3350000000000,"state":"active","ping":96},{"user_id":705,"name":"Speemsh","steam_id":76561198305126510,"connected_time":119000000000,"state":"active","ping":54},{"user_id":676,"name":"Eve","steam_id":76561198039832932,"connected_time":3345000000000,"state":"active","ping":55},{"user_id":702,"name":"Dattallguy","steam_id":76561198873155093,"connected_time":698000000000,"state":"active","ping":80}]},{"server_id":106,"name":"Uncletopia | Chicago | 2 | All Maps","name_short":"chi-2","host":"chi-1.us.uncletopia.com","port":27025,"enabled":true,"region":"us-central","cc":"us","latitude":41.881832,"longitude":-87.62318,"reserved":0,"last_update":"0001-01-01T00:00:00Z","name_a2s":"Uncletopia | Chicago | 2 | All Maps","protocol":17,"map":"koth_cascade","folder":"tf","game":"Team Fortress","app_id":440,"player_count":0,"max_players":24,"Bots":0,"server_type":"Dedicated","server_os":"Linux","password":true,"vac":true,"version":"7757534","steam_id":85568392924469985,"keywords":["cp","nocrits","nodmgspread","uncletopia"],"game_id":440,"stv_port":27026,"stv_name":"Uncletopia | Chicago | 2 | All Maps | STV","players":null},{"server_id":402,"name":"Uncletopia | Chicago | 3 | All Maps","name_short":"chi-3","host":"chi-1.us.uncletopia.com","port":27035,"enabled":true,"region":"us-central","cc":"us","latitude":41.881832,"longitude":-87.62318,"reserved":0,"last_update":"0001-01-01T00:00:00Z","name_a2s":"Uncletopia | Chicago | 3 | All Maps","protocol":17,"map":"koth_nucleus","folder":"tf","game":"Team Fortress","app_id":440,"player_count":24,"max_players":24,"Bots":0,"server_type":"Dedicated","server_os":"Linux","password":true,"vac":true,"version":"7757534","steam_id":85568392924515191,"keywords":["cp","nocrits","nodmgspread","uncletopia"],"game_id":440,"stv_port":27036,"stv_name":"Uncletopia | Chicago | 3 | All Maps | STV","players":[{"user_id":360,"name":"STONE COLD","steam_id":76561198041643833,"connected_time":8314000000000,"state":"active","ping":78},{"user_id":465,"name":"Aristotle Voulton","steam_id":76561198100174923,"connected_time":230000000000,"state":"active","ping":96},{"user_id":347,"name":"Flesh Eating Turtle","steam_id":76561198116742139,"connected_time":9479000000000,"state":"active","ping":102},{"user_id":464,"name":"Professor Peppermint","steam_id":76561198184017082,"connected_time":350000000000,"state":"active","ping":47},{"user_id":424,"name":"Xpiredd","steam_id":76561198449525437,"connected_time":3121000000000,"state":"active","ping":66},{"user_id":449,"name":"Domosed_#SaveTF2","steam_id":76561198929234687,"connected_time":1066000000000,"state":"active","ping":173},{"user_id":399,"name":"Goober","steam_id":76561198988863807,"connected_time":5166000000000,"state":"active","ping":73},{"user_id":405,"name":"[DEEP] Danmar33","steam_id":76561198056453091,"connected_time":4600000000000,"state":"active","ping":45},{"user_id":428,"name":"Big Ears","steam_id":76561198851363077,"connected_time":2644000000000,"state":"active","ping":60},{"user_id":448,"name":"estruli","steam_id":76561198295690725,"connected_time":1285000000000,"state":"active","ping":70},{"user_id":451,"name":"Funky Buttlovin","steam_id":76561198002807702,"connected_time":736000000000,"state":"active","ping":64},{"user_id":452,"name":"SunkerMacgunker","steam_id":76561199081868742,"connected_time":707000000000,"state":"active","ping":86},{"user_id":467,"name":"Mr.Phil","steam_id":76561198042801033,"connected_time":26000000000,"state":"spawning","ping":68},{"user_id":453,"name":"gonk","steam_id":76561198061206732,"connected_time":648000000000,"state":"active","ping":78},{"user_id":454,"name":"play xenoblade 2","steam_id":76561198380423411,"connected_time":646000000000,"state":"active","ping":69},{"user_id":455,"name":"psy","steam_id":76561198013195018,"connected_time":646000000000,"state":"active","ping":74},{"user_id":456,"name":"Worst Soldier NA","steam_id":76561198128742436,"connected_time":611000000000,"state":"active","ping":49},{"user_id":457,"name":"unerringCaprition (She/Her)","steam_id":76561198042528476,"connected_time":604000000000,"state":"active","ping":92},{"user_id":458,"name":"i WISH i was dead","steam_id":76561198825141359,"connected_time":566000000000,"state":"active","ping":72},{"user_id":459,"name":"Hot Pink Millie","steam_id":76561198006259725,"connected_time":513000000000,"state":"active","ping":73},{"user_id":462,"name":"bill","steam_id":76561199142779872,"connected_time":455000000000,"state":"active","ping":61},{"user_id":460,"name":"Skadewsh","steam_id":76561198102772209,"connected_time":501000000000,"state":"active","ping":60},{"user_id":387,"name":"Frank Cilantro","steam_id":76561198120789856,"connected_time":6603000000000,"state":"active","ping":75},{"user_id":463,"name":"*Gage*","steam_id":76561197975233869,"connected_time":451000000000,"state":"active","ping":91}]},{"server_id":403,"name":"Uncletopia | Chicago | 4 | All Maps","name_short":"chi-4","host":"chi-1.us.uncletopia.com","port":27045,"enabled":true,"region":"us-central","cc":"us","latitude":41.881832,"longitude":-87.62318,"reserved":0,"last_update":"0001-01-01T00:00:00Z","name_a2s":"Uncletopia | Chicago | 4 | All Maps","protocol":17,"map":"cp_mountainlab","folder":"tf","game":"Team Fortress","app_id":440,"player_count":2,"max_players":24,"Bots":0,"server_type":"Dedicated","server_os":"Linux","password":true,"vac":true,"version":"7757534","steam_id":85568392924515193,"keywords":["cp","nocrits","nodmgspread","uncletopia"],"game_id":440,"stv_port":27046,"stv_name":"Uncletopia | Chicago | 4 | All Maps | STV","players":[{"user_id":368,"name":"maplesyrup","steam_id":76561198083504935,"connected_time":257000000000,"state":"active","ping":71},{"user_id":369,"name":"Milo","steam_id":76561198360676316,"connected_time":121000000000,"state":"active","ping":70}]},{"server_id":36,"name":"Uncletopia | Chicago | 5 | All Maps","name_short":"chi-5","host":"chi-2.us.uncletopia.com","port":27015,"enabled":true,"region":"us-central","cc":"us","latitude":41.881832,"longitude":-87.62318,"reserved":0,"last_update":"0001-01-01T00:00:00Z","name_a2s":"Uncletopia | Chicago | 5 | All Maps","protocol":17,"map":"pl_badwater","folder":"tf","game":"Team Fortress","app_id":440,"player_count":23,"max_players":24,"Bots":0,"server_type":"Dedicated","server_os":"Linux","password":true,"vac":true,"version":"7757534","steam_id":85568392924866362,"keywords":["nocrits","nodmgspread","payload","uncletopia"],"game_id":440,"stv_port":27016,"stv_name":"Uncletopia | Chicago | 5 | All Maps | STV","players":[{"user_id":645,"name":"1-800-GHOST-DANCE","steam_id":76561198835430429,"connected_time":3314000000000,"state":"active","ping":75},{"user_id":598,"name":"Fredorando","steam_id":76561198242546842,"connected_time":8017000000000,"state":"active","ping":63},{"user_id":637,"name":"Sprit ♥","steam_id":76561198268780781,"connected_time":3968000000000,"state":"active","ping":46},{"user_id":679,"name":"Coke","steam_id":76561199350870177,"connected_time":537000000000,"state":"active","ping":59},{"user_id":662,"name":"Kamin","steam_id":76561198255299559,"connected_time":2592000000000,"state":"active","ping":86},{"user_id":674,"name":"Stressmelo","steam_id":76561199204445185,"connected_time":1140000000000,"state":"active","ping":73},{"user_id":654,"name":"flora","steam_id":76561197994492154,"connected_time":3053000000000,"state":"active","ping":166},{"user_id":664,"name":"BorstchBag","steam_id":76561198155294045,"connected_time":2210000000000,"state":"active","ping":77},{"user_id":665,"name":"Communist Killing Candy Cactus\ufffd","steam_id":76561198074980635,"connected_time":2122000000000,"state":"active","ping":122},{"user_id":651,"name":"Zerg_Man","steam_id":76561199060404359,"connected_time":3137000000000,"state":"active","ping":86},{"user_id":638,"name":"Goldensliv","steam_id":76561198161673891,"connected_time":3960000000000,"state":"active","ping":90},{"user_id":639,"name":"GhastlyGhostJr","steam_id":76561198037484203,"connected_time":3845000000000,"state":"active","ping":70},{"user_id":682,"name":"Banjo","steam_id":76561198004652853,"connected_time":376000000000,"state":"active","ping":95},{"user_id":672,"name":"Musica Universalis","steam_id":76561198184794174,"connected_time":1441000000000,"state":"active","ping":87},{"user_id":683,"name":"Olly","steam_id":76561198054273611,"connected_time":251000000000,"state":"active","ping":62},{"user_id":684,"name":"Captian Wobbs","steam_id":76561198142884936,"connected_time":168000000000,"state":"active","ping":83},{"user_id":675,"name":"CelestialParadox","steam_id":76561198355116118,"connected_time":1092000000000,"state":"active","ping":58},{"user_id":673,"name":"None of that $9.99 bullshit","steam_id":76561198116169903,"connected_time":1256000000000,"state":"active","ping":46},{"user_id":681,"name":"Oixo","steam_id":76561198076035468,"connected_time":472000000000,"state":"active","ping":59},{"user_id":676,"name":"sonic1394","steam_id":76561198054636788,"connected_time":986000000000,"state":"active","ping":71},{"user_id":656,"name":"mike\"3loavesofbread\"jones","steam_id":76561198064342804,"connected_time":3017000000000,"state":"active","ping":167},{"user_id":678,"name":"Truly Cryo","steam_id":76561198347497484,"connected_time":726000000000,"state":"active","ping":88},{"user_id":669,"name":"dj funnybone","steam_id":76561199384195720,"connected_time":2039000000000,"state":"active","ping":87}]},{"server_id":37,"name":"Uncletopia | Chicago | 6 | All Maps","name_short":"chi-6","host":"chi-2.us.uncletopia.com","port":27025,"enabled":true,"region":"us-central","cc":"us","latitude":41.881832,"longitude":-87.62318,"reserved":0,"last_update":"0001-01-01T00:00:00Z","name_a2s":"Uncletopia | Chicago | 6 | All Maps","protocol":17,"map":"pl_snowycoast","folder":"tf","game":"Team Fortress","app_id":440,"player_count":0,"max_players":24,"Bots":0,"server_type":"Dedicated","server_os":"Linux","password":true,"vac":true,"version":"7757534","steam_id":85568392924866363,"keywords":["nocrits","nodmgspread","payload","uncletopia"],"game_id":440,"stv_port":27026,"stv_name":"Uncletopia | Chicago | 6 | All Maps | STV","players":null},{"server_id":38,"name":"Uncletopia | Chicago | 7 | Stopwatch Beta","name_short":"chi-7","host":"chi-2.us.uncletopia.com","port":27035,"enabled":true,"region":"us-central","cc":"us","latitude":41.881832,"longitude":-87.62318,"reserved":0,"last_update":"0001-01-01T00:00:00Z","name_a2s":"Uncletopia | Chicago | 7 | Stopwatch Beta","protocol":17,"map":"cp_granary","folder":"tf","game":"Team Fortress","app_id":440,"player_count":0,"max_players":24,"Bots":0,"server_type":"Dedicated","server_os":"Linux","password":true,"vac":true,"version":"7757534","steam_id":85568392924866364,"keywords":["cp","nocrits","nodmgspread","uncletopia"],"game_id":440,"stv_port":27036,"stv_name":"Uncletopia | Chicago | 7 | Stopwatch Beta | STV","players":null},{"server_id":39,"name":"Uncletopia | Chicago | 8 | Community","name_short":"chi-8","host":"chi-2.us.uncletopia.com","port":27045,"enabled":true,"region":"us-central","cc":"us","latitude":41.881832,"longitude":-87.62318,"reserved":0,"last_update":"0001-01-01T00:00:00Z","name_a2s":"Uncletopia | Chicago | 8 | Community","protocol":17,"map":"workshop/koth_ramjam_rc1.ugc459778887","folder":"tf","game":"Team Fortress","app_id":440,"player_count":0,"max_players":24,"Bots":0,"server_type":"Dedicated","server_os":"Linux","password":true,"vac":true,"version":"7757534","steam_id":85568392924866365,"keywords":["cp","nocrits","nodmgspread","uncletopia"],"game_id":440,"stv_port":27046,"stv_name":"Uncletopia | Chicago | 8 | Community | STV","players":null},{"server_id":8,"name":"Uncletopia | Dallas | 1 | All Maps","name_short":"dal-1","host":"dal-1.us.uncletopia.com","port":27015,"enabled":true,"region":"us-central","cc":"us","latitude":32.779167,"longitude":-96.80889,"reserved":0,"last_update":"0001-01-01T00:00:00Z","name_a2s":"Uncletopia | Dallas | 1 | All Maps","protocol":17,"map":"pl_badwater","folder":"tf","game":"Team Fortress","app_id":440,"player_count":24,"max_players":24,"Bots":0,"server_type":"Dedicated","server_os":"Linux","password":true,"vac":true,"version":"7757534","steam_id":85568392924469986,"keywords":["nocrits","nodmgspread","payload","uncletopia"],"game_id":440,"stv_port":27016,"stv_name":"Uncletopia | Dallas | 1 | All Maps | STV","players":[{"user_id":509,"name":"Loki!","steam_id":76561198089201861,"connected_time":847000000000,"state":"active","ping":62},{"user_id":520,"name":"FI LO","steam_id":76561198976530881,"connected_time":260000000000,"state":"active","ping":60},{"user_id":515,"name":"Numanis","steam_id":76561199229661082,"connected_time":557000000000,"state":"active","ping":71},{"user_id":494,"name":"lost in spaaaaace","steam_id":76561199085974120,"connected_time":2285000000000,"state":"active","ping":88},{"user_id":481,"name":"pim","steam_id":76561198095163441,"connected_time":2764000000000,"state":"active","ping":46},{"user_id":469,"name":"pinple","steam_id":76561198167075606,"connected_time":4256000000000,"state":"active","ping":75},{"user_id":501,"name":"air fryer 2022 best recipes new","steam_id":76561198388731998,"connected_time":1728000000000,"state":"active","ping":75},{"user_id":503,"name":"Galaxy","steam_id":76561198158149348,"connected_time":1635000000000,"state":"active","ping":60},{"user_id":504,"name":"[Zero] Lag","steam_id":76561198983494186,"connected_time":1318000000000,"state":"active","ping":138},{"user_id":506,"name":"LockVonAugustus","steam_id":76561198407273649,"connected_time":1100000000000,"state":"active","ping":95},{"user_id":508,"name":"Dementia Gaming","steam_id":76561199116798739,"connected_time":943000000000,"state":"active","ping":45},{"user_id":498,"name":"brock","steam_id":76561199015537819,"connected_time":2095000000000,"state":"active","ping":58},{"user_id":507,"name":"lokm","steam_id":76561198030374238,"connected_time":968000000000,"state":"active","ping":85},{"user_id":401,"name":"nnobi","steam_id":76561198878729277,"connected_time":9592000000000,"state":"active","ping":78},{"user_id":521,"name":"Lore","steam_id":76561198098407538,"connected_time":92000000000,"state":"active","ping":76},{"user_id":490,"name":"Dreyma","steam_id":76561198227372596,"connected_time":2356000000000,"state":"active","ping":102},{"user_id":514,"name":"MoePlaysTf2","steam_id":76561198316877833,"connected_time":621000000000,"state":"active","ping":82},{"user_id":516,"name":"Roland_Actual","steam_id":76561198103212376,"connected_time":553000000000,"state":"active","ping":87},{"user_id":483,"name":"tacofever","steam_id":76561198010966507,"connected_time":2705000000000,"state":"active","ping":78},{"user_id":518,"name":"amablehughes","steam_id":76561199007131236,"connected_time":398000000000,"state":"active","ping":102},{"user_id":517,"name":"Assitins","steam_id":76561198041572892,"connected_time":499000000000,"state":"active","ping":84},{"user_id":519,"name":"Lane","steam_id":76561197965828506,"connected_time":341000000000,"state":"active","ping":60},{"user_id":472,"name":"Shamrock Shake Oct.10.2020 @8pm","steam_id":76561198833313201,"connected_time":4170000000000,"state":"active","ping":90},{"user_id":485,"name":"DSM-IVCE","steam_id":76561199438515797,"connected_time":2662000000000,"state":"active","ping":116}]},{"server_id":108,"name":"Uncletopia | Dallas | 2 | All Maps","name_short":"dal-2","host":"dal-1.us.uncletopia.com","port":27025,"enabled":true,"region":"us-central","cc":"us","latitude":32.779167,"longitude":-96.80889,"reserved":0,"last_update":"0001-01-01T00:00:00Z","name_a2s":"Uncletopia | Dallas | 2 | All Maps","protocol":17,"map":"cp_altitude","folder":"tf","game":"Team Fortress","app_id":440,"player_count":18,"max_players":24,"Bots":0,"server_type":"Dedicated","server_os":"Linux","password":true,"vac":true,"version":"7757534","steam_id":85568392924469988,"keywords":["cp","nocrits","nodmgspread","uncletopia"],"game_id":440,"stv_port":27026,"stv_name":"Uncletopia | Dallas | 2 | All Maps | STV","players":[{"user_id":743,"name":"The Notorious T.A.F.T.","steam_id":76561198073012352,"connected_time":2108000000000,"state":"active","ping":55},{"user_id":773,"name":"MrYackles","steam_id":76561199095650797,"connected_time":416000000000,"state":"active","ping":121},{"user_id":776,"name":"Actually a Shoggoth","steam_id":76561198065857964,"connected_time":364000000000,"state":"active","ping":70},{"user_id":745,"name":"YaBoyUlyssesG","steam_id":76561198042482742,"connected_time":2082000000000,"state":"active","ping":73},{"user_id":781,"name":"No Maidens?","steam_id":76561198866418556,"connected_time":158000000000,"state":"active","ping":67},{"user_id":774,"name":"Belvidere","steam_id":76561198121336953,"connected_time":415000000000,"state":"active","ping":105},{"user_id":782,"name":"Пепси","steam_id":76561198133834262,"connected_time":123000000000,"state":"active","ping":64},{"user_id":775,"name":"Yongle","steam_id":76561198068591156,"connected_time":388000000000,"state":"active","ping":87},{"user_id":777,"name":"larguu","steam_id":76561197994336210,"connected_time":343000000000,"state":"active","ping":75},{"user_id":778,"name":"Oatmeal","steam_id":76561199378924674,"connected_time":333000000000,"state":"active","ping":105},{"user_id":748,"name":"Woozy","steam_id":76561198008220735,"connected_time":1957000000000,"state":"active","ping":80},{"user_id":779,"name":"Peter Muskrat (racist)","steam_id":76561198857749738,"connected_time":269000000000,"state":"active","ping":86},{"user_id":727,"name":"sora","steam_id":76561198094256973,"connected_time":3486000000000,"state":"active","ping":91},{"user_id":780,"name":"boi (real)","steam_id":76561199213975119,"connected_time":179000000000,"state":"active","ping":83},{"user_id":783,"name":"Duty Enjoyer","steam_id":76561198831760421,"connected_time":89000000000,"state":"active","ping":96},{"user_id":670,"name":"Kumies","steam_id":76561199481315713,"connected_time":7790000000000,"state":"active","ping":59},{"user_id":737,"name":"Strongspank","steam_id":76561198002169223,"connected_time":2619000000000,"state":"active","ping":56},{"user_id":760,"name":"bolainassr0","steam_id":76561199079078845,"connected_time":1349000000000,"state":"active","ping":99}]},{"server_id":5,"name":"Uncletopia | Frankfurt | 1 | All Maps","name_short":"frk-1","host":"frk-1.de.uncletopia.com","port":27015,"enabled":true,"region":"eu","cc":"de","latitude":50.110924,"longitude":8.682127,"reserved":0,"last_update":"0001-01-01T00:00:00Z","name_a2s":"Uncletopia | Frankfurt | 1 | All Maps","protocol":17,"map":"cp_sunshine","folder":"tf","game":"Team Fortress","app_id":440,"player_count":0,"max_players":24,"Bots":0,"server_type":"Dedicated","server_os":"Linux","password":true,"vac":true,"version":"7757534","steam_id":85568392924469989,"keywords":["cp","nocrits","nodmgspread","uncletopia"],"game_id":440,"stv_port":27016,"stv_name":"Uncletopia | Frankfurt | 1 | All Maps | STV","players":null},{"server_id":110,"name":"Uncletopia | Frankfurt | 2 | All Maps","name_short":"frk-2","host":"frk-1.de.uncletopia.com","port":27025,"enabled":true,"region":"eu","cc":"de","latitude":50.110924,"longitude":8.682127,"reserved":0,"last_update":"0001-01-01T00:00:00Z","name_a2s":"Uncletopia | Frankfurt | 2 | All Maps","protocol":17,"map":"cp_snakewater_final1","folder":"tf","game":"Team Fortress","app_id":440,"player_count":0,"max_players":24,"Bots":0,"server_type":"Dedicated","server_os":"Linux","password":true,"vac":true,"version":"7757534","steam_id":85568392924469990,"keywords":["cp","nocrits","nodmgspread","uncletopia"],"game_id":440,"stv_port":27026,"stv_name":"Uncletopia | Frankfurt | 2 | All Maps | STV","players":null},{"server_id":308,"name":"Uncletopia | Frankfurt | 3 | All Maps","name_short":"frk-3","host":"frk-1.de.uncletopia.com","port":27035,"enabled":true,"region":"eu","cc":"de","latitude":50.110924,"longitude":8.682127,"reserved":0,"last_update":"0001-01-01T00:00:00Z","name_a2s":"Uncletopia | Frankfurt | 3 | All Maps","protocol":17,"map":"pl_swiftwater_final1","folder":"tf","game":"Team Fortress","app_id":440,"player_count":0,"max_players":24,"Bots":0,"server_type":"Dedicated","server_os":"Linux","password":true,"vac":true,"version":"7757534","steam_id":85568392924504274,"keywords":["nocrits","nodmgspread","payload","uncletopia"],"game_id":440,"stv_port":27036,"stv_name":"Uncletopia | Frankfurt | 3 | All Maps | STV","players":null},{"server_id":309,"name":"Uncletopia | Frankfurt | 4 | All Maps","name_short":"frk-4","host":"frk-1.de.uncletopia.com","port":27045,"enabled":true,"region":"eu","cc":"de","latitude":50.110924,"longitude":8.682127,"reserved":0,"last_update":"0001-01-01T00:00:00Z","name_a2s":"Uncletopia | Frankfurt | 4 | All Maps","protocol":17,"map":"koth_viaduct","folder":"tf","game":"Team Fortress","app_id":440,"player_count":10,"max_players":24,"Bots":0,"server_type":"Dedicated","server_os":"Linux","password":true,"vac":true,"version":"7757534","steam_id":85568392924504275,"keywords":["cp","nocrits","nodmgspread","uncletopia"],"game_id":440,"stv_port":27046,"stv_name":"Uncletopia | Frankfurt | 4 | All Maps | STV","players":[{"user_id":3,"name":"Truegr","steam_id":76561198811912339,"connected_time":733000000000,"state":"active","ping":77},{"user_id":4,"name":"fried","steam_id":76561198307522022,"connected_time":725000000000,"state":"active","ping":57},{"user_id":5,"name":"Cafo","steam_id":76561198063795441,"connected_time":700000000000,"state":"active","ping":56},{"user_id":6,"name":"pot gaming (REAL)","steam_id":76561199207717914,"connected_time":480000000000,"state":"active","ping":78},{"user_id":7,"name":"Perämiehenä","steam_id":76561197968945306,"connected_time":418000000000,"state":"active","ping":65},{"user_id":8,"name":"ja","steam_id":76561199228540618,"connected_time":345000000000,"state":"active","ping":72},{"user_id":10,"name":"Neimon","steam_id":76561198343485710,"connected_time":111000000000,"state":"active","ping":117},{"user_id":11,"name":"clems17","steam_id":76561199420685482,"connected_time":97000000000,"state":"active","ping":50},{"user_id":12,"name":"Dasmonson","steam_id":76561199029771850,"connected_time":15000000000,"state":"spawning","ping":100}]},{"server_id":310,"name":"Uncletopia | Frankfurt | 5 | All Maps","name_short":"frk-5","host":"frk-1.de.uncletopia.com","port":27055,"enabled":true,"region":"eu","cc":"de","latitude":50.110924,"longitude":8.682127,"reserved":0,"last_update":"0001-01-01T00:00:00Z","name_a2s":"Uncletopia | Frankfurt | 5 | All Maps","protocol":17,"map":"koth_lakeside_final","folder":"tf","game":"Team Fortress","app_id":440,"player_count":0,"max_players":24,"Bots":0,"server_type":"Dedicated","server_os":"Linux","password":true,"vac":true,"version":"7757534","steam_id":85568392924504277,"keywords":["cp","nocrits","nodmgspread","uncletopia"],"game_id":440,"stv_port":27056,"stv_name":"Uncletopia | Frankfurt | 5 | All Maps | STV","players":null},{"server_id":311,"name":"Uncletopia | Frankfurt | 6 | All Maps","name_short":"frk-6","host":"frk-1.de.uncletopia.com","port":27065,"enabled":true,"region":"eu","cc":"de","latitude":50.110924,"longitude":8.682127,"reserved":0,"last_update":"0001-01-01T00:00:00Z","name_a2s":"Uncletopia | Frankfurt | 6 | All Maps","protocol":17,"map":"pl_frontier_final","folder":"tf","game":"Team Fortress","app_id":440,"player_count":0,"max_players":24,"Bots":0,"server_type":"Dedicated","server_os":"Linux","password":true,"vac":true,"version":"7757534","steam_id":85568392924504278,"keywords":["nocrits","nodmgspread","payload","uncletopia"],"game_id":440,"stv_port":27066,"stv_name":"Uncletopia | Frankfurt | 6 | All Maps | STV","players":null},{"server_id":23,"name":"Uncletopia | Frankfurt | 7 | Stopwatch Beta","name_short":"frk-7","host":"frk-1.de.uncletopia.com","port":27075,"enabled":true,"region":"eu","cc":"de","latitude":50.110924,"longitude":8.682127,"reserved":0,"last_update":"0001-01-01T00:00:00Z","name_a2s":"Uncletopia | Frankfurt | 7 | Stopwatch Beta","protocol":17,"map":"cp_sunshine","folder":"tf","game":"Team Fortress","app_id":440,"player_count":0,"max_players":24,"Bots":0,"server_type":"Dedicated","server_os":"Linux","password":true,"vac":true,"version":"7757534","steam_id":85568392924742827,"keywords":["cp","nocrits","nodmgspread","uncletopia"],"game_id":440,"stv_port":27076,"stv_name":"Uncletopia | Frankfurt | 7 | Stopwatch Beta | STV","players":null},{"server_id":24,"name":"Uncletopia | Frankfurt | 8 | Community","name_short":"frk-8","host":"frk-1.de.uncletopia.com","port":27085,"enabled":true,"region":"eu","cc":"de","latitude":50.110924,"longitude":8.682127,"reserved":0,"last_update":"0001-01-01T00:00:00Z","name_a2s":"Uncletopia | Frankfurt | 8 | Community","protocol":17,"map":"workshop/cp_snowbase_b18.ugc2081770490","folder":"tf","game":"Team Fortress","app_id":440,"player_count":0,"max_players":24,"Bots":0,"server_type":"Dedicated","server_os":"Linux","password":true,"vac":true,"version":"7757534","steam_id":85568392924742828,"keywords":["cp","nocrits","nodmgspread","uncletopia"],"game_id":440,"stv_port":27086,"stv_name":"Uncletopia | Frankfurt | 8 | Community | STV","players":null},{"server_id":202,"name":"Uncletopia | Hong Kong | 1 | All Maps","name_short":"hgk-1","host":"hgk-1.hk.uncletopia.com","port":27015,"enabled":true,"region":"asia","cc":"hk","latitude":22.302711,"longitude":114.177216,"reserved":0,"last_update":"0001-01-01T00:00:00Z","name_a2s":"Uncletopia | Hong Kong | 1 | All Maps","protocol":17,"map":"pl_goldrush","folder":"tf","game":"Team Fortress","app_id":440,"player_count":24,"max_players":24,"Bots":0,"server_type":"Dedicated","server_os":"Linux","password":true,"vac":true,"version":"7757534","steam_id":85568392924494504,"keywords":["nocrits","nodmgspread","payload","uncletopia"],"game_id":440,"stv_port":27016,"stv_name":"Uncletopia | Hong Kong | 1 | All Maps | STV","players":[{"user_id":214,"name":"Michael Scott","steam_id":76561198023082794,"connected_time":4954000000000,"state":"active","ping":50},{"user_id":236,"name":"spinach (old mouse)","steam_id":76561198042539541,"connected_time":1360000000000,"state":"active","ping":82},{"user_id":213,"name":"Noyour","steam_id":76561198323259830,"connected_time":5286000000000,"state":"active","ping":115},{"user_id":179,"name":"urotsuki with da doobie","steam_id":76561198074339034,"connected_time":8284000000000,"state":"active","ping":73},{"user_id":225,"name":"Water = Soup","steam_id":76561198349949683,"connected_time":3948000000000,"state":"active","ping":45},{"user_id":201,"name":"silverhouse7","steam_id":76561198349634906,"connected_time":6413000000000,"state":"active","ping":92},{"user_id":202,"name":"7853","steam_id":76561199390507975,"connected_time":6402000000000,"state":"active","ping":53},{"user_id":229,"name":"Vortex Medico","steam_id":76561198833527091,"connected_time":3281000000000,"state":"active","ping":99},{"user_id":242,"name":"brainless bozo","steam_id":76561198055553140,"connected_time":817000000000,"state":"active","ping":84},{"user_id":219,"name":"t.tv/subasubasuba30","steam_id":76561199474092971,"connected_time":4679000000000,"state":"active","ping":105},{"user_id":180,"name":"junbi OK","steam_id":76561198116387218,"connected_time":7778000000000,"state":"active","ping":89},{"user_id":220,"name":"clori","steam_id":76561199146847474,"connected_time":4678000000000,"state":"active","ping":52},{"user_id":244,"name":"Windmill","steam_id":76561199230997986,"connected_time":568000000000,"state":"active","ping":87},{"user_id":210,"name":"Stupid B","steam_id":76561198131423270,"connected_time":5618000000000,"state":"active","ping":120},{"user_id":241,"name":"The MONKE","steam_id":76561199114571176,"connected_time":837000000000,"state":"active","ping":126},{"user_id":224,"name":"NotFine","steam_id":76561199242217590,"connected_time":4073000000000,"state":"active","ping":95},{"user_id":233,"name":"Milk❤","steam_id":76561198163911560,"connected_time":2441000000000,"state":"active","ping":124},{"user_id":234,"name":"TomProPlayer","steam_id":76561199223292521,"connected_time":2028000000000,"state":"active","ping":71},{"user_id":245,"name":":)","steam_id":76561198437941450,"connected_time":422000000000,"state":"active","ping":113},{"user_id":239,"name":"Wx","steam_id":76561199217780897,"connected_time":860000000000,"state":"active","ping":163},{"user_id":226,"name":"cherenn","steam_id":76561198320532821,"connected_time":3948000000000,"state":"active","ping":105},{"user_id":235,"name":"Leroy","steam_id":76561199137927625,"connected_time":1593000000000,"state":"active","ping":94},{"user_id":243,"name":"twitch.tv/vision515","steam_id":76561198065293729,"connected_time":803000000000,"state":"active","ping":159},{"user_id":197,"name":"E","steam_id":76561199173781370,"connected_time":6453000000000,"state":"active","ping":98}]},{"server_id":1,"name":"Uncletopia | Los Angeles | 1 | All Maps","name_short":"lax-1","host":"lax-1.us.uncletopia.com","port":27015,"enabled":true,"region":"us-west","cc":"us","latitude":33.94279,"longitude":-118.41004,"reserved":0,"last_update":"0001-01-01T00:00:00Z","name_a2s":"Uncletopia | Los Angeles | 1 | All Maps","protocol":17,"map":"pl_swiftwater_final1","folder":"tf","game":"Team Fortress","app_id":440,"player_count":24,"max_players":24,"Bots":0,"server_type":"Dedicated","server_os":"Linux","password":true,"vac":true,"version":"7757534","steam_id":85568392924469991,"keywords":["nocrits","nodmgspread","payload","uncletopia"],"game_id":440,"stv_port":27016,"stv_name":"Uncletopia | Los Angeles | 1 | All Maps | STV","players":[{"user_id":166,"name":"ShadowDragon0125","steam_id":76561198343849022,"connected_time":340000000000,"state":"active","ping":97},{"user_id":136,"name":"Timebomb2134","steam_id":76561199065629825,"connected_time":2486000000000,"state":"active","ping":62},{"user_id":137,"name":"BonkStu","steam_id":76561199146543789,"connected_time":2463000000000,"state":"active","ping":67},{"user_id":164,"name":"e8747e6c4e0dbcee55ae","steam_id":76561198091947841,"connected_time":425000000000,"state":"active","ping":69},{"user_id":163,"name":"Bludgeon","steam_id":76561198272009412,"connected_time":593000000000,"state":"active","ping":54},{"user_id":91,"name":"nori_420","steam_id":76561199117134203,"connected_time":6621000000000,"state":"active","ping":53},{"user_id":131,"name":"Jovi Boy","steam_id":76561198046605691,"connected_time":3659000000000,"state":"active","ping":62},{"user_id":168,"name":"Suspiciously Black Spy","steam_id":76561198824851407,"connected_time":167000000000,"state":"active","ping":20},{"user_id":100,"name":"diggyhazard","steam_id":76561198206506481,"connected_time":6437000000000,"state":"active","ping":57},{"user_id":141,"name":"Drakon","steam_id":76561198078210822,"connected_time":2383000000000,"state":"active","ping":64},{"user_id":120,"name":"Dogg wader","steam_id":76561199090314340,"connected_time":4519000000000,"state":"active","ping":100},{"user_id":121,"name":"tweet","steam_id":76561198166515735,"connected_time":4518000000000,"state":"active","ping":56},{"user_id":157,"name":"Lavernius41","steam_id":76561198807274102,"connected_time":1183000000000,"state":"active","ping":79},{"user_id":150,"name":"redboogies","steam_id":76561199043670226,"connected_time":2254000000000,"state":"active","ping":94},{"user_id":126,"name":"Slim Charles","steam_id":76561197981687895,"connected_time":4129000000000,"state":"active","ping":59},{"user_id":146,"name":"ty","steam_id":76561198045333395,"connected_time":2312000000000,"state":"active","ping":87},{"user_id":134,"name":"Camohno","steam_id":76561198283519918,"connected_time":2979000000000,"state":"active","ping":69},{"user_id":135,"name":"silver","steam_id":76561199020503397,"connected_time":2781000000000,"state":"active","ping":50},{"user_id":133,"name":"Rock Collector","steam_id":76561198131467867,"connected_time":3639000000000,"state":"active","ping":54},{"user_id":151,"name":"Less Than Stupid","steam_id":76561198873150234,"connected_time":2239000000000,"state":"active","ping":123},{"user_id":158,"name":"HammerHead","steam_id":76561197975668646,"connected_time":1164000000000,"state":"active","ping":65},{"user_id":152,"name":"Training Arc","steam_id":76561198038832034,"connected_time":2223000000000,"state":"active","ping":82},{"user_id":167,"name":"Spaceman","steam_id":76561198349305249,"connected_time":271000000000,"state":"active","ping":84},{"user_id":162,"name":"wm1","steam_id":76561198265522923,"connected_time":684000000000,"state":"active","ping":77}]},{"server_id":112,"name":"Uncletopia | Los Angeles | 2 | All Maps","name_short":"lax-2","host":"lax-1.us.uncletopia.com","port":27025,"enabled":true,"region":"us-west","cc":"us","latitude":33.94279,"longitude":-118.41004,"reserved":0,"last_update":"0001-01-01T00:00:00Z","name_a2s":"Uncletopia | Los Angeles | 2 | All Maps","protocol":17,"map":"pl_badwater","folder":"tf","game":"Team Fortress","app_id":440,"player_count":24,"max_players":24,"Bots":0,"server_type":"Dedicated","server_os":"Linux","password":true,"vac":true,"version":"7757534","steam_id":85568392924469992,"keywords":["nocrits","nodmgspread","payload","uncletopia"],"game_id":440,"stv_port":27026,"stv_name":"Uncletopia | Los Angeles | 2 | All Maps | STV","players":[{"user_id":543,"name":"schrödinger","steam_id":76561198123475433,"connected_time":1265000000000,"state":"active","ping":90},{"user_id":497,"name":"Lucky7","steam_id":76561199084623109,"connected_time":4474000000000,"state":"active","ping":84},{"user_id":544,"name":"Squiliam","steam_id":76561198025278006,"connected_time":1233000000000,"state":"active","ping":82},{"user_id":560,"name":"Stan \"The Man\" Mann","steam_id":76561198041745741,"connected_time":3000000000,"state":"spawning","ping":48},{"user_id":559,"name":"The Caretaker","steam_id":76561198125241411,"connected_time":88000000000,"state":"active","ping":65},{"user_id":556,"name":"the world is watching","steam_id":76561198875376206,"connected_time":519000000000,"state":"active","ping":45},{"user_id":532,"name":"kommando1911","steam_id":76561198121455141,"connected_time":2483000000000,"state":"active","ping":44},{"user_id":546,"name":"Remedy Rex","steam_id":76561198181128247,"connected_time":1039000000000,"state":"active","ping":73},{"user_id":555,"name":"Gut125Cin","steam_id":76561198101787225,"connected_time":606000000000,"state":"active","ping":48},{"user_id":540,"name":"♥Cat in a Tub♥","steam_id":76561198170443243,"connected_time":1791000000000,"state":"active","ping":56},{"user_id":553,"name":"GlossyBat","steam_id":76561198929313869,"connected_time":875000000000,"state":"active","ping":59},{"user_id":536,"name":"Mjaddix","steam_id":76561198035505965,"connected_time":2025000000000,"state":"active","ping":70},{"user_id":554,"name":"Mr. Blubber","steam_id":76561198338906916,"connected_time":827000000000,"state":"active","ping":45},{"user_id":519,"name":"artropartropartropartropartrop","steam_id":76561198339376559,"connected_time":3231000000000,"state":"active","ping":100},{"user_id":548,"name":"gods drunkest driver","steam_id":76561198293857963,"connected_time":1022000000000,"state":"active","ping":65},{"user_id":558,"name":"cat","steam_id":76561198302651200,"connected_time":284000000000,"state":"active","ping":112},{"user_id":550,"name":"vanillain","steam_id":76561198058617608,"connected_time":984000000000,"state":"active","ping":48},{"user_id":422,"name":"Drive-By-Fish-Guy","steam_id":76561198105513652,"connected_time":11077000000000,"state":"active","ping":57},{"user_id":463,"name":"brucking","steam_id":76561198348213337,"connected_time":8037000000000,"state":"active","ping":57},{"user_id":551,"name":"psychburst","steam_id":76561198116903731,"connected_time":973000000000,"state":"active","ping":105},{"user_id":483,"name":"gregory house m.d.","steam_id":76561199117672749,"connected_time":6096000000000,"state":"active","ping":89},{"user_id":552,"name":"stanky leg enthusiast","steam_id":76561198816746861,"connected_time":967000000000,"state":"active","ping":54},{"user_id":557,"name":"Soothsayer","steam_id":76561198051750641,"connected_time":495000000000,"state":"active","ping":57},{"user_id":470,"name":"The Midget Pounder","steam_id":76561198058940183,"connected_time":7133000000000,"state":"active","ping":58}]},{"server_id":324,"name":"Uncletopia | Los Angeles | 3 | All Maps","name_short":"lax-3","host":"lax-1.us.uncletopia.com","port":27035,"enabled":true,"region":"us-west","cc":"us","latitude":33.94279,"longitude":-118.41004,"reserved":0,"last_update":"0001-01-01T00:00:00Z","name_a2s":"Uncletopia | Los Angeles | 3 | All Maps","protocol":17,"map":"cp_dustbowl","folder":"tf","game":"Team Fortress","app_id":440,"player_count":0,"max_players":24,"Bots":0,"server_type":"Dedicated","server_os":"Linux","password":true,"vac":true,"version":"7757534","steam_id":85568392924510198,"keywords":["cp","nocrits","nodmgspread","uncletopia"],"game_id":440,"stv_port":27036,"stv_name":"Uncletopia | Los Angeles | 3 | All Maps | STV","players":null},{"server_id":25,"name":"Uncletopia | Los Angeles | 4 | Stopwatch Beta","name_short":"lax-4","host":"lax-1.us.uncletopia.com","port":27045,"enabled":true,"region":"us-west","cc":"us","latitude":33.94279,"longitude":-118.41004,"reserved":0,"last_update":"0001-01-01T00:00:00Z","name_a2s":"Uncletopia | Los Angeles | 4 | Stopwatch Beta","protocol":17,"map":"workshop/pl_badwater_pro_v12.ugc2142942074","folder":"tf","game":"Team Fortress","app_id":440,"player_count":0,"max_players":24,"Bots":0,"server_type":"Dedicated","server_os":"Linux","password":true,"vac":true,"version":"7757534","steam_id":85568392924510199,"keywords":["nocrits","nodmgspread","payload","uncletopia"],"game_id":440,"stv_port":27046,"stv_name":"Uncletopia | Los Angeles | 4 | Stopwatch Beta | STV","players":null},{"server_id":11,"name":"Uncletopia | London | 1 | All Maps","name_short":"lon-1","host":"lon-1.uk.uncletopia.com","port":27015,"enabled":true,"region":"eu","cc":"gb","latitude":51.509865,"longitude":-0.118092,"reserved":0,"last_update":"0001-01-01T00:00:00Z","name_a2s":"Uncletopia | London | 1 | All Maps","protocol":17,"map":"koth_highpass","folder":"tf","game":"Team Fortress","app_id":440,"player_count":0,"max_players":24,"Bots":0,"server_type":"Dedicated","server_os":"Linux","password":true,"vac":true,"version":"7757534","steam_id":85568392924367362,"keywords":["cp","nocrits","nodmgspread","uncletopia"],"game_id":440,"stv_port":27016,"stv_name":"Uncletopia | London | 1 | All Maps | STV","players":null},{"server_id":114,"name":"Uncletopia | London | 2 | All Maps","name_short":"lon-2","host":"lon-1.uk.uncletopia.com","port":27025,"enabled":true,"region":"eu","cc":"gb","latitude":51.509865,"longitude":-0.118092,"reserved":0,"last_update":"0001-01-01T00:00:00Z","name_a2s":"Uncletopia | London | 2 | All Maps","protocol":17,"map":"pl_upward","folder":"tf","game":"Team Fortress","app_id":440,"player_count":0,"max_players":24,"Bots":0,"server_type":"Dedicated","server_os":"Linux","password":true,"vac":true,"version":"7757534","steam_id":85568392924470941,"keywords":["nocrits","nodmgspread","payload","uncletopia"],"game_id":440,"stv_port":27026,"stv_name":"Uncletopia | London | 2 | All Maps | STV","players":null},{"server_id":320,"name":"Uncletopia | London | 3 | All Maps","name_short":"lon-3","host":"lon-1.uk.uncletopia.com","port":27035,"enabled":true,"region":"eu","cc":"gb","latitude":51.509865,"longitude":-0.118092,"reserved":0,"last_update":"0001-01-01T00:00:00Z","name_a2s":"Uncletopia | London | 3 | All Maps","protocol":17,"map":"cp_dustbowl","folder":"tf","game":"Team Fortress","app_id":440,"player_count":0,"max_players":24,"Bots":0,"server_type":"Dedicated","server_os":"Linux","password":true,"vac":true,"version":"7757534","steam_id":85568392924510192,"keywords":["cp","nocrits","nodmgspread","uncletopia"],"game_id":440,"stv_port":27036,"stv_name":"Uncletopia | London | 3 | All Maps | STV","players":null},{"server_id":321,"name":"Uncletopia | London | 4 | All Maps","name_short":"lon-4","host":"lon-1.uk.uncletopia.com","port":27045,"enabled":true,"region":"eu","cc":"gb","latitude":51.509865,"longitude":-0.118092,"reserved":0,"last_update":"0001-01-01T00:00:00Z","name_a2s":"Uncletopia | London | 4 | All Maps","protocol":17,"map":"cp_dustbowl","folder":"tf","game":"Team Fortress","app_id":440,"player_count":0,"max_players":24,"Bots":0,"server_type":"Dedicated","server_os":"Linux","password":true,"vac":true,"version":"7757534","steam_id":85568392924510193,"keywords":["cp","nocrits","nodmgspread","uncletopia"],"game_id":440,"stv_port":27046,"stv_name":"Uncletopia | London | 4 | All Maps | STV","players":null},{"server_id":21,"name":"Uncletopia | London | 5 | All Maps","name_short":"lon-5","host":"lon-1.uk.uncletopia.com","port":27055,"enabled":true,"region":"eu","cc":"gb","latitude":51.509865,"longitude":-0.118092,"reserved":0,"last_update":"0001-01-01T00:00:00Z","name_a2s":"Uncletopia | London | 5 | All Maps","protocol":17,"map":"cp_altitude","folder":"tf","game":"Team Fortress","app_id":440,"player_count":0,"max_players":24,"Bots":0,"server_type":"Dedicated","server_os":"Linux","password":true,"vac":true,"version":"7757534","steam_id":85568392924742829,"keywords":["cp","nocrits","nodmgspread","uncletopia"],"game_id":440,"stv_port":27056,"stv_name":"Uncletopia | London | 5 | All Maps | STV","players":null},{"server_id":22,"name":"Uncletopia | London | 6 | All Maps","name_short":"lon-6","host":"lon-1.uk.uncletopia.com","port":27065,"enabled":true,"region":"eu","cc":"gb","latitude":51.509865,"longitude":-0.118092,"reserved":0,"last_update":"0001-01-01T00:00:00Z","name_a2s":"Uncletopia | London | 6 | All Maps","protocol":17,"map":"cp_mountainlab","folder":"tf","game":"Team Fortress","app_id":440,"player_count":0,"max_players":24,"Bots":0,"server_type":"Dedicated","server_os":"Linux","password":true,"vac":true,"version":"7757534","steam_id":85568392924742830,"keywords":["cp","nocrits","nodmgspread","uncletopia"],"game_id":440,"stv_port":27066,"stv_name":"Uncletopia | London | 6 | All Maps | STV","players":null},{"server_id":40,"name":"Uncletopia | London | 7 | No Payload","name_short":"lon-7","host":"lon-1.uk.uncletopia.com","port":27075,"enabled":true,"region":"eu","cc":"gb","latitude":51.509865,"longitude":-0.118092,"reserved":0,"last_update":"0001-01-01T00:00:00Z","name_a2s":"Uncletopia | London | 7 | No Payload","protocol":17,"map":"koth_viaduct","folder":"tf","game":"Team Fortress","app_id":440,"player_count":23,"max_players":24,"Bots":0,"server_type":"Dedicated","server_os":"Linux","password":true,"vac":true,"version":"7757534","steam_id":85568392924964314,"keywords":["cp","nocrits","nodmgspread","uncletopia"],"game_id":440,"stv_port":27076,"stv_name":"Uncletopia | London | 7 | No Payload | STV","players":[{"user_id":42,"name":"michalismallis6","steam_id":76561199191153072,"connected_time":632000000000,"state":"active","ping":99},{"user_id":43,"name":"vadim_kotler","steam_id":76561199016634369,"connected_time":603000000000,"state":"active","ping":102},{"user_id":5,"name":"The one true horse.","steam_id":76561198073332036,"connected_time":4099000000000,"state":"active","ping":114},{"user_id":6,"name":"cooler bones","steam_id":76561199480942903,"connected_time":3970000000000,"state":"active","ping":73},{"user_id":12,"name":"MuffinMat","steam_id":76561198963850297,"connected_time":2749000000000,"state":"active","ping":78},{"user_id":9,"name":"big naked bruh","steam_id":76561199179040672,"connected_time":3246000000000,"state":"active","ping":53},{"user_id":22,"name":"BAPELIS","steam_id":76561198139157427,"connected_time":1903000000000,"state":"active","ping":89},{"user_id":29,"name":"autistic luigi","steam_id":76561199218285040,"connected_time":1575000000000,"state":"active","ping":75},{"user_id":51,"name":"suicide voyeur","steam_id":76561198231764164,"connected_time":191000000000,"state":"active","ping":59},{"user_id":23,"name":"Victoria NyaNya","steam_id":76561198386462300,"connected_time":1892000000000,"state":"active","ping":90},{"user_id":36,"name":"ASASIN","steam_id":76561198175636147,"connected_time":930000000000,"state":"active","ping":91},{"user_id":17,"name":"ツNekomaruツ","steam_id":76561199011677545,"connected_time":2403000000000,"state":"active","ping":114},{"user_id":34,"name":"Ritzy","steam_id":76561198381955342,"connected_time":1056000000000,"state":"active","ping":50},{"user_id":37,"name":"Helon","steam_id":76561198050761682,"connected_time":921000000000,"state":"active","ping":66},{"user_id":38,"name":"Doohickey mechanic","steam_id":76561198146180114,"connected_time":889000000000,"state":"active","ping":96},{"user_id":52,"name":"SOULDOG","steam_id":76561199212057006,"connected_time":89000000000,"state":"active","ping":111},{"user_id":39,"name":"tomix7","steam_id":76561198365122597,"connected_time":849000000000,"state":"active","ping":73},{"user_id":40,"name":"Emma","steam_id":76561198076724979,"connected_time":847000000000,"state":"active","ping":63},{"user_id":32,"name":"Tec","steam_id":76561199096762480,"connected_time":1204000000000,"state":"active","ping":75},{"user_id":48,"name":"iosif","steam_id":76561198210369053,"connected_time":456000000000,"state":"active","ping":116},{"user_id":53,"name":"Balkespower","steam_id":76561198024869299,"connected_time":86000000000,"state":"active","ping":59},{"user_id":54,"name":"michiuouitalipc","steam_id":76561199122734107,"connected_time":70000000000,"state":"active","ping":75},{"user_id":50,"name":"certified","steam_id":76561198181368101,"connected_time":380000000000,"state":"active","ping":60}]},{"server_id":41,"name":"Uncletopia | London | 8 | Community","name_short":"lon-8","host":"lon-1.uk.uncletopia.com","port":27085,"enabled":true,"region":"eu","cc":"gb","latitude":51.509865,"longitude":-0.118092,"reserved":0,"last_update":"0001-01-01T00:00:00Z","name_a2s":"Uncletopia | London | 8 | Community","protocol":17,"map":"pl_barnblitz","folder":"tf","game":"Team Fortress","app_id":440,"player_count":0,"max_players":24,"Bots":0,"server_type":"Dedicated","server_os":"Linux","password":true,"vac":true,"version":"7757534","steam_id":85568392924964315,"keywords":["nocrits","nodmgspread","payload","uncletopia"],"game_id":440,"stv_port":27086,"stv_name":"Uncletopia | London | 8 | Community | STV","players":null},{"server_id":300,"name":"Uncletopia | Montréal | 1 | All Maps","name_short":"mtl-1","host":"mtl-1.ca.uncletopia.com","port":27015,"enabled":true,"region":"us-east","cc":"ca","latitude":45.50889,"longitude":-73.56167,"reserved":0,"last_update":"0001-01-01T00:00:00Z","name_a2s":"Uncletopia | Montréal | 1 | All Maps","protocol":17,"map":"cp_altitude","folder":"tf","game":"Team Fortress","app_id":440,"player_count":0,"max_players":24,"Bots":0,"server_type":"Dedicated","server_os":"Linux","password":true,"vac":true,"version":"7757534","steam_id":85568392924500087,"keywords":["cp","nocrits","nodmgspread","uncletopia"],"game_id":440,"stv_port":27016,"stv_name":"Uncletopia | Montréal | 1 | All Maps | STV","players":null},{"server_id":301,"name":"Uncletopia | Montréal | 2 | All Maps","name_short":"mtl-2","host":"mtl-1.ca.uncletopia.com","port":27025,"enabled":true,"region":"us-east","cc":"ca","latitude":45.50889,"longitude":-73.56167,"reserved":0,"last_update":"0001-01-01T00:00:00Z","name_a2s":"Uncletopia | Montréal | 2 | All Maps","protocol":17,"map":"koth_viaduct","folder":"tf","game":"Team Fortress","app_id":440,"player_count":0,"max_players":24,"Bots":0,"server_type":"Dedicated","server_os":"Linux","password":true,"vac":true,"version":"7757534","steam_id":85568392924500088,"keywords":["cp","nocrits","nodmgspread","uncletopia"],"game_id":440,"stv_port":27026,"stv_name":"Uncletopia | Montréal | 2 | All Maps | STV","players":null},{"server_id":302,"name":"Uncletopia | Montréal | 3 | All Maps","name_short":"mtl-3","host":"mtl-1.ca.uncletopia.com","port":27035,"enabled":true,"region":"us-east","cc":"ca","latitude":45.50889,"longitude":-73.56167,"reserved":0,"last_update":"0001-01-01T00:00:00Z","name_a2s":"Uncletopia | Montréal | 3 | All Maps","protocol":17,"map":"cp_sunshine","folder":"tf","game":"Team Fortress","app_id":440,"player_count":0,"max_players":24,"Bots":0,"server_type":"Dedicated","server_os":"Linux","password":true,"vac":true,"version":"7757534","steam_id":85568392924500089,"keywords":["cp","nocrits","nodmgspread","uncletopia"],"game_id":440,"stv_port":27036,"stv_name":"Uncletopia | Montréal | 3 | All Maps | STV","players":null},{"server_id":303,"name":"Uncletopia | Montréal | 4 | No Payload","name_short":"mtl-4","host":"mtl-1.ca.uncletopia.com","port":27045,"enabled":true,"region":"us-east","cc":"ca","latitude":45.50889,"longitude":-73.56167,"reserved":0,"last_update":"0001-01-01T00:00:00Z","name_a2s":"Uncletopia | Montréal | 4 | No Payload","protocol":17,"map":"cp_gorge","folder":"tf","game":"Team Fortress","app_id":440,"player_count":0,"max_players":24,"Bots":0,"server_type":"Dedicated","server_os":"Linux","password":true,"vac":true,"version":"7757534","steam_id":85568392924500090,"keywords":["cp","nocrits","nodmgspread","uncletopia"],"game_id":440,"stv_port":27046,"stv_name":"Uncletopia | Montréal | 4 | No Payload | STV","players":null},{"server_id":13,"name":"Uncletopia | New York City | 1 | All Maps","name_short":"nyc-1","host":"nyc-1.us.uncletopia.com","port":27015,"enabled":true,"region":"us-east","cc":"us","latitude":40.73061,"longitude":-73.93524,"reserved":0,"last_update":"0001-01-01T00:00:00Z","name_a2s":"Uncletopia | New York City | 1 | All Maps","protocol":17,"map":"koth_lakeside_final","folder":"tf","game":"Team Fortress","app_id":440,"player_count":23,"max_players":24,"Bots":0,"server_type":"Dedicated","server_os":"Linux","password":true,"vac":true,"version":"7757534","steam_id":85568392924469993,"keywords":["cp","nocrits","nodmgspread","uncletopia"],"game_id":440,"stv_port":27016,"stv_name":"Uncletopia | New York City | 1 | All Maps | STV","players":[{"user_id":582,"name":"🅜🅔🅔🅚🅢🅣🅔\ufffd\ufffd\ufffd","steam_id":76561197999748343,"connected_time":471000000000,"state":"active","ping":74},{"user_id":588,"name":"CHILL COSBY","steam_id":76561198081080853,"connected_time":264000000000,"state":"active","ping":74},{"user_id":564,"name":"canid","steam_id":76561198103496593,"connected_time":1726000000000,"state":"active","ping":74},{"user_id":584,"name":"comet","steam_id":76561198149217841,"connected_time":432000000000,"state":"active","ping":114},{"user_id":565,"name":"teaf","steam_id":76561198406252824,"connected_time":1718000000000,"state":"active","ping":121},{"user_id":589,"name":"Versuski","steam_id":76561198085193084,"connected_time":185000000000,"state":"active","ping":69},{"user_id":578,"name":"One Shot and A Miss","steam_id":76561198124269698,"connected_time":946000000000,"state":"active","ping":46},{"user_id":580,"name":"Pineapple Pizza","steam_id":76561197997233176,"connected_time":797000000000,"state":"active","ping":63},{"user_id":568,"name":"Lemmers235","steam_id":76561199192668922,"connected_time":1578000000000,"state":"active","ping":112},{"user_id":585,"name":"Srattinee","steam_id":76561198199840395,"connected_time":398000000000,"state":"active","ping":70},{"user_id":569,"name":"Dask","steam_id":76561198043385839,"connected_time":1419000000000,"state":"active","ping":68},{"user_id":527,"name":"[OP] 1upist","steam_id":76561198031006501,"connected_time":6877000000000,"state":"active","ping":48},{"user_id":586,"name":"Shaw Han","steam_id":76561198204259015,"connected_time":385000000000,"state":"active","ping":73},{"user_id":581,"name":"henry.bxny","steam_id":76561198806989999,"connected_time":529000000000,"state":"active","ping":56},{"user_id":571,"name":"Oni","steam_id":76561198112066584,"connected_time":1343000000000,"state":"active","ping":85},{"user_id":587,"name":"Czar","steam_id":76561198165585182,"connected_time":376000000000,"state":"active","ping":79},{"user_id":574,"name":"Skills \"Professional\" Talentson","steam_id":76561199059346175,"connected_time":1112000000000,"state":"active","ping":57},{"user_id":575,"name":"Spring Beans","steam_id":76561197978546259,"connected_time":1085000000000,"state":"active","ping":75},{"user_id":489,"name":"Ghostly Slacker","steam_id":76561198846116303,"connected_time":10120000000000,"state":"active","ping":95},{"user_id":576,"name":"ANGRY MOTHERFUCKER!","steam_id":76561198280446451,"connected_time":1037000000000,"state":"active","ping":66},{"user_id":450,"name":"Ludcmorais","steam_id":76561198359217809,"connected_time":13523000000000,"state":"active","ping":174},{"user_id":590,"name":"EndDramon","steam_id":76561198169461084,"connected_time":163000000000,"state":"spawning","ping":61},{"user_id":579,"name":"raya","steam_id":76561198051504581,"connected_time":936000000000,"state":"active","ping":76}]},{"server_id":14,"name":"Uncletopia | New York City | 2 | All Maps","name_short":"nyc-2","host":"nyc-1.us.uncletopia.com","port":27025,"enabled":true,"region":"us-east","cc":"us","latitude":40.73061,"longitude":-73.93524,"reserved":0,"last_update":"0001-01-01T00:00:00Z","name_a2s":"Uncletopia | New York City | 2 | All Maps","protocol":17,"map":"cp_dustbowl","folder":"tf","game":"Team Fortress","app_id":440,"player_count":23,"max_players":24,"Bots":0,"server_type":"Dedicated","server_os":"Linux","password":true,"vac":true,"version":"7757534","steam_id":85568392924469994,"keywords":["cp","nocrits","nodmgspread","uncletopia"],"game_id":440,"stv_port":27026,"stv_name":"Uncletopia | New York City | 2 | All Maps | STV","players":[{"user_id":658,"name":"Yosh","steam_id":76561198027078899,"connected_time":4186000000000,"state":"active","ping":92},{"user_id":693,"name":"Neriander","steam_id":76561198080910743,"connected_time":1778000000000,"state":"active","ping":54},{"user_id":685,"name":"Codo Sapien","steam_id":76561198014206810,"connected_time":2214000000000,"state":"active","ping":44},{"user_id":686,"name":"Mike Lover27356894","steam_id":76561198414175953,"connected_time":2148000000000,"state":"active","ping":133},{"user_id":671,"name":"Quirk","steam_id":76561198092557455,"connected_time":3124000000000,"state":"active","ping":56},{"user_id":713,"name":"desnough","steam_id":76561198259938650,"connected_time":612000000000,"state":"active","ping":71},{"user_id":688,"name":"ShadowWasUhOh","steam_id":76561198400361935,"connected_time":2070000000000,"state":"active","ping":64},{"user_id":692,"name":"Crimepunisher","steam_id":76561198242951164,"connected_time":1786000000000,"state":"active","ping":56},{"user_id":695,"name":"Elegant Lilligant","steam_id":76561198155460764,"connected_time":1737000000000,"state":"active","ping":45},{"user_id":667,"name":"proon","steam_id":76561198155983535,"connected_time":3282000000000,"state":"active","ping":58},{"user_id":660,"name":"open.gif","steam_id":76561198046055673,"connected_time":4146000000000,"state":"active","ping":58},{"user_id":661,"name":"prosto crabic","steam_id":76561198294473783,"connected_time":4139000000000,"state":"active","ping":172},{"user_id":662,"name":"Glass Joe","steam_id":76561198317365741,"connected_time":4119000000000,"state":"active","ping":69},{"user_id":668,"name":"literallyskeletor","steam_id":76561198336005988,"connected_time":3171000000000,"state":"active","ping":68},{"user_id":698,"name":"NinjaxSkillez","steam_id":76561198255840074,"connected_time":1677000000000,"state":"active","ping":45},{"user_id":669,"name":"SoaringPhoenix","steam_id":76561198445103637,"connected_time":3155000000000,"state":"active","ping":53},{"user_id":699,"name":"leapingleptard44","steam_id":76561198055820772,"connected_time":1662000000000,"state":"active","ping":55},{"user_id":700,"name":"Getalife inc.","steam_id":76561198043084509,"connected_time":1640000000000,"state":"active","ping":54},{"user_id":665,"name":"Stauxie","steam_id":76561198255030077,"connected_time":3709000000000,"state":"active","ping":89},{"user_id":629,"name":"Feistypanda34","steam_id":76561198260910134,"connected_time":7021000000000,"state":"active","ping":82},{"user_id":701,"name":"JelloMotion","steam_id":76561198045892038,"connected_time":1629000000000,"state":"active","ping":64},{"user_id":702,"name":"mdiddy361","steam_id":76561198202565108,"connected_time":1621000000000,"state":"active","ping":63},{"user_id":710,"name":"Dandy Bengal","steam_id":76561198156498290,"connected_time":1024000000000,"state":"active","ping":79}]},{"server_id":15,"name":"Uncletopia | New York City | 3 | Stopwatch Beta","name_short":"nyc-3","host":"nyc-1.us.uncletopia.com","port":27035,"enabled":true,"region":"us-east","cc":"us","latitude":40.73061,"longitude":-73.93524,"reserved":0,"last_update":"0001-01-01T00:00:00Z","name_a2s":"Uncletopia | New York City | 3 | Stopwatch Beta","protocol":17,"map":"workshop/koth_product_final.ugc454272353","folder":"tf","game":"Team Fortress","app_id":440,"player_count":0,"max_players":24,"Bots":0,"server_type":"Dedicated","server_os":"Linux","password":true,"vac":true,"version":"7757534","steam_id":85568392924742820,"keywords":["cp","nocrits","nodmgspread","uncletopia"],"game_id":440,"stv_port":27036,"stv_name":"Uncletopia | New York City | 3 | Stopwatch Beta | STV","players":null},{"server_id":16,"name":"Uncletopia | New York City | 4 | Community","name_short":"nyc-4","host":"nyc-1.us.uncletopia.com","port":27045,"enabled":true,"region":"us-east","cc":"us","latitude":40.73061,"longitude":-73.93524,"reserved":0,"last_update":"0001-01-01T00:00:00Z","name_a2s":"Uncletopia | New York City | 4 | Community","protocol":17,"map":"workshop/pl_fifthcurve_rc1.ugc648227046","folder":"tf","game":"Team Fortress","app_id":440,"player_count":0,"max_players":24,"Bots":0,"server_type":"Dedicated","server_os":"Linux","password":true,"vac":true,"version":"7757534","steam_id":85568392924742821,"keywords":["nocrits","nodmgspread","payload","uncletopia"],"game_id":440,"stv_port":27046,"stv_name":"Uncletopia | New York City | 4 | Community | STV","players":null},{"server_id":142,"name":"Uncletopia | São Paulo | 1 | All Maps","name_short":"sao-1","host":"sao-1.br.uncletopia.com","port":27015,"enabled":true,"region":"sa","cc":"br","latitude":-23.533773,"longitude":-46.62529,"reserved":0,"last_update":"0001-01-01T00:00:00Z","name_a2s":"Uncletopia | São Paulo | 1 | All Maps","protocol":17,"map":"koth_lakeside_final","folder":"tf","game":"Team Fortress","app_id":440,"player_count":0,"max_players":24,"Bots":0,"server_type":"Dedicated","server_os":"Linux","password":true,"vac":true,"version":"7757534","steam_id":85568392924469996,"keywords":["cp","nocrits","nodmgspread","uncletopia"],"game_id":440,"stv_port":27016,"stv_name":"Uncletopia | São Paulo | 1 | All Maps | STV","players":null},{"server_id":143,"name":"Uncletopia | São Paulo | 2 | All Maps","name_short":"sao-2","host":"sao-2.br.uncletopia.com","port":27015,"enabled":true,"region":"sa","cc":"br","latitude":-23.533773,"longitude":-46.62529,"reserved":0,"last_update":"0001-01-01T00:00:00Z","name_a2s":"Uncletopia | São Paulo | 2 | All Maps","protocol":17,"map":"koth_cascade","folder":"tf","game":"Team Fortress","app_id":440,"player_count":0,"max_players":24,"Bots":0,"server_type":"Dedicated","server_os":"Linux","password":true,"vac":true,"version":"7757534","steam_id":85568392924485349,"keywords":["cp","nocrits","nodmgspread","uncletopia"],"game_id":440,"stv_port":27016,"stv_name":"Uncletopia | São Paulo | 2 | All Maps | STV","players":null},{"server_id":7,"name":"Uncletopia | Seattle | 1 | All Maps","name_short":"sea-1","host":"sea-1.us.uncletopia.com","port":27015,"enabled":true,"region":"us-west","cc":"us","latitude":47.608013,"longitude":-122.33517,"reserved":0,"last_update":"0001-01-01T00:00:00Z","name_a2s":"Uncletopia | Seattle | 1 | All Maps","protocol":17,"map":"koth_sawmill","folder":"tf","game":"Team Fortress","app_id":440,"player_count":21,"max_players":24,"Bots":0,"server_type":"Dedicated","server_os":"Linux","password":true,"vac":true,"version":"7757534","steam_id":85568392924469997,"keywords":["cp","nocrits","nodmgspread","uncletopia"],"game_id":440,"stv_port":27016,"stv_name":"Uncletopia | Seattle | 1 | All Maps | STV","players":[{"user_id":757,"name":"Rock Kickass","steam_id":76561198450510841,"connected_time":737000000000,"state":"active","ping":105},{"user_id":736,"name":"Peppy","steam_id":76561198866629645,"connected_time":1956000000000,"state":"active","ping":88},{"user_id":734,"name":"Bread","steam_id":76561198263413503,"connected_time":2235000000000,"state":"active","ping":78},{"user_id":753,"name":"Oh No! It's Twister!","steam_id":76561198016791916,"connected_time":995000000000,"state":"active","ping":82},{"user_id":715,"name":"Tommy da bird","steam_id":76561198136340711,"connected_time":4165000000000,"state":"active","ping":99},{"user_id":764,"name":"mu","steam_id":76561197997530228,"connected_time":327000000000,"state":"active","ping":46},{"user_id":742,"name":"SausageMan","steam_id":76561198211717195,"connected_time":1872000000000,"state":"active","ping":58},{"user_id":765,"name":"trackpad gaming | f2p","steam_id":76561198840414371,"connected_time":292000000000,"state":"active","ping":48},{"user_id":738,"name":"sneed","steam_id":76561198035695976,"connected_time":1933000000000,"state":"active","ping":43},{"user_id":766,"name":"Kito","steam_id":76561198032401946,"connected_time":287000000000,"state":"active","ping":85},{"user_id":762,"name":"Tea","steam_id":76561198004133638,"connected_time":372000000000,"state":"active","ping":78},{"user_id":771,"name":"✪ Y V E S","steam_id":76561198299479796,"connected_time":108000000000,"state":"active","ping":73},{"user_id":772,"name":"sudoku_fiend","steam_id":76561198152029104,"connected_time":25000000000,"state":"active","ping":135},{"user_id":768,"name":"Stoned Cold Killer","steam_id":76561199026914199,"connected_time":219000000000,"state":"active","ping":86},{"user_id":730,"name":"Thanks Ants","steam_id":76561197966221018,"connected_time":2740000000000,"state":"active","ping":53},{"user_id":740,"name":"Moonshine","steam_id":76561198068859240,"connected_time":1912000000000,"state":"active","ping":46},{"user_id":769,"name":"Broken NPC","steam_id":76561198070782915,"connected_time":190000000000,"state":"active","ping":64},{"user_id":770,"name":"Milk T34","steam_id":76561198116115227,"connected_time":154000000000,"state":"active","ping":86},{"user_id":749,"name":"Finkly","steam_id":76561198049828110,"connected_time":1175000000000,"state":"active","ping":40},{"user_id":750,"name":"Jacob Highrise","steam_id":76561198346327753,"connected_time":1100000000000,"state":"active","ping":57},{"user_id":760,"name":"Sniff","steam_id":76561198010270922,"connected_time":511000000000,"state":"active","ping":39}]},{"server_id":119,"name":"Uncletopia | Seattle | 2 | All Maps","name_short":"sea-2","host":"sea-1.us.uncletopia.com","port":27025,"enabled":true,"region":"us-west","cc":"us","latitude":47.608013,"longitude":-122.33517,"reserved":0,"last_update":"0001-01-01T00:00:00Z","name_a2s":"Uncletopia | Seattle | 2 | All Maps","protocol":17,"map":"pl_swiftwater_final1","folder":"tf","game":"Team Fortress","app_id":440,"player_count":24,"max_players":24,"Bots":0,"server_type":"Dedicated","server_os":"Linux","password":true,"vac":true,"version":"7757534","steam_id":85568392924469998,"keywords":["nocrits","nodmgspread","payload","uncletopia"],"game_id":440,"stv_port":27026,"stv_name":"Uncletopia | Seattle | 2 | All Maps | STV","players":[{"user_id":495,"name":"oil","steam_id":76561198099980149,"connected_time":2597000000000,"state":"active","ping":75},{"user_id":505,"name":"Ace Detective Artemis Down","steam_id":76561197971030563,"connected_time":525000000000,"state":"active","ping":93},{"user_id":502,"name":"THENX ATHLETE","steam_id":76561198078626283,"connected_time":531000000000,"state":"active","ping":30},{"user_id":503,"name":"louise sneeze","steam_id":76561198062451648,"connected_time":530000000000,"state":"active","ping":90},{"user_id":479,"name":"delight","steam_id":76561197980280272,"connected_time":3747000000000,"state":"active","ping":47},{"user_id":446,"name":"yosh.wav","steam_id":76561199127755834,"connected_time":6493000000000,"state":"active","ping":46},{"user_id":504,"name":"Ducks","steam_id":76561198130038345,"connected_time":529000000000,"state":"active","ping":68},{"user_id":489,"name":"tophawkyy","steam_id":76561199075934685,"connected_time":2858000000000,"state":"active","ping":76},{"user_id":498,"name":"Snippykeegan","steam_id":76561198274529343,"connected_time":2483000000000,"state":"active","ping":64},{"user_id":487,"name":"gorlab","steam_id":76561198025089694,"connected_time":3215000000000,"state":"active","ping":63},{"user_id":353,"name":"Pneumo.","steam_id":76561197987911883,"connected_time":14656000000000,"state":"active","ping":69},{"user_id":484,"name":"profile name","steam_id":76561198032625036,"connected_time":3664000000000,"state":"active","ping":59},{"user_id":473,"name":"hosewater","steam_id":76561198023383126,"connected_time":3940000000000,"state":"active","ping":51},{"user_id":506,"name":"AngryTurtle","steam_id":76561199056534728,"connected_time":517000000000,"state":"active","ping":42},{"user_id":474,"name":"Reven596","steam_id":76561198885592765,"connected_time":3906000000000,"state":"active","ping":72},{"user_id":501,"name":"camp3r","steam_id":76561197992870439,"connected_time":2235000000000,"state":"active","ping":35},{"user_id":461,"name":"Mom","steam_id":76561198207936000,"connected_time":4625000000000,"state":"active","ping":62},{"user_id":509,"name":"Arsonist Goose","steam_id":76561198147441830,"connected_time":496000000000,"state":"active","ping":68},{"user_id":507,"name":"resh","steam_id":76561198239598834,"connected_time":516000000000,"state":"active","ping":127},{"user_id":462,"name":"bobtheninjaman","steam_id":76561198066424544,"connected_time":4624000000000,"state":"active","ping":87},{"user_id":483,"name":"Keamy","steam_id":76561199471434875,"connected_time":3715000000000,"state":"active","ping":45},{"user_id":508,"name":"doopsies","steam_id":76561198083000867,"connected_time":513000000000,"state":"active","ping":52},{"user_id":490,"name":"jorts","steam_id":76561199041179985,"connected_time":2794000000000,"state":"active","ping":66},{"user_id":500,"name":"rorywashere /ᐠ - ˕ -マ Ⳋ","steam_id":76561198065825165,"connected_time":2400000000000,"state":"active","ping":111}]},{"server_id":406,"name":"Uncletopia | Seattle | 3 | Stopwatch Beta","name_short":"sea-3","host":"sea-1.us.uncletopia.com","port":27035,"enabled":true,"region":"us-west","cc":"us","latitude":47.608013,"longitude":-122.33517,"reserved":0,"last_update":"0001-01-01T00:00:00Z","name_a2s":"Uncletopia | Seattle | 3 | Stopwatch Beta","protocol":17,"map":"cp_process_final","folder":"tf","game":"Team Fortress","app_id":440,"player_count":0,"max_players":24,"Bots":0,"server_type":"Dedicated","server_os":"Linux","password":true,"vac":true,"version":"7757534","steam_id":85568392924515217,"keywords":["cp","nocrits","nodmgspread","uncletopia"],"game_id":440,"stv_port":27036,"stv_name":"Uncletopia | Seattle | 3 | Stopwatch Beta | STV","players":null},{"server_id":17,"name":"Uncletopia | San Francisco | 1 | All Maps","name_short":"sfo-1","host":"sfo-1.us.uncletopia.com","port":27015,"enabled":true,"region":"us-west","cc":"us","latitude":37.77397,"longitude":-122.4313,"reserved":0,"last_update":"0001-01-01T00:00:00Z","name_a2s":"Uncletopia | San Francisco | 1 | All Maps","protocol":17,"map":"cp_snakewater_final1","folder":"tf","game":"Team Fortress","app_id":440,"player_count":24,"max_players":24,"Bots":0,"server_type":"Dedicated","server_os":"Linux","password":true,"vac":true,"version":"7757534","steam_id":85568392924469999,"keywords":["cp","nocrits","nodmgspread","uncletopia"],"game_id":440,"stv_port":27016,"stv_name":"Uncletopia | San Francisco | 1 | All Maps | STV","players":[{"user_id":483,"name":"Wormhole","steam_id":76561199008302939,"connected_time":569000000000,"state":"active","ping":66},{"user_id":499,"name":"[Colorbomb]","steam_id":76561198006316527,"connected_time":13000000000,"state":"spawning","ping":68},{"user_id":488,"name":"Pho","steam_id":76561198306515742,"connected_time":505000000000,"state":"active","ping":55},{"user_id":498,"name":"charley","steam_id":76561198828238339,"connected_time":59000000000,"state":"active","ping":71},{"user_id":461,"name":"Miro","steam_id":76561198936412406,"connected_time":2687000000000,"state":"active","ping":124},{"user_id":497,"name":"Funkmaster Yee","steam_id":76561198037738918,"connected_time":161000000000,"state":"active","ping":60},{"user_id":486,"name":"Jimbo","steam_id":76561198082238388,"connected_time":533000000000,"state":"active","ping":86},{"user_id":468,"name":"Marge \"ZaZa\" Simpson","steam_id":76561198156496197,"connected_time":2404000000000,"state":"active","ping":100},{"user_id":477,"name":"Sgt. Satire","steam_id":76561198104193483,"connected_time":1754000000000,"state":"active","ping":73},{"user_id":440,"name":"TacoBellEmployee","steam_id":76561199088415420,"connected_time":3726000000000,"state":"active","ping":96},{"user_id":489,"name":"CookieMeister","steam_id":76561198112646899,"connected_time":496000000000,"state":"active","ping":79},{"user_id":490,"name":"jim awesome","steam_id":76561198337486020,"connected_time":482000000000,"state":"active","ping":56},{"user_id":475,"name":"Burton","steam_id":76561198120798402,"connected_time":2123000000000,"state":"active","ping":57},{"user_id":478,"name":"whistle","steam_id":76561198258304736,"connected_time":1378000000000,"state":"active","ping":57},{"user_id":470,"name":"westward","steam_id":76561198805512350,"connected_time":2387000000000,"state":"active","ping":72},{"user_id":491,"name":"Sentient Trash Can","steam_id":76561199438622491,"connected_time":457000000000,"state":"active","ping":73},{"user_id":448,"name":"mentos14","steam_id":76561198097993629,"connected_time":3467000000000,"state":"active","ping":67},{"user_id":444,"name":"squilith","steam_id":76561198134923092,"connected_time":3638000000000,"state":"active","ping":51},{"user_id":424,"name":"FRANKY!!!","steam_id":76561199211305343,"connected_time":5135000000000,"state":"active","ping":52},{"user_id":492,"name":"D0c Hammer","steam_id":76561198002007932,"connected_time":392000000000,"state":"active","ping":70},{"user_id":449,"name":"gazoig","steam_id":76561199041519004,"connected_time":3446000000000,"state":"active","ping":58},{"user_id":480,"name":"luigiclub34","steam_id":76561198180548194,"connected_time":747000000000,"state":"active","ping":90},{"user_id":474,"name":"TheArachnidGamer","steam_id":76561198304986752,"connected_time":2222000000000,"state":"active","ping":78},{"user_id":496,"name":"parallax","steam_id":76561198004438881,"connected_time":244000000000,"state":"active","ping":71}]},{"server_id":18,"name":"Uncletopia | San Francisco | 2 | All Maps","name_short":"sfo-2","host":"sfo-1.us.uncletopia.com","port":27025,"enabled":true,"region":"us-west","cc":"us","latitude":37.77397,"longitude":-122.4313,"reserved":0,"last_update":"0001-01-01T00:00:00Z","name_a2s":"Uncletopia | San Francisco | 2 | All Maps","protocol":17,"map":"pl_badwater","folder":"tf","game":"Team Fortress","app_id":440,"player_count":24,"max_players":24,"Bots":0,"server_type":"Dedicated","server_os":"Linux","password":true,"vac":true,"version":"7757534","steam_id":85568392924470000,"keywords":["nocrits","nodmgspread","payload","uncletopia"],"game_id":440,"stv_port":27026,"stv_name":"Uncletopia | San Francisco | 2 | All Maps | STV","players":[{"user_id":187,"name":"Auggy","steam_id":76561198041816037,"connected_time":449000000000,"state":"active","ping":55},{"user_id":179,"name":"seanc2012","steam_id":76561198099661900,"connected_time":696000000000,"state":"active","ping":60},{"user_id":175,"name":"Luke","steam_id":76561198072441047,"connected_time":1255000000000,"state":"active","ping":82},{"user_id":166,"name":"Orange","steam_id":76561198284737450,"connected_time":1754000000000,"state":"active","ping":83},{"user_id":180,"name":"JESSE_JAMES12","steam_id":76561198388675641,"connected_time":684000000000,"state":"active","ping":61},{"user_id":181,"name":"Micfly14","steam_id":76561199412505973,"connected_time":667000000000,"state":"active","ping":56},{"user_id":137,"name":"OlimarsDisciple","steam_id":76561198798700505,"connected_time":4868000000000,"state":"active","ping":73},{"user_id":182,"name":"Azall","steam_id":76561198080294343,"connected_time":640000000000,"state":"active","ping":85},{"user_id":64,"name":"Giselle","steam_id":76561198162593640,"connected_time":11094000000000,"state":"active","ping":112},{"user_id":186,"name":"Aqua Tofana","steam_id":76561198351183381,"connected_time":464000000000,"state":"active","ping":71},{"user_id":156,"name":"zozo","steam_id":76561198031297359,"connected_time":2901000000000,"state":"active","ping":43},{"user_id":184,"name":"lastknight","steam_id":76561197990421969,"connected_time":606000000000,"state":"active","ping":45},{"user_id":185,"name":"Rafl","steam_id":76561198055222756,"connected_time":586000000000,"state":"active","ping":75},{"user_id":116,"name":"Moshi Man","steam_id":76561198038249762,"connected_time":7100000000000,"state":"active","ping":105},{"user_id":188,"name":"John Smith","steam_id":76561198185776555,"connected_time":401000000000,"state":"active","ping":61},{"user_id":54,"name":"Zero","steam_id":76561199383267408,"connected_time":11443000000000,"state":"active","ping":91},{"user_id":169,"name":"DEQUAVIS","steam_id":76561198843060075,"connected_time":1660000000000,"state":"active","ping":54},{"user_id":144,"name":"Surfing Garchomp","steam_id":76561199107236884,"connected_time":4342000000000,"state":"active","ping":83},{"user_id":176,"name":"Medic","steam_id":76561198152570304,"connected_time":1234000000000,"state":"active","ping":55},{"user_id":159,"name":"help me","steam_id":76561198844273999,"connected_time":2501000000000,"state":"active","ping":67},{"user_id":191,"name":"SG21","steam_id":76561199381171306,"connected_time":65000000000,"state":"active","ping":83},{"user_id":172,"name":"hatsune miku","steam_id":76561199445009981,"connected_time":1609000000000,"state":"active","ping":67},{"user_id":173,"name":"iggybones (girl with balls)","steam_id":76561198101610291,"connected_time":1594000000000,"state":"active","ping":65},{"user_id":73,"name":"Ian","steam_id":76561198159334435,"connected_time":9602000000000,"state":"active","ping":168}]},{"server_id":19,"name":"Uncletopia | San Francisco | 3 | Stopwatch Beta","name_short":"sfo-3","host":"sfo-1.us.uncletopia.com","port":27035,"enabled":true,"region":"us-west","cc":"us","latitude":37.77397,"longitude":-122.4313,"reserved":0,"last_update":"0001-01-01T00:00:00Z","name_a2s":"Uncletopia | San Francisco | 3 | Stopwatch Beta","protocol":17,"map":"workshop/koth_ashville_final.ugc2130459942","folder":"tf","game":"Team Fortress","app_id":440,"player_count":0,"max_players":24,"Bots":0,"server_type":"Dedicated","server_os":"Linux","password":true,"vac":true,"version":"7757534","steam_id":85568392924742824,"keywords":["cp","nocrits","nodmgspread","uncletopia"],"game_id":440,"stv_port":27036,"stv_name":"Uncletopia | San Francisco | 3 | Stopwatch Beta | STV","players":null},{"server_id":20,"name":"Uncletopia | San Francisco | 4 | Community","name_short":"sfo-4","host":"sfo-1.us.uncletopia.com","port":27045,"enabled":true,"region":"us-west","cc":"us","latitude":37.77397,"longitude":-122.4313,"reserved":0,"last_update":"0001-01-01T00:00:00Z","name_a2s":"Uncletopia | San Francisco | 4 | Community","protocol":17,"map":"workshop/rd_asteroid_redux_b1.ugc2154902912","folder":"tf","game":"Team Fortress","app_id":440,"player_count":0,"max_players":24,"Bots":0,"server_type":"Dedicated","server_os":"Linux","password":true,"vac":true,"version":"7757534","steam_id":85568392924742826,"keywords":["beta","nocrits","nodmgspread","rd","uncletopia"],"game_id":440,"stv_port":27046,"stv_name":"Uncletopia | San Francisco | 4 | Community | STV","players":null},{"server_id":141,"name":"Uncletopia | Sydney | 1 | All Maps","name_short":"syd-1","host":"syd-1.au.uncletopia.com","port":27015,"enabled":true,"region":"au","cc":"au","latitude":-33.865143,"longitude":151.2099,"reserved":0,"last_update":"0001-01-01T00:00:00Z","name_a2s":"Uncletopia | Sydney | 1 | All Maps","protocol":17,"map":"pl_barnblitz","folder":"tf","game":"Team Fortress","app_id":440,"player_count":24,"max_players":24,"Bots":0,"server_type":"Dedicated","server_os":"Linux","password":true,"vac":true,"version":"7757534","steam_id":85568392924470001,"keywords":["nocrits","nodmgspread","payload","uncletopia"],"game_id":440,"stv_port":27016,"stv_name":"Uncletopia | Sydney | 1 | All Maps | STV","players":[{"user_id":499,"name":"Jetfire","steam_id":76561198047370036,"connected_time":1201000000000,"state":"active","ping":82},{"user_id":523,"name":"Zilvera","steam_id":76561198065801850,"connected_time":88000000000,"state":"active","ping":48},{"user_id":505,"name":"Jodelkönig Franzl Lang","steam_id":76561198007667830,"connected_time":1066000000000,"state":"active","ping":53},{"user_id":474,"name":"Float","steam_id":76561198021812511,"connected_time":3281000000000,"state":"active","ping":55},{"user_id":518,"name":"perturb","steam_id":76561198085124297,"connected_time":507000000000,"state":"active","ping":59},{"user_id":513,"name":"jone","steam_id":76561198285234796,"connected_time":786000000000,"state":"active","ping":80},{"user_id":497,"name":"Nya Unleashed","steam_id":76561199440190709,"connected_time":1450000000000,"state":"active","ping":60},{"user_id":512,"name":"SubHam","steam_id":76561198071578622,"connected_time":811000000000,"state":"active","ping":76},{"user_id":473,"name":"Chocolate Lightning","steam_id":76561198213958971,"connected_time":3333000000000,"state":"active","ping":105},{"user_id":502,"name":"Nugget","steam_id":76561197961747465,"connected_time":1111000000000,"state":"active","ping":83},{"user_id":503,"name":"DA BIG DROPPP","steam_id":76561198087803935,"connected_time":1100000000000,"state":"active","ping":48},{"user_id":504,"name":"tokahontas","steam_id":76561198062936017,"connected_time":1089000000000,"state":"active","ping":73},{"user_id":506,"name":"space/","steam_id":76561198048296897,"connected_time":1055000000000,"state":"active","ping":59},{"user_id":507,"name":"wombatrat","steam_id":76561199375834537,"connected_time":1019000000000,"state":"active","ping":124},{"user_id":464,"name":"Bobby Wilkinson","steam_id":76561198054985347,"connected_time":3819000000000,"state":"active","ping":57},{"user_id":508,"name":"TuaMater","steam_id":76561198021019008,"connected_time":1008000000000,"state":"active","ping":71},{"user_id":522,"name":"monnickev","steam_id":76561198252587162,"connected_time":135000000000,"state":"active","ping":44},{"user_id":334,"name":"Jiffy360","steam_id":76561198149550772,"connected_time":11874000000000,"state":"active","ping":90},{"user_id":416,"name":"Rashid Of The Dank Memes","steam_id":76561198281398078,"connected_time":6476000000000,"state":"active","ping":59},{"user_id":511,"name":"Bonka Honkas","steam_id":76561198154257536,"connected_time":876000000000,"state":"active","ping":47},{"user_id":485,"name":"soupy","steam_id":76561198073734936,"connected_time":2126000000000,"state":"active","ping":87},{"user_id":514,"name":"Nicholas","steam_id":76561198828864199,"connected_time":760000000000,"state":"active","ping":64},{"user_id":515,"name":"JOJO","steam_id":76561198280768790,"connected_time":728000000000,"state":"active","ping":55},{"user_id":521,"name":"Sover blw.tf","steam_id":76561198136347837,"connected_time":446000000000,"state":"active","ping":124}]},{"server_id":123,"name":"Uncletopia | Sydney | 2 | All Maps","name_short":"syd-2","host":"syd-1.au.uncletopia.com","port":27025,"enabled":true,"region":"au","cc":"au","latitude":-33.865143,"longitude":151.2099,"reserved":0,"last_update":"0001-01-01T00:00:00Z","name_a2s":"Uncletopia | Sydney | 2 | All Maps","protocol":17,"map":"koth_lakeside_final","folder":"tf","game":"Team Fortress","app_id":440,"player_count":24,"max_players":24,"Bots":0,"server_type":"Dedicated","server_os":"Linux","password":true,"vac":true,"version":"7757534","steam_id":85568392924470002,"keywords":["cp","nocrits","nodmgspread","uncletopia"],"game_id":440,"stv_port":27026,"stv_name":"Uncletopia | Sydney | 2 | All Maps | STV","players":[{"user_id":142,"name":"Jellyfish_kurage","steam_id":76561198425670698,"connected_time":7820000000000,"state":"active","ping":52},{"user_id":181,"name":"Zieria","steam_id":76561199261811388,"connected_time":4205000000000,"state":"active","ping":39},{"user_id":246,"name":"Doctor Estonia","steam_id":76561198057365089,"connected_time":358000000000,"state":"active","ping":110},{"user_id":249,"name":"jamiroquai","steam_id":76561199174230282,"connected_time":215000000000,"state":"active","ping":91},{"user_id":208,"name":"[FTW] RonnieD'","steam_id":76561197993957267,"connected_time":2213000000000,"state":"active","ping":51},{"user_id":240,"name":"164KiloBytes","steam_id":76561198889481715,"connected_time":809000000000,"state":"active","ping":90},{"user_id":209,"name":"tim88435","steam_id":76561198089653987,"connected_time":2197000000000,"state":"active","ping":50},{"user_id":242,"name":"Jelq Enthusiast@Thughunter.brap","steam_id":76561198253098602,"connected_time":569000000000,"state":"active","ping":65},{"user_id":200,"name":"hazz_mcpie -BvM-","steam_id":76561198092450084,"connected_time":2513000000000,"state":"active","ping":88},{"user_id":247,"name":"Giant Rat","steam_id":76561198110170714,"connected_time":297000000000,"state":"active","ping":60},{"user_id":244,"name":"fair dinkum","steam_id":76561199204434162,"connected_time":562000000000,"state":"active","ping":74},{"user_id":221,"name":"BruceWillis235","steam_id":76561198884324029,"connected_time":1857000000000,"state":"active","ping":100},{"user_id":224,"name":"Sentry Gun (EpicGuy4227)","steam_id":76561198094132328,"connected_time":1685000000000,"state":"active","ping":70},{"user_id":236,"name":"ParadoxG","steam_id":76561198100746653,"connected_time":1116000000000,"state":"active","ping":45},{"user_id":253,"name":"MrMuffin16","steam_id":76561198257303774,"connected_time":107000000000,"state":"active","ping":60},{"user_id":248,"name":"[GG] Cryo","steam_id":76561198062014383,"connected_time":265000000000,"state":"active","ping":60},{"user_id":198,"name":"\u003e:FrozenDragon:\u003c","steam_id":76561198227960928,"connected_time":2737000000000,"state":"active","ping":105},{"user_id":250,"name":"ATTACK THE D POINT!!!!","steam_id":76561199405735306,"connected_time":207000000000,"state":"active","ping":49},{"user_id":237,"name":"Natebox","steam_id":76561198027457443,"connected_time":1079000000000,"state":"active","ping":89},{"user_id":251,"name":"Fledges","steam_id":76561198017381539,"connected_time":190000000000,"state":"active","ping":59},{"user_id":217,"name":"Flash","steam_id":76561198116748729,"connected_time":1986000000000,"state":"active","ping":98},{"user_id":252,"name":"Wisey","steam_id":76561198120829189,"connected_time":167000000000,"state":"active","ping":47},{"user_id":254,"name":"DonPenguini","steam_id":76561198002525417,"connected_time":106000000000,"state":"active","ping":48},{"user_id":233,"name":"mushroom","steam_id":76561197992336470,"connected_time":1428000000000,"state":"active","ping":90}]},{"server_id":395,"name":"Uncletopia | Sydney | 3 | All Maps","name_short":"syd-3","host":"syd-1.au.uncletopia.com","port":27035,"enabled":true,"region":"au","cc":"au","latitude":-33.865143,"longitude":151.2099,"reserved":0,"last_update":"0001-01-01T00:00:00Z","name_a2s":"Uncletopia | Sydney | 3 | All Maps","protocol":17,"map":"koth_viaduct","folder":"tf","game":"Team Fortress","app_id":440,"player_count":0,"max_players":24,"Bots":0,"server_type":"Dedicated","server_os":"Linux","password":true,"vac":true,"version":"7757534","steam_id":85568392925194467,"keywords":["cp","nocrits","nodmgspread","uncletopia"],"game_id":440,"stv_port":27036,"stv_name":"Uncletopia | Sydney | 3 | All Maps | STV","players":null},{"server_id":396,"name":"Uncletopia | Sydney | 4 | All Maps","name_short":"syd-4","host":"syd-1.au.uncletopia.com","port":27045,"enabled":true,"region":"au","cc":"au","latitude":-33.865143,"longitude":151.2099,"reserved":0,"last_update":"0001-01-01T00:00:00Z","name_a2s":"Uncletopia | Sydney | 4 | All Maps","protocol":17,"map":"koth_highpass","folder":"tf","game":"Team Fortress","app_id":440,"player_count":0,"max_players":24,"Bots":0,"server_type":"Dedicated","server_os":"Linux","password":true,"vac":true,"version":"7757534","steam_id":85568392925397958,"keywords":["cp","nocrits","nodmgspread","uncletopia"],"game_id":440,"stv_port":27046,"stv_name":"Uncletopia | Sydney | 4 | All Maps | STV","players":null},{"server_id":58,"name":"Uncletopia | Sydney | 5 | Stopwatch Beta","name_short":"syd-5","host":"syd-1.au.uncletopia.com","port":27055,"enabled":true,"region":"au","cc":"au","latitude":-33.865143,"longitude":151.2099,"reserved":0,"last_update":"0001-01-01T00:00:00Z","name_a2s":"Uncletopia | Sydney | 5 | Stopwatch Beta","protocol":17,"map":"pl_upward","folder":"tf","game":"Team Fortress","app_id":440,"player_count":0,"max_players":24,"Bots":0,"server_type":"Dedicated","server_os":"Linux","password":true,"vac":true,"version":"7757534","steam_id":85568392925397959,"keywords":["nocrits","nodmgspread","payload","uncletopia"],"game_id":440,"stv_port":27056,"stv_name":"Uncletopia | Sydney | 5 | Stopwatch Beta | STV","players":null},{"server_id":59,"name":"Uncletopia | Sydney | 6 | Community","name_short":"syd-6","host":"syd-1.au.uncletopia.com","port":27065,"enabled":true,"region":"au","cc":"au","latitude":-33.865143,"longitude":151.2099,"reserved":0,"last_update":"0001-01-01T00:00:00Z","name_a2s":"Uncletopia | Sydney | 6 | Community","protocol":17,"map":"workshop/cp_logjam_rc12.ugc454812035","folder":"tf","game":"Team Fortress","app_id":440,"player_count":0,"max_players":24,"Bots":0,"server_type":"Dedicated","server_os":"Linux","password":true,"vac":true,"version":"7757534","steam_id":85568392925397960,"keywords":["cp","nocrits","nodmgspread","uncletopia"],"game_id":440,"stv_port":27066,"stv_name":"Uncletopia | Sydney | 6 | Community | STV","players":null},{"server_id":49,"name":"Uncletopia | Warsaw | 1 | All Maps","name_short":"waw-1","host":"waw-1.pl.uncletopia.com","port":27015,"enabled":true,"region":"eu","cc":"pl","latitude":52.2297,"longitude":21.017532,"reserved":0,"last_update":"0001-01-01T00:00:00Z","name_a2s":"","protocol":0,"map":"","folder":"","game":"","app_id":0,"player_count":0,"max_players":0,"Bots":0,"server_type":"","server_os":"","password":false,"vac":false,"version":"","steam_id":0,"keywords":null,"game_id":0,"stv_port":0,"stv_name":"","players":null},{"server_id":50,"name":"Uncletopia | Warsaw | 2 | All Maps","name_short":"waw-2","host":"waw-1.pl.uncletopia.com","port":27025,"enabled":true,"region":"eu","cc":"pl","latitude":52.2297,"longitude":21.017532,"reserved":0,"last_update":"0001-01-01T00:00:00Z","name_a2s":"Uncletopia | Warsaw | 2 | All Maps","protocol":17,"map":"koth_viaduct","folder":"tf","game":"Team Fortress","app_id":440,"player_count":0,"max_players":24,"Bots":0,"server_type":"Dedicated","server_os":"Linux","password":true,"vac":true,"version":"7757534","steam_id":85568392925397851,"keywords":["cp","nocrits","nodmgspread","uncletopia"],"game_id":440,"stv_port":27026,"stv_name":"Uncletopia | Warsaw | 2 | All Maps | STV","players":null},{"server_id":51,"name":"Uncletopia | Warsaw | 3 | All Maps","name_short":"waw-3","host":"waw-1.pl.uncletopia.com","port":27035,"enabled":true,"region":"eu","cc":"pl","latitude":52.2297,"longitude":21.017532,"reserved":0,"last_update":"0001-01-01T00:00:00Z","name_a2s":"Uncletopia | Warsaw | 3 | All Maps","protocol":17,"map":"pl_badwater","folder":"tf","game":"Team Fortress","app_id":440,"player_count":0,"max_players":24,"Bots":0,"server_type":"Dedicated","server_os":"Linux","password":true,"vac":true,"version":"7757534","steam_id":85568392925397852,"keywords":["nocrits","nodmgspread","payload","uncletopia"],"game_id":440,"stv_port":27036,"stv_name":"Uncletopia | Warsaw | 3 | All Maps | STV","players":null},{"server_id":52,"name":"Uncletopia | Warsaw | 4 | All Maps","name_short":"waw-4","host":"waw-1.pl.uncletopia.com","port":27045,"enabled":true,"region":"eu","cc":"pl","latitude":52.2297,"longitude":21.017532,"reserved":0,"last_update":"0001-01-01T00:00:00Z","name_a2s":"Uncletopia | Warsaw | 4 | All Maps","protocol":17,"map":"koth_lakeside_final","folder":"tf","game":"Team Fortress","app_id":440,"player_count":0,"max_players":24,"Bots":0,"server_type":"Dedicated","server_os":"Linux","password":true,"vac":true,"version":"7757534","steam_id":85568392925397853,"keywords":["cp","nocrits","nodmgspread","uncletopia"],"game_id":440,"stv_port":27046,"stv_name":"Uncletopia | Warsaw | 4 | All Maps | STV","players":null},{"server_id":53,"name":"Uncletopia | Warsaw | 5 | Stopwatch Beta","name_short":"waw-5","host":"waw-1.pl.uncletopia.com","port":27055,"enabled":true,"region":"eu","cc":"pl","latitude":52.2297,"longitude":21.017532,"reserved":0,"last_update":"0001-01-01T00:00:00Z","name_a2s":"Uncletopia | Warsaw | 5 | Stopwatch Beta","protocol":17,"map":"pl_borneo","folder":"tf","game":"Team Fortress","app_id":440,"player_count":0,"max_players":24,"Bots":0,"server_type":"Dedicated","server_os":"Linux","password":true,"vac":true,"version":"7757534","steam_id":85568392925397854,"keywords":["nocrits","nodmgspread","payload","uncletopia"],"game_id":440,"stv_port":27056,"stv_name":"Uncletopia | Warsaw | 5 | Stopwatch Beta | STV","players":null},{"server_id":54,"name":"Uncletopia | Warsaw | 6 | Community","name_short":"waw-6","host":"waw-1.pl.uncletopia.com","port":27065,"enabled":true,"region":"eu","cc":"pl","latitude":52.2297,"longitude":21.017532,"reserved":0,"last_update":"0001-01-01T00:00:00Z","name_a2s":"Uncletopia | Warsaw | 6 | Community","protocol":17,"map":"koth_lakeside_final","folder":"tf","game":"Team Fortress","app_id":440,"player_count":0,"max_players":24,"Bots":0,"server_type":"Dedicated","server_os":"Linux","password":true,"vac":true,"version":"7757534","steam_id":85568392925397856,"keywords":["cp","nocrits","nodmgspread","uncletopia"],"game_id":440,"stv_port":27066,"stv_name":"Uncletopia | Warsaw | 6 | Community | STV","players":null}]}