{"status":true,"message":"","result":[{"server_id":9,"name":"Uncletopia | Atlanta | 1 | All Maps","name_short":"atl-1","host":"atl-1.us.uncletopia.com","port":27015,"enabled":true,"region":"us-east","cc":"us","latitude":33.753746,"longitude":-84.38633,"reserved":0,"last_update":"0001-01-01T00:00:00Z","name_a2s":"Uncletopia | Atlanta | 1 | All Maps","protocol":17,"map":"cp_snakewater_final1","folder":"tf","game":"Team Fortress","app_id":440,"player_count":24,"max_players":24,"Bots":0,"server_type":"Dedicated","server_os":"Linux","password":true,"vac":true,"version":"7961495","steam_id":85568392924469982,"keywords":["cp","nocrits","nodmgspread","uncletopia"],"game_id":440,"stv_port":27016,"stv_name":"Uncletopia | Atlanta | 1 | All Maps | STV","players":null},{"server_id":104,"name":"Uncletopia | Atlanta | 2 | All Maps","name_short":"atl-2","host":"atl-1.us.uncletopia.com","port":27025,"enabled":true,"region":"us-east","cc":"us","latitude":33.753746,"longitude":-84.38633,"reserved":0,"last_update":"0001-01-01T00:00:00Z","name_a2s":"Uncletopia | Atlanta | 2 | All Maps","protocol":17,"map":"pl_swiftwater_final1","folder":"tf","game":"Team Fortress","app_id":440,"player_count":24,"max_players":24,"Bots":0,"server_type":"Dedicated","server_os":"Linux","password":true,"vac":true,"version":"7961495","steam_id":85568392924469983,"keywords":["nocrits","nodmgspread","payload","uncletopia"],"game_id":440,"stv_port":27026,"stv_name":"Uncletopia | Atlanta | 2 | All Maps | STV","players":null},{"server_id":400,"name":"Uncletopia | Atlanta | 3 | Stopwatch","name_short":"atl-3","host":"atl-1.us.uncletopia.com","port":27035,"enabled":true,"region":"us-east","cc":"us","latitude":33.753746,"longitude":-84.38633,"reserved":0,"last_update":"0001-01-01T00:00:00Z","name_a2s":"Uncletopia | Atlanta | 3 | Stopwatch","protocol":17,"map":"koth_ramjam_rc1","folder":"tf","game":"Team Fortress","app_id":440,"player_count":0,"max_players":24,"Bots":0,"server_type":"Dedicated","server_os":"Linux","password":true,"vac":true,"version":"7961495","steam_id":85568392924515187,"keywords":["cp","nocrits","nodmgspread","uncletopia"],"game_id":440,"stv_port":27036,"stv_name":"Uncletopia | Atlanta | 3 | Stopwatch | STV","players":null},{"server_id":401,"name":"Uncletopia | Atlanta | 4 | Community","name_short":"atl-4","host":"atl-1.us.uncletopia.com","port":27045,"enabled":true,"region":"us-east","cc":"us","latitude":33.753746,"longitude":-84.38633,"reserved":0,"last_update":"0001-01-01T00:00:00Z","name_a2s":"Uncletopia | Atlanta | 4 | Community","protocol":17,"map":"cp_reckoner_rc6","folder":"tf","game":"Team Fortress","app_id":440,"player_count":0,"max_players":24,"Bots":0,"server_type":"Dedicated","server_os":"Linux","password":true,"vac":true,"version":"7961495","steam_id":85568392924515188,"keywords":["cp","nocrits","nodmgspread","uncletopia"],"game_id":440,"stv_port":27046,"stv_name":"Uncletopia | Atlanta | 4 | Community | STV","players":null},{"server_id":2,"name":"Uncletopia | Chicago | 1 | All Maps","name_short":"chi-1","host":"chi-1.us.uncletopia.com","port":27015,"enabled":true,"region":"us-central","cc":"us","latitude":41.881832,"longitude":-87.62318,"reserved":0,"last_update":"0001-01-01T00:00:00Z","name_a2s":"Uncletopia | Chicago | 1 | All Maps","protocol":17,"map":"pl_badwater","folder":"tf","game":"Team Fortress","app_id":440,"player_count":24,"max_players":24,"Bots":0,"server_type":"Dedicated","server_os":"Linux","password":true,"vac":true,"version":"7961495","steam_id":85568392924469984,"keywords":["nocrits","nodmgspread","payload","uncletopia"],"game_id":440,"stv_port":27016,"stv_name":"Uncletopia | Chicago | 1 | All Maps | STV","players":[{"user_id":381,"name":"THORNFIELDGAMER","steam_id":76561199087167473,"connected_time":1594000000000,"state":"active","ping":85},{"user_id":389,"name":"KossaNova","steam_id":76561198039848186,"connected_time":482000000000,"state":"active","ping":59},{"user_id":386,"name":"money-swagmodity","steam_id":76561198072179483,"connected_time":810000000000,"state":"active","ping":92},{"user_id":350,"name":"Bussy Bandit","steam_id":76561198034028769,"connected_time":3154000000000,"state":"active","ping":56},{"user_id":366,"name":"HOTA","steam_id":76561199002778841,"connected_time":2535000000000,"state":"active","ping":71},{"user_id":393,"name":"Dalburgh","steam_id":76561198044331017,"connected_time":362000000000,"state":"active","ping":70},{"user_id":398,"name":"ol' musty","steam_id":76561198081075865,"connected_time":275000000000,"state":"active","ping":68},{"user_id":356,"name":"FAT FUCK engineer","steam_id":76561198882404753,"connected_time":2893000000000,"state":"active","ping":77},{"user_id":391,"name":"Ringo x Seiran","steam_id":76561198357437908,"connected_time":418000000000,"state":"active","ping":71},{"user_id":399,"name":"Aaron","steam_id":76561198091157802,"connected_time":61000000000,"state":"active","ping":71},{"user_id":379,"name":"Bobby Fischer was right","steam_id":76561198286792807,"connected_time":1637000000000,"state":"active","ping":65},{"user_id":352,"name":"Thequirka (trackpad enthusiast)","steam_id":76561198968058652,"connected_time":2921000000000,"state":"active","ping":98},{"user_id":384,"name":"Elevator","steam_id":76561198974286387,"connected_time":1065000000000,"state":"active","ping":67},{"user_id":349,"name":"rontu","steam_id":76561199072955534,"connected_time":3419000000000,"state":"active","ping":54},{"user_id":395,"name":"rumidog","steam_id":76561198046896005,"connected_time":344000000000,"state":"active","ping":85},{"user_id":378,"name":"CinnamonBoy","steam_id":76561198882330338,"connected_time":1666000000000,"state":"active","ping":69},{"user_id":380,"name":"Draconic Ballad","steam_id":76561198027191515,"connected_time":1635000000000,"state":"active","ping":53},{"user_id":396,"name":"JudgmentErgo","steam_id":76561198068962758,"connected_time":342000000000,"state":"active","ping":84},{"user_id":373,"name":"Retro Phoenix","steam_id":76561198077176271,"connected_time":1699000000000,"state":"active","ping":59},{"user_id":385,"name":"Wishing you godspeed, glory","steam_id":76561198449527009,"connected_time":945000000000,"state":"active","ping":91},{"user_id":343,"name":"LULW WHAT IS HE DOING?","steam_id":76561198031675881,"connected_time":4010000000000,"state":"active","ping":43},{"user_id":382,"name":"Lia_Rein","steam_id":76561198151569597,"connected_time":1514000000000,"state":"active","ping":143},{"user_id":370,"name":"Nut Commander","steam_id":76561198065989058,"connected_time":1976000000000,"state":"active","ping":55},{"user_id":375,"name":"ivan :3","steam_id":76561199196918355,"connected_time":1687000000000,"state":"active","ping":49}]},{"server_id":106,"name":"Uncletopia | Chicago | 2 | All Maps","name_short":"chi-2","host":"chi-1.us.uncletopia.com","port":27025,"enabled":true,"region":"us-central","cc":"us","latitude":41.881832,"longitude":-87.62318,"reserved":0,"last_update":"0001-01-01T00:00:00Z","name_a2s":"Uncletopia | Chicago | 2 | All Maps","protocol":17,"map":"pl_upward","folder":"tf","game":"Team Fortress","app_id":440,"player_count":24,"max_players":24,"Bots":0,"server_type":"Dedicated","server_os":"Linux","password":true,"vac":true,"version":"7961495","steam_id":85568392924469985,"keywords":["nocrits","nodmgspread","payload","uncletopia"],"game_id":440,"stv_port":27026,"stv_name":"Uncletopia | Chicago | 2 | All Maps | STV","players":[{"user_id":164,"name":"LivingRaccoon","steam_id":76561198035425632,"connected_time":422000000000,"state":"active","ping":105},{"user_id":153,"name":"‡∂û","steam_id":76561199365672047,"connected_time":1202000000000,"state":"active","ping":82},{"user_id":138,"name":"Kirby.exe","steam_id":76561198242714582,"connected_time":2316000000000,"state":"active","ping":63},{"user_id":159,"name":"Drone #0432 (they/it)","steam_id":76561198027321950,"connected_time":1159000000000,"state":"active","ping":88},{"user_id":149,"name":"WAKEUP!","steam_id":76561198254479725,"connected_time":1375000000000,"state":"active","ping":45},{"user_id":146,"name":"Ghoulenoir","steam_id":76561198074314573,"connected_time":1634000000000,"state":"active","ping":45},{"user_id":147,"name":"Squids023","steam_id":76561199013031576,"connected_time":1563000000000,"state":"active","ping":118},{"user_id":132,"name":"Candy Sparkles","steam_id":76561198126871264,"connected_time":2766000000000,"state":"active","ping":88},{"user_id":161,"name":"The Juice","steam_id":76561198065307144,"connected_time":1066000000000,"state":"active","ping":76},{"user_id":133,"name":"Sergeant Snowflake","steam_id":76561198041474489,"connected_time":2743000000000,"state":"active","ping":57},{"user_id":93,"name":"FizzleWizard","steam_id":76561198045990868,"connected_time":5861000000000,"state":"active","ping":71},{"user_id":121,"name":"NUt","steam_id":76561198031007966,"connected_time":3830000000000,"state":"active","ping":75},{"user_id":106,"name":"Kravixx","steam_id":76561197995777255,"connected_time":4881000000000,"state":"active","ping":60},{"user_id":137,"name":"frono","steam_id":76561198080708675,"connected_time":2431000000000,"state":"active","ping":69},{"user_id":91,"name":"SLEEPY-Class NHP","steam_id":76561198064583865,"connected_time":6135000000000,"state":"active","ping":67},{"user_id":156,"name":"H2OBourne","steam_id":76561198396293109,"connected_time":1186000000000,"state":"active","ping":94},{"user_id":114,"name":"SirKnight5067","steam_id":76561198377306047,"connected_time":4086000000000,"state":"active","ping":66},{"user_id":168,"name":"Evolution","steam_id":76561198144767370,"connected_time":201000000000,"state":"active","ping":46},{"user_id":162,"name":"solar controller","steam_id":76561198838282369,"connected_time":1014000000000,"state":"active","ping":74},{"user_id":167,"name":"Rornir","steam_id":76561198081829615,"connected_time":227000000000,"state":"active","ping":38},{"user_id":130,"name":"BroBama","steam_id":76561198203732587,"connected_time":2802000000000,"state":"active","ping":76},{"user_id":158,"name":"cart","steam_id":76561198253731826,"connected_time":1171000000000,"state":"active","ping":64},{"user_id":163,"name":"hatsune miku","steam_id":76561199445009981,"connected_time":962000000000,"state":"active","ping":102},{"user_id":169,"name":"fartstreaks employed","steam_id":76561198046073848,"connected_time":135000000000,"state":"active","ping":93}]},{"server_id":402,"name":"Uncletopia | Chicago | 3 | All Maps","name_short":"chi-3","host":"chi-1.us.uncletopia.com","port":27035,"enabled":true,"region":"us-central","cc":"us","latitude":41.881832,"longitude":-87.62318,"reserved":0,"last_update":"0001-01-01T00:00:00Z","name_a2s":"Uncletopia | Chicago | 3 | All Maps","protocol":17,"map":"koth_cascade","folder":"tf","game":"Team Fortress","app_id":440,"player_count":0,"max_players":24,"Bots":0,"server_type":"Dedicated","server_os":"Linux","password":true,"vac":true,"version":"7961495","steam_id":85568392924515191,"keywords":["cp","nocrits","nodmgspread","uncletopia"],"game_id":440,"stv_port":27036,"stv_name":"Uncletopia | Chicago | 3 | All Maps | STV","players":null},{"server_id":403,"name":"Uncletopia | Chicago | 4 | All Maps","name_short":"chi-4","host":"chi-1.us.uncletopia.com","port":27045,"enabled":true,"region":"us-central","cc":"us","latitude":41.881832,"longitude":-87.62318,"reserved":0,"last_update":"0001-01-01T00:00:00Z","name_a2s":"Uncletopia | Chicago | 4 | All Maps","protocol":17,"map":"koth_cascade","folder":"tf","game":"Team Fortress","app_id":440,"player_count":0,"max_players":24,"Bots":0,"server_type":"Dedicated","server_os":"Linux","password":true,"vac":true,"version":"7961495","steam_id":85568392924515193,"keywords":["cp","nocrits","nodmgspread","uncletopia"],"game_id":440,"stv_port":27046,"stv_name":"Uncletopia | Chicago | 4 | All Maps | STV","players":null},{"server_id":36,"name":"Uncletopia | Chicago | 5 | All Maps","name_short":"chi-5","host":"chi-2.us.uncletopia.com","port":27015,"enabled":true,"region":"us-central","cc":"us","latitude":41.881832,"longitude":-87.62318,"reserved":0,"last_update":"0001-01-01T00:00:00Z","name_a2s":"Uncletopia | Chicago | 5 | All Maps","protocol":17,"map":"pl_frontier_final","folder":"tf","game":"Team Fortress","app_id":440,"player_count":24,"max_players":24,"Bots":0,"server_type":"Dedicated","server_os":"Linux","password":true,"vac":true,"version":"7961495","steam_id":85568392924866362,"keywords":["nocrits","nodmgspread","payload","uncletopia"],"game_id":440,"stv_port":27016,"stv_name":"Uncletopia | Chicago | 5 | All Maps | STV","players":[{"user_id":13,"name":"Tri-Dot","steam_id":76561199075186597,"connected_time":1524000000000,"state":"active","ping":60},{"user_id":44,"name":"The Grim Heaper","steam_id":76561197987759101,"connected_time":22000000000,"state":"active","ping":109},{"user_id":15,"name":"The Derpy Mackerel","steam_id":76561198105463008,"connected_time":1122000000000,"state":"active","ping":41},{"user_id":16,"name":"Poobis enraged","steam_id":76561199189075618,"connected_time":1086000000000,"state":"active","ping":75},{"user_id":17,"name":"asakujakuuu","steam_id":76561198875745616,"connected_time":1050000000000,"state":"active","ping":109},{"user_id":40,"name":"Mug Moment Gaming","steam_id":76561198233098136,"connected_time":326000000000,"state":"active","ping":54},{"user_id":37,"name":"Deltaco","steam_id":76561198094572694,"connected_time":626000000000,"state":"active","ping":108},{"user_id":43,"name":"Female Gamer","steam_id":76561199366482682,"connected_time":80000000000,"state":"active","ping":111},{"user_id":21,"name":"blossom!!! @ vegemite.com.au","steam_id":76561198042735130,"connected_time":1000000000000,"state":"active","ping":105},{"user_id":22,"name":"JargonScott","steam_id":76561197972793903,"connected_time":889000000000,"state":"active","ping":62},{"user_id":23,"name":"vifi269","steam_id":76561198283749166,"connected_time":879000000000,"state":"active","ping":74},{"user_id":24,"name":"OrangeSodaMachine","steam_id":76561198079230156,"connected_time":873000000000,"state":"active","ping":80},{"user_id":25,"name":"Your cousin Throckmorton","steam_id":76561198055430804,"connected_time":870000000000,"state":"active","ping":79},{"user_id":42,"name":"Ember Tsuji","steam_id":76561198307761034,"connected_time":193000000000,"state":"active","ping":142},{"user_id":27,"name":"Genius Meme","steam_id":76561198162911254,"connected_time":821000000000,"state":"active","ping":108},{"user_id":39,"name":"NastyStarchy","steam_id":76561198291849732,"connected_time":374000000000,"state":"active","ping":88},{"user_id":29,"name":"YunKo„ÉÑ","steam_id":76561199107366261,"connected_time":791000000000,"state":"active","ping":84},{"user_id":30,"name":"gods hungriest pitbull","steam_id":76561198111669774,"connected_time":780000000000,"state":"active","ping":49},{"user_id":41,"name":"Lovedaddy","steam_id":76561198006569710,"connected_time":293000000000,"state":"active","ping":85},{"user_id":32,"name":"Maurdakar","steam_id":76561197983420976,"connected_time":722000000000,"state":"active","ping":64},{"user_id":33,"name":"menta fresca","steam_id":76561198086666486,"connected_time":709000000000,"state":"active","ping":113},{"user_id":35,"name":"chalopa batman","steam_id":76561198018814484,"connected_time":659000000000,"state":"active","ping":103},{"user_id":36,"name":"Sheppy","steam_id":76561198295126940,"connected_time":647000000000,"state":"active","ping":61},{"user_id":38,"name":"Don't Fuckle with Shuckle","steam_id":76561199020102367,"connected_time":625000000000,"state":"active","ping":77}]},{"server_id":37,"name":"Uncletopia | Chicago | 6 | All Maps","name_short":"chi-6","host":"chi-2.us.uncletopia.com","port":27025,"enabled":true,"region":"us-central","cc":"us","latitude":41.881832,"longitude":-87.62318,"reserved":0,"last_update":"0001-01-01T00:00:00Z","name_a2s":"Uncletopia | Chicago | 6 | All Maps","protocol":17,"map":"koth_cascade","folder":"tf","game":"Team Fortress","app_id":440,"player_count":2,"max_players":24,"Bots":0,"server_type":"Dedicated","server_os":"Linux","password":true,"vac":true,"version":"7961495","steam_id":85568392924866363,"keywords":["cp","nocrits","nodmgspread","uncletopia"],"game_id":440,"stv_port":27026,"stv_name":"Uncletopia | Chicago | 6 | All Maps | STV","players":[{"user_id":24,"name":"Rad Hazard","steam_id":76561198374660243,"connected_time":162000000000,"state":"active","ping":57},{"user_id":25,"name":"Spoogler","steam_id":76561199005867778,"connected_time":55000000000,"state":"spawning","ping":48}]},{"server_id":38,"name":"Uncletopia | Chicago | 7 | Stopwatch","name_short":"chi-7","host":"chi-2.us.uncletopia.com","port":27035,"enabled":true,"region":"us-central","cc":"us","latitude":41.881832,"longitude":-87.62318,"reserved":0,"last_update":"0001-01-01T00:00:00Z","name_a2s":"Uncletopia | Chicago | 7 | Stopwatch","protocol":17,"map":"pl_badwater","folder":"tf","game":"Team Fortress","app_id":440,"player_count":0,"max_players":24,"Bots":0,"server_type":"Dedicated","server_os":"Linux","password":true,"vac":true,"version":"7961495","steam_id":85568392924866364,"keywords":["nocrits","nodmgspread","payload","uncletopia"],"game_id":440,"stv_port":27036,"stv_name":"Uncletopia | Chicago | 7 | Stopwatch | STV","players":null},{"server_id":39,"name":"Uncletopia | Chicago | 8 | Community","name_short":"chi-8","host":"chi-2.us.uncletopia.com","port":27045,"enabled":true,"region":"us-central","cc":"us","latitude":41.881832,"longitude":-87.62318,"reserved":0,"last_update":"0001-01-01T00:00:00Z","name_a2s":"Uncletopia | Chicago | 8 | Community","protocol":17,"map":"workshop/cp_bruhstbowl_b6.ugc2878604990","folder":"tf","game":"Team Fortress","app_id":440,"player_count":0,"max_players":24,"Bots":0,"server_type":"Dedicated","server_os":"Linux","password":true,"vac":true,"version":"7961495","steam_id":85568392924866365,"keywords":["cp","nocrits","nodmgspread","uncletopia"],"game_id":440,"stv_port":27046,"stv_name":"Uncletopia | Chicago | 8 | Community | STV","players":null},{"server_id":8,"name":"Uncletopia | Dallas | 1 | All Maps","name_short":"dal-1","host":"dal-1.us.uncletopia.com","port":27015,"enabled":true,"region":"us-central","cc":"us","latitude":32.779167,"longitude":-96.80889,"reserved":0,"last_update":"0001-01-01T00:00:00Z","name_a2s":"Uncletopia | Dallas | 1 | All Maps","protocol":17,"map":"pl_upward","folder":"tf","game":"Team Fortress","app_id":440,"player_count":24,"max_players":24,"Bots":0,"server_type":"Dedicated","server_os":"Linux","password":true,"vac":true,"version":"7961495","steam_id":85568392924469986,"keywords":["nocrits","nodmgspread","payload","uncletopia"],"game_id":440,"stv_port":27016,"stv_name":"Uncletopia | Dallas | 1 | All Maps | STV","players":[{"user_id":168,"name":"riSygneD","steam_id":76561198331618687,"connected_time":7321000000000,"state":"active","ping":62},{"user_id":247,"name":"BirBinGo","steam_id":76561198356529600,"connected_time":750000000000,"state":"active","ping":93},{"user_id":222,"name":"Shalom","steam_id":76561198410005222,"connected_time":2023000000000,"state":"active","ping":61},{"user_id":152,"name":"TheGirthquake","steam_id":76561198238895056,"connected_time":9362000000000,"state":"active","ping":80},{"user_id":237,"name":"Good Vibes","steam_id":76561197985206513,"connected_time":1187000000000,"state":"active","ping":86},{"user_id":198,"name":"njoku","steam_id":76561199061380038,"connected_time":4717000000000,"state":"active","ping":70},{"user_id":235,"name":"The Roto Grip Exotic Gem","steam_id":76561197961141994,"connected_time":1200000000000,"state":"active","ping":134},{"user_id":244,"name":":)","steam_id":76561198319811091,"connected_time":840000000000,"state":"active","ping":92},{"user_id":254,"name":"Fishstall","steam_id":76561198038126034,"connected_time":52000000000,"state":"active","ping":82},{"user_id":217,"name":"TheDapperTaco","steam_id":76561199103076602,"connected_time":2643000000000,"state":"active","ping":109},{"user_id":243,"name":"Scrux","steam_id":76561198129763115,"connected_time":923000000000,"state":"active","ping":88},{"user_id":250,"name":"Bon Gripper :3","steam_id":76561198090074621,"connected_time":599000000000,"state":"active","ping":69},{"user_id":229,"name":"big ol' buford","steam_id":76561198290675957,"connected_time":1226000000000,"state":"active","ping":44},{"user_id":252,"name":"sofj90ih490thj3gsfg!#!2 3","steam_id":76561198048507814,"connected_time":474000000000,"state":"active","ping":97},{"user_id":253,"name":"Borgir","steam_id":76561198325390265,"connected_time":405000000000,"state":"active","ping":64},{"user_id":239,"name":"DMM","steam_id":76561198065426171,"connected_time":1125000000000,"state":"active","ping":59},{"user_id":231,"name":"D","steam_id":76561198130086000,"connected_time":1217000000000,"state":"active","ping":84},{"user_id":164,"name":"JtsRes","steam_id":76561197994809241,"connected_time":7969000000000,"state":"active","ping":62},{"user_id":232,"name":"C4K3","steam_id":76561197996963285,"connected_time":1212000000000,"state":"active","ping":68},{"user_id":234,"name":"Store Runner","steam_id":76561198156282541,"connected_time":1207000000000,"state":"active","ping":74},{"user_id":246,"name":"Pixelated Pussy","steam_id":76561198002511088,"connected_time":789000000000,"state":"active","ping":91},{"user_id":249,"name":"ghastly gibus","steam_id":76561198044268609,"connected_time":683000000000,"state":"active","ping":77},{"user_id":205,"name":"TheGFG","steam_id":76561198166150556,"connected_time":3395000000000,"state":"active","ping":72},{"user_id":251,"name":"the man","steam_id":76561198389268114,"connected_time":599000000000,"state":"active","ping":108}]},{"server_id":108,"name":"Uncletopia | Dallas | 2 | All Maps","name_short":"dal-2","host":"dal-1.us.uncletopia.com","port":27025,"enabled":true,"region":"us-central","cc":"us","latitude":32.779167,"longitude":-96.80889,"reserved":0,"last_update":"0001-01-01T00:00:00Z","name_a2s":"Uncletopia | Dallas | 2 | All Maps","protocol":17,"map":"pl_pier","folder":"tf","game":"Team Fortress","app_id":440,"player_count":24,"max_players":24,"Bots":0,"server_type":"Dedicated","server_os":"Linux","password":true,"vac":true,"version":"7961495","steam_id":85568392924469988,"keywords":["nocrits","nodmgspread","payload","uncletopia"],"game_id":440,"stv_port":27026,"stv_name":"Uncletopia | Dallas | 2 | All Maps | STV","players":[{"user_id":6,"name":"Your Dad‚Ñ¢","steam_id":76561198254739340,"connected_time":5514000000000,"state":"active","ping":90},{"user_id":74,"name":"Tufo","steam_id":76561198068963190,"connected_time":774000000000,"state":"active","ping":54},{"user_id":47,"name":"WaterBottle","steam_id":76561199101357108,"connected_time":3348000000000,"state":"active","ping":62},{"user_id":42,"name":"coocuroo","steam_id":76561198038036338,"connected_time":3728000000000,"state":"active","ping":81},{"user_id":51,"name":"Limerumpus","steam_id":76561198138113676,"connected_time":3246000000000,"state":"active","ping":65},{"user_id":76,"name":"HEAVY WEATHER.","steam_id":76561198046884595,"connected_time":590000000000,"state":"active","ping":87},{"user_id":77,"name":"Festive Bastard","steam_id":76561198094512904,"connected_time":536000000000,"state":"active","ping":85},{"user_id":14,"name":"Snivy","steam_id":76561198135488292,"connected_time":4827000000000,"state":"active","ping":73},{"user_id":61,"name":"MadAlexei_","steam_id":76561199074005075,"connected_time":2338000000000,"state":"active","ping":94},{"user_id":64,"name":"Pandaquack","steam_id":76561198298012549,"connected_time":1555000000000,"state":"active","ping":60},{"user_id":72,"name":"SneekiCheekiQbone","steam_id":76561198045077980,"connected_time":947000000000,"state":"active","ping":73},{"user_id":79,"name":"Robo Boss","steam_id":76561199067098696,"connected_time":464000000000,"state":"active","ping":94},{"user_id":66,"name":"the munch","steam_id":76561199164347838,"connected_time":1543000000000,"state":"active","ping":58},{"user_id":80,"name":"ink","steam_id":76561198081308147,"connected_time":382000000000,"state":"active","ping":94},{"user_id":54,"name":"the keebler","steam_id":76561199486326945,"connected_time":3164000000000,"state":"active","ping":80},{"user_id":82,"name":"ole_diggy","steam_id":76561198970212746,"connected_time":240000000000,"state":"active","ping":91},{"user_id":57,"name":"Gotta Move That Gear Up","steam_id":76561197993467034,"connected_time":3081000000000,"state":"active","ping":78},{"user_id":73,"name":"hobojoemama","steam_id":76561198108345568,"connected_time":863000000000,"state":"active","ping":75},{"user_id":43,"name":"depeche","steam_id":76561199497603020,"connected_time":3574000000000,"state":"active","ping":76},{"user_id":30,"name":"Batso","steam_id":76561198106589452,"connected_time":4074000000000,"state":"active","ping":76},{"user_id":83,"name":"Alkimia","steam_id":76561198385763137,"connected_time":54000000000,"state":"active","ping":281},{"user_id":71,"name":"Rob","steam_id":76561199187786660,"connected_time":1068000000000,"state":"active","ping":55},{"user_id":78,"name":"Groundlaser49","steam_id":76561198259288290,"connected_time":499000000000,"state":"active","ping":83},{"user_id":63,"name":"Kira","steam_id":76561198021582061,"connected_time":2123000000000,"state":"active","ping":77}]},{"server_id":404,"name":"Uncletopia | Dallas | 3 | All Maps","name_short":"dal-3","host":"dal-1.us.uncletopia.com","port":27035,"enabled":true,"region":"us-central","cc":"us","latitude":32.779167,"longitude":-96.80889,"reserved":0,"last_update":"0001-01-01T00:00:00Z","name_a2s":"Uncletopia | Dallas | 3 | All Maps","protocol":17,"map":"pl_badwater","folder":"tf","game":"Team Fortress","app_id":440,"player_count":5,"max_players":24,"Bots":0,"server_type":"Dedicated","server_os":"Linux","password":true,"vac":true,"version":"7961495","steam_id":85568392924515219,"keywords":["nocrits","nodmgspread","payload","uncletopia"],"game_id":440,"stv_port":27036,"stv_name":"Uncletopia | Dallas | 3 | All Maps | STV","players":[{"user_id":5,"name":"andyiscolorless","steam_id":76561199239870921,"connected_time":212000000000,"state":"active","ping":145},{"user_id":6,"name":"cwaggs76","steam_id":76561199013048778,"connected_time":149000000000,"state":"active","ping":71},{"user_id":7,"name":"no drama","steam_id":76561198115714484,"connected_time":149000000000,"state":"active","ping":150},{"user_id":8,"name":"Mal0","steam_id":76561198129584634,"connected_time":110000000000,"state":"active","ping":58},{"user_id":9,"name":"Nemiel Zaharion","steam_id":76561197999234678,"connected_time":106000000000,"state":"active","ping":55}]},{"server_id":405,"name":"Uncletopia | Dallas | 4 | Community","name_short":"dal-4","host":"dal-1.us.uncletopia.com","port":27045,"enabled":true,"region":"us-central","cc":"us","latitude":32.779167,"longitude":-96.80889,"reserved":0,"last_update":"0001-01-01T00:00:00Z","name_a2s":"Uncletopia | Dallas | 4 | Community","protocol":17,"map":"workshop/pl_divulgence_b4b.ugc2884808746","folder":"tf","game":"Team Fortress","app_id":440,"player_count":0,"max_players":24,"Bots":0,"server_type":"Dedicated","server_os":"Linux","password":true,"vac":true,"version":"7961495","steam_id":85568392924515220,"keywords":["nocrits","nodmgspread","payload","uncletopia"],"game_id":440,"stv_port":27046,"stv_name":"Uncletopia | Dallas | 4 | Community | STV","players":null},{"server_id":5,"name":"Uncletopia | Frankfurt | 1 | All Maps","name_short":"frk-1","host":"frk-1.de.uncletopia.com","port":27015,"enabled":true,"region":"eu","cc":"de","latitude":50.110924,"longitude":8.682127,"reserved":0,"last_update":"0001-01-01T00:00:00Z","name_a2s":"Uncletopia | Frankfurt | 1 | All Maps","protocol":17,"map":"pl_pier","folder":"tf","game":"Team Fortress","app_id":440,"player_count":24,"max_players":24,"Bots":0,"server_type":"Dedicated","server_os":"Linux","password":true,"vac":true,"version":"7961495","steam_id":85568392924469989,"keywords":["nocrits","nodmgspread","payload","uncletopia"],"game_id":440,"stv_port":27016,"stv_name":"Uncletopia | Frankfurt | 1 | All Maps | STV","players":[{"user_id":571,"name":"Malik794","steam_id":76561198967164437,"connected_time":888000000000,"state":"active","ping":106},{"user_id":567,"name":"ArcX","steam_id":76561198805049375,"connected_time":1706000000000,"state":"active","ping":57},{"user_id":529,"name":"Torttu","steam_id":76561198013980029,"connected_time":3414000000000,"state":"active","ping":60},{"user_id":534,"name":"Kuntmeister","steam_id":76561198016076012,"connected_time":3160000000000,"state":"active","ping":112},{"user_id":572,"name":"tuna","steam_id":76561198086630630,"connected_time":883000000000,"state":"active","ping":54},{"user_id":531,"name":"nibsÓÑ∏","steam_id":76561198040099538,"connected_time":3347000000000,"state":"active","ping":80},{"user_id":545,"name":"Bruhn","steam_id":76561198106133548,"connected_time":2609000000000,"state":"active","ping":65},{"user_id":573,"name":"squillisky","steam_id":76561198083569327,"connected_time":863000000000,"state":"active","ping":66},{"user_id":535,"name":"Destinys","steam_id":76561198056132894,"connected_time":3095000000000,"state":"active","ping":58},{"user_id":576,"name":"dr. coom","steam_id":76561198172193711,"connected_time":783000000000,"state":"active","ping":55},{"user_id":580,"name":"Officer Sandwich","steam_id":76561198306743311,"connected_time":698000000000,"state":"active","ping":68},{"user_id":537,"name":"DysKow","steam_id":76561199112882912,"connected_time":3019000000000,"state":"active","ping":70},{"user_id":587,"name":"hichem","steam_id":76561198056197307,"connected_time":53000000000,"state":"active","ping":60},{"user_id":539,"name":"Government Hooker","steam_id":76561198005361358,"connected_time":2853000000000,"state":"active","ping":60},{"user_id":577,"name":"D1n0Master","steam_id":76561198242499784,"connected_time":735000000000,"state":"active","ping":65},{"user_id":578,"name":"Kiogeki","steam_id":76561197996707843,"connected_time":734000000000,"state":"active","ping":58},{"user_id":569,"name":"xXxBubuKiki69xXx","steam_id":76561198046187065,"connected_time":945000000000,"state":"active","ping":69},{"user_id":579,"name":"MUWEQ","steam_id":76561198107615727,"connected_time":720000000000,"state":"active","ping":71},{"user_id":581,"name":"R'aiq","steam_id":76561198063083993,"connected_time":675000000000,"state":"active","ping":84},{"user_id":556,"name":"Jucatron","steam_id":76561198044259577,"connected_time":2254000000000,"state":"active","ping":86},{"user_id":582,"name":"Neylen_669","steam_id":76561199229868168,"connected_time":669000000000,"state":"active","ping":110},{"user_id":586,"name":"Thors","steam_id":76561197968739075,"connected_time":165000000000,"state":"active","ping":45},{"user_id":566,"name":"Brother in Christ","steam_id":76561198303701158,"connected_time":1794000000000,"state":"active","ping":56},{"user_id":570,"name":"Rag","steam_id":76561198162260107,"connected_time":945000000000,"state":"active","ping":60}]},{"server_id":110,"name":"Uncletopia | Frankfurt | 2 | All Maps","name_short":"frk-2","host":"frk-1.de.uncletopia.com","port":27025,"enabled":true,"region":"eu","cc":"de","latitude":50.110924,"longitude":8.682127,"reserved":0,"last_update":"0001-01-01T00:00:00Z","name_a2s":"Uncletopia | Frankfurt | 2 | All Maps","protocol":17,"map":"ctf_2fort","folder":"tf","game":"Team Fortress","app_id":440,"player_count":21,"max_players":24,"Bots":0,"server_type":"Dedicated","server_os":"Linux","password":true,"vac":true,"version":"7961495","steam_id":85568392924469990,"keywords":["ctf","nocrits","nodmgspread","uncletopia"],"game_id":440,"stv_port":27026,"stv_name":"Uncletopia | Frankfurt | 2 | All Maps | STV","players":[{"user_id":447,"name":"Chris Hansen, Kell of Kells","steam_id":76561198986775156,"connected_time":1007000000000,"state":"active","ping":147},{"user_id":387,"name":"glorpis","steam_id":76561199225333422,"connected_time":4351000000000,"state":"active","ping":67},{"user_id":464,"name":"Sammy The Human","steam_id":76561198044066322,"connected_time":37000000000,"state":"connecting","ping":63},{"user_id":429,"name":"Warpzel65","steam_id":76561198799303596,"connected_time":1953000000000,"state":"active","ping":95},{"user_id":400,"name":"jerry","steam_id":76561199180176442,"connected_time":3542000000000,"state":"active","ping":61},{"user_id":465,"name":"Traylie","steam_id":76561198050797796,"connected_time":25000000000,"state":"active","ping":76},{"user_id":451,"name":"Ziy???","steam_id":76561197995765491,"connected_time":854000000000,"state":"active","ping":60},{"user_id":454,"name":"‚ù§Ô∏éWarMole‚ù§","steam_id":76561198104248760,"connected_time":388000000000,"state":"active","ping":54},{"user_id":399,"name":"Tvuce","steam_id":76561197999268086,"connected_time":3787000000000,"state":"active","ping":58},{"user_id":448,"name":"DaveOfTheNorthStar","steam_id":76561198799230290,"connected_time":983000000000,"state":"active","ping":70},{"user_id":466,"name":"Dane_","steam_id":76561198088448077,"connected_time":23000000000,"state":"active","ping":58},{"user_id":467,"name":"Blenderman179","steam_id":76561198091096668,"connected_time":22000000000,"state":"active","ping":72},{"user_id":446,"name":"Flostro","steam_id":76561198259793697,"connected_time":1162000000000,"state":"active","ping":54},{"user_id":407,"name":"‚ò≠King‚ò≠","steam_id":76561199214677088,"connected_time":3417000000000,"state":"active","ping":105},{"user_id":468,"name":"Lukey","steam_id":76561198052076168,"connected_time":22000000000,"state":"active","ping":72},{"user_id":438,"name":"race car driver jerry","steam_id":76561198054047446,"connected_time":1735000000000,"state":"active","ping":56},{"user_id":469,"name":"Arcan'O'Boulus","steam_id":76561198041985578,"connected_time":20000000000,"state":"spawning","ping":92},{"user_id":453,"name":"emko√ß","steam_id":76561198846782346,"connected_time":484000000000,"state":"active","ping":103},{"user_id":449,"name":"mewash","steam_id":76561198049529718,"connected_time":958000000000,"state":"active","ping":86},{"user_id":450,"name":"Revers","steam_id":76561198026409987,"connected_time":894000000000,"state":"active","ping":60},{"user_id":422,"name":"Mammut","steam_id":76561198056773933,"connected_time":2912000000000,"state":"active","ping":81}]},{"server_id":308,"name":"Uncletopia | Frankfurt | 3 | All Maps","name_short":"frk-3","host":"frk-1.de.uncletopia.com","port":27035,"enabled":true,"region":"eu","cc":"de","latitude":50.110924,"longitude":8.682127,"reserved":0,"last_update":"0001-01-01T00:00:00Z","name_a2s":"Uncletopia | Frankfurt | 3 | All Maps","protocol":17,"map":"pl_snowycoast","folder":"tf","game":"Team Fortress","app_id":440,"player_count":23,"max_players":24,"Bots":0,"server_type":"Dedicated","server_os":"Linux","password":true,"vac":true,"version":"7961495","steam_id":85568392924504274,"keywords":["nocrits","nodmgspread","payload","uncletopia"],"game_id":440,"stv_port":27036,"stv_name":"Uncletopia | Frankfurt | 3 | All Maps | STV","players":[{"user_id":628,"name":"Archive","steam_id":76561198071255385,"connected_time":3568000000000,"state":"active","ping":87},{"user_id":651,"name":"nobodyy","steam_id":76561198027735766,"connected_time":2378000000000,"state":"active","ping":74},{"user_id":657,"name":"hallu","steam_id":76561198198581079,"connected_time":2107000000000,"state":"active","ping":99},{"user_id":630,"name":"MrKampfCookie","steam_id":76561198085490175,"connected_time":3514000000000,"state":"active","ping":32},{"user_id":647,"name":"Luuk","steam_id":76561198088266026,"connected_time":2740000000000,"state":"active","ping":53},{"user_id":664,"name":"squareky","steam_id":76561198433980384,"connected_time":1136000000000,"state":"active","ping":60},{"user_id":631,"name":"FoOzTV","steam_id":76561197998636728,"connected_time":3513000000000,"state":"active","ping":69},{"user_id":632,"name":"‡πñ€£€úSir Robbiewolf","steam_id":76561198001357988,"connected_time":3504000000000,"state":"active","ping":69},{"user_id":633,"name":"vurtun","steam_id":76561198857395274,"connected_time":3445000000000,"state":"active","ping":50},{"user_id":668,"name":"ufomaster1111111","steam_id":76561198837347666,"connected_time":813000000000,"state":"active","ping":69},{"user_id":623,"name":"Solid","steam_id":76561198357049292,"connected_time":4244000000000,"state":"active","ping":75},{"user_id":652,"name":"cart","steam_id":76561197987025017,"connected_time":2368000000000,"state":"active","ping":42},{"user_id":646,"name":"flave","steam_id":76561198056372101,"connected_time":2742000000000,"state":"active","ping":71},{"user_id":653,"name":"Urfangonultasadana","steam_id":76561199389286151,"connected_time":2344000000000,"state":"active","ping":99},{"user_id":665,"name":"Crasher0711","steam_id":76561198272180359,"connected_time":1135000000000,"state":"active","ping":45},{"user_id":666,"name":"kgf","steam_id":76561198181442259,"connected_time":879000000000,"state":"active","ping":48},{"user_id":663,"name":"Meo","steam_id":76561198184899182,"connected_time":1149000000000,"state":"active","ping":75},{"user_id":669,"name":"vekk","steam_id":76561198214848887,"connected_time":808000000000,"state":"active","ping":62},{"user_id":615,"name":"Acanda","steam_id":76561198123246537,"connected_time":4677000000000,"state":"active","ping":54},{"user_id":637,"name":"Tri-","steam_id":76561198133524794,"connected_time":3413000000000,"state":"active","ping":59},{"user_id":638,"name":"she's 12","steam_id":76561198295034584,"connected_time":3401000000000,"state":"active","ping":142},{"user_id":640,"name":"Zu","steam_id":76561198054192354,"connected_time":3382000000000,"state":"active","ping":50},{"user_id":593,"name":"hhhhhh","steam_id":76561198031982574,"connected_time":6339000000000,"state":"active","ping":54}]},{"server_id":309,"name":"Uncletopia | Frankfurt | 4 | All Maps","name_short":"frk-4","host":"frk-1.de.uncletopia.com","port":27045,"enabled":true,"region":"eu","cc":"de","latitude":50.110924,"longitude":8.682127,"reserved":0,"last_update":"0001-01-01T00:00:00Z","name_a2s":"Uncletopia | Frankfurt | 4 | All Maps","protocol":17,"map":"cp_process_final","folder":"tf","game":"Team Fortress","app_id":440,"player_count":25,"max_players":24,"Bots":0,"server_type":"Dedicated","server_os":"Linux","password":true,"vac":true,"version":"7961495","steam_id":85568392924504275,"keywords":["cp","nocrits","nodmgspread","uncletopia"],"game_id":440,"stv_port":27046,"stv_name":"Uncletopia | Frankfurt | 4 | All Maps | STV","players":[{"user_id":248,"name":"Hellheim_Prime","steam_id":76561198379799377,"connected_time":268000000000,"state":"active","ping":92},{"user_id":238,"name":"üòà COCKDESTROYER üòà","steam_id":76561198042846999,"connected_time":562000000000,"state":"active","ping":71},{"user_id":251,"name":"vetzakski","steam_id":76561198988041775,"connected_time":226000000000,"state":"active","ping":69},{"user_id":214,"name":"Red Dynamite","steam_id":76561199073167935,"connected_time":1967000000000,"state":"active","ping":167},{"user_id":240,"name":"Striker25","steam_id":76561197975265634,"connected_time":500000000000,"state":"active","ping":68},{"user_id":241,"name":"Politically Correct Principal","steam_id":76561199495610087,"connected_time":489000000000,"state":"active","ping":88},{"user_id":198,"name":"corralled","steam_id":76561198028648627,"connected_time":3637000000000,"state":"active","ping":65},{"user_id":217,"name":"cuddle","steam_id":76561198805181599,"connected_time":1925000000000,"state":"active","ping":71},{"user_id":235,"name":"Magician on crack","steam_id":76561198847365974,"connected_time":887000000000,"state":"active","ping":59},{"user_id":242,"name":"Nithle","steam_id":76561198025372740,"connected_time":480000000000,"state":"active","ping":45},{"user_id":243,"name":"Kentucky Fried Crab","steam_id":76561198035586715,"connected_time":462000000000,"state":"active","ping":117},{"user_id":249,"name":"Fat Pigeon","steam_id":76561198817940142,"connected_time":265000000000,"state":"active","ping":46},{"user_id":245,"name":"one two finishu","steam_id":76561198079524152,"connected_time":442000000000,"state":"active","ping":59},{"user_id":200,"name":"uma","steam_id":76561198147976939,"connected_time":3270000000000,"state":"active","ping":54},{"user_id":261,"name":"sto cazzo","steam_id":76561198066071855,"connected_time":126000000000,"state":"active","ping":61},{"user_id":270,"name":"\u003e\u003c\u003e","steam_id":76561198152392309,"connected_time":0,"state":"spawning","ping":11},{"user_id":237,"name":"knyazF","steam_id":76561198163278585,"connected_time":595000000000,"state":"active","ping":70},{"user_id":263,"name":"StaigerDuck","steam_id":76561199190706582,"connected_time":114000000000,"state":"active","ping":150},{"user_id":247,"name":"Charles Darwin","steam_id":76561197973496139,"connected_time":385000000000,"state":"active","ping":82},{"user_id":236,"name":"KajaStorm","steam_id":76561199215842872,"connected_time":846000000000,"state":"active","ping":138},{"user_id":262,"name":"combine","steam_id":76561198007909007,"connected_time":120000000000,"state":"active","ping":53},{"user_id":206,"name":"Udinese Dion","steam_id":76561198067931573,"connected_time":2955000000000,"state":"active","ping":51},{"user_id":264,"name":"Chez","steam_id":76561198148913229,"connected_time":106000000000,"state":"active","ping":71},{"user_id":267,"name":"HilldogGaming‚ôõ","steam_id":76561198082209322,"connected_time":52000000000,"state":"active","ping":132},{"user_id":269,"name":"I Don't Know","steam_id":76561198841011430,"connected_time":25000000000,"state":"active","ping":60}]},{"server_id":310,"name":"Uncletopia | Frankfurt | 5 | All Maps","name_short":"frk-5","host":"frk-1.de.uncletopia.com","port":27055,"enabled":true,"region":"eu","cc":"de","latitude":50.110924,"longitude":8.682127,"reserved":0,"last_update":"0001-01-01T00:00:00Z","name_a2s":"Uncletopia | Frankfurt | 5 | All Maps","protocol":17,"map":"pl_badwater","folder":"tf","game":"Team Fortress","app_id":440,"player_count":24,"max_players":24,"Bots":0,"server_type":"Dedicated","server_os":"Linux","password":true,"vac":true,"version":"7961495","steam_id":85568392924504277,"keywords":["nocrits","nodmgspread","payload","uncletopia"],"game_id":440,"stv_port":27056,"stv_name":"Uncletopia | Frankfurt | 5 | All Maps | STV","players":[{"user_id":190,"name":"in mcdonalds","steam_id":76561198143921841,"connected_time":4703000000000,"state":"active","ping":88},{"user_id":259,"name":"hugh janus","steam_id":76561197962413110,"connected_time":483000000000,"state":"active","ping":83},{"user_id":233,"name":"Gooner","steam_id":76561198087035309,"connected_time":1912000000000,"state":"active","ping":57},{"user_id":249,"name":"H-say","steam_id":76561198177400362,"connected_time":938000000000,"state":"active","ping":85},{"user_id":245,"name":"Klaus","steam_id":76561198150394201,"connected_time":1097000000000,"state":"active","ping":85},{"user_id":262,"name":"Snd","steam_id":76561198010816408,"connected_time":198000000000,"state":"active","ping":115},{"user_id":261,"name":"leminsc8","steam_id":76561198825084995,"connected_time":231000000000,"state":"active","ping":40},{"user_id":237,"name":"Jonak","steam_id":76561198080832458,"connected_time":1530000000000,"state":"active","ping":63},{"user_id":248,"name":"syms","steam_id":76561198066679812,"connected_time":1039000000000,"state":"active","ping":74},{"user_id":217,"name":"Nittugai","steam_id":76561198067366462,"connected_time":3394000000000,"state":"active","ping":61},{"user_id":255,"name":"zeppa114","steam_id":76561198065192734,"connected_time":554000000000,"state":"active","ping":66},{"user_id":252,"name":"sad monkey hands on his head","steam_id":76561198116530769,"connected_time":618000000000,"state":"active","ping":81},{"user_id":250,"name":"Deckard","steam_id":76561198004704647,"connected_time":915000000000,"state":"active","ping":75},{"user_id":251,"name":"Cataleptic","steam_id":76561197997966949,"connected_time":815000000000,"state":"active","ping":74},{"user_id":243,"name":"Squatify","steam_id":76561198035205848,"connected_time":1109000000000,"state":"active","ping":78},{"user_id":260,"name":"Polesn","steam_id":76561198209583116,"connected_time":275000000000,"state":"active","ping":60},{"user_id":236,"name":"Squidward's cousin","steam_id":76561198103009390,"connected_time":1600000000000,"state":"active","ping":75},{"user_id":234,"name":"knees","steam_id":76561198005924647,"connected_time":1824000000000,"state":"active","ping":74},{"user_id":257,"name":"vibes only","steam_id":76561198072086203,"connected_time":542000000000,"state":"active","ping":74},{"user_id":244,"name":"Kiradias777","steam_id":76561198067176309,"connected_time":1106000000000,"state":"active","ping":160},{"user_id":222,"name":"akakez","steam_id":76561198095432821,"connected_time":3111000000000,"state":"active","ping":117},{"user_id":214,"name":"executive producer larry david","steam_id":76561198057868438,"connected_time":3779000000000,"state":"active","ping":65},{"user_id":240,"name":"Vitamin Weee","steam_id":76561199183937747,"connected_time":1214000000000,"state":"active","ping":82},{"user_id":263,"name":"highest noon","steam_id":76561199103959197,"connected_time":35000000000,"state":"active","ping":86}]},{"server_id":311,"name":"Uncletopia | Frankfurt | 6 | All Maps","name_short":"frk-6","host":"frk-1.de.uncletopia.com","port":27065,"enabled":true,"region":"eu","cc":"de","latitude":50.110924,"longitude":8.682127,"reserved":0,"last_update":"0001-01-01T00:00:00Z","name_a2s":"Uncletopia | Frankfurt | 6 | All Maps","protocol":17,"map":"cp_snakewater_final1","folder":"tf","game":"Team Fortress","app_id":440,"player_count":0,"max_players":24,"Bots":0,"server_type":"Dedicated","server_os":"Linux","password":true,"vac":true,"version":"7961495","steam_id":85568392924504278,"keywords":["cp","nocrits","nodmgspread","uncletopia"],"game_id":440,"stv_port":27066,"stv_name":"Uncletopia | Frankfurt | 6 | All Maps | STV","players":null},{"server_id":23,"name":"Uncletopia | Frankfurt | 7 | Stopwatch","name_short":"frk-7","host":"frk-1.de.uncletopia.com","port":27075,"enabled":true,"region":"eu","cc":"de","latitude":50.110924,"longitude":8.682127,"reserved":0,"last_update":"0001-01-01T00:00:00Z","name_a2s":"Uncletopia | Frankfurt | 7 | Stopwatch","protocol":17,"map":"pl_frontier_final","folder":"tf","game":"Team Fortress","app_id":440,"player_count":0,"max_players":24,"Bots":0,"server_type":"Dedicated","server_os":"Linux","password":true,"vac":true,"version":"7961495","steam_id":85568392924742827,"keywords":["nocrits","nodmgspread","payload","uncletopia"],"game_id":440,"stv_port":27076,"stv_name":"Uncletopia | Frankfurt | 7 | Stopwatch | STV","players":null},{"server_id":24,"name":"Uncletopia | Frankfurt | 8 | Community","name_short":"frk-8","host":"frk-1.de.uncletopia.com","port":27085,"enabled":true,"region":"eu","cc":"de","latitude":50.110924,"longitude":8.682127,"reserved":0,"last_update":"0001-01-01T00:00:00Z","name_a2s":"Uncletopia | Frankfurt | 8 | Community","protocol":17,"map":"cp_mountainlab","folder":"tf","game":"Team Fortress","app_id":440,"player_count":0,"max_players":24,"Bots":0,"server_type":"Dedicated","server_os":"Linux","password":true,"vac":true,"version":"7961495","steam_id":85568392924742828,"keywords":["cp","nocrits","nodmgspread","uncletopia"],"game_id":440,"stv_port":27086,"stv_name":"Uncletopia | Frankfurt | 8 | Community | STV","players":null},{"server_id":202,"name":"Uncletopia | Hong Kong | 1 | All Maps","name_short":"hgk-1","host":"hgk-1.hk.uncletopia.com","port":27015,"enabled":true,"region":"asia","cc":"hk","latitude":22.302711,"longitude":114.177216,"reserved":0,"last_update":"0001-01-01T00:00:00Z","name_a2s":"Uncletopia | Hong Kong | 1 | All Maps","protocol":17,"map":"koth_viaduct","folder":"tf","game":"Team Fortress","app_id":440,"player_count":0,"max_players":24,"Bots":0,"server_type":"Dedicated","server_os":"Linux","password":true,"vac":true,"version":"7961495","steam_id":85568392924494504,"keywords":["cp","nocrits","nodmgspread","uncletopia"],"game_id":440,"stv_port":27016,"stv_name":"Uncletopia | Hong Kong | 1 | All Maps | STV","players":null},{"server_id":1,"name":"Uncletopia | Los Angeles | 1 | All Maps","name_short":"lax-1","host":"lax-1.us.uncletopia.com","port":27015,"enabled":true,"region":"us-west","cc":"us","latitude":33.94279,"longitude":-118.41004,"reserved":0,"last_update":"0001-01-01T00:00:00Z","name_a2s":"Uncletopia | Los Angeles | 1 | All Maps","protocol":17,"map":"koth_lakeside_final","folder":"tf","game":"Team Fortress","app_id":440,"player_count":0,"max_players":24,"Bots":0,"server_type":"Dedicated","server_os":"Linux","password":true,"vac":true,"version":"7961495","steam_id":85568392924469991,"keywords":["cp","nocrits","nodmgspread","uncletopia"],"game_id":440,"stv_port":27016,"stv_name":"Uncletopia | Los Angeles | 1 | All Maps | STV","players":null},{"server_id":112,"name":"Uncletopia | Los Angeles | 2 | All Maps","name_short":"lax-2","host":"lax-1.us.uncletopia.com","port":27025,"enabled":true,"region":"us-west","cc":"us","latitude":33.94279,"longitude":-118.41004,"reserved":0,"last_update":"0001-01-01T00:00:00Z","name_a2s":"Uncletopia | Los Angeles | 2 | All Maps","protocol":17,"map":"cp_mountainlab","folder":"tf","game":"Team Fortress","app_id":440,"player_count":0,"max_players":24,"Bots":0,"server_type":"Dedicated","server_os":"Linux","password":true,"vac":true,"version":"7961495","steam_id":85568392924469992,"keywords":["cp","nocrits","nodmgspread","uncletopia"],"game_id":440,"stv_port":27026,"stv_name":"Uncletopia | Los Angeles | 2 | All Maps | STV","players":null},{"server_id":324,"name":"Uncletopia | Los Angeles | 3 | All Maps","name_short":"lax-3","host":"lax-1.us.uncletopia.com","port":27035,"enabled":true,"region":"us-west","cc":"us","latitude":33.94279,"longitude":-118.41004,"reserved":0,"last_update":"0001-01-01T00:00:00Z","name_a2s":"Uncletopia | Los Angeles | 3 | All Maps","protocol":17,"map":"pl_frontier_final","folder":"tf","game":"Team Fortress","app_id":440,"player_count":0,"max_players":24,"Bots":0,"server_type":"Dedicated","server_os":"Linux","password":true,"vac":true,"version":"7961495","steam_id":85568392924510198,"keywords":["nocrits","nodmgspread","payload","uncletopia"],"game_id":440,"stv_port":27036,"stv_name":"Uncletopia | Los Angeles | 3 | All Maps | STV","players":null},{"server_id":25,"name":"Uncletopia | Los Angeles | 4 | Stopwatch","name_short":"lax-4","host":"lax-1.us.uncletopia.com","port":27045,"enabled":true,"region":"us-west","cc":"us","latitude":33.94279,"longitude":-118.41004,"reserved":0,"last_update":"0001-01-01T00:00:00Z","name_a2s":"Uncletopia | Los Angeles | 4 | Stopwatch","protocol":17,"map":"pl_barnblitz","folder":"tf","game":"Team Fortress","app_id":440,"player_count":0,"max_players":24,"Bots":0,"server_type":"Dedicated","server_os":"Linux","password":true,"vac":true,"version":"7961495","steam_id":85568392924510199,"keywords":["nocrits","nodmgspread","payload","uncletopia"],"game_id":440,"stv_port":27046,"stv_name":"Uncletopia | Los Angeles | 4 | Stopwatch | STV","players":null},{"server_id":11,"name":"Uncletopia | London | 1 | All Maps","name_short":"lon-1","host":"lon-1.uk.uncletopia.com","port":27015,"enabled":true,"region":"eu","cc":"gb","latitude":51.509865,"longitude":-0.118092,"reserved":0,"last_update":"0001-01-01T00:00:00Z","name_a2s":"Uncletopia | London | 1 | All Maps","protocol":17,"map":"cp_steel","folder":"tf","game":"Team Fortress","app_id":440,"player_count":24,"max_players":24,"Bots":0,"server_type":"Dedicated","server_os":"Linux","password":true,"vac":true,"version":"7961495","steam_id":85568392924367362,"keywords":["cp","nocrits","nodmgspread","uncletopia"],"game_id":440,"stv_port":27016,"stv_name":"Uncletopia | London | 1 | All Maps | STV","players":[{"user_id":466,"name":"lyra78711","steam_id":76561198043601838,"connected_time":2919000000000,"state":"active","ping":61},{"user_id":499,"name":"emir","steam_id":76561198113089831,"connected_time":256000000000,"state":"active","ping":91},{"user_id":490,"name":"Caruzon - Obismal","steam_id":76561198036211170,"connected_time":445000000000,"state":"active","ping":88},{"user_id":459,"name":"Pyrolander","steam_id":76561198050785450,"connected_time":3695000000000,"state":"active","ping":45},{"user_id":471,"name":"gibb (official)","steam_id":76561198074097655,"connected_time":1909000000000,"state":"active","ping":45},{"user_id":491,"name":"Something","steam_id":76561198134118637,"connected_time":440000000000,"state":"active","ping":60},{"user_id":492,"name":"Kylute","steam_id":76561198447504417,"connected_time":438000000000,"state":"active","ping":42},{"user_id":428,"name":"shooer! (Birthday!!!)","steam_id":76561198110531281,"connected_time":6765000000000,"state":"active","ping":71},{"user_id":486,"name":"Commando Icecream","steam_id":76561198042763526,"connected_time":776000000000,"state":"active","ping":45},{"user_id":452,"name":"Twiggu","steam_id":76561198070853128,"connected_time":4799000000000,"state":"active","ping":79},{"user_id":477,"name":"Ullr","steam_id":76561198140547483,"connected_time":1294000000000,"state":"active","ping":43},{"user_id":482,"name":"mr.resetti","steam_id":76561198974520642,"connected_time":882000000000,"state":"active","ping":70},{"user_id":497,"name":"Cammeel_God","steam_id":76561199133346557,"connected_time":320000000000,"state":"active","ping":87},{"user_id":488,"name":"Gety0","steam_id":76561198044387185,"connected_time":621000000000,"state":"active","ping":97},{"user_id":498,"name":"tralalaOuiOui","steam_id":76561197963471507,"connected_time":292000000000,"state":"active","ping":47},{"user_id":473,"name":"yup that extream78711","steam_id":76561198106049954,"connected_time":1713000000000,"state":"active","ping":76},{"user_id":496,"name":"PyroSoup","steam_id":76561199178018465,"connected_time":333000000000,"state":"active","ping":75},{"user_id":447,"name":"gr3821","steam_id":76561198091531010,"connected_time":5156000000000,"state":"active","ping":43},{"user_id":500,"name":"Para Bellum","steam_id":76561198375413446,"connected_time":212000000000,"state":"active","ping":57},{"user_id":361,"name":"Stunner John Mode! „ÉÑ","steam_id":76561199085822219,"connected_time":11463000000000,"state":"active","ping":87},{"user_id":501,"name":"„Ç∏","steam_id":76561198261473199,"connected_time":201000000000,"state":"active","ping":74},{"user_id":485,"name":"NemzetiAd√≥√âsV√°mhivatal","steam_id":76561199079879112,"connected_time":843000000000,"state":"active","ping":83},{"user_id":446,"name":"rigel_","steam_id":76561198148640847,"connected_time":5209000000000,"state":"active","ping":90},{"user_id":502,"name":"Finem Belli","steam_id":76561198227177976,"connected_time":195000000000,"state":"active","ping":47}]},{"server_id":114,"name":"Uncletopia | London | 2 | All Maps","name_short":"lon-2","host":"lon-1.uk.uncletopia.com","port":27025,"enabled":true,"region":"eu","cc":"gb","latitude":51.509865,"longitude":-0.118092,"reserved":0,"last_update":"0001-01-01T00:00:00Z","name_a2s":"Uncletopia | London | 2 | All Maps","protocol":17,"map":"pl_borneo","folder":"tf","game":"Team Fortress","app_id":440,"player_count":24,"max_players":24,"Bots":0,"server_type":"Dedicated","server_os":"Linux","password":true,"vac":true,"version":"7961495","steam_id":85568392924470941,"keywords":["nocrits","nodmgspread","payload","uncletopia"],"game_id":440,"stv_port":27026,"stv_name":"Uncletopia | London | 2 | All Maps | STV","players":[{"user_id":255,"name":"LOKKI","steam_id":76561198259022887,"connected_time":118000000000,"state":"active","ping":74},{"user_id":195,"name":"Hogs Sidekick","steam_id":76561198136433205,"connected_time":3820000000000,"state":"active","ping":50},{"user_id":230,"name":"Kamanie","steam_id":76561198135448255,"connected_time":2059000000000,"state":"active","ping":61},{"user_id":253,"name":"Eep","steam_id":76561198356840051,"connected_time":130000000000,"state":"active","ping":94},{"user_id":227,"name":"[ Louinskii ]","steam_id":76561198060509154,"connected_time":2109000000000,"state":"active","ping":55},{"user_id":248,"name":"the onceler","steam_id":76561199060575719,"connected_time":422000000000,"state":"active","ping":170},{"user_id":219,"name":"Brallerin","steam_id":76561198060026189,"connected_time":2694000000000,"state":"active","ping":54},{"user_id":249,"name":"Michael","steam_id":76561198003146906,"connected_time":407000000000,"state":"active","ping":44},{"user_id":247,"name":"Arty","steam_id":76561198160100181,"connected_time":452000000000,"state":"active","ping":66},{"user_id":173,"name":"zazuza","steam_id":76561198049820905,"connected_time":5112000000000,"state":"active","ping":62},{"user_id":174,"name":"Vonacht","steam_id":76561198016033944,"connected_time":5112000000000,"state":"active","ping":62},{"user_id":254,"name":"Demonknight4","steam_id":76561198226184212,"connected_time":121000000000,"state":"active","ping":113},{"user_id":256,"name":"Tempest FIN","steam_id":76561198311021830,"connected_time":116000000000,"state":"active","ping":101},{"user_id":229,"name":"Toast","steam_id":76561198123766602,"connected_time":2104000000000,"state":"active","ping":38},{"user_id":232,"name":"waffle","steam_id":76561198067706953,"connected_time":1973000000000,"state":"active","ping":52},{"user_id":233,"name":"Sgreff","steam_id":76561198036304365,"connected_time":1938000000000,"state":"active","ping":44},{"user_id":242,"name":"Skinny101","steam_id":76561197985599360,"connected_time":1537000000000,"state":"active","ping":46},{"user_id":252,"name":"valzecam","steam_id":76561198274352933,"connected_time":196000000000,"state":"active","ping":58},{"user_id":234,"name":"Vince","steam_id":76561199103000131,"connected_time":1934000000000,"state":"active","ping":45},{"user_id":225,"name":"aberatus","steam_id":76561197979455244,"connected_time":2287000000000,"state":"active","ping":76},{"user_id":251,"name":"Huskai","steam_id":76561198141512362,"connected_time":393000000000,"state":"active","ping":44},{"user_id":245,"name":"Tort","steam_id":76561198329646769,"connected_time":1210000000000,"state":"active","ping":58},{"user_id":202,"name":"Totalfet","steam_id":76561198979468432,"connected_time":3741000000000,"state":"active","ping":93},{"user_id":236,"name":"Dƒ´ng.Zh√®n1996","steam_id":76561198152681460,"connected_time":1850000000000,"state":"active","ping":75}]},{"server_id":320,"name":"Uncletopia | London | 3 | All Maps","name_short":"lon-3","host":"lon-1.uk.uncletopia.com","port":27035,"enabled":true,"region":"eu","cc":"gb","latitude":51.509865,"longitude":-0.118092,"reserved":0,"last_update":"0001-01-01T00:00:00Z","name_a2s":"Uncletopia | London | 3 | All Maps","protocol":17,"map":"cp_sunshine","folder":"tf","game":"Team Fortress","app_id":440,"player_count":24,"max_players":24,"Bots":0,"server_type":"Dedicated","server_os":"Linux","password":true,"vac":true,"version":"7961495","steam_id":85568392924510192,"keywords":["cp","nocrits","nodmgspread","uncletopia"],"game_id":440,"stv_port":27036,"stv_name":"Uncletopia | London | 3 | All Maps | STV","players":[{"user_id":267,"name":"henders429","steam_id":76561198323898570,"connected_time":4380000000000,"state":"active","ping":53},{"user_id":315,"name":"Rolloden","steam_id":76561198069414404,"connected_time":817000000000,"state":"active","ping":69},{"user_id":316,"name":"Sicko Mode (Chris Pratt Cover)","steam_id":76561198315786174,"connected_time":785000000000,"state":"active","ping":116},{"user_id":326,"name":"CINO","steam_id":76561198363841749,"connected_time":11000000000,"state":"spawning","ping":74},{"user_id":289,"name":"1518","steam_id":76561198422206206,"connected_time":2366000000000,"state":"active","ping":115},{"user_id":304,"name":"Pina Lac Vir","steam_id":76561198153551980,"connected_time":1059000000000,"state":"active","ping":71},{"user_id":295,"name":"8 Ball","steam_id":76561197960988736,"connected_time":2102000000000,"state":"active","ping":46},{"user_id":308,"name":"wilfiam","steam_id":76561198122791174,"connected_time":929000000000,"state":"active","ping":110},{"user_id":260,"name":"soap lore 3","steam_id":76561198058879767,"connected_time":4999000000000,"state":"active","ping":42},{"user_id":306,"name":"t.tv/Hildreth","steam_id":76561197995254867,"connected_time":1041000000000,"state":"active","ping":49},{"user_id":314,"name":"piss man (real)","steam_id":76561198839843428,"connected_time":838000000000,"state":"active","ping":118},{"user_id":137,"name":"marvi444","steam_id":76561198431534139,"connected_time":10459000000000,"state":"active","ping":56},{"user_id":317,"name":"Cava","steam_id":76561198054840118,"connected_time":753000000000,"state":"active","ping":61},{"user_id":290,"name":"We are in a world of magic","steam_id":76561198104745492,"connected_time":2362000000000,"state":"active","ping":94},{"user_id":327,"name":"biohazard","steam_id":76561198162873354,"connected_time":10000000000,"state":"spawning","ping":166},{"user_id":322,"name":"silly penguin guy","steam_id":76561198123592400,"connected_time":308000000000,"state":"active","ping":103},{"user_id":323,"name":"Rick Astley Is A F2P?","steam_id":76561199258805660,"connected_time":256000000000,"state":"active","ping":122},{"user_id":265,"name":"MewZe","steam_id":76561198293664673,"connected_time":4398000000000,"state":"active","ping":47},{"user_id":157,"name":"ScampSixteen","steam_id":76561198021771000,"connected_time":9609000000000,"state":"active","ping":53},{"user_id":296,"name":"chimpanzee","steam_id":76561199041940389,"connected_time":2009000000000,"state":"active","ping":61},{"user_id":311,"name":"ran is running","steam_id":76561199443185667,"connected_time":902000000000,"state":"active","ping":139},{"user_id":297,"name":"Captain Puddleboat","steam_id":76561198053913970,"connected_time":1706000000000,"state":"active","ping":54},{"user_id":312,"name":"Glumi123","steam_id":76561198299063734,"connected_time":899000000000,"state":"active","ping":105},{"user_id":324,"name":"Lethal Joke Character","steam_id":76561198205745757,"connected_time":229000000000,"state":"active","ping":62}]},{"server_id":321,"name":"Uncletopia | London | 4 | All Maps","name_short":"lon-4","host":"lon-1.uk.uncletopia.com","port":27045,"enabled":true,"region":"eu","cc":"gb","latitude":51.509865,"longitude":-0.118092,"reserved":0,"last_update":"0001-01-01T00:00:00Z","name_a2s":"Uncletopia | London | 4 | All Maps","protocol":17,"map":"pl_barnblitz","folder":"tf","game":"Team Fortress","app_id":440,"player_count":24,"max_players":24,"Bots":0,"server_type":"Dedicated","server_os":"Linux","password":true,"vac":true,"version":"7961495","steam_id":85568392924510193,"keywords":["nocrits","nodmgspread","payload","uncletopia"],"game_id":440,"stv_port":27046,"stv_name":"Uncletopia | London | 4 | All Maps | STV","players":[{"user_id":94,"name":"Guuse","steam_id":76561198030956814,"connected_time":2533000000000,"state":"active","ping":67},{"user_id":110,"name":"Benzo Fury","steam_id":76561198025259336,"connected_time":1270000000000,"state":"active","ping":46},{"user_id":124,"name":"BenteBent","steam_id":76561198297920637,"connected_time":293000000000,"state":"active","ping":44},{"user_id":129,"name":"s a i","steam_id":76561197970379754,"connected_time":27000000000,"state":"active","ping":60},{"user_id":118,"name":"Laryssa","steam_id":76561198271084076,"connected_time":635000000000,"state":"active","ping":91},{"user_id":121,"name":"kalaa ‚Ä†","steam_id":76561198134652336,"connected_time":337000000000,"state":"active","ping":72},{"user_id":122,"name":"Joo ‚ô¶","steam_id":76561197987609203,"connected_time":323000000000,"state":"active","ping":72},{"user_id":105,"name":"Tavish","steam_id":76561197971486686,"connected_time":1713000000000,"state":"active","ping":48},{"user_id":114,"name":"Charlie Kelly","steam_id":76561198211599767,"connected_time":1023000000000,"state":"active","ping":54},{"user_id":83,"name":"√áodar","steam_id":76561198235518444,"connected_time":3551000000000,"state":"active","ping":34},{"user_id":123,"name":"D_Ink","steam_id":76561198267716662,"connected_time":314000000000,"state":"active","ping":41},{"user_id":38,"name":"Guthlaf","steam_id":76561198153564078,"connected_time":6702000000000,"state":"active","ping":101},{"user_id":78,"name":"sarii ‚òÜ","steam_id":76561199155102111,"connected_time":4888000000000,"state":"active","ping":85},{"user_id":127,"name":"The Rock","steam_id":76561198433328517,"connected_time":237000000000,"state":"active","ping":146},{"user_id":128,"name":"JujuBalu","steam_id":76561198207253071,"connected_time":162000000000,"state":"active","ping":25},{"user_id":126,"name":"The Power","steam_id":76561198060566884,"connected_time":279000000000,"state":"active","ping":33},{"user_id":74,"name":"Finn","steam_id":76561198179960193,"connected_time":4923000000000,"state":"active","ping":46},{"user_id":97,"name":"omnibombulator","steam_id":76561198025858897,"connected_time":2494000000000,"state":"active","ping":48},{"user_id":86,"name":"Dewotter","steam_id":76561198007653168,"connected_time":3493000000000,"state":"active","ping":60},{"user_id":98,"name":"The Lady","steam_id":76561198029895809,"connected_time":2491000000000,"state":"active","ping":89},{"user_id":109,"name":"richard","steam_id":76561199042470246,"connected_time":1322000000000,"state":"active","ping":61},{"user_id":104,"name":"H√©rosFunk","steam_id":76561198053110916,"connected_time":1800000000000,"state":"active","ping":53},{"user_id":88,"name":"Zerotheweirdo","steam_id":76561199182198560,"connected_time":3269000000000,"state":"active","ping":142},{"user_id":101,"name":"RoofRabbid","steam_id":76561198012821810,"connected_time":2482000000000,"state":"active","ping":101}]},{"server_id":21,"name":"Uncletopia | London | 5 | All Maps","name_short":"lon-5","host":"lon-1.uk.uncletopia.com","port":27055,"enabled":true,"region":"eu","cc":"gb","latitude":51.509865,"longitude":-0.118092,"reserved":0,"last_update":"0001-01-01T00:00:00Z","name_a2s":"Uncletopia | London | 5 | All Maps","protocol":17,"map":"pl_badwater","folder":"tf","game":"Team Fortress","app_id":440,"player_count":24,"max_players":24,"Bots":0,"server_type":"Dedicated","server_os":"Linux","password":true,"vac":true,"version":"7961495","steam_id":85568392924742829,"keywords":["nocrits","nodmgspread","payload","uncletopia"],"game_id":440,"stv_port":27056,"stv_name":"Uncletopia | London | 5 | All Maps | STV","players":[{"user_id":146,"name":"C√∂ffee","steam_id":76561198115131952,"connected_time":6438000000000,"state":"active","ping":100},{"user_id":240,"name":"[„Ç™„Çø„ÇØ] HelFeaR","steam_id":76561198252281266,"connected_time":866000000000,"state":"active","ping":85},{"user_id":239,"name":"I.C. Wiener","steam_id":76561197999912254,"connected_time":1085000000000,"state":"active","ping":96},{"user_id":195,"name":"Fran","steam_id":76561199070516960,"connected_time":3651000000000,"state":"active","ping":74},{"user_id":233,"name":"Marabosha","steam_id":76561198137599173,"connected_time":1345000000000,"state":"active","ping":126},{"user_id":241,"name":"Davey","steam_id":76561198256879107,"connected_time":721000000000,"state":"active","ping":77},{"user_id":247,"name":"Kahvi","steam_id":76561198723244199,"connected_time":240000000000,"state":"active","ping":77},{"user_id":221,"name":"Waffle","steam_id":76561198397024973,"connected_time":2252000000000,"state":"active","ping":36},{"user_id":197,"name":"Hamedius","steam_id":76561199152512027,"connected_time":3646000000000,"state":"active","ping":74},{"user_id":202,"name":"Lukullu","steam_id":76561198269414258,"connected_time":3516000000000,"state":"active","ping":81},{"user_id":236,"name":"Ridley","steam_id":76561198248615662,"connected_time":1315000000000,"state":"active","ping":182},{"user_id":213,"name":"Sicmendor ...","steam_id":76561197962107049,"connected_time":2905000000000,"state":"active","ping":71},{"user_id":231,"name":"ËôæÊâØËõã.Lonely","steam_id":76561198022989560,"connected_time":1407000000000,"state":"active","ping":51},{"user_id":183,"name":"Circular","steam_id":76561198001536710,"connected_time":5212000000000,"state":"active","ping":45},{"user_id":246,"name":"Allyn","steam_id":76561198999161827,"connected_time":313000000000,"state":"active","ping":138},{"user_id":248,"name":"Dictatorial Karelian","steam_id":76561198196736457,"connected_time":187000000000,"state":"active","ping":89},{"user_id":227,"name":"Chronicles of Nornia","steam_id":76561198040509712,"connected_time":1973000000000,"state":"active","ping":61},{"user_id":249,"name":"ahnel","steam_id":76561199231946339,"connected_time":155000000000,"state":"active","ping":78},{"user_id":250,"name":"Cap","steam_id":76561197993692648,"connected_time":73000000000,"state":"active","ping":98},{"user_id":242,"name":"R@DIO","steam_id":76561197995533046,"connected_time":693000000000,"state":"active","ping":81},{"user_id":244,"name":"Mr_Pulse_","steam_id":76561198095001602,"connected_time":493000000000,"state":"active","ping":104},{"user_id":189,"name":"norespectforthedevil","steam_id":76561197998922218,"connected_time":4481000000000,"state":"active","ping":103},{"user_id":225,"name":"SKY_","steam_id":76561198080980508,"connected_time":2175000000000,"state":"active","ping":64},{"user_id":251,"name":"xva","steam_id":76561198969286813,"connected_time":38000000000,"state":"active","ping":75}]},{"server_id":22,"name":"Uncletopia | London | 6 | All Maps","name_short":"lon-6","host":"lon-1.uk.uncletopia.com","port":27065,"enabled":true,"region":"eu","cc":"gb","latitude":51.509865,"longitude":-0.118092,"reserved":0,"last_update":"0001-01-01T00:00:00Z","name_a2s":"Uncletopia | London | 6 | All Maps","protocol":17,"map":"pl_borneo","folder":"tf","game":"Team Fortress","app_id":440,"player_count":0,"max_players":24,"Bots":0,"server_type":"Dedicated","server_os":"Linux","password":true,"vac":true,"version":"7961495","steam_id":85568392924742830,"keywords":["nocrits","nodmgspread","payload","uncletopia"],"game_id":440,"stv_port":27066,"stv_name":"Uncletopia | London | 6 | All Maps | STV","players":null},{"server_id":40,"name":"Uncletopia | London | 7 | Stopwatch","name_short":"lon-7","host":"lon-1.uk.uncletopia.com","port":27075,"enabled":true,"region":"eu","cc":"gb","latitude":51.509865,"longitude":-0.118092,"reserved":0,"last_update":"0001-01-01T00:00:00Z","name_a2s":"Uncletopia | London | 7 | Stopwatch","protocol":17,"map":"workshop/koth_ashville_final.ugc2130459942","folder":"tf","game":"Team Fortress","app_id":440,"player_count":0,"max_players":24,"Bots":0,"server_type":"Dedicated","server_os":"Linux","password":true,"vac":true,"version":"7961495","steam_id":85568392924964314,"keywords":["cp","nocrits","nodmgspread","uncletopia"],"game_id":440,"stv_port":27076,"stv_name":"Uncletopia | London | 7 | Stopwatch | STV","players":null},{"server_id":41,"name":"Uncletopia | London | 8 | Community","name_short":"lon-8","host":"lon-1.uk.uncletopia.com","port":27085,"enabled":true,"region":"eu","cc":"gb","latitude":51.509865,"longitude":-0.118092,"reserved":0,"last_update":"0001-01-01T00:00:00Z","name_a2s":"Uncletopia | London | 8 | Community","protocol":17,"map":"workshop/koth_product_final.ugc454272353","folder":"tf","game":"Team Fortress","app_id":440,"player_count":0,"max_players":24,"Bots":0,"server_type":"Dedicated","server_os":"Linux","password":true,"vac":true,"version":"7961495","steam_id":85568392924964315,"keywords":["cp","nocrits","nodmgspread","uncletopia"],"game_id":440,"stv_port":27086,"stv_name":"Uncletopia | London | 8 | Community | STV","players":null},{"server_id":300,"name":"Uncletopia | Montr√©al | 1 | One Thousand Uncles","name_short":"mtl-1","host":"mtl-1.ca.uncletopia.com","port":27015,"enabled":true,"region":"us-east","cc":"ca","latitude":45.50889,"longitude":-73.56167,"reserved":0,"last_update":"0001-01-01T00:00:00Z","name_a2s":"","protocol":0,"map":"","folder":"","game":"","app_id":0,"player_count":14,"max_players":0,"Bots":0,"server_type":"","server_os":"","password":false,"vac":false,"version":"","steam_id":0,"keywords":null,"game_id":0,"stv_port":0,"stv_name":"","players":[{"user_id":285,"name":"Ligmus Sigmus","steam_id":76561198168946002,"connected_time":1322000000000,"state":"active","ping":51},{"user_id":308,"name":"Sleeves","steam_id":76561198842216661,"connected_time":247000000000,"state":"active","ping":60},{"user_id":248,"name":"least sleepy wagie","steam_id":76561198110964935,"connected_time":4454000000000,"state":"active","ping":102},{"user_id":141,"name":"I just joined","steam_id":76561198057999536,"connected_time":12906000000000,"state":"active","ping":112},{"user_id":290,"name":"Colin102004","steam_id":76561198202384334,"connected_time":625000000000,"state":"active","ping":48},{"user_id":167,"name":"Mecha","steam_id":76561198014927379,"connected_time":10316000000000,"state":"active","ping":61},{"user_id":227,"name":"Terminal Brain Rot","steam_id":76561198112594672,"connected_time":6216000000000,"state":"active","ping":78},{"user_id":278,"name":"Vincent Van Bro","steam_id":76561197966919802,"connected_time":2612000000000,"state":"active","ping":113},{"user_id":245,"name":"Wafflehead","steam_id":76561198053539741,"connected_time":5800000000000,"state":"active","ping":44},{"user_id":246,"name":"BackupYAHmax","steam_id":76561198309468681,"connected_time":5647000000000,"state":"active","ping":48},{"user_id":251,"name":"milfred louver","steam_id":76561198882713406,"connected_time":4323000000000,"state":"active","ping":179},{"user_id":287,"name":"bucket of wet slop","steam_id":76561198014931221,"connected_time":1039000000000,"state":"active","ping":93},{"user_id":255,"name":"raspy","steam_id":76561198027298961,"connected_time":4097000000000,"state":"active","ping":38},{"user_id":280,"name":"Vess","steam_id":76561197972587155,"connected_time":2323000000000,"state":"active","ping":90}]},{"server_id":301,"name":"Uncletopia | Montr√©al | 2 | One Thousand Uncles","name_short":"mtl-2","host":"mtl-1.ca.uncletopia.com","port":27025,"enabled":true,"region":"us-east","cc":"ca","latitude":45.50889,"longitude":-73.56167,"reserved":0,"last_update":"0001-01-01T00:00:00Z","name_a2s":"","protocol":0,"map":"","folder":"","game":"","app_id":0,"player_count":0,"max_players":0,"Bots":0,"server_type":"","server_os":"","password":false,"vac":false,"version":"","steam_id":0,"keywords":null,"game_id":0,"stv_port":0,"stv_name":"","players":null},{"server_id":302,"name":"Uncletopia | Montr√©al | 3 | One Thousand Uncles","name_short":"mtl-3","host":"mtl-1.ca.uncletopia.com","port":27035,"enabled":true,"region":"us-east","cc":"ca","latitude":45.50889,"longitude":-73.56167,"reserved":0,"last_update":"0001-01-01T00:00:00Z","name_a2s":"","protocol":0,"map":"","folder":"","game":"","app_id":0,"player_count":0,"max_players":0,"Bots":0,"server_type":"","server_os":"","password":false,"vac":false,"version":"","steam_id":0,"keywords":null,"game_id":0,"stv_port":0,"stv_name":"","players":null},{"server_id":13,"name":"Uncletopia | New York City | 1 | All Maps","name_short":"nyc-1","host":"nyc-1.us.uncletopia.com","port":27015,"enabled":true,"region":"us-east","cc":"us","latitude":40.73061,"longitude":-73.93524,"reserved":0,"last_update":"0001-01-01T00:00:00Z","name_a2s":"Uncletopia | New York City | 1 | All Maps","protocol":17,"map":"pl_badwater","folder":"tf","game":"Team Fortress","app_id":440,"player_count":24,"max_players":24,"Bots":0,"server_type":"Dedicated","server_os":"Linux","password":true,"vac":true,"version":"7961495","steam_id":85568392924469993,"keywords":["nocrits","nodmgspread","payload","uncletopia"],"game_id":440,"stv_port":27016,"stv_name":"Uncletopia | New York City | 1 | All Maps | STV","players":[{"user_id":256,"name":"Feared Gamer","steam_id":76561198350127514,"connected_time":97000000000,"state":"active","ping":55},{"user_id":251,"name":"The_Pacific_gamer","steam_id":76561198089491446,"connected_time":544000000000,"state":"active","ping":107},{"user_id":226,"name":"retinz","steam_id":76561198135563495,"connected_time":2702000000000,"state":"active","ping":53},{"user_id":244,"name":"Fluffeline","steam_id":76561198352909489,"connected_time":1523000000000,"state":"active","ping":144},{"user_id":257,"name":"BroccoliRabe","steam_id":76561199404322984,"connected_time":70000000000,"state":"active","ping":40},{"user_id":205,"name":"Ceige (redemption arc)","steam_id":76561198068538473,"connected_time":4127000000000,"state":"active","ping":96},{"user_id":253,"name":"spherewithahat","steam_id":76561199122192660,"connected_time":434000000000,"state":"active","ping":57},{"user_id":239,"name":"Goat","steam_id":76561198068447650,"connected_time":1814000000000,"state":"active","ping":99},{"user_id":246,"name":"ADRIEN BRODY","steam_id":76561198009299473,"connected_time":1222000000000,"state":"active","ping":53},{"user_id":254,"name":"Rigby","steam_id":76561198258121396,"connected_time":111000000000,"state":"active","ping":75},{"user_id":197,"name":"Broadway Rose","steam_id":76561198046083342,"connected_time":4507000000000,"state":"active","ping":47},{"user_id":189,"name":"Nephi","steam_id":76561198031525122,"connected_time":4767000000000,"state":"active","ping":76},{"user_id":258,"name":"Try Gardening","steam_id":76561198120311340,"connected_time":68000000000,"state":"active","ping":67},{"user_id":259,"name":"donutbodega17","steam_id":76561199211254746,"connected_time":7000000000,"state":"spawning","ping":62},{"user_id":252,"name":"JaHeeK","steam_id":76561198056928613,"connected_time":510000000000,"state":"active","ping":58},{"user_id":240,"name":"Coop","steam_id":76561198042839356,"connected_time":1745000000000,"state":"active","ping":68},{"user_id":181,"name":"ndvr","steam_id":76561199379200102,"connected_time":5276000000000,"state":"active","ping":44},{"user_id":241,"name":"ryns72","steam_id":76561198099451291,"connected_time":1675000000000,"state":"active","ping":86},{"user_id":85,"name":"A Puppy","steam_id":76561198828184456,"connected_time":13772000000000,"state":"active","ping":45},{"user_id":229,"name":"Tony hawks pro skater 2 dlc","steam_id":76561198243387974,"connected_time":2567000000000,"state":"active","ping":56},{"user_id":222,"name":"patdine","steam_id":76561198060865671,"connected_time":2975000000000,"state":"active","ping":59},{"user_id":260,"name":"Hope","steam_id":76561199201900779,"connected_time":0,"state":"spawning","ping":0},{"user_id":212,"name":"Cave","steam_id":76561198263551216,"connected_time":3405000000000,"state":"active","ping":87},{"user_id":234,"name":"Soap_","steam_id":76561198153289795,"connected_time":2185000000000,"state":"active","ping":44}]},{"server_id":14,"name":"Uncletopia | New York City | 2 | All Maps","name_short":"nyc-2","host":"nyc-1.us.uncletopia.com","port":27025,"enabled":true,"region":"us-east","cc":"us","latitude":40.73061,"longitude":-73.93524,"reserved":0,"last_update":"0001-01-01T00:00:00Z","name_a2s":"Uncletopia | New York City | 2 | All Maps","protocol":17,"map":"pl_pier","folder":"tf","game":"Team Fortress","app_id":440,"player_count":23,"max_players":24,"Bots":0,"server_type":"Dedicated","server_os":"Linux","password":true,"vac":true,"version":"7961495","steam_id":85568392924469994,"keywords":["nocrits","nodmgspread","payload","uncletopia"],"game_id":440,"stv_port":27026,"stv_name":"Uncletopia | New York City | 2 | All Maps | STV","players":[{"user_id":185,"name":"Slimy","steam_id":76561199486144618,"connected_time":50000000000,"state":"spawning","ping":151},{"user_id":162,"name":"ÂØß„ÄÖ","steam_id":76561198831996918,"connected_time":1617000000000,"state":"spawning","ping":128},{"user_id":177,"name":"Sunshine Moon","steam_id":76561198022604491,"connected_time":607000000000,"state":"spawning","ping":123},{"user_id":163,"name":"leo.combs11","steam_id":76561199440984213,"connected_time":1584000000000,"state":"spawning","ping":77},{"user_id":138,"name":"Helty","steam_id":76561199121365950,"connected_time":3095000000000,"state":"spawning","ping":120},{"user_id":165,"name":"ultralisk52","steam_id":76561198051666604,"connected_time":1419000000000,"state":"spawning","ping":82},{"user_id":184,"name":"Plazmin","steam_id":76561198847506313,"connected_time":108000000000,"state":"spawning","ping":53},{"user_id":178,"name":"soltuno","steam_id":76561198074430565,"connected_time":587000000000,"state":"spawning","ping":105},{"user_id":141,"name":"Obelix","steam_id":76561198274715109,"connected_time":2940000000000,"state":"spawning","ping":48},{"user_id":115,"name":"FrosbeeChill","steam_id":76561198182510862,"connected_time":5783000000000,"state":"spawning","ping":47},{"user_id":183,"name":"YOU WHAT?!","steam_id":76561198418679471,"connected_time":130000000000,"state":"spawning","ping":61},{"user_id":171,"name":"Kaze","steam_id":76561199062949963,"connected_time":740000000000,"state":"spawning","ping":108},{"user_id":149,"name":"Joshy","steam_id":76561198061405421,"connected_time":2504000000000,"state":"spawning","ping":66},{"user_id":127,"name":"momazos diegos","steam_id":76561199220257695,"connected_time":4826000000000,"state":"spawning","ping":137},{"user_id":144,"name":"nethersome","steam_id":76561198892225148,"connected_time":2825000000000,"state":"spawning","ping":121},{"user_id":156,"name":"High School Nudical","steam_id":76561198172120615,"connected_time":2389000000000,"state":"spawning","ping":45},{"user_id":166,"name":"30day","steam_id":76561198219163831,"connected_time":1347000000000,"state":"spawning","ping":63},{"user_id":174,"name":"Charlie","steam_id":76561198798127908,"connected_time":692000000000,"state":"spawning","ping":77},{"user_id":170,"name":"Horse","steam_id":76561198332887086,"connected_time":910000000000,"state":"spawning","ping":49},{"user_id":176,"name":"Marzz","steam_id":76561198059034982,"connected_time":673000000000,"state":"spawning","ping":47},{"user_id":121,"name":"Cold shoulder","steam_id":76561198453824178,"connected_time":5644000000000,"state":"spawning","ping":132},{"user_id":181,"name":"Noahthecrazy1","steam_id":76561199152995909,"connected_time":391000000000,"state":"spawning","ping":54},{"user_id":186,"name":"DesolateCabbage","steam_id":76561198064467423,"connected_time":21000000000,"state":"active","ping":254}]},{"server_id":15,"name":"Uncletopia | New York City | 3 | Stopwatch","name_short":"nyc-3","host":"nyc-1.us.uncletopia.com","port":27035,"enabled":true,"region":"us-east","cc":"us","latitude":40.73061,"longitude":-73.93524,"reserved":0,"last_update":"0001-01-01T00:00:00Z","name_a2s":"Uncletopia | New York City | 3 | Stopwatch","protocol":17,"map":"workshop/koth_bagel_rc6.ugc2514036946","folder":"tf","game":"Team Fortress","app_id":440,"player_count":0,"max_players":24,"Bots":0,"server_type":"Dedicated","server_os":"Linux","password":true,"vac":true,"version":"7961495","steam_id":85568392924742820,"keywords":["cp","nocrits","nodmgspread","uncletopia"],"game_id":440,"stv_port":27036,"stv_name":"Uncletopia | New York City | 3 | Stopwatch | STV","players":null},{"server_id":16,"name":"Uncletopia | New York City | 4 | Community","name_short":"nyc-4","host":"nyc-1.us.uncletopia.com","port":27045,"enabled":true,"region":"us-east","cc":"us","latitude":40.73061,"longitude":-73.93524,"reserved":0,"last_update":"0001-01-01T00:00:00Z","name_a2s":"Uncletopia | New York City | 4 | Community","protocol":17,"map":"workshop/cp_fulgur_rc2a.ugc2068252300","folder":"tf","game":"Team Fortress","app_id":440,"player_count":0,"max_players":24,"Bots":0,"server_type":"Dedicated","server_os":"Linux","password":true,"vac":true,"version":"7961495","steam_id":85568392924742821,"keywords":["cp","nocrits","nodmgspread","uncletopia"],"game_id":440,"stv_port":27046,"stv_name":"Uncletopia | New York City | 4 | Community | STV","players":null},{"server_id":142,"name":"Uncletopia | S√£o Paulo | 1 | All Maps","name_short":"sao-1","host":"sao-1.br.uncletopia.com","port":27015,"enabled":true,"region":"sa","cc":"br","latitude":-23.533773,"longitude":-46.62529,"reserved":0,"last_update":"0001-01-01T00:00:00Z","name_a2s":"Uncletopia | S√£o Paulo | 1 | All Maps","protocol":17,"map":"koth_highpass","folder":"tf","game":"Team Fortress","app_id":440,"player_count":0,"max_players":24,"Bots":0,"server_type":"Dedicated","server_os":"Linux","password":true,"vac":true,"version":"7961495","steam_id":85568392924469996,"keywords":["cp","nocrits","nodmgspread","uncletopia"],"game_id":440,"stv_port":27016,"stv_name":"Uncletopia | S√£o Paulo | 1 | All Maps | STV","players":null},{"server_id":143,"name":"Uncletopia | S√£o Paulo | 2 | Community","name_short":"sao-2","host":"sao-2.br.uncletopia.com","port":27015,"enabled":true,"region":"sa","cc":"br","latitude":-23.533773,"longitude":-46.62529,"reserved":0,"last_update":"0001-01-01T00:00:00Z","name_a2s":"Uncletopia | S√£o Paulo | 2 | Community","protocol":17,"map":"workshop/koth_bagel_rc6.ugc2514036946","folder":"tf","game":"Team Fortress","app_id":440,"player_count":0,"max_players":24,"Bots":0,"server_type":"Dedicated","server_os":"Linux","password":true,"vac":true,"version":"7961495","steam_id":85568392924485349,"keywords":["cp","nocrits","nodmgspread","uncletopia"],"game_id":440,"stv_port":27016,"stv_name":"Uncletopia | S√£o Paulo | 2 | Community | STV","players":null},{"server_id":7,"name":"Uncletopia | Seattle | 1 | All Maps","name_short":"sea-1","host":"sea-1.us.uncletopia.com","port":27015,"enabled":true,"region":"us-west","cc":"us","latitude":47.608013,"longitude":-122.33517,"reserved":0,"last_update":"0001-01-01T00:00:00Z","name_a2s":"Uncletopia | Seattle | 1 | All Maps","protocol":17,"map":"cp_dustbowl","folder":"tf","game":"Team Fortress","app_id":440,"player_count":24,"max_players":24,"Bots":0,"server_type":"Dedicated","server_os":"Linux","password":true,"vac":true,"version":"7961495","steam_id":85568392924469997,"keywords":["cp","nocrits","nodmgspread","uncletopia"],"game_id":440,"stv_port":27016,"stv_name":"Uncletopia | Seattle | 1 | All Maps | STV","players":[{"user_id":398,"name":"Atticus Barnebus","steam_id":76561198141819053,"connected_time":1624000000000,"state":"active","ping":55},{"user_id":406,"name":"SpamTheAlien","steam_id":76561199122290968,"connected_time":671000000000,"state":"active","ping":82},{"user_id":418,"name":"Lawyer","steam_id":76561197974126447,"connected_time":79000000000,"state":"active","ping":74},{"user_id":368,"name":"dillpickle","steam_id":76561198156957191,"connected_time":3751000000000,"state":"active","ping":97},{"user_id":421,"name":"Lain","steam_id":76561198118282205,"connected_time":29000000000,"state":"active","ping":120},{"user_id":419,"name":"bottom pride burger","steam_id":76561198322247602,"connected_time":65000000000,"state":"active","ping":77},{"user_id":394,"name":"vvitch","steam_id":76561198279661941,"connected_time":1751000000000,"state":"active","ping":75},{"user_id":350,"name":"scallop pigeon","steam_id":76561199488457138,"connected_time":5093000000000,"state":"active","ping":44},{"user_id":387,"name":"Strikerbolt","steam_id":76561199095622897,"connected_time":2061000000000,"state":"active","ping":74},{"user_id":420,"name":"Dr.Doofenshmussy","steam_id":76561198252889128,"connected_time":41000000000,"state":"active","ping":108},{"user_id":422,"name":"Jshoe","steam_id":76561198128252048,"connected_time":24000000000,"state":"active","ping":63},{"user_id":396,"name":"Sudsen","steam_id":76561198370603787,"connected_time":1738000000000,"state":"active","ping":67},{"user_id":399,"name":"Pneumo.","steam_id":76561197987911883,"connected_time":1619000000000,"state":"active","ping":55},{"user_id":325,"name":"corg","steam_id":76561198338740292,"connected_time":6382000000000,"state":"active","ping":95},{"user_id":405,"name":"blastingspoon07","steam_id":76561199155810384,"connected_time":730000000000,"state":"active","ping":114},{"user_id":386,"name":"trackpad gaming | f2p","steam_id":76561198840414371,"connected_time":2177000000000,"state":"active","ping":52},{"user_id":408,"name":"TinCanDim","steam_id":76561198184039682,"connected_time":435000000000,"state":"active","ping":47},{"user_id":410,"name":"Acidbrawler","steam_id":76561198174803983,"connected_time":362000000000,"state":"active","ping":45},{"user_id":356,"name":"Hero Smasher","steam_id":76561198150681669,"connected_time":4693000000000,"state":"active","ping":69},{"user_id":416,"name":"Magic Sam","steam_id":76561198089426224,"connected_time":106000000000,"state":"active","ping":45},{"user_id":384,"name":"BlazedBunny","steam_id":76561198243610560,"connected_time":2601000000000,"state":"active","ping":64},{"user_id":417,"name":"Dagoth Ur","steam_id":76561198117028805,"connected_time":106000000000,"state":"active","ping":61},{"user_id":411,"name":"rick and morty","steam_id":76561199034560505,"connected_time":360000000000,"state":"active","ping":131},{"user_id":412,"name":"Socialist Warrior","steam_id":76561198085664421,"connected_time":149000000000,"state":"active","ping":119}]},{"server_id":119,"name":"Uncletopia | Seattle | 2 | All Maps","name_short":"sea-2","host":"sea-1.us.uncletopia.com","port":27025,"enabled":true,"region":"us-west","cc":"us","latitude":47.608013,"longitude":-122.33517,"reserved":0,"last_update":"0001-01-01T00:00:00Z","name_a2s":"Uncletopia | Seattle | 2 | All Maps","protocol":17,"map":"koth_highpass","folder":"tf","game":"Team Fortress","app_id":440,"player_count":0,"max_players":24,"Bots":0,"server_type":"Dedicated","server_os":"Linux","password":true,"vac":true,"version":"7961495","steam_id":85568392924469998,"keywords":["cp","nocrits","nodmgspread","uncletopia"],"game_id":440,"stv_port":27026,"stv_name":"Uncletopia | Seattle | 2 | All Maps | STV","players":null},{"server_id":406,"name":"Uncletopia | Seattle | 3 | Stopwatch","name_short":"sea-3","host":"sea-1.us.uncletopia.com","port":27035,"enabled":true,"region":"us-west","cc":"us","latitude":47.608013,"longitude":-122.33517,"reserved":0,"last_update":"0001-01-01T00:00:00Z","name_a2s":"Uncletopia | Seattle | 3 | Stopwatch","protocol":17,"map":"koth_highpass","folder":"tf","game":"Team Fortress","app_id":440,"player_count":0,"max_players":24,"Bots":0,"server_type":"Dedicated","server_os":"Linux","password":true,"vac":true,"version":"7961495","steam_id":85568392924515217,"keywords":["cp","nocrits","nodmgspread","uncletopia"],"game_id":440,"stv_port":27036,"stv_name":"Uncletopia | Seattle | 3 | Stopwatch | STV","players":null},{"server_id":17,"name":"Uncletopia | San Francisco | 1 | All Maps","name_short":"sfo-1","host":"sfo-1.us.uncletopia.com","port":27015,"enabled":true,"region":"us-west","cc":"us","latitude":37.77397,"longitude":-122.4313,"reserved":0,"last_update":"0001-01-01T00:00:00Z","name_a2s":"Uncletopia | San Francisco | 1 | All Maps","protocol":17,"map":"koth_cascade","folder":"tf","game":"Team Fortress","app_id":440,"player_count":0,"max_players":24,"Bots":0,"server_type":"Dedicated","server_os":"Linux","password":true,"vac":true,"version":"7961495","steam_id":85568392924469999,"keywords":["cp","nocrits","nodmgspread","uncletopia"],"game_id":440,"stv_port":27016,"stv_name":"Uncletopia | San Francisco | 1 | All Maps | STV","players":null},{"server_id":18,"name":"Uncletopia | San Francisco | 2 | All Maps","name_short":"sfo-2","host":"sfo-1.us.uncletopia.com","port":27025,"enabled":true,"region":"us-west","cc":"us","latitude":37.77397,"longitude":-122.4313,"reserved":0,"last_update":"0001-01-01T00:00:00Z","name_a2s":"Uncletopia | San Francisco | 2 | All Maps","protocol":17,"map":"cp_process_final","folder":"tf","game":"Team Fortress","app_id":440,"player_count":0,"max_players":24,"Bots":0,"server_type":"Dedicated","server_os":"Linux","password":true,"vac":true,"version":"7961495","steam_id":85568392924470000,"keywords":["cp","nocrits","nodmgspread","uncletopia"],"game_id":440,"stv_port":27026,"stv_name":"Uncletopia | San Francisco | 2 | All Maps | STV","players":null},{"server_id":19,"name":"Uncletopia | San Francisco | 3 | Stopwatch","name_short":"sfo-3","host":"sfo-1.us.uncletopia.com","port":27035,"enabled":true,"region":"us-west","cc":"us","latitude":37.77397,"longitude":-122.4313,"reserved":0,"last_update":"0001-01-01T00:00:00Z","name_a2s":"Uncletopia | San Francisco | 3 | Stopwatch","protocol":17,"map":"workshop/cp_process_f12.ugc2302948105","folder":"tf","game":"Team Fortress","app_id":440,"player_count":0,"max_players":24,"Bots":0,"server_type":"Dedicated","server_os":"Linux","password":true,"vac":true,"version":"7961495","steam_id":85568392924742824,"keywords":["cp","nocrits","nodmgspread","uncletopia"],"game_id":440,"stv_port":27036,"stv_name":"Uncletopia | San Francisco | 3 | Stopwatch | STV","players":null},{"server_id":20,"name":"Uncletopia | San Francisco | 4 | Community","name_short":"sfo-4","host":"sfo-1.us.uncletopia.com","port":27045,"enabled":true,"region":"us-west","cc":"us","latitude":37.77397,"longitude":-122.4313,"reserved":0,"last_update":"0001-01-01T00:00:00Z","name_a2s":"Uncletopia | San Francisco | 4 | Community","protocol":17,"map":"pl_pier","folder":"tf","game":"Team Fortress","app_id":440,"player_count":0,"max_players":24,"Bots":0,"server_type":"Dedicated","server_os":"Linux","password":true,"vac":true,"version":"7961495","steam_id":85568392924742826,"keywords":["nocrits","nodmgspread","payload","uncletopia"],"game_id":440,"stv_port":27046,"stv_name":"Uncletopia | San Francisco | 4 | Community | STV","players":null},{"server_id":141,"name":"Uncletopia | Sydney | 1 | All Maps","name_short":"syd-1","host":"syd-1.au.uncletopia.com","port":27015,"enabled":true,"region":"au","cc":"au","latitude":-33.865143,"longitude":151.2099,"reserved":0,"last_update":"0001-01-01T00:00:00Z","name_a2s":"Uncletopia | Sydney | 1 | All Maps","protocol":17,"map":"koth_viaduct","folder":"tf","game":"Team Fortress","app_id":440,"player_count":0,"max_players":24,"Bots":0,"server_type":"Dedicated","server_os":"Linux","password":true,"vac":true,"version":"7961495","steam_id":85568392924470001,"keywords":["cp","nocrits","nodmgspread","uncletopia"],"game_id":440,"stv_port":27016,"stv_name":"Uncletopia | Sydney | 1 | All Maps | STV","players":null},{"server_id":123,"name":"Uncletopia | Sydney | 2 | All Maps","name_short":"syd-2","host":"syd-1.au.uncletopia.com","port":27025,"enabled":true,"region":"au","cc":"au","latitude":-33.865143,"longitude":151.2099,"reserved":0,"last_update":"0001-01-01T00:00:00Z","name_a2s":"Uncletopia | Sydney | 2 | All Maps","protocol":17,"map":"koth_lakeside_final","folder":"tf","game":"Team Fortress","app_id":440,"player_count":0,"max_players":24,"Bots":0,"server_type":"Dedicated","server_os":"Linux","password":true,"vac":true,"version":"7961495","steam_id":85568392924470002,"keywords":["cp","nocrits","nodmgspread","uncletopia"],"game_id":440,"stv_port":27026,"stv_name":"Uncletopia | Sydney | 2 | All Maps | STV","players":null},{"server_id":395,"name":"Uncletopia | Sydney | 3 | All Maps","name_short":"syd-3","host":"syd-1.au.uncletopia.com","port":27035,"enabled":true,"region":"au","cc":"au","latitude":-33.865143,"longitude":151.2099,"reserved":0,"last_update":"0001-01-01T00:00:00Z","name_a2s":"Uncletopia | Sydney | 3 | All Maps","protocol":17,"map":"pl_frontier_final","folder":"tf","game":"Team Fortress","app_id":440,"player_count":0,"max_players":24,"Bots":0,"server_type":"Dedicated","server_os":"Linux","password":true,"vac":true,"version":"7961495","steam_id":85568392925194467,"keywords":["nocrits","nodmgspread","payload","uncletopia"],"game_id":440,"stv_port":27036,"stv_name":"Uncletopia | Sydney | 3 | All Maps | STV","players":null},{"server_id":396,"name":"Uncletopia | Sydney | 4 | All Maps","name_short":"syd-4","host":"syd-1.au.uncletopia.com","port":27045,"enabled":true,"region":"au","cc":"au","latitude":-33.865143,"longitude":151.2099,"reserved":0,"last_update":"0001-01-01T00:00:00Z","name_a2s":"Uncletopia | Sydney | 4 | All Maps","protocol":17,"map":"cp_process_final","folder":"tf","game":"Team Fortress","app_id":440,"player_count":0,"max_players":24,"Bots":0,"server_type":"Dedicated","server_os":"Linux","password":true,"vac":true,"version":"7961495","steam_id":85568392925397958,"keywords":["cp","nocrits","nodmgspread","uncletopia"],"game_id":440,"stv_port":27046,"stv_name":"Uncletopia | Sydney | 4 | All Maps | STV","players":null},{"server_id":58,"name":"Uncletopia | Sydney | 5 | Stopwatch","name_short":"syd-5","host":"syd-1.au.uncletopia.com","port":27055,"enabled":true,"region":"au","cc":"au","latitude":-33.865143,"longitude":151.2099,"reserved":0,"last_update":"0001-01-01T00:00:00Z","name_a2s":"Uncletopia | Sydney | 5 | Stopwatch","protocol":17,"map":"pl_frontier_final","folder":"tf","game":"Team Fortress","app_id":440,"player_count":0,"max_players":24,"Bots":0,"server_type":"Dedicated","server_os":"Linux","password":true,"vac":true,"version":"7961495","steam_id":85568392925397959,"keywords":["nocrits","nodmgspread","payload","uncletopia"],"game_id":440,"stv_port":27056,"stv_name":"Uncletopia | Sydney | 5 | Stopwatch | STV","players":null},{"server_id":59,"name":"Uncletopia | Sydney | 6 | Community","name_short":"syd-6","host":"syd-1.au.uncletopia.com","port":27065,"enabled":true,"region":"au","cc":"au","latitude":-33.865143,"longitude":151.2099,"reserved":0,"last_update":"0001-01-01T00:00:00Z","name_a2s":"Uncletopia | Sydney | 6 | Community","protocol":17,"map":"cp_sunshine","folder":"tf","game":"Team Fortress","app_id":440,"player_count":0,"max_players":24,"Bots":0,"server_type":"Dedicated","server_os":"Linux","password":true,"vac":true,"version":"7961495","steam_id":85568392925397960,"keywords":["cp","nocrits","nodmgspread","uncletopia"],"game_id":440,"stv_port":27066,"stv_name":"Uncletopia | Sydney | 6 | Community | STV","players":null},{"server_id":49,"name":"Uncletopia | Warsaw | 1 | One Thousand Uncles","name_short":"waw-1","host":"waw-1.pl.uncletopia.com","port":27015,"enabled":true,"region":"eu","cc":"pl","latitude":52.2297,"longitude":21.017532,"reserved":0,"last_update":"0001-01-01T00:00:00Z","name_a2s":"Uncletopia | Warsaw | 1 | One Thousand Uncles","protocol":17,"map":"pl_barnblitz","folder":"tf","game":"Team Fortress","app_id":440,"player_count":31,"max_players":32,"Bots":16,"server_type":"Dedicated","server_os":"Linux","password":true,"vac":true,"version":"7961495","steam_id":85568392925397850,"keywords":["alltalk","bots","danepve","increased_maxplayers","nocrits","norespawntime","payload","uncletopia"],"game_id":440,"stv_port":0,"stv_name":"","players":[{"user_id":183,"name":"alcoholic 7blak","steam_id":76561198078928120,"connected_time":8985000000000,"state":"active","ping":57},{"user_id":327,"name":"deloreg (engineer gaming)","steam_id":76561199487318962,"connected_time":367000000000,"state":"active","ping":39},{"user_id":320,"name":"tzlil","steam_id":76561198399916290,"connected_time":604000000000,"state":"active","ping":121},{"user_id":306,"name":"luckyastroman","steam_id":76561199027500574,"connected_time":818000000000,"state":"active","ping":43},{"user_id":274,"name":"≈†tƒõp√°n","steam_id":76561198275742101,"connected_time":4004000000000,"state":"active","ping":71},{"user_id":329,"name":"Kachanus","steam_id":76561198114120156,"connected_time":224000000000,"state":"active","ping":40},{"user_id":328,"name":"please do not the cat","steam_id":76561198089003514,"connected_time":341000000000,"state":"active","ping":66},{"user_id":302,"name":"bzzt","steam_id":76561198027576283,"connected_time":2157000000000,"state":"active","ping":72},{"user_id":254,"name":"chgivan","steam_id":76561198060010064,"connected_time":5172000000000,"state":"active","ping":97},{"user_id":332,"name":"Greg","steam_id":76561198014131702,"connected_time":48000000000,"state":"active","ping":127},{"user_id":255,"name":"TekuSP","steam_id":76561198072367754,"connected_time":5085000000000,"state":"active","ping":50},{"user_id":275,"name":"Samuel L. Jackson","steam_id":76561198130427881,"connected_time":3997000000000,"state":"active","ping":177},{"user_id":256,"name":"meow (they/them)","steam_id":76561198416657815,"connected_time":4984000000000,"state":"active","ping":89},{"user_id":308,"name":"impossible whopper eater","steam_id":76561198058641805,"connected_time":699000000000,"state":"active","ping":83},{"user_id":333,"name":"mat","steam_id":76561198824697295,"connected_time":7000000000,"state":"spawning","ping":95}]},{"server_id":50,"name":"Uncletopia | Warsaw | 2 | One Thousand Uncles","name_short":"waw-2","host":"waw-1.pl.uncletopia.com","port":27025,"enabled":true,"region":"eu","cc":"pl","latitude":52.2297,"longitude":21.017532,"reserved":0,"last_update":"0001-01-01T00:00:00Z","name_a2s":"Uncletopia | Warsaw | 2 | One Thousand Uncles","protocol":17,"map":"pl_barnblitz","folder":"tf","game":"Team Fortress","app_id":440,"player_count":29,"max_players":32,"Bots":16,"server_type":"Dedicated","server_os":"Linux","password":true,"vac":true,"version":"7961495","steam_id":85568392925397851,"keywords":["alltalk","bots","danepve","increased_maxplayers","nocrits","norespawntime","payload","uncletopia"],"game_id":440,"stv_port":0,"stv_name":"","players":[{"user_id":640,"name":"conykevin","steam_id":76561198111864971,"connected_time":11102000000000,"state":"active","ping":72},{"user_id":770,"name":"Voxiit","steam_id":76561198060319116,"connected_time":11000000000,"state":"active","ping":69},{"user_id":739,"name":"orneps489","steam_id":76561199124755916,"connected_time":2142000000000,"state":"active","ping":141},{"user_id":768,"name":"GeraldyJones65","steam_id":76561199122297098,"connected_time":444000000000,"state":"active","ping":142},{"user_id":762,"name":"Grandfather Boris","steam_id":76561198175048651,"connected_time":1018000000000,"state":"active","ping":59},{"user_id":731,"name":"arix123","steam_id":76561198933988144,"connected_time":3947000000000,"state":"active","ping":45},{"user_id":725,"name":"God","steam_id":76561199049925843,"connected_time":4525000000000,"state":"active","ping":98},{"user_id":736,"name":"Monke Hartmann","steam_id":76561198281389701,"connected_time":2800000000000,"state":"active","ping":106},{"user_id":726,"name":"sjor Mikic","steam_id":76561199219053205,"connected_time":4518000000000,"state":"active","ping":90},{"user_id":727,"name":"Baked.","steam_id":76561198011531333,"connected_time":4508000000000,"state":"active","ping":101},{"user_id":738,"name":"M2rtRa","steam_id":76561198111036466,"connected_time":2473000000000,"state":"active","ping":88},{"user_id":763,"name":"Meladoom2","steam_id":76561198086845387,"connected_time":944000000000,"state":"active","ping":99},{"user_id":766,"name":"muztikmuztiko","steam_id":76561199272029074,"connected_time":857000000000,"state":"active","ping":104}]},{"server_id":51,"name":"Uncletopia | Warsaw | 3 | All Maps","name_short":"waw-3","host":"waw-1.pl.uncletopia.com","port":27035,"enabled":true,"region":"eu","cc":"pl","latitude":52.2297,"longitude":21.017532,"reserved":0,"last_update":"0001-01-01T00:00:00Z","name_a2s":"Uncletopia | Warsaw | 3 | All Maps","protocol":17,"map":"pl_swiftwater_final1","folder":"tf","game":"Team Fortress","app_id":440,"player_count":0,"max_players":24,"Bots":0,"server_type":"Dedicated","server_os":"Linux","password":true,"vac":true,"version":"7961495","steam_id":85568392925397852,"keywords":["nocrits","nodmgspread","payload","uncletopia"],"game_id":440,"stv_port":27036,"stv_name":"Uncletopia | Warsaw | 3 | All Maps | STV","players":null},{"server_id":52,"name":"Uncletopia | Warsaw | 4 | All Maps","name_short":"waw-4","host":"waw-1.pl.uncletopia.com","port":27045,"enabled":true,"region":"eu","cc":"pl","latitude":52.2297,"longitude":21.017532,"reserved":0,"last_update":"0001-01-01T00:00:00Z","name_a2s":"Uncletopia | Warsaw | 4 | All Maps","protocol":17,"map":"pl_swiftwater_final1","folder":"tf","game":"Team Fortress","app_id":440,"player_count":0,"max_players":24,"Bots":0,"server_type":"Dedicated","server_os":"Linux","password":true,"vac":true,"version":"7961495","steam_id":85568392925397853,"keywords":["nocrits","nodmgspread","payload","uncletopia"],"game_id":440,"stv_port":27046,"stv_name":"Uncletopia | Warsaw | 4 | All Maps | STV","players":null},{"server_id":53,"name":"Uncletopia | Warsaw | 5 | Stopwatch","name_short":"waw-5","host":"waw-1.pl.uncletopia.com","port":27055,"enabled":true,"region":"eu","cc":"pl","latitude":52.2297,"longitude":21.017532,"reserved":0,"last_update":"0001-01-01T00:00:00Z","name_a2s":"Uncletopia | Warsaw | 5 | Stopwatch","protocol":17,"map":"workshop/koth_clearcut_b15.ugc2107050255","folder":"tf","game":"Team Fortress","app_id":440,"player_count":0,"max_players":24,"Bots":0,"server_type":"Dedicated","server_os":"Linux","password":true,"vac":true,"version":"7961495","steam_id":85568392925397854,"keywords":["cp","nocrits","nodmgspread","uncletopia"],"game_id":440,"stv_port":27056,"stv_name":"Uncletopia | Warsaw | 5 | Stopwatch | STV","players":null},{"server_id":54,"name":"Uncletopia | Warsaw | 6 | Community","name_short":"waw-6","host":"waw-1.pl.uncletopia.com","port":27065,"enabled":true,"region":"eu","cc":"pl","latitude":52.2297,"longitude":21.017532,"reserved":0,"last_update":"0001-01-01T00:00:00Z","name_a2s":"Uncletopia | Warsaw | 6 | Community","protocol":17,"map":"workshop/pl_badwater_pro_v12.ugc2142942074","folder":"tf","game":"Team Fortress","app_id":440,"player_count":0,"max_players":24,"Bots":0,"server_type":"Dedicated","server_os":"Linux","password":true,"vac":true,"version":"7961495","steam_id":85568392925397856,"keywords":["nocrits","nodmgspread","payload","uncletopia"],"game_id":440,"stv_port":27066,"stv_name":"Uncletopia | Warsaw | 6 | Community | STV","players":null}]}