{"status":true,"message":"","result":[{"server_id":9,"name":"Uncletopia | Atlanta | 1 | All Maps","name_short":"atl-1","host":"atl-1.us.uncletopia.com","port":27015,"enabled":true,"region":"us-east","cc":"us","latitude":33.753746,"longitude":-84.38633,"reserved":0,"last_update":"0001-01-01T00:00:00Z","name_a2s":"Uncletopia | Atlanta | 1 | All Maps","protocol":17,"map":"cp_gorge","folder":"tf","game":"Team Fortress","app_id":440,"player_count":24,"max_players":24,"Bots":0,"server_type":"Dedicated","server_os":"Linux","password":true,"vac":true,"version":"7961495","steam_id":85568392924469982,"keywords":["cp","nocrits","nodmgspread","uncletopia"],"game_id":440,"stv_port":27016,"stv_name":"Uncletopia | Atlanta | 1 | All Maps | STV","players":null},{"server_id":104,"name":"Uncletopia | Atlanta | 2 | All Maps","name_short":"atl-2","host":"atl-1.us.uncletopia.com","port":27025,"enabled":true,"region":"us-east","cc":"us","latitude":33.753746,"longitude":-84.38633,"reserved":0,"last_update":"0001-01-01T00:00:00Z","name_a2s":"Uncletopia | Atlanta | 2 | All Maps","protocol":17,"map":"cp_process_final","folder":"tf","game":"Team Fortress","app_id":440,"player_count":0,"max_players":24,"Bots":0,"server_type":"Dedicated","server_os":"Linux","password":true,"vac":true,"version":"7961495","steam_id":85568392924469983,"keywords":["cp","nocrits","nodmgspread","uncletopia"],"game_id":440,"stv_port":27026,"stv_name":"Uncletopia | Atlanta | 2 | All Maps | STV","players":null},{"server_id":400,"name":"Uncletopia | Atlanta | 3 | Stopwatch","name_short":"atl-3","host":"atl-1.us.uncletopia.com","port":27035,"enabled":true,"region":"us-east","cc":"us","latitude":33.753746,"longitude":-84.38633,"reserved":0,"last_update":"0001-01-01T00:00:00Z","name_a2s":"Uncletopia | Atlanta | 3 | Stopwatch","protocol":17,"map":"pl_summercoast_rc8e","folder":"tf","game":"Team Fortress","app_id":440,"player_count":0,"max_players":24,"Bots":0,"server_type":"Dedicated","server_os":"Linux","password":true,"vac":true,"version":"7961495","steam_id":85568392924515187,"keywords":["nocrits","nodmgspread","payload","uncletopia"],"game_id":440,"stv_port":27036,"stv_name":"Uncletopia | Atlanta | 3 | Stopwatch | STV","players":null},{"server_id":401,"name":"Uncletopia | Atlanta | 4 | Community","name_short":"atl-4","host":"atl-1.us.uncletopia.com","port":27045,"enabled":true,"region":"us-east","cc":"us","latitude":33.753746,"longitude":-84.38633,"reserved":0,"last_update":"0001-01-01T00:00:00Z","name_a2s":"Uncletopia | Atlanta | 4 | Community","protocol":17,"map":"cp_mannbase_rc2a","folder":"tf","game":"Team Fortress","app_id":440,"player_count":0,"max_players":24,"Bots":0,"server_type":"Dedicated","server_os":"Linux","password":true,"vac":true,"version":"7961495","steam_id":85568392924515188,"keywords":["cp","nocrits","nodmgspread","uncletopia"],"game_id":440,"stv_port":27046,"stv_name":"Uncletopia | Atlanta | 4 | Community | STV","players":null},{"server_id":2,"name":"Uncletopia | Chicago | 1 | All Maps","name_short":"chi-1","host":"chi-1.us.uncletopia.com","port":27015,"enabled":true,"region":"us-central","cc":"us","latitude":41.881832,"longitude":-87.62318,"reserved":0,"last_update":"0001-01-01T00:00:00Z","name_a2s":"Uncletopia | Chicago | 1 | All Maps","protocol":17,"map":"pl_badwater","folder":"tf","game":"Team Fortress","app_id":440,"player_count":24,"max_players":24,"Bots":0,"server_type":"Dedicated","server_os":"Linux","password":true,"vac":true,"version":"7961495","steam_id":85568392924469984,"keywords":["nocrits","nodmgspread","payload","uncletopia"],"game_id":440,"stv_port":27016,"stv_name":"Uncletopia | Chicago | 1 | All Maps | STV","players":[{"user_id":86,"name":"rudy","steam_id":76561198088712799,"connected_time":1006000000000,"state":"active","ping":85},{"user_id":37,"name":"AveMoSwag","steam_id":76561198261701911,"connected_time":2810000000000,"state":"active","ping":55},{"user_id":59,"name":"Harambe","steam_id":76561198057718791,"connected_time":1692000000000,"state":"active","ping":45},{"user_id":75,"name":"e doctor","steam_id":76561198081851446,"connected_time":1216000000000,"state":"active","ping":45},{"user_id":16,"name":"Mrink","steam_id":76561199027165750,"connected_time":3530000000000,"state":"active","ping":119},{"user_id":76,"name":"Portaldude626","steam_id":76561198954610452,"connected_time":1194000000000,"state":"active","ping":76},{"user_id":14,"name":"viliamoleosdev","steam_id":76561199485194793,"connected_time":3602000000000,"state":"active","ping":192},{"user_id":85,"name":"Mr. Dick™","steam_id":76561198047309044,"connected_time":1043000000000,"state":"active","ping":67},{"user_id":67,"name":"Sugary","steam_id":76561198088267265,"connected_time":1330000000000,"state":"active","ping":105},{"user_id":71,"name":"Grunt420","steam_id":76561199407313140,"connected_time":1233000000000,"state":"active","ping":175},{"user_id":73,"name":"TLG, Certified Gamer Mom","steam_id":76561198076669951,"connected_time":1229000000000,"state":"active","ping":70},{"user_id":53,"name":"BlazingWaters","steam_id":76561198136322660,"connected_time":2022000000000,"state":"active","ping":89},{"user_id":46,"name":"Huloon","steam_id":76561198070837568,"connected_time":2401000000000,"state":"active","ping":69},{"user_id":90,"name":"OPEN","steam_id":76561198067994868,"connected_time":83000000000,"state":"active","ping":64},{"user_id":23,"name":"firelord","steam_id":76561198254188888,"connected_time":3412000000000,"state":"active","ping":73},{"user_id":61,"name":"subdromeda","steam_id":76561198884351860,"connected_time":1460000000000,"state":"active","ping":62},{"user_id":58,"name":"Medi","steam_id":76561198160010984,"connected_time":1812000000000,"state":"active","ping":89},{"user_id":92,"name":"Senator Armstrong","steam_id":76561198097998607,"connected_time":12000000000,"state":"active","ping":69},{"user_id":39,"name":"WishMakers","steam_id":76561198061533565,"connected_time":2785000000000,"state":"active","ping":69},{"user_id":55,"name":"U.n.k","steam_id":76561198329242141,"connected_time":2015000000000,"state":"active","ping":81},{"user_id":56,"name":"twink gaming","steam_id":76561199117379404,"connected_time":1975000000000,"state":"active","ping":107},{"user_id":87,"name":"Olitude","steam_id":76561199238964574,"connected_time":873000000000,"state":"active","ping":74},{"user_id":88,"name":"JoCaleb02","steam_id":76561198272389829,"connected_time":751000000000,"state":"active","ping":70},{"user_id":60,"name":"Hershey Squirts","steam_id":76561198086261882,"connected_time":1635000000000,"state":"active","ping":64}]},{"server_id":106,"name":"Uncletopia | Chicago | 2 | All Maps","name_short":"chi-2","host":"chi-1.us.uncletopia.com","port":27025,"enabled":true,"region":"us-central","cc":"us","latitude":41.881832,"longitude":-87.62318,"reserved":0,"last_update":"0001-01-01T00:00:00Z","name_a2s":"Uncletopia | Chicago | 2 | All Maps","protocol":17,"map":"koth_lakeside_final","folder":"tf","game":"Team Fortress","app_id":440,"player_count":0,"max_players":24,"Bots":0,"server_type":"Dedicated","server_os":"Linux","password":true,"vac":true,"version":"7961495","steam_id":85568392924469985,"keywords":["cp","nocrits","nodmgspread","uncletopia"],"game_id":440,"stv_port":27026,"stv_name":"Uncletopia | Chicago | 2 | All Maps | STV","players":null},{"server_id":402,"name":"Uncletopia | Chicago | 3 | All Maps","name_short":"chi-3","host":"chi-1.us.uncletopia.com","port":27035,"enabled":true,"region":"us-central","cc":"us","latitude":41.881832,"longitude":-87.62318,"reserved":0,"last_update":"0001-01-01T00:00:00Z","name_a2s":"Uncletopia | Chicago | 3 | All Maps","protocol":17,"map":"cp_dustbowl","folder":"tf","game":"Team Fortress","app_id":440,"player_count":0,"max_players":24,"Bots":0,"server_type":"Dedicated","server_os":"Linux","password":true,"vac":true,"version":"7961495","steam_id":85568392924515191,"keywords":["cp","nocrits","nodmgspread","uncletopia"],"game_id":440,"stv_port":27036,"stv_name":"Uncletopia | Chicago | 3 | All Maps | STV","players":null},{"server_id":403,"name":"Uncletopia | Chicago | 4 | All Maps","name_short":"chi-4","host":"chi-1.us.uncletopia.com","port":27045,"enabled":true,"region":"us-central","cc":"us","latitude":41.881832,"longitude":-87.62318,"reserved":0,"last_update":"0001-01-01T00:00:00Z","name_a2s":"Uncletopia | Chicago | 4 | All Maps","protocol":17,"map":"plr_bananabay","folder":"tf","game":"Team Fortress","app_id":440,"player_count":20,"max_players":24,"Bots":0,"server_type":"Dedicated","server_os":"Linux","password":true,"vac":true,"version":"7961495","steam_id":85568392924515193,"keywords":["nocrits","nodmgspread","payload","uncletopia"],"game_id":440,"stv_port":27046,"stv_name":"Uncletopia | Chicago | 4 | All Maps | STV","players":[{"user_id":201,"name":"Sailor Galaxy Planet Man","steam_id":76561198039569373,"connected_time":98000000000,"state":"active","ping":56},{"user_id":193,"name":"Knuckles","steam_id":76561198000704259,"connected_time":788000000000,"state":"active","ping":55},{"user_id":176,"name":"Rustyorion","steam_id":76561198439186347,"connected_time":1908000000000,"state":"active","ping":103},{"user_id":203,"name":"Luna","steam_id":76561198170646922,"connected_time":78000000000,"state":"active","ping":85},{"user_id":202,"name":"Kirby Knight tf2","steam_id":76561199070864271,"connected_time":93000000000,"state":"active","ping":54},{"user_id":204,"name":"Mog","steam_id":76561198025575870,"connected_time":74000000000,"state":"active","ping":60},{"user_id":205,"name":"think about it","steam_id":76561198241948526,"connected_time":69000000000,"state":"active","ping":59},{"user_id":206,"name":"On The Bright Side...","steam_id":76561198168785883,"connected_time":27000000000,"state":"spawning","ping":38},{"user_id":189,"name":"basilberry","steam_id":76561198145275937,"connected_time":1148000000000,"state":"active","ping":89},{"user_id":129,"name":"taigaxx","steam_id":76561198202669250,"connected_time":4983000000000,"state":"active","ping":69},{"user_id":174,"name":"gretchling","steam_id":76561198046111695,"connected_time":2263000000000,"state":"active","ping":65},{"user_id":194,"name":"[NAME-REDACTED]","steam_id":76561198035682975,"connected_time":493000000000,"state":"active","ping":68},{"user_id":198,"name":"FAKE TAXI PRANKS","steam_id":76561198136746987,"connected_time":124000000000,"state":"active","ping":72},{"user_id":74,"name":"Invis","steam_id":76561198084260431,"connected_time":8203000000000,"state":"active","ping":79},{"user_id":199,"name":"Catgirl queef :3","steam_id":76561199015827567,"connected_time":109000000000,"state":"active","ping":75},{"user_id":183,"name":"Boomerish","steam_id":76561198083946878,"connected_time":1686000000000,"state":"active","ping":72},{"user_id":177,"name":"Niλiwiλi, ▼iscount of ▼io","steam_id":76561198009193777,"connected_time":1904000000000,"state":"active","ping":73},{"user_id":159,"name":"Lifial","steam_id":76561198271885819,"connected_time":3314000000000,"state":"active","ping":76},{"user_id":191,"name":"Larry Cañonga","steam_id":76561198081053203,"connected_time":1034000000000,"state":"active","ping":143},{"user_id":173,"name":"freyja","steam_id":76561198249206656,"connected_time":2405000000000,"state":"active","ping":65}]},{"server_id":36,"name":"Uncletopia | Chicago | 5 | All Maps","name_short":"chi-5","host":"chi-2.us.uncletopia.com","port":27015,"enabled":true,"region":"us-central","cc":"us","latitude":41.881832,"longitude":-87.62318,"reserved":0,"last_update":"0001-01-01T00:00:00Z","name_a2s":"Uncletopia | Chicago | 5 | All Maps","protocol":17,"map":"cp_mountainlab","folder":"tf","game":"Team Fortress","app_id":440,"player_count":0,"max_players":24,"Bots":0,"server_type":"Dedicated","server_os":"Linux","password":true,"vac":true,"version":"7961495","steam_id":85568392924866362,"keywords":["cp","nocrits","nodmgspread","uncletopia"],"game_id":440,"stv_port":27016,"stv_name":"Uncletopia | Chicago | 5 | All Maps | STV","players":null},{"server_id":37,"name":"Uncletopia | Chicago | 6 | All Maps","name_short":"chi-6","host":"chi-2.us.uncletopia.com","port":27025,"enabled":true,"region":"us-central","cc":"us","latitude":41.881832,"longitude":-87.62318,"reserved":0,"last_update":"0001-01-01T00:00:00Z","name_a2s":"Uncletopia | Chicago | 6 | All Maps","protocol":17,"map":"pl_frontier_final","folder":"tf","game":"Team Fortress","app_id":440,"player_count":0,"max_players":24,"Bots":0,"server_type":"Dedicated","server_os":"Linux","password":true,"vac":true,"version":"7961495","steam_id":85568392924866363,"keywords":["nocrits","nodmgspread","payload","uncletopia"],"game_id":440,"stv_port":27026,"stv_name":"Uncletopia | Chicago | 6 | All Maps | STV","players":null},{"server_id":38,"name":"Uncletopia | Chicago | 7 | Stopwatch","name_short":"chi-7","host":"chi-2.us.uncletopia.com","port":27035,"enabled":true,"region":"us-central","cc":"us","latitude":41.881832,"longitude":-87.62318,"reserved":0,"last_update":"0001-01-01T00:00:00Z","name_a2s":"Uncletopia | Chicago | 7 | Stopwatch","protocol":17,"map":"koth_highpass","folder":"tf","game":"Team Fortress","app_id":440,"player_count":0,"max_players":24,"Bots":0,"server_type":"Dedicated","server_os":"Linux","password":true,"vac":true,"version":"7961495","steam_id":85568392924866364,"keywords":["cp","nocrits","nodmgspread","uncletopia"],"game_id":440,"stv_port":27036,"stv_name":"Uncletopia | Chicago | 7 | Stopwatch | STV","players":null},{"server_id":39,"name":"Uncletopia | Chicago | 8 | Community","name_short":"chi-8","host":"chi-2.us.uncletopia.com","port":27045,"enabled":true,"region":"us-central","cc":"us","latitude":41.881832,"longitude":-87.62318,"reserved":0,"last_update":"0001-01-01T00:00:00Z","name_a2s":"Uncletopia | Chicago | 8 | Community","protocol":17,"map":"workshop/pl_emerge_rc2.ugc888027758","folder":"tf","game":"Team Fortress","app_id":440,"player_count":0,"max_players":24,"Bots":0,"server_type":"Dedicated","server_os":"Linux","password":true,"vac":true,"version":"7961495","steam_id":85568392924866365,"keywords":["nocrits","nodmgspread","payload","uncletopia"],"game_id":440,"stv_port":27046,"stv_name":"Uncletopia | Chicago | 8 | Community | STV","players":null},{"server_id":8,"name":"Uncletopia | Dallas | 1 | All Maps","name_short":"dal-1","host":"dal-1.us.uncletopia.com","port":27015,"enabled":true,"region":"us-central","cc":"us","latitude":32.779167,"longitude":-96.80889,"reserved":0,"last_update":"0001-01-01T00:00:00Z","name_a2s":"Uncletopia | Dallas | 1 | All Maps","protocol":17,"map":"koth_viaduct","folder":"tf","game":"Team Fortress","app_id":440,"player_count":18,"max_players":24,"Bots":0,"server_type":"Dedicated","server_os":"Linux","password":true,"vac":true,"version":"7961495","steam_id":85568392924469986,"keywords":["cp","nocrits","nodmgspread","uncletopia"],"game_id":440,"stv_port":27016,"stv_name":"Uncletopia | Dallas | 1 | All Maps | STV","players":[{"user_id":8,"name":"GX thedittoguy","steam_id":76561199013129784,"connected_time":1180000000000,"state":"active","ping":54},{"user_id":9,"name":"GX Compress Dong","steam_id":76561198018950826,"connected_time":1139000000000,"state":"active","ping":87},{"user_id":13,"name":"ShadowWasUhOh","steam_id":76561198400361935,"connected_time":824000000000,"state":"active","ping":77},{"user_id":11,"name":"duckie","steam_id":76561198333163800,"connected_time":1005000000000,"state":"active","ping":81},{"user_id":12,"name":"LitchCraft271","steam_id":76561199072151338,"connected_time":972000000000,"state":"active","ping":140},{"user_id":14,"name":"Enderlord99","steam_id":76561198158152954,"connected_time":552000000000,"state":"active","ping":95},{"user_id":15,"name":"KaijuCowBelle","steam_id":76561198191619439,"connected_time":387000000000,"state":"active","ping":74},{"user_id":16,"name":"Andy","steam_id":76561198043115724,"connected_time":358000000000,"state":"active","ping":131},{"user_id":17,"name":"Morbea","steam_id":76561199071098451,"connected_time":329000000000,"state":"active","ping":80},{"user_id":18,"name":"schmuck","steam_id":76561198143789773,"connected_time":302000000000,"state":"active","ping":54},{"user_id":19,"name":"Olympic Toe Curling","steam_id":76561198433807531,"connected_time":293000000000,"state":"active","ping":88},{"user_id":20,"name":"TheBiggestBlueberry","steam_id":76561198045095462,"connected_time":215000000000,"state":"active","ping":74},{"user_id":22,"name":"SlawBunny","steam_id":76561198094913841,"connected_time":109000000000,"state":"active","ping":75},{"user_id":23,"name":"doubleit\u0026giveit.tothenextperson","steam_id":76561198115458307,"connected_time":101000000000,"state":"active","ping":75},{"user_id":24,"name":"2rats having sex in doritos bag","steam_id":76561198111669774,"connected_time":89000000000,"state":"active","ping":64},{"user_id":25,"name":"Frost Paraselene","steam_id":76561198007332517,"connected_time":59000000000,"state":"active","ping":60},{"user_id":26,"name":"BLØRG","steam_id":76561198036126673,"connected_time":54000000000,"state":"active","ping":70},{"user_id":27,"name":"The Assistant Regional Manager","steam_id":76561199221484936,"connected_time":41000000000,"state":"active","ping":90}]},{"server_id":108,"name":"Uncletopia | Dallas | 2 | All Maps","name_short":"dal-2","host":"dal-1.us.uncletopia.com","port":27025,"enabled":true,"region":"us-central","cc":"us","latitude":32.779167,"longitude":-96.80889,"reserved":0,"last_update":"0001-01-01T00:00:00Z","name_a2s":"Uncletopia | Dallas | 2 | All Maps","protocol":17,"map":"cp_dustbowl","folder":"tf","game":"Team Fortress","app_id":440,"player_count":24,"max_players":24,"Bots":0,"server_type":"Dedicated","server_os":"Linux","password":true,"vac":true,"version":"7961495","steam_id":85568392924469988,"keywords":["cp","nocrits","nodmgspread","uncletopia"],"game_id":440,"stv_port":27026,"stv_name":"Uncletopia | Dallas | 2 | All Maps | STV","players":[{"user_id":419,"name":"Pluto","steam_id":76561198338593690,"connected_time":353000000000,"state":"active","ping":88},{"user_id":408,"name":"double xp weekend","steam_id":76561198052950547,"connected_time":946000000000,"state":"active","ping":59},{"user_id":405,"name":"mkl","steam_id":76561197986401685,"connected_time":1035000000000,"state":"active","ping":55},{"user_id":382,"name":"Shooter of Walls","steam_id":76561197988105207,"connected_time":2648000000000,"state":"active","ping":85},{"user_id":349,"name":"Grasshopper506","steam_id":76561198111633418,"connected_time":4595000000000,"state":"active","ping":85},{"user_id":406,"name":"TOKENLIZARD","steam_id":76561198218765205,"connected_time":1032000000000,"state":"active","ping":60},{"user_id":390,"name":"¡No te entiendo inglés!","steam_id":76561198298364415,"connected_time":2327000000000,"state":"active","ping":116},{"user_id":384,"name":"Breakaway","steam_id":76561198089308523,"connected_time":2566000000000,"state":"active","ping":104},{"user_id":368,"name":"1000 Gigglebytes of clown girls","steam_id":76561198290719848,"connected_time":2949000000000,"state":"active","ping":95},{"user_id":371,"name":"Doctor Emerald(Bison Emperor)","steam_id":76561199123003872,"connected_time":2889000000000,"state":"active","ping":91},{"user_id":399,"name":"roythecyclops","steam_id":76561198055295759,"connected_time":1814000000000,"state":"active","ping":100},{"user_id":409,"name":"Dumpling","steam_id":76561198062763756,"connected_time":940000000000,"state":"active","ping":73},{"user_id":400,"name":"Artincendies","steam_id":76561198242373456,"connected_time":1745000000000,"state":"active","ping":77},{"user_id":393,"name":"Lucas","steam_id":76561198399704604,"connected_time":2253000000000,"state":"active","ping":98},{"user_id":256,"name":"Waluweebgi","steam_id":76561198825432603,"connected_time":7642000000000,"state":"active","ping":56},{"user_id":376,"name":"bobkattbro","steam_id":76561199009438984,"connected_time":2804000000000,"state":"active","ping":135},{"user_id":377,"name":"SCATTER","steam_id":76561198405168492,"connected_time":2801000000000,"state":"active","ping":101},{"user_id":411,"name":"Limitless","steam_id":76561198057139998,"connected_time":829000000000,"state":"active","ping":53},{"user_id":401,"name":"real gamer hours","steam_id":76561198169329362,"connected_time":1703000000000,"state":"active","ping":77},{"user_id":412,"name":"TheSmokingMan","steam_id":76561198032652995,"connected_time":824000000000,"state":"active","ping":62},{"user_id":415,"name":"Abysa.","steam_id":76561198424398862,"connected_time":761000000000,"state":"active","ping":147},{"user_id":380,"name":"Sergi338","steam_id":76561198201866231,"connected_time":2788000000000,"state":"active","ping":104},{"user_id":403,"name":"gooch_masta","steam_id":76561198151578423,"connected_time":1524000000000,"state":"active","ping":84}]},{"server_id":404,"name":"Uncletopia | Dallas | 3 | All Maps","name_short":"dal-3","host":"dal-1.us.uncletopia.com","port":27035,"enabled":true,"region":"us-central","cc":"us","latitude":32.779167,"longitude":-96.80889,"reserved":0,"last_update":"0001-01-01T00:00:00Z","name_a2s":"Uncletopia | Dallas | 3 | All Maps","protocol":17,"map":"pl_badwater","folder":"tf","game":"Team Fortress","app_id":440,"player_count":0,"max_players":24,"Bots":0,"server_type":"Dedicated","server_os":"Linux","password":true,"vac":true,"version":"7961495","steam_id":85568392924515219,"keywords":["nocrits","nodmgspread","payload","uncletopia"],"game_id":440,"stv_port":27036,"stv_name":"Uncletopia | Dallas | 3 | All Maps | STV","players":null},{"server_id":405,"name":"Uncletopia | Dallas | 4 | Community","name_short":"dal-4","host":"dal-1.us.uncletopia.com","port":27045,"enabled":true,"region":"us-central","cc":"us","latitude":32.779167,"longitude":-96.80889,"reserved":0,"last_update":"0001-01-01T00:00:00Z","name_a2s":"Uncletopia | Dallas | 4 | Community","protocol":17,"map":"pl_pier","folder":"tf","game":"Team Fortress","app_id":440,"player_count":0,"max_players":24,"Bots":0,"server_type":"Dedicated","server_os":"Linux","password":true,"vac":true,"version":"7961495","steam_id":85568392924515220,"keywords":["nocrits","nodmgspread","payload","uncletopia"],"game_id":440,"stv_port":27046,"stv_name":"Uncletopia | Dallas | 4 | Community | STV","players":null},{"server_id":5,"name":"Uncletopia | Frankfurt | 1 | All Maps","name_short":"frk-1","host":"frk-1.de.uncletopia.com","port":27015,"enabled":true,"region":"eu","cc":"de","latitude":50.110924,"longitude":8.682127,"reserved":0,"last_update":"0001-01-01T00:00:00Z","name_a2s":"Uncletopia | Frankfurt | 1 | All Maps","protocol":17,"map":"cp_badlands","folder":"tf","game":"Team Fortress","app_id":440,"player_count":21,"max_players":24,"Bots":0,"server_type":"Dedicated","server_os":"Linux","password":true,"vac":true,"version":"7961495","steam_id":85568392924469989,"keywords":["cp","nocrits","nodmgspread","uncletopia"],"game_id":440,"stv_port":27016,"stv_name":"Uncletopia | Frankfurt | 1 | All Maps | STV","players":[{"user_id":267,"name":"Ryothalka","steam_id":76561198999059599,"connected_time":86000000000,"state":"active","ping":46},{"user_id":202,"name":"MakSok","steam_id":76561198050889367,"connected_time":4033000000000,"state":"active","ping":116},{"user_id":234,"name":"Charmedelf","steam_id":76561197993611881,"connected_time":1601000000000,"state":"active","ping":55},{"user_id":268,"name":"zep","steam_id":76561197995909249,"connected_time":44000000000,"state":"active","ping":77},{"user_id":253,"name":"Skatnaset","steam_id":76561198298457353,"connected_time":729000000000,"state":"active","ping":72},{"user_id":246,"name":"veki","steam_id":76561199059047474,"connected_time":798000000000,"state":"active","ping":68},{"user_id":227,"name":"worgeral","steam_id":76561198050781898,"connected_time":2141000000000,"state":"active","ping":68},{"user_id":240,"name":"Veirū Viseris","steam_id":76561197989857176,"connected_time":1350000000000,"state":"active","ping":77},{"user_id":238,"name":"htraB","steam_id":76561198043122677,"connected_time":1506000000000,"state":"active","ping":53},{"user_id":245,"name":"KermSlinger","steam_id":76561198854027069,"connected_time":809000000000,"state":"active","ping":68},{"user_id":269,"name":"smörgåstårta","steam_id":76561198119449463,"connected_time":22000000000,"state":"active","ping":62},{"user_id":270,"name":"JodeXtreme","steam_id":76561198044132935,"connected_time":7000000000,"state":"spawning","ping":97},{"user_id":152,"name":"Sham!","steam_id":76561198050434275,"connected_time":8055000000000,"state":"active","ping":52},{"user_id":241,"name":"the joy of recycling","steam_id":76561198138509827,"connected_time":1297000000000,"state":"active","ping":86},{"user_id":153,"name":"Marukuso","steam_id":76561198154229845,"connected_time":8051000000000,"state":"active","ping":72},{"user_id":255,"name":"Wandrus[PL]","steam_id":76561198109051675,"connected_time":682000000000,"state":"active","ping":92},{"user_id":191,"name":"El_Kommadante","steam_id":76561198079551685,"connected_time":5301000000000,"state":"active","ping":89},{"user_id":260,"name":"JoJo1105","steam_id":76561198926013207,"connected_time":241000000000,"state":"active","ping":52},{"user_id":265,"name":"hey STUPID! I'm over here...","steam_id":76561198056388702,"connected_time":110000000000,"state":"active","ping":82},{"user_id":214,"name":"★Lily","steam_id":76561198014774371,"connected_time":3780000000000,"state":"active","ping":54},{"user_id":258,"name":"Editor_network","steam_id":76561199062767109,"connected_time":598000000000,"state":"active","ping":65}]},{"server_id":110,"name":"Uncletopia | Frankfurt | 2 | All Maps","name_short":"frk-2","host":"frk-1.de.uncletopia.com","port":27025,"enabled":true,"region":"eu","cc":"de","latitude":50.110924,"longitude":8.682127,"reserved":0,"last_update":"0001-01-01T00:00:00Z","name_a2s":"Uncletopia | Frankfurt | 2 | All Maps","protocol":17,"map":"pl_barnblitz","folder":"tf","game":"Team Fortress","app_id":440,"player_count":24,"max_players":24,"Bots":0,"server_type":"Dedicated","server_os":"Linux","password":true,"vac":true,"version":"7961495","steam_id":85568392924469990,"keywords":["nocrits","nodmgspread","payload","uncletopia"],"game_id":440,"stv_port":27026,"stv_name":"Uncletopia | Frankfurt | 2 | All Maps | STV","players":[{"user_id":226,"name":"Righty","steam_id":76561199224705434,"connected_time":3104000000000,"state":"active","ping":115},{"user_id":264,"name":"Vintage","steam_id":76561197991017153,"connected_time":184000000000,"state":"active","ping":56},{"user_id":237,"name":"grr","steam_id":76561199429407130,"connected_time":2276000000000,"state":"active","ping":94},{"user_id":234,"name":"housethatwearingpurple","steam_id":76561198381266785,"connected_time":2601000000000,"state":"active","ping":138},{"user_id":260,"name":"IronHawk✨","steam_id":76561198008959448,"connected_time":389000000000,"state":"active","ping":75},{"user_id":224,"name":"Bobo","steam_id":76561198052308399,"connected_time":3148000000000,"state":"active","ping":61},{"user_id":239,"name":"Flying skyhigh","steam_id":76561198372971096,"connected_time":2206000000000,"state":"active","ping":77},{"user_id":216,"name":"michalstrach13","steam_id":76561199004687217,"connected_time":4023000000000,"state":"active","ping":73},{"user_id":229,"name":"Gelo","steam_id":76561198082274576,"connected_time":2952000000000,"state":"active","ping":81},{"user_id":240,"name":"Just1s","steam_id":76561198026597437,"connected_time":2156000000000,"state":"active","ping":68},{"user_id":29,"name":"AleXandriX","steam_id":76561198035203950,"connected_time":13140000000000,"state":"active","ping":60},{"user_id":261,"name":"howersss","steam_id":76561198977223114,"connected_time":386000000000,"state":"active","ping":80},{"user_id":243,"name":"skippy","steam_id":76561198171958773,"connected_time":2103000000000,"state":"active","ping":64},{"user_id":262,"name":"Stinktastic Nornia","steam_id":76561198040509712,"connected_time":373000000000,"state":"active","ping":67},{"user_id":263,"name":"I.AM.THE.BOOP.WHICH.IS.APROACHI","steam_id":76561198049342507,"connected_time":363000000000,"state":"active","ping":82},{"user_id":265,"name":"Jezal dan Luthar","steam_id":76561198989449047,"connected_time":118000000000,"state":"active","ping":131},{"user_id":244,"name":"patmat","steam_id":76561198869110531,"connected_time":2089000000000,"state":"active","ping":61},{"user_id":255,"name":"Doriian","steam_id":76561198071438810,"connected_time":1116000000000,"state":"active","ping":76},{"user_id":259,"name":"magnificent darkness","steam_id":76561199059524050,"connected_time":518000000000,"state":"active","ping":75},{"user_id":221,"name":"CzechMate #SaveTF2","steam_id":76561198012687703,"connected_time":3602000000000,"state":"active","ping":52},{"user_id":235,"name":"Gugu gaga","steam_id":76561198161822358,"connected_time":2462000000000,"state":"active","ping":54},{"user_id":254,"name":"Senpyro","steam_id":76561199317284938,"connected_time":1226000000000,"state":"active","ping":39},{"user_id":217,"name":"Machepka","steam_id":76561198226266992,"connected_time":3965000000000,"state":"active","ping":70},{"user_id":249,"name":"Mudderbad","steam_id":76561199040869510,"connected_time":1349000000000,"state":"active","ping":66}]},{"server_id":308,"name":"Uncletopia | Frankfurt | 3 | All Maps","name_short":"frk-3","host":"frk-1.de.uncletopia.com","port":27035,"enabled":true,"region":"eu","cc":"de","latitude":50.110924,"longitude":8.682127,"reserved":0,"last_update":"0001-01-01T00:00:00Z","name_a2s":"Uncletopia | Frankfurt | 3 | All Maps","protocol":17,"map":"cp_sunshine","folder":"tf","game":"Team Fortress","app_id":440,"player_count":23,"max_players":24,"Bots":0,"server_type":"Dedicated","server_os":"Linux","password":true,"vac":true,"version":"7961495","steam_id":85568392924504274,"keywords":["cp","nocrits","nodmgspread","uncletopia"],"game_id":440,"stv_port":27036,"stv_name":"Uncletopia | Frankfurt | 3 | All Maps | STV","players":[{"user_id":285,"name":"WIZARD","steam_id":76561198199570742,"connected_time":9285000000000,"state":"active","ping":97},{"user_id":432,"name":"gatl","steam_id":76561198116926545,"connected_time":497000000000,"state":"active","ping":69},{"user_id":416,"name":"dramæ","steam_id":76561198235739036,"connected_time":1084000000000,"state":"active","ping":69},{"user_id":428,"name":"♬ ᴛᴇᴋɪᴛ ♬","steam_id":76561198111704722,"connected_time":755000000000,"state":"active","ping":85},{"user_id":434,"name":"Moth \u003c3","steam_id":76561198241520140,"connected_time":412000000000,"state":"active","ping":68},{"user_id":290,"name":"überminze","steam_id":76561198228818228,"connected_time":9249000000000,"state":"active","ping":87},{"user_id":397,"name":"Mirra","steam_id":76561198076597292,"connected_time":2792000000000,"state":"active","ping":75},{"user_id":373,"name":"Arti","steam_id":76561198335267078,"connected_time":5242000000000,"state":"active","ping":70},{"user_id":398,"name":"Nittugai","steam_id":76561198067366462,"connected_time":2749000000000,"state":"active","ping":66},{"user_id":427,"name":"AzureTestament","steam_id":76561198147007440,"connected_time":850000000000,"state":"active","ping":75},{"user_id":395,"name":"f4f_cricket","steam_id":76561197985879993,"connected_time":3396000000000,"state":"active","ping":70},{"user_id":419,"name":"2bunnies","steam_id":76561198866822016,"connected_time":1077000000000,"state":"active","ping":62},{"user_id":429,"name":"Fat Pigeon","steam_id":76561198817940142,"connected_time":605000000000,"state":"active","ping":49},{"user_id":423,"name":"☞LaZe☜","steam_id":76561198202191400,"connected_time":1061000000000,"state":"active","ping":69},{"user_id":399,"name":"Triggerhappy","steam_id":76561198334672983,"connected_time":2741000000000,"state":"active","ping":97},{"user_id":422,"name":"Xtis","steam_id":76561198043837480,"connected_time":1065000000000,"state":"active","ping":72},{"user_id":430,"name":"c4ctus","steam_id":76561198925655488,"connected_time":587000000000,"state":"active","ping":82},{"user_id":358,"name":"Eula my beloved","steam_id":76561198150524777,"connected_time":6018000000000,"state":"active","ping":62},{"user_id":435,"name":"MEMES AMIRITE","steam_id":76561198076387733,"connected_time":245000000000,"state":"active","ping":69},{"user_id":426,"name":"how about you get a job","steam_id":76561199061646193,"connected_time":1025000000000,"state":"active","ping":85},{"user_id":407,"name":"Pingus","steam_id":76561199015156956,"connected_time":2264000000000,"state":"active","ping":98},{"user_id":403,"name":"Mr.Shpee","steam_id":76561198158701474,"connected_time":2681000000000,"state":"active","ping":76},{"user_id":433,"name":"Frankie \u0026","steam_id":76561198072534217,"connected_time":492000000000,"state":"active","ping":68}]},{"server_id":309,"name":"Uncletopia | Frankfurt | 4 | All Maps","name_short":"frk-4","host":"frk-1.de.uncletopia.com","port":27045,"enabled":true,"region":"eu","cc":"de","latitude":50.110924,"longitude":8.682127,"reserved":0,"last_update":"0001-01-01T00:00:00Z","name_a2s":"Uncletopia | Frankfurt | 4 | All Maps","protocol":17,"map":"cp_foundry","folder":"tf","game":"Team Fortress","app_id":440,"player_count":24,"max_players":24,"Bots":0,"server_type":"Dedicated","server_os":"Linux","password":true,"vac":true,"version":"7961495","steam_id":85568392924504275,"keywords":["cp","nocrits","nodmgspread","uncletopia"],"game_id":440,"stv_port":27046,"stv_name":"Uncletopia | Frankfurt | 4 | All Maps | STV","players":[{"user_id":27,"name":"Osmo","steam_id":76561199286764992,"connected_time":1318000000000,"state":"active","ping":74},{"user_id":56,"name":"Jonak","steam_id":76561198080832458,"connected_time":664000000000,"state":"active","ping":63},{"user_id":58,"name":"Kol Engigfikod","steam_id":76561199115261187,"connected_time":618000000000,"state":"active","ping":88},{"user_id":25,"name":"Weegad Wobus","steam_id":76561199429562693,"connected_time":1352000000000,"state":"active","ping":73},{"user_id":26,"name":"Kenny_killer_69","steam_id":76561199465207725,"connected_time":1342000000000,"state":"active","ping":81},{"user_id":66,"name":"darkwater","steam_id":76561197986978738,"connected_time":68000000000,"state":"active","ping":59},{"user_id":30,"name":"Michał","steam_id":76561198320346362,"connected_time":1086000000000,"state":"active","ping":61},{"user_id":59,"name":"Pagulos","steam_id":76561199121970389,"connected_time":543000000000,"state":"active","ping":95},{"user_id":35,"name":"SalCrabber deluxe","steam_id":76561198275942961,"connected_time":991000000000,"state":"active","ping":45},{"user_id":62,"name":"Riman-Shwartz Abuzer","steam_id":76561198054279487,"connected_time":293000000000,"state":"active","ping":131},{"user_id":34,"name":"DeCypher \u003c3","steam_id":76561198171992619,"connected_time":1022000000000,"state":"active","ping":70},{"user_id":40,"name":"Dīng.Zhèn1996","steam_id":76561198152681460,"connected_time":906000000000,"state":"active","ping":71},{"user_id":41,"name":"Lordware","steam_id":76561198022011299,"connected_time":890000000000,"state":"active","ping":103},{"user_id":46,"name":"yoparino","steam_id":76561199178975385,"connected_time":815000000000,"state":"active","ping":72},{"user_id":42,"name":"The Storm That Is Approaching","steam_id":76561198982155864,"connected_time":885000000000,"state":"active","ping":74},{"user_id":51,"name":"YuraGreek","steam_id":76561198050182252,"connected_time":755000000000,"state":"active","ping":77},{"user_id":65,"name":"Mammut","steam_id":76561198056773933,"connected_time":87000000000,"state":"active","ping":45},{"user_id":67,"name":"tequila sunset","steam_id":76561198315969106,"connected_time":56000000000,"state":"active","ping":90},{"user_id":47,"name":"deadlyqueenie","steam_id":76561199466056869,"connected_time":810000000000,"state":"active","ping":68},{"user_id":48,"name":"Optimist 50","steam_id":76561198039631442,"connected_time":771000000000,"state":"active","ping":85},{"user_id":68,"name":"Noida","steam_id":76561198833044733,"connected_time":46000000000,"state":"active","ping":101},{"user_id":50,"name":"LivEssense","steam_id":76561198052476979,"connected_time":764000000000,"state":"active","ping":82},{"user_id":61,"name":"The One (and only)","steam_id":76561198827193499,"connected_time":488000000000,"state":"active","ping":68},{"user_id":63,"name":"DXD Tech","steam_id":76561198358379587,"connected_time":293000000000,"state":"active","ping":86}]},{"server_id":310,"name":"Uncletopia | Frankfurt | 5 | All Maps","name_short":"frk-5","host":"frk-1.de.uncletopia.com","port":27055,"enabled":true,"region":"eu","cc":"de","latitude":50.110924,"longitude":8.682127,"reserved":0,"last_update":"0001-01-01T00:00:00Z","name_a2s":"Uncletopia | Frankfurt | 5 | All Maps","protocol":17,"map":"koth_king","folder":"tf","game":"Team Fortress","app_id":440,"player_count":24,"max_players":24,"Bots":0,"server_type":"Dedicated","server_os":"Linux","password":true,"vac":true,"version":"7961495","steam_id":85568392924504277,"keywords":["cp","nocrits","nodmgspread","uncletopia"],"game_id":440,"stv_port":27056,"stv_name":"Uncletopia | Frankfurt | 5 | All Maps | STV","players":[{"user_id":210,"name":"Klaus","steam_id":76561198150394201,"connected_time":8097000000000,"state":"active","ping":85},{"user_id":277,"name":"The Misery","steam_id":76561198062818516,"connected_time":3730000000000,"state":"active","ping":64},{"user_id":315,"name":"Drex","steam_id":76561198169815435,"connected_time":446000000000,"state":"active","ping":107},{"user_id":257,"name":"Ralistix","steam_id":76561198051654135,"connected_time":4591000000000,"state":"active","ping":87},{"user_id":247,"name":"Sn1Ch","steam_id":76561198073076943,"connected_time":4841000000000,"state":"active","ping":86},{"user_id":313,"name":"the scringly dingly","steam_id":76561198192179174,"connected_time":570000000000,"state":"active","ping":119},{"user_id":108,"name":"Nyhde","steam_id":76561198012771416,"connected_time":15272000000000,"state":"active","ping":86},{"user_id":261,"name":"Z.","steam_id":76561198838692532,"connected_time":4108000000000,"state":"active","ping":218},{"user_id":318,"name":"BasedCringe 7s1","steam_id":76561199074196833,"connected_time":22000000000,"state":"active","ping":96},{"user_id":302,"name":"Kali","steam_id":76561198796327257,"connected_time":1702000000000,"state":"active","ping":55},{"user_id":317,"name":"MR.BOYKISSER","steam_id":76561198241894636,"connected_time":213000000000,"state":"active","ping":47},{"user_id":301,"name":"VW Golf MK2 GTI","steam_id":76561199250808808,"connected_time":1786000000000,"state":"active","ping":75},{"user_id":305,"name":"PanPatrik","steam_id":76561198293331527,"connected_time":1556000000000,"state":"active","ping":59},{"user_id":312,"name":"primordial soup enjoyer","steam_id":76561199163260578,"connected_time":581000000000,"state":"active","ping":53},{"user_id":293,"name":"TyAero","steam_id":76561198328633940,"connected_time":2515000000000,"state":"active","ping":85},{"user_id":314,"name":"rets_","steam_id":76561198061551392,"connected_time":560000000000,"state":"active","ping":48},{"user_id":308,"name":"Exee","steam_id":76561198139574633,"connected_time":1220000000000,"state":"active","ping":72},{"user_id":316,"name":"Guwop","steam_id":76561197970425737,"connected_time":245000000000,"state":"active","ping":161},{"user_id":292,"name":"bady_3","steam_id":76561199030975778,"connected_time":2642000000000,"state":"active","ping":126},{"user_id":201,"name":"TheMerchant","steam_id":76561198133664392,"connected_time":8564000000000,"state":"active","ping":56},{"user_id":52,"name":"else1","steam_id":76561197996558319,"connected_time":18599000000000,"state":"active","ping":75},{"user_id":273,"name":"Rjlt07","steam_id":76561198054883471,"connected_time":3784000000000,"state":"active","ping":62},{"user_id":309,"name":"Snd","steam_id":76561198010816408,"connected_time":1143000000000,"state":"active","ping":113},{"user_id":274,"name":"tony","steam_id":76561199382978934,"connected_time":3784000000000,"state":"active","ping":90}]},{"server_id":311,"name":"Uncletopia | Frankfurt | 6 | All Maps","name_short":"frk-6","host":"frk-1.de.uncletopia.com","port":27065,"enabled":true,"region":"eu","cc":"de","latitude":50.110924,"longitude":8.682127,"reserved":0,"last_update":"0001-01-01T00:00:00Z","name_a2s":"Uncletopia | Frankfurt | 6 | All Maps","protocol":17,"map":"pl_badwater","folder":"tf","game":"Team Fortress","app_id":440,"player_count":24,"max_players":24,"Bots":0,"server_type":"Dedicated","server_os":"Linux","password":true,"vac":true,"version":"7961495","steam_id":85568392924504278,"keywords":["nocrits","nodmgspread","payload","uncletopia"],"game_id":440,"stv_port":27066,"stv_name":"Uncletopia | Frankfurt | 6 | All Maps | STV","players":[{"user_id":296,"name":"Akisян","steam_id":76561198078706435,"connected_time":930000000000,"state":"active","ping":75},{"user_id":279,"name":"sex toilet","steam_id":76561198412197820,"connected_time":2286000000000,"state":"active","ping":71},{"user_id":295,"name":"Ch4bby","steam_id":76561198058792875,"connected_time":970000000000,"state":"active","ping":50},{"user_id":287,"name":"Syd","steam_id":76561198020515027,"connected_time":1535000000000,"state":"active","ping":60},{"user_id":285,"name":"Wyzis","steam_id":76561198972794977,"connected_time":1755000000000,"state":"active","ping":72},{"user_id":304,"name":"tyr","steam_id":76561198301670611,"connected_time":63000000000,"state":"active","ping":60},{"user_id":293,"name":"SpineJuice","steam_id":76561199084272069,"connected_time":1214000000000,"state":"active","ping":70},{"user_id":206,"name":"63756d","steam_id":76561198808699024,"connected_time":6631000000000,"state":"active","ping":66},{"user_id":286,"name":"Hercules","steam_id":76561198041164170,"connected_time":1634000000000,"state":"active","ping":59},{"user_id":281,"name":"Pietro Badoglio","steam_id":76561198302435743,"connected_time":1986000000000,"state":"active","ping":77},{"user_id":297,"name":"White [C-42]","steam_id":76561197987924531,"connected_time":926000000000,"state":"active","ping":71},{"user_id":280,"name":"BabyYodaIsMySoda","steam_id":76561198321846861,"connected_time":2146000000000,"state":"active","ping":81},{"user_id":265,"name":"german medicine man","steam_id":76561199145278275,"connected_time":3420000000000,"state":"active","ping":41},{"user_id":284,"name":"RebirthInFire","steam_id":76561198200555755,"connected_time":1909000000000,"state":"active","ping":52},{"user_id":290,"name":"smalldolmar","steam_id":76561198028041542,"connected_time":1397000000000,"state":"active","ping":60},{"user_id":288,"name":"MaximusTheFish","steam_id":76561199025652089,"connected_time":1457000000000,"state":"active","ping":64},{"user_id":302,"name":"turkish barber wallahi","steam_id":76561198111807532,"connected_time":272000000000,"state":"active","ping":62},{"user_id":243,"name":"Джекет","steam_id":76561198327897125,"connected_time":4876000000000,"state":"active","ping":90},{"user_id":230,"name":"TSUTSUMARETE","steam_id":76561198325061394,"connected_time":5569000000000,"state":"active","ping":67},{"user_id":294,"name":"BRICK TOP","steam_id":76561198014366715,"connected_time":1077000000000,"state":"active","ping":49},{"user_id":300,"name":"LOBZIK","steam_id":76561198114830120,"connected_time":696000000000,"state":"active","ping":76},{"user_id":303,"name":"Dot","steam_id":76561198047299145,"connected_time":199000000000,"state":"active","ping":79},{"user_id":298,"name":"Annie Wilkes","steam_id":76561198071210041,"connected_time":925000000000,"state":"active","ping":55},{"user_id":299,"name":"ToolsOfDaTrade","steam_id":76561199263820686,"connected_time":858000000000,"state":"active","ping":146}]},{"server_id":23,"name":"Uncletopia | Frankfurt | 7 | Stopwatch","name_short":"frk-7","host":"frk-1.de.uncletopia.com","port":27075,"enabled":true,"region":"eu","cc":"de","latitude":50.110924,"longitude":8.682127,"reserved":0,"last_update":"0001-01-01T00:00:00Z","name_a2s":"Uncletopia | Frankfurt | 7 | Stopwatch","protocol":17,"map":"pl_upward","folder":"tf","game":"Team Fortress","app_id":440,"player_count":3,"max_players":24,"Bots":0,"server_type":"Dedicated","server_os":"Linux","password":true,"vac":true,"version":"7961495","steam_id":85568392924742827,"keywords":["nocrits","nodmgspread","payload","uncletopia"],"game_id":440,"stv_port":27076,"stv_name":"Uncletopia | Frankfurt | 7 | Stopwatch | STV","players":[{"user_id":13,"name":"DarkPhoenix","steam_id":76561198178706322,"connected_time":317000000000,"state":"active","ping":41},{"user_id":14,"name":"Green_Goblin","steam_id":76561198295578076,"connected_time":317000000000,"state":"active","ping":38},{"user_id":15,"name":"xMilitmer","steam_id":76561199438393283,"connected_time":264000000000,"state":"active","ping":64}]},{"server_id":24,"name":"Uncletopia | Frankfurt | 8 | Community","name_short":"frk-8","host":"frk-1.de.uncletopia.com","port":27085,"enabled":true,"region":"eu","cc":"de","latitude":50.110924,"longitude":8.682127,"reserved":0,"last_update":"0001-01-01T00:00:00Z","name_a2s":"Uncletopia | Frankfurt | 8 | Community","protocol":17,"map":"workshop/pl_barnblitz_pro7.ugc582280235","folder":"tf","game":"Team Fortress","app_id":440,"player_count":0,"max_players":24,"Bots":0,"server_type":"Dedicated","server_os":"Linux","password":true,"vac":true,"version":"7961495","steam_id":85568392924742828,"keywords":["nocrits","nodmgspread","payload","uncletopia"],"game_id":440,"stv_port":27086,"stv_name":"Uncletopia | Frankfurt | 8 | Community | STV","players":null},{"server_id":202,"name":"Uncletopia | Hong Kong | 1 | All Maps","name_short":"hgk-1","host":"hgk-1.hk.uncletopia.com","port":27015,"enabled":true,"region":"asia","cc":"hk","latitude":22.302711,"longitude":114.177216,"reserved":0,"last_update":"0001-01-01T00:00:00Z","name_a2s":"Uncletopia | Hong Kong | 1 | All Maps","protocol":17,"map":"pl_barnblitz","folder":"tf","game":"Team Fortress","app_id":440,"player_count":17,"max_players":24,"Bots":0,"server_type":"Dedicated","server_os":"Linux","password":true,"vac":true,"version":"7961495","steam_id":85568392924494504,"keywords":["nocrits","nodmgspread","payload","uncletopia"],"game_id":440,"stv_port":27016,"stv_name":"Uncletopia | Hong Kong | 1 | All Maps | STV","players":[{"user_id":439,"name":"just_adhenz1284 #SaveTF2","steam_id":76561198293654671,"connected_time":127000000000,"state":"active","ping":152},{"user_id":434,"name":"grayboy","steam_id":76561198074363659,"connected_time":890000000000,"state":"active","ping":77},{"user_id":426,"name":"Local Femboy","steam_id":76561199240135612,"connected_time":1407000000000,"state":"active","ping":75},{"user_id":435,"name":"jim","steam_id":76561198044152940,"connected_time":617000000000,"state":"active","ping":31},{"user_id":421,"name":"Lettuce","steam_id":76561199029369149,"connected_time":1874000000000,"state":"active","ping":117},{"user_id":438,"name":"m1kha1l","steam_id":76561198313036074,"connected_time":149000000000,"state":"active","ping":61},{"user_id":440,"name":"Playman171","steam_id":76561198826636154,"connected_time":123000000000,"state":"active","ping":63},{"user_id":409,"name":"Z-DiZ","steam_id":76561198056537641,"connected_time":2867000000000,"state":"active","ping":95},{"user_id":415,"name":"Tide","steam_id":76561198116422475,"connected_time":2279000000000,"state":"active","ping":115},{"user_id":419,"name":"Spookie","steam_id":76561199158560796,"connected_time":1994000000000,"state":"active","ping":62},{"user_id":369,"name":"Jun-char","steam_id":76561198126774704,"connected_time":7284000000000,"state":"active","ping":85},{"user_id":420,"name":"salami","steam_id":76561198306834480,"connected_time":1985000000000,"state":"active","ping":78},{"user_id":431,"name":"Amogus Gaming","steam_id":76561199186712044,"connected_time":1281000000000,"state":"active","ping":130},{"user_id":437,"name":"ArcticDolphin","steam_id":76561198203626319,"connected_time":323000000000,"state":"active","ping":141},{"user_id":429,"name":"Insomniac","steam_id":76561199180653046,"connected_time":1332000000000,"state":"active","ping":129},{"user_id":405,"name":"Epicwindow+-","steam_id":76561198067219529,"connected_time":3164000000000,"state":"active","ping":50},{"user_id":344,"name":"母の肉団子@hao123.com","steam_id":76561198069561896,"connected_time":11501000000000,"state":"active","ping":39}]},{"server_id":1,"name":"Uncletopia | Los Angeles | 1 | All Maps","name_short":"lax-1","host":"lax-1.us.uncletopia.com","port":27015,"enabled":true,"region":"us-west","cc":"us","latitude":33.94279,"longitude":-118.41004,"reserved":0,"last_update":"0001-01-01T00:00:00Z","name_a2s":"Uncletopia | Los Angeles | 1 | All Maps","protocol":17,"map":"koth_highpass","folder":"tf","game":"Team Fortress","app_id":440,"player_count":0,"max_players":24,"Bots":0,"server_type":"Dedicated","server_os":"Linux","password":true,"vac":true,"version":"7961495","steam_id":85568392924469991,"keywords":["cp","nocrits","nodmgspread","uncletopia"],"game_id":440,"stv_port":27016,"stv_name":"Uncletopia | Los Angeles | 1 | All Maps | STV","players":null},{"server_id":112,"name":"Uncletopia | Los Angeles | 2 | All Maps","name_short":"lax-2","host":"lax-1.us.uncletopia.com","port":27025,"enabled":true,"region":"us-west","cc":"us","latitude":33.94279,"longitude":-118.41004,"reserved":0,"last_update":"0001-01-01T00:00:00Z","name_a2s":"Uncletopia | Los Angeles | 2 | All Maps","protocol":17,"map":"cp_mountainlab","folder":"tf","game":"Team Fortress","app_id":440,"player_count":0,"max_players":24,"Bots":0,"server_type":"Dedicated","server_os":"Linux","password":true,"vac":true,"version":"7961495","steam_id":85568392924469992,"keywords":["cp","nocrits","nodmgspread","uncletopia"],"game_id":440,"stv_port":27026,"stv_name":"Uncletopia | Los Angeles | 2 | All Maps | STV","players":null},{"server_id":324,"name":"Uncletopia | Los Angeles | 3 | All Maps","name_short":"lax-3","host":"lax-1.us.uncletopia.com","port":27035,"enabled":true,"region":"us-west","cc":"us","latitude":33.94279,"longitude":-118.41004,"reserved":0,"last_update":"0001-01-01T00:00:00Z","name_a2s":"Uncletopia | Los Angeles | 3 | All Maps","protocol":17,"map":"pl_frontier_final","folder":"tf","game":"Team Fortress","app_id":440,"player_count":0,"max_players":24,"Bots":0,"server_type":"Dedicated","server_os":"Linux","password":true,"vac":true,"version":"7961495","steam_id":85568392924510198,"keywords":["nocrits","nodmgspread","payload","uncletopia"],"game_id":440,"stv_port":27036,"stv_name":"Uncletopia | Los Angeles | 3 | All Maps | STV","players":null},{"server_id":25,"name":"Uncletopia | Los Angeles | 4 | Stopwatch","name_short":"lax-4","host":"lax-1.us.uncletopia.com","port":27045,"enabled":true,"region":"us-west","cc":"us","latitude":33.94279,"longitude":-118.41004,"reserved":0,"last_update":"0001-01-01T00:00:00Z","name_a2s":"Uncletopia | Los Angeles | 4 | Stopwatch","protocol":17,"map":"pl_barnblitz","folder":"tf","game":"Team Fortress","app_id":440,"player_count":0,"max_players":24,"Bots":0,"server_type":"Dedicated","server_os":"Linux","password":true,"vac":true,"version":"7961495","steam_id":85568392924510199,"keywords":["nocrits","nodmgspread","payload","uncletopia"],"game_id":440,"stv_port":27046,"stv_name":"Uncletopia | Los Angeles | 4 | Stopwatch | STV","players":null},{"server_id":11,"name":"Uncletopia | London | 1 | All Maps","name_short":"lon-1","host":"lon-1.uk.uncletopia.com","port":27015,"enabled":true,"region":"eu","cc":"gb","latitude":51.509865,"longitude":-0.118092,"reserved":0,"last_update":"0001-01-01T00:00:00Z","name_a2s":"Uncletopia | London | 1 | All Maps","protocol":17,"map":"pl_upward","folder":"tf","game":"Team Fortress","app_id":440,"player_count":23,"max_players":24,"Bots":0,"server_type":"Dedicated","server_os":"Linux","password":true,"vac":true,"version":"7961495","steam_id":85568392924367362,"keywords":["nocrits","nodmgspread","payload","uncletopia"],"game_id":440,"stv_port":27016,"stv_name":"Uncletopia | London | 1 | All Maps | STV","players":[{"user_id":314,"name":"gibb (official)","steam_id":76561198074097655,"connected_time":1341000000000,"state":"active","ping":59},{"user_id":326,"name":"⸸aura⸸","steam_id":76561198066258544,"connected_time":632000000000,"state":"active","ping":80},{"user_id":329,"name":"Wattseyy","steam_id":76561198248567360,"connected_time":266000000000,"state":"active","ping":36},{"user_id":259,"name":"Spinya","steam_id":76561198086653667,"connected_time":3569000000000,"state":"active","ping":58},{"user_id":334,"name":"Wuffington","steam_id":76561198033762881,"connected_time":33000000000,"state":"spawning","ping":47},{"user_id":333,"name":"Infantile Pillock","steam_id":76561198283851362,"connected_time":132000000000,"state":"active","ping":61},{"user_id":327,"name":"blurst of times","steam_id":76561197972325640,"connected_time":464000000000,"state":"active","ping":46},{"user_id":272,"name":"Sherlock Bond","steam_id":76561198042045955,"connected_time":3255000000000,"state":"active","ping":56},{"user_id":297,"name":"Kai","steam_id":76561198800004578,"connected_time":1972000000000,"state":"active","ping":45},{"user_id":292,"name":"shooer!","steam_id":76561198110531281,"connected_time":2214000000000,"state":"active","ping":71},{"user_id":330,"name":"Prism","steam_id":76561198320524819,"connected_time":248000000000,"state":"active","ping":38},{"user_id":307,"name":"coldary","steam_id":76561198158968852,"connected_time":1510000000000,"state":"active","ping":83},{"user_id":308,"name":"Mébh Óg MacTíre","steam_id":76561198346399624,"connected_time":1497000000000,"state":"active","ping":86},{"user_id":320,"name":"kaelan","steam_id":76561198001425310,"connected_time":1215000000000,"state":"active","ping":69},{"user_id":277,"name":"Excessive Clownery","steam_id":76561198130404188,"connected_time":2966000000000,"state":"active","ping":60},{"user_id":321,"name":"dont K*LL john oliver","steam_id":76561198015918787,"connected_time":1173000000000,"state":"active","ping":102},{"user_id":324,"name":"Cum flicker","steam_id":76561198304771597,"connected_time":888000000000,"state":"active","ping":91},{"user_id":300,"name":"Aven","steam_id":76561198974343597,"connected_time":1935000000000,"state":"active","ping":85},{"user_id":328,"name":"Hey!","steam_id":76561198204837289,"connected_time":405000000000,"state":"active","ping":51},{"user_id":325,"name":"Armand","steam_id":76561198236126774,"connected_time":752000000000,"state":"active","ping":77},{"user_id":323,"name":"Skampy","steam_id":76561198322822536,"connected_time":1135000000000,"state":"active","ping":80},{"user_id":317,"name":"MTGbigdog","steam_id":76561198838760637,"connected_time":1328000000000,"state":"active","ping":134},{"user_id":332,"name":"obi","steam_id":76561198040154461,"connected_time":161000000000,"state":"active","ping":66}]},{"server_id":114,"name":"Uncletopia | London | 2 | All Maps","name_short":"lon-2","host":"lon-1.uk.uncletopia.com","port":27025,"enabled":true,"region":"eu","cc":"gb","latitude":51.509865,"longitude":-0.118092,"reserved":0,"last_update":"0001-01-01T00:00:00Z","name_a2s":"Uncletopia | London | 2 | All Maps","protocol":17,"map":"pl_barnblitz","folder":"tf","game":"Team Fortress","app_id":440,"player_count":24,"max_players":24,"Bots":0,"server_type":"Dedicated","server_os":"Linux","password":true,"vac":true,"version":"7961495","steam_id":85568392924470941,"keywords":["nocrits","nodmgspread","payload","uncletopia"],"game_id":440,"stv_port":27026,"stv_name":"Uncletopia | London | 2 | All Maps | STV","players":[{"user_id":393,"name":"Qbe","steam_id":76561198009654837,"connected_time":1841000000000,"state":"active","ping":91},{"user_id":368,"name":"SeaKane","steam_id":76561198165453318,"connected_time":3615000000000,"state":"active","ping":55},{"user_id":364,"name":"oslninja8","steam_id":76561199407528463,"connected_time":4107000000000,"state":"active","ping":45},{"user_id":398,"name":"Kallen","steam_id":76561198079693305,"connected_time":1140000000000,"state":"active","ping":55},{"user_id":363,"name":"FloatingEmpire3","steam_id":76561198809514696,"connected_time":4499000000000,"state":"active","ping":71},{"user_id":396,"name":"Braamklauw","steam_id":76561198283287697,"connected_time":1393000000000,"state":"active","ping":66},{"user_id":394,"name":"NoPfizer","steam_id":76561198307914381,"connected_time":1557000000000,"state":"active","ping":54},{"user_id":395,"name":"Forsén","steam_id":76561199131971501,"connected_time":1407000000000,"state":"active","ping":96},{"user_id":337,"name":"clunk","steam_id":76561198836460767,"connected_time":6248000000000,"state":"active","ping":76},{"user_id":379,"name":"twitch.tv/vision515","steam_id":76561198065293729,"connected_time":2753000000000,"state":"active","ping":166},{"user_id":366,"name":"bonzai","steam_id":76561198086817743,"connected_time":3834000000000,"state":"active","ping":75},{"user_id":386,"name":"Eidolon","steam_id":76561198043919565,"connected_time":2585000000000,"state":"active","ping":65},{"user_id":218,"name":"David","steam_id":76561198017852330,"connected_time":16697000000000,"state":"active","ping":85},{"user_id":390,"name":"Bags.","steam_id":76561198045708372,"connected_time":2264000000000,"state":"active","ping":59},{"user_id":381,"name":"yuno appreciator","steam_id":76561198083286511,"connected_time":2684000000000,"state":"active","ping":40},{"user_id":391,"name":"Jnet","steam_id":76561198001282720,"connected_time":2228000000000,"state":"active","ping":94},{"user_id":403,"name":"someone","steam_id":76561199471582243,"connected_time":620000000000,"state":"active","ping":100},{"user_id":347,"name":"fence_","steam_id":76561198150386379,"connected_time":5757000000000,"state":"active","ping":48},{"user_id":404,"name":"janvaljen","steam_id":76561198017781450,"connected_time":617000000000,"state":"active","ping":109},{"user_id":388,"name":"El Wiwi","steam_id":76561198134378108,"connected_time":2370000000000,"state":"active","ping":79},{"user_id":405,"name":"professional pants shitter","steam_id":76561198082646492,"connected_time":374000000000,"state":"active","ping":59},{"user_id":397,"name":"isaac newton","steam_id":76561199186134269,"connected_time":1393000000000,"state":"active","ping":62},{"user_id":399,"name":"Sir Quacksalot","steam_id":76561198048942777,"connected_time":810000000000,"state":"active","ping":156},{"user_id":402,"name":"Dolcelatte","steam_id":76561198038501770,"connected_time":671000000000,"state":"active","ping":60}]},{"server_id":320,"name":"Uncletopia | London | 3 | All Maps","name_short":"lon-3","host":"lon-1.uk.uncletopia.com","port":27035,"enabled":true,"region":"eu","cc":"gb","latitude":51.509865,"longitude":-0.118092,"reserved":0,"last_update":"0001-01-01T00:00:00Z","name_a2s":"Uncletopia | London | 3 | All Maps","protocol":17,"map":"pl_borneo","folder":"tf","game":"Team Fortress","app_id":440,"player_count":0,"max_players":24,"Bots":0,"server_type":"Dedicated","server_os":"Linux","password":true,"vac":true,"version":"7961495","steam_id":85568392924510192,"keywords":["nocrits","nodmgspread","payload","uncletopia"],"game_id":440,"stv_port":27036,"stv_name":"Uncletopia | London | 3 | All Maps | STV","players":null},{"server_id":321,"name":"Uncletopia | London | 4 | All Maps","name_short":"lon-4","host":"lon-1.uk.uncletopia.com","port":27045,"enabled":true,"region":"eu","cc":"gb","latitude":51.509865,"longitude":-0.118092,"reserved":0,"last_update":"0001-01-01T00:00:00Z","name_a2s":"Uncletopia | London | 4 | All Maps","protocol":17,"map":"pl_barnblitz","folder":"tf","game":"Team Fortress","app_id":440,"player_count":24,"max_players":24,"Bots":0,"server_type":"Dedicated","server_os":"Linux","password":true,"vac":true,"version":"7961495","steam_id":85568392924510193,"keywords":["nocrits","nodmgspread","payload","uncletopia"],"game_id":440,"stv_port":27046,"stv_name":"Uncletopia | London | 4 | All Maps | STV","players":[{"user_id":122,"name":"roooc","steam_id":76561198041046977,"connected_time":778000000000,"state":"active","ping":51},{"user_id":144,"name":"lunchback of notre dame","steam_id":76561199136755064,"connected_time":243000000000,"state":"active","ping":49},{"user_id":89,"name":"JaneDoe","steam_id":76561198067081506,"connected_time":3396000000000,"state":"active","ping":87},{"user_id":79,"name":"s a i","steam_id":76561197970379754,"connected_time":4338000000000,"state":"active","ping":59},{"user_id":114,"name":"Human being","steam_id":76561198970762992,"connected_time":1710000000000,"state":"active","ping":93},{"user_id":74,"name":"lillunya ♡","steam_id":76561198330418866,"connected_time":4995000000000,"state":"active","ping":69},{"user_id":142,"name":"Captain Puddleboat","steam_id":76561198053913970,"connected_time":320000000000,"state":"active","ping":54},{"user_id":145,"name":"go play rimworld","steam_id":76561199397932924,"connected_time":104000000000,"state":"active","ping":71},{"user_id":143,"name":"ʌof","steam_id":76561198341823252,"connected_time":304000000000,"state":"active","ping":101},{"user_id":126,"name":"Joschyama","steam_id":76561198993611501,"connected_time":713000000000,"state":"active","ping":64},{"user_id":129,"name":"Marky","steam_id":76561199474556920,"connected_time":641000000000,"state":"active","ping":82},{"user_id":128,"name":"f l я n","steam_id":76561198079595755,"connected_time":661000000000,"state":"active","ping":53},{"user_id":131,"name":"Necontenit","steam_id":76561198314250808,"connected_time":630000000000,"state":"active","ping":92},{"user_id":132,"name":"NotChloe","steam_id":76561198080658092,"connected_time":617000000000,"state":"active","ping":59},{"user_id":105,"name":"GoodOldJack12","steam_id":76561198100910669,"connected_time":2183000000000,"state":"active","ping":66},{"user_id":133,"name":"St. Pablo","steam_id":76561199009805208,"connected_time":602000000000,"state":"active","ping":119},{"user_id":134,"name":"Fancy","steam_id":76561198350658462,"connected_time":592000000000,"state":"active","ping":90},{"user_id":135,"name":"THEALLSEEINGCAKE","steam_id":76561199251417876,"connected_time":577000000000,"state":"active","ping":90},{"user_id":110,"name":"obscure","steam_id":76561198119532381,"connected_time":1941000000000,"state":"active","ping":53},{"user_id":59,"name":"YoloMama","steam_id":76561198018797146,"connected_time":6669000000000,"state":"active","ping":85},{"user_id":136,"name":"tired","steam_id":76561198046838168,"connected_time":576000000000,"state":"active","ping":60},{"user_id":137,"name":"WHAT DA DOG DOIN","steam_id":76561198040762580,"connected_time":562000000000,"state":"active","ping":76},{"user_id":138,"name":"Falconetti","steam_id":76561198029930580,"connected_time":553000000000,"state":"active","ping":66},{"user_id":140,"name":"Skeletros","steam_id":76561198130969152,"connected_time":543000000000,"state":"active","ping":145}]},{"server_id":21,"name":"Uncletopia | London | 5 | All Maps","name_short":"lon-5","host":"lon-1.uk.uncletopia.com","port":27055,"enabled":true,"region":"eu","cc":"gb","latitude":51.509865,"longitude":-0.118092,"reserved":0,"last_update":"0001-01-01T00:00:00Z","name_a2s":"Uncletopia | London | 5 | All Maps","protocol":17,"map":"pl_borneo","folder":"tf","game":"Team Fortress","app_id":440,"player_count":23,"max_players":24,"Bots":0,"server_type":"Dedicated","server_os":"Linux","password":true,"vac":true,"version":"7961495","steam_id":85568392924742829,"keywords":["nocrits","nodmgspread","payload","uncletopia"],"game_id":440,"stv_port":27056,"stv_name":"Uncletopia | London | 5 | All Maps | STV","players":[{"user_id":643,"name":"chad","steam_id":76561198235763492,"connected_time":272000000000,"state":"active","ping":82},{"user_id":635,"name":"Bango™","steam_id":76561198146566527,"connected_time":483000000000,"state":"active","ping":59},{"user_id":627,"name":"yodel","steam_id":76561198138777659,"connected_time":979000000000,"state":"active","ping":63},{"user_id":547,"name":"Penis Contortionist","steam_id":76561198073663784,"connected_time":6002000000000,"state":"active","ping":41},{"user_id":616,"name":"Eric Catman","steam_id":76561198802117294,"connected_time":1550000000000,"state":"active","ping":71},{"user_id":626,"name":"Tf2 Spy (real)","steam_id":76561198137784238,"connected_time":1108000000000,"state":"active","ping":117},{"user_id":644,"name":"jpsl","steam_id":76561198137512197,"connected_time":129000000000,"state":"active","ping":91},{"user_id":608,"name":"Mackerel","steam_id":76561197980088396,"connected_time":1872000000000,"state":"active","ping":59},{"user_id":631,"name":"plays tation 3","steam_id":76561198885548458,"connected_time":770000000000,"state":"active","ping":89},{"user_id":607,"name":"пшод подпишись","steam_id":76561198188258338,"connected_time":1900000000000,"state":"active","ping":130},{"user_id":601,"name":"Tuosan","steam_id":76561198062611429,"connected_time":2561000000000,"state":"active","ping":83},{"user_id":637,"name":"Caruzon - Obismal","steam_id":76561198036211170,"connected_time":424000000000,"state":"active","ping":83},{"user_id":634,"name":"Der Geist des Hans Rosling","steam_id":76561198049231109,"connected_time":606000000000,"state":"active","ping":68},{"user_id":580,"name":"s3rg_","steam_id":76561198024043213,"connected_time":4295000000000,"state":"active","ping":66},{"user_id":621,"name":"neJ","steam_id":76561198003397488,"connected_time":1415000000000,"state":"active","ping":86},{"user_id":642,"name":"R8N - Obismal","steam_id":76561198007482714,"connected_time":298000000000,"state":"active","ping":80},{"user_id":610,"name":"imrealylazy","steam_id":76561198878574518,"connected_time":1817000000000,"state":"active","ping":70},{"user_id":611,"name":"M1rkus","steam_id":76561198171215447,"connected_time":1814000000000,"state":"active","ping":75},{"user_id":640,"name":"Macci - Obismal","steam_id":76561198050485404,"connected_time":325000000000,"state":"active","ping":86},{"user_id":641,"name":"Cotton Eye Joe","steam_id":76561198080594207,"connected_time":321000000000,"state":"active","ping":54},{"user_id":639,"name":"Agon","steam_id":76561198982948437,"connected_time":412000000000,"state":"active","ping":80},{"user_id":596,"name":"Jack","steam_id":76561198079575891,"connected_time":2954000000000,"state":"active","ping":45},{"user_id":633,"name":"john fortress","steam_id":76561198013237629,"connected_time":727000000000,"state":"active","ping":93}]},{"server_id":22,"name":"Uncletopia | London | 6 | All Maps","name_short":"lon-6","host":"lon-1.uk.uncletopia.com","port":27065,"enabled":true,"region":"eu","cc":"gb","latitude":51.509865,"longitude":-0.118092,"reserved":0,"last_update":"0001-01-01T00:00:00Z","name_a2s":"Uncletopia | London | 6 | All Maps","protocol":17,"map":"pl_snowycoast","folder":"tf","game":"Team Fortress","app_id":440,"player_count":23,"max_players":24,"Bots":0,"server_type":"Dedicated","server_os":"Linux","password":true,"vac":true,"version":"7961495","steam_id":85568392924742830,"keywords":["nocrits","nodmgspread","payload","uncletopia"],"game_id":440,"stv_port":27066,"stv_name":"Uncletopia | London | 6 | All Maps | STV","players":[{"user_id":176,"name":"KillFatih","steam_id":76561198289729882,"connected_time":1709000000000,"state":"active","ping":89},{"user_id":179,"name":"Haschgott 2.0","steam_id":76561198049820307,"connected_time":1190000000000,"state":"active","ping":70},{"user_id":186,"name":"NekoDemon","steam_id":76561198871263964,"connected_time":578000000000,"state":"active","ping":63},{"user_id":193,"name":"Pitipit","steam_id":76561198343333412,"connected_time":151000000000,"state":"active","ping":90},{"user_id":182,"name":"󠀡󠀡","steam_id":76561198059375315,"connected_time":1113000000000,"state":"active","ping":76},{"user_id":188,"name":"I'm using Tilt Controls.","steam_id":76561198077864552,"connected_time":393000000000,"state":"active","ping":33},{"user_id":183,"name":"gasstationzaza148755","steam_id":76561198448661685,"connected_time":1102000000000,"state":"active","ping":73},{"user_id":196,"name":":)","steam_id":76561198039964082,"connected_time":35000000000,"state":"active","ping":60},{"user_id":177,"name":"simon","steam_id":76561198160514633,"connected_time":1533000000000,"state":"active","ping":63},{"user_id":184,"name":"ciuffino.carlo09","steam_id":76561199065254593,"connected_time":1098000000000,"state":"active","ping":77},{"user_id":169,"name":"TF2 Dev Commentary","steam_id":76561198414175953,"connected_time":1821000000000,"state":"active","ping":62},{"user_id":189,"name":"Dangerousbros","steam_id":76561198088952519,"connected_time":343000000000,"state":"active","ping":35},{"user_id":148,"name":"Shuro-Chi","steam_id":76561198172942134,"connected_time":2998000000000,"state":"active","ping":58},{"user_id":165,"name":"milo","steam_id":76561198119016918,"connected_time":2310000000000,"state":"active","ping":102},{"user_id":147,"name":"Azrept","steam_id":76561198088368347,"connected_time":3048000000000,"state":"active","ping":67},{"user_id":195,"name":"fl1p","steam_id":76561198148565659,"connected_time":77000000000,"state":"active","ping":74},{"user_id":187,"name":"waffle toaster","steam_id":76561198799089628,"connected_time":466000000000,"state":"active","ping":45},{"user_id":191,"name":"Jmen","steam_id":76561198000501096,"connected_time":246000000000,"state":"active","ping":60},{"user_id":160,"name":"thia","steam_id":76561198186366599,"connected_time":2408000000000,"state":"active","ping":87},{"user_id":192,"name":"Understand","steam_id":76561198096846865,"connected_time":223000000000,"state":"active","ping":54},{"user_id":194,"name":"Macross","steam_id":76561198236834916,"connected_time":82000000000,"state":"active","ping":53},{"user_id":172,"name":"senegal penus","steam_id":76561198182910145,"connected_time":1794000000000,"state":"active","ping":73},{"user_id":181,"name":"torn","steam_id":76561198223003236,"connected_time":1157000000000,"state":"active","ping":35}]},{"server_id":40,"name":"Uncletopia | London | 7 | Stopwatch","name_short":"lon-7","host":"lon-1.uk.uncletopia.com","port":27075,"enabled":true,"region":"eu","cc":"gb","latitude":51.509865,"longitude":-0.118092,"reserved":0,"last_update":"0001-01-01T00:00:00Z","name_a2s":"Uncletopia | London | 7 | Stopwatch","protocol":17,"map":"workshop/koth_clearcut_b15.ugc2107050255","folder":"tf","game":"Team Fortress","app_id":440,"player_count":2,"max_players":24,"Bots":0,"server_type":"Dedicated","server_os":"Linux","password":true,"vac":true,"version":"7961495","steam_id":85568392924964314,"keywords":["cp","nocrits","nodmgspread","uncletopia"],"game_id":440,"stv_port":27076,"stv_name":"Uncletopia | London | 7 | Stopwatch | STV","players":[{"user_id":10,"name":"Cammeel_God","steam_id":76561199133346557,"connected_time":282000000000,"state":"active","ping":66},{"user_id":11,"name":"MeerkatOfficial","steam_id":76561199178018465,"connected_time":226000000000,"state":"active","ping":55}]},{"server_id":41,"name":"Uncletopia | London | 8 | Community","name_short":"lon-8","host":"lon-1.uk.uncletopia.com","port":27085,"enabled":true,"region":"eu","cc":"gb","latitude":51.509865,"longitude":-0.118092,"reserved":0,"last_update":"0001-01-01T00:00:00Z","name_a2s":"Uncletopia | London | 8 | Community","protocol":17,"map":"cp_snakewater_final1","folder":"tf","game":"Team Fortress","app_id":440,"player_count":0,"max_players":24,"Bots":0,"server_type":"Dedicated","server_os":"Linux","password":true,"vac":true,"version":"7961495","steam_id":85568392924964315,"keywords":["cp","nocrits","nodmgspread","uncletopia"],"game_id":440,"stv_port":27086,"stv_name":"Uncletopia | London | 8 | Community | STV","players":null},{"server_id":300,"name":"Uncletopia | Montréal | 1 | One Thousand Uncles","name_short":"mtl-1","host":"mtl-1.ca.uncletopia.com","port":27015,"enabled":true,"region":"us-east","cc":"ca","latitude":45.50889,"longitude":-73.56167,"reserved":0,"last_update":"0001-01-01T00:00:00Z","name_a2s":"","protocol":0,"map":"","folder":"","game":"","app_id":0,"player_count":0,"max_players":0,"Bots":0,"server_type":"","server_os":"","password":false,"vac":false,"version":"","steam_id":0,"keywords":null,"game_id":0,"stv_port":0,"stv_name":"","players":null},{"server_id":301,"name":"Uncletopia | Montréal | 2 | One Thousand Uncles","name_short":"mtl-2","host":"mtl-1.ca.uncletopia.com","port":27025,"enabled":true,"region":"us-east","cc":"ca","latitude":45.50889,"longitude":-73.56167,"reserved":0,"last_update":"0001-01-01T00:00:00Z","name_a2s":"","protocol":0,"map":"","folder":"","game":"","app_id":0,"player_count":0,"max_players":0,"Bots":0,"server_type":"","server_os":"","password":false,"vac":false,"version":"","steam_id":0,"keywords":null,"game_id":0,"stv_port":0,"stv_name":"","players":null},{"server_id":302,"name":"Uncletopia | Montréal | 3 | One Thousand Uncles","name_short":"mtl-3","host":"mtl-1.ca.uncletopia.com","port":27035,"enabled":true,"region":"us-east","cc":"ca","latitude":45.50889,"longitude":-73.56167,"reserved":0,"last_update":"0001-01-01T00:00:00Z","name_a2s":"","protocol":0,"map":"","folder":"","game":"","app_id":0,"player_count":0,"max_players":0,"Bots":0,"server_type":"","server_os":"","password":false,"vac":false,"version":"","steam_id":0,"keywords":null,"game_id":0,"stv_port":0,"stv_name":"","players":null},{"server_id":13,"name":"Uncletopia | New York City | 1 | All Maps","name_short":"nyc-1","host":"nyc-1.us.uncletopia.com","port":27015,"enabled":true,"region":"us-east","cc":"us","latitude":40.73061,"longitude":-73.93524,"reserved":0,"last_update":"0001-01-01T00:00:00Z","name_a2s":"Uncletopia | New York City | 1 | All Maps","protocol":17,"map":"koth_highpass","folder":"tf","game":"Team Fortress","app_id":440,"player_count":0,"max_players":24,"Bots":0,"server_type":"Dedicated","server_os":"Linux","password":true,"vac":true,"version":"7961495","steam_id":85568392924469993,"keywords":["cp","nocrits","nodmgspread","uncletopia"],"game_id":440,"stv_port":27016,"stv_name":"Uncletopia | New York City | 1 | All Maps | STV","players":null},{"server_id":14,"name":"Uncletopia | New York City | 2 | All Maps","name_short":"nyc-2","host":"nyc-1.us.uncletopia.com","port":27025,"enabled":true,"region":"us-east","cc":"us","latitude":40.73061,"longitude":-73.93524,"reserved":0,"last_update":"0001-01-01T00:00:00Z","name_a2s":"Uncletopia | New York City | 2 | All Maps","protocol":17,"map":"pl_barnblitz","folder":"tf","game":"Team Fortress","app_id":440,"player_count":0,"max_players":24,"Bots":0,"server_type":"Dedicated","server_os":"Linux","password":true,"vac":true,"version":"7961495","steam_id":85568392924469994,"keywords":["nocrits","nodmgspread","payload","uncletopia"],"game_id":440,"stv_port":27026,"stv_name":"Uncletopia | New York City | 2 | All Maps | STV","players":null},{"server_id":15,"name":"Uncletopia | New York City | 3 | Stopwatch","name_short":"nyc-3","host":"nyc-1.us.uncletopia.com","port":27035,"enabled":true,"region":"us-east","cc":"us","latitude":40.73061,"longitude":-73.93524,"reserved":0,"last_update":"0001-01-01T00:00:00Z","name_a2s":"Uncletopia | New York City | 3 | Stopwatch","protocol":17,"map":"koth_lakeside_final","folder":"tf","game":"Team Fortress","app_id":440,"player_count":4,"max_players":24,"Bots":0,"server_type":"Dedicated","server_os":"Linux","password":true,"vac":true,"version":"7961495","steam_id":85568392924742820,"keywords":["cp","nocrits","nodmgspread","uncletopia"],"game_id":440,"stv_port":27036,"stv_name":"Uncletopia | New York City | 3 | Stopwatch | STV","players":[{"user_id":25,"name":"Mr.Bady","steam_id":76561199094651706,"connected_time":124000000000,"state":"active","ping":55},{"user_id":7,"name":"rip muhammad ali","steam_id":76561198072640720,"connected_time":2846000000000,"state":"active","ping":45},{"user_id":14,"name":"Your Pal, Vegeta","steam_id":76561198064916816,"connected_time":1604000000000,"state":"active","ping":90},{"user_id":9,"name":"Toma_Strims","steam_id":76561198042841506,"connected_time":2245000000000,"state":"active","ping":45}]},{"server_id":16,"name":"Uncletopia | New York City | 4 | Community","name_short":"nyc-4","host":"nyc-1.us.uncletopia.com","port":27045,"enabled":true,"region":"us-east","cc":"us","latitude":40.73061,"longitude":-73.93524,"reserved":0,"last_update":"0001-01-01T00:00:00Z","name_a2s":"Uncletopia | New York City | 4 | Community","protocol":17,"map":"cp_altitude","folder":"tf","game":"Team Fortress","app_id":440,"player_count":0,"max_players":24,"Bots":0,"server_type":"Dedicated","server_os":"Linux","password":true,"vac":true,"version":"7961495","steam_id":85568392924742821,"keywords":["cp","nocrits","nodmgspread","uncletopia"],"game_id":440,"stv_port":27046,"stv_name":"Uncletopia | New York City | 4 | Community | STV","players":null},{"server_id":142,"name":"Uncletopia | São Paulo | 1 | All Maps","name_short":"sao-1","host":"sao-1.br.uncletopia.com","port":27015,"enabled":true,"region":"sa","cc":"br","latitude":-23.533773,"longitude":-46.62529,"reserved":0,"last_update":"0001-01-01T00:00:00Z","name_a2s":"Uncletopia | São Paulo | 1 | All Maps","protocol":17,"map":"cp_process_final","folder":"tf","game":"Team Fortress","app_id":440,"player_count":0,"max_players":24,"Bots":0,"server_type":"Dedicated","server_os":"Linux","password":true,"vac":true,"version":"7961495","steam_id":85568392924469996,"keywords":["cp","nocrits","nodmgspread","uncletopia"],"game_id":440,"stv_port":27016,"stv_name":"Uncletopia | São Paulo | 1 | All Maps | STV","players":null},{"server_id":143,"name":"Uncletopia | São Paulo | 2 | Community","name_short":"sao-2","host":"sao-2.br.uncletopia.com","port":27015,"enabled":true,"region":"sa","cc":"br","latitude":-23.533773,"longitude":-46.62529,"reserved":0,"last_update":"0001-01-01T00:00:00Z","name_a2s":"Uncletopia | São Paulo | 2 | Community","protocol":17,"map":"pl_badwater","folder":"tf","game":"Team Fortress","app_id":440,"player_count":0,"max_players":24,"Bots":0,"server_type":"Dedicated","server_os":"Linux","password":true,"vac":true,"version":"7961495","steam_id":85568392924485349,"keywords":["nocrits","nodmgspread","payload","uncletopia"],"game_id":440,"stv_port":27016,"stv_name":"Uncletopia | São Paulo | 2 | Community | STV","players":null},{"server_id":7,"name":"Uncletopia | Seattle | 1 | All Maps","name_short":"sea-1","host":"sea-1.us.uncletopia.com","port":27015,"enabled":true,"region":"us-west","cc":"us","latitude":47.608013,"longitude":-122.33517,"reserved":0,"last_update":"0001-01-01T00:00:00Z","name_a2s":"Uncletopia | Seattle | 1 | All Maps","protocol":17,"map":"cp_powerhouse","folder":"tf","game":"Team Fortress","app_id":440,"player_count":24,"max_players":24,"Bots":0,"server_type":"Dedicated","server_os":"Linux","password":true,"vac":true,"version":"7961495","steam_id":85568392924469997,"keywords":["cp","nocrits","nodmgspread","uncletopia"],"game_id":440,"stv_port":27016,"stv_name":"Uncletopia | Seattle | 1 | All Maps | STV","players":[{"user_id":118,"name":"Zobozo","steam_id":76561198028954297,"connected_time":1574000000000,"state":"active","ping":69},{"user_id":120,"name":"U ω U","steam_id":76561198118802562,"connected_time":1145000000000,"state":"active","ping":76},{"user_id":122,"name":"PopcornBucketGames","steam_id":76561199089562026,"connected_time":568000000000,"state":"active","ping":34},{"user_id":9,"name":"jayeskae","steam_id":76561198144220801,"connected_time":9085000000000,"state":"active","ping":45},{"user_id":82,"name":"Rain","steam_id":76561198032318897,"connected_time":3890000000000,"state":"active","ping":88},{"user_id":112,"name":"Laxoloni","steam_id":76561199197045700,"connected_time":1734000000000,"state":"active","ping":74},{"user_id":22,"name":"THE VOICES KEEP GETTING LOUDER","steam_id":76561198309823950,"connected_time":8389000000000,"state":"active","ping":38},{"user_id":127,"name":"Skabbety","steam_id":76561198168044257,"connected_time":193000000000,"state":"active","ping":35},{"user_id":115,"name":"Menachem","steam_id":76561198041226420,"connected_time":1667000000000,"state":"active","ping":86},{"user_id":116,"name":"Goose","steam_id":76561198036774894,"connected_time":1664000000000,"state":"active","ping":50},{"user_id":85,"name":"dust | it/she","steam_id":76561198045218909,"connected_time":3862000000000,"state":"active","ping":38},{"user_id":73,"name":"evilOlive","steam_id":76561198106222025,"connected_time":5237000000000,"state":"active","ping":86},{"user_id":121,"name":"TüCold","steam_id":76561198111278197,"connected_time":584000000000,"state":"active","ping":43},{"user_id":107,"name":"you just got dyked on","steam_id":76561198018977723,"connected_time":2523000000000,"state":"active","ping":49},{"user_id":128,"name":"Blitzy","steam_id":76561198149472890,"connected_time":142000000000,"state":"active","ping":62},{"user_id":106,"name":"Gluppo","steam_id":76561198060016004,"connected_time":2582000000000,"state":"active","ping":102},{"user_id":113,"name":"Plague Medic","steam_id":76561198035784649,"connected_time":1732000000000,"state":"active","ping":75},{"user_id":88,"name":"SEGNO","steam_id":76561198102780113,"connected_time":3775000000000,"state":"active","ping":70},{"user_id":90,"name":"Wheaty","steam_id":76561198003553412,"connected_time":3394000000000,"state":"active","ping":52},{"user_id":32,"name":"Closed.","steam_id":76561198212598967,"connected_time":7845000000000,"state":"active","ping":76},{"user_id":110,"name":"Lambda","steam_id":76561198353587576,"connected_time":2117000000000,"state":"active","ping":47},{"user_id":77,"name":"Petrivus","steam_id":76561198202152453,"connected_time":4441000000000,"state":"active","ping":44},{"user_id":123,"name":"Justi","steam_id":76561199068407599,"connected_time":482000000000,"state":"active","ping":72},{"user_id":109,"name":"scungo","steam_id":76561198316654855,"connected_time":2481000000000,"state":"active","ping":112}]},{"server_id":119,"name":"Uncletopia | Seattle | 2 | All Maps","name_short":"sea-2","host":"sea-1.us.uncletopia.com","port":27025,"enabled":true,"region":"us-west","cc":"us","latitude":47.608013,"longitude":-122.33517,"reserved":0,"last_update":"0001-01-01T00:00:00Z","name_a2s":"Uncletopia | Seattle | 2 | All Maps","protocol":17,"map":"cp_sunshine","folder":"tf","game":"Team Fortress","app_id":440,"player_count":0,"max_players":24,"Bots":0,"server_type":"Dedicated","server_os":"Linux","password":true,"vac":true,"version":"7961495","steam_id":85568392924469998,"keywords":["cp","nocrits","nodmgspread","uncletopia"],"game_id":440,"stv_port":27026,"stv_name":"Uncletopia | Seattle | 2 | All Maps | STV","players":null},{"server_id":406,"name":"Uncletopia | Seattle | 3 | Stopwatch","name_short":"sea-3","host":"sea-1.us.uncletopia.com","port":27035,"enabled":true,"region":"us-west","cc":"us","latitude":47.608013,"longitude":-122.33517,"reserved":0,"last_update":"0001-01-01T00:00:00Z","name_a2s":"Uncletopia | Seattle | 3 | Stopwatch","protocol":17,"map":"workshop/koth_product_final.ugc454272353","folder":"tf","game":"Team Fortress","app_id":440,"player_count":0,"max_players":24,"Bots":0,"server_type":"Dedicated","server_os":"Linux","password":true,"vac":true,"version":"7961495","steam_id":85568392924515217,"keywords":["cp","nocrits","nodmgspread","uncletopia"],"game_id":440,"stv_port":27036,"stv_name":"Uncletopia | Seattle | 3 | Stopwatch | STV","players":null},{"server_id":17,"name":"Uncletopia | San Francisco | 1 | All Maps","name_short":"sfo-1","host":"sfo-1.us.uncletopia.com","port":27015,"enabled":true,"region":"us-west","cc":"us","latitude":37.77397,"longitude":-122.4313,"reserved":0,"last_update":"0001-01-01T00:00:00Z","name_a2s":"Uncletopia | San Francisco | 1 | All Maps","protocol":17,"map":"koth_cascade","folder":"tf","game":"Team Fortress","app_id":440,"player_count":0,"max_players":24,"Bots":0,"server_type":"Dedicated","server_os":"Linux","password":true,"vac":true,"version":"7961495","steam_id":85568392924469999,"keywords":["cp","nocrits","nodmgspread","uncletopia"],"game_id":440,"stv_port":27016,"stv_name":"Uncletopia | San Francisco | 1 | All Maps | STV","players":null},{"server_id":18,"name":"Uncletopia | San Francisco | 2 | All Maps","name_short":"sfo-2","host":"sfo-1.us.uncletopia.com","port":27025,"enabled":true,"region":"us-west","cc":"us","latitude":37.77397,"longitude":-122.4313,"reserved":0,"last_update":"0001-01-01T00:00:00Z","name_a2s":"Uncletopia | San Francisco | 2 | All Maps","protocol":17,"map":"pl_frontier_final","folder":"tf","game":"Team Fortress","app_id":440,"player_count":0,"max_players":24,"Bots":0,"server_type":"Dedicated","server_os":"Linux","password":true,"vac":true,"version":"7961495","steam_id":85568392924470000,"keywords":["nocrits","nodmgspread","payload","uncletopia"],"game_id":440,"stv_port":27026,"stv_name":"Uncletopia | San Francisco | 2 | All Maps | STV","players":null},{"server_id":19,"name":"Uncletopia | San Francisco | 3 | Stopwatch","name_short":"sfo-3","host":"sfo-1.us.uncletopia.com","port":27035,"enabled":true,"region":"us-west","cc":"us","latitude":37.77397,"longitude":-122.4313,"reserved":0,"last_update":"0001-01-01T00:00:00Z","name_a2s":"Uncletopia | San Francisco | 3 | Stopwatch","protocol":17,"map":"workshop/pl_vigil_rc10.ugc1266210012","folder":"tf","game":"Team Fortress","app_id":440,"player_count":0,"max_players":24,"Bots":0,"server_type":"Dedicated","server_os":"Linux","password":true,"vac":true,"version":"7961495","steam_id":85568392924742824,"keywords":["nocrits","nodmgspread","payload","uncletopia"],"game_id":440,"stv_port":27036,"stv_name":"Uncletopia | San Francisco | 3 | Stopwatch | STV","players":null},{"server_id":20,"name":"Uncletopia | San Francisco | 4 | Community","name_short":"sfo-4","host":"sfo-1.us.uncletopia.com","port":27045,"enabled":true,"region":"us-west","cc":"us","latitude":37.77397,"longitude":-122.4313,"reserved":0,"last_update":"0001-01-01T00:00:00Z","name_a2s":"Uncletopia | San Francisco | 4 | Community","protocol":17,"map":"pl_pier","folder":"tf","game":"Team Fortress","app_id":440,"player_count":0,"max_players":24,"Bots":0,"server_type":"Dedicated","server_os":"Linux","password":true,"vac":true,"version":"7961495","steam_id":85568392924742826,"keywords":["nocrits","nodmgspread","payload","uncletopia"],"game_id":440,"stv_port":27046,"stv_name":"Uncletopia | San Francisco | 4 | Community | STV","players":null},{"server_id":141,"name":"Uncletopia | Sydney | 1 | All Maps","name_short":"syd-1","host":"syd-1.au.uncletopia.com","port":27015,"enabled":true,"region":"au","cc":"au","latitude":-33.865143,"longitude":151.2099,"reserved":0,"last_update":"0001-01-01T00:00:00Z","name_a2s":"Uncletopia | Sydney | 1 | All Maps","protocol":17,"map":"plr_hightower","folder":"tf","game":"Team Fortress","app_id":440,"player_count":0,"max_players":24,"Bots":0,"server_type":"Dedicated","server_os":"Linux","password":true,"vac":true,"version":"7961495","steam_id":85568392924470001,"keywords":["nocrits","nodmgspread","payload","uncletopia"],"game_id":440,"stv_port":27016,"stv_name":"Uncletopia | Sydney | 1 | All Maps | STV","players":null},{"server_id":123,"name":"Uncletopia | Sydney | 2 | All Maps","name_short":"syd-2","host":"syd-1.au.uncletopia.com","port":27025,"enabled":true,"region":"au","cc":"au","latitude":-33.865143,"longitude":151.2099,"reserved":0,"last_update":"0001-01-01T00:00:00Z","name_a2s":"Uncletopia | Sydney | 2 | All Maps","protocol":17,"map":"pl_upward","folder":"tf","game":"Team Fortress","app_id":440,"player_count":0,"max_players":24,"Bots":0,"server_type":"Dedicated","server_os":"Linux","password":true,"vac":true,"version":"7961495","steam_id":85568392924470002,"keywords":["nocrits","nodmgspread","payload","uncletopia"],"game_id":440,"stv_port":27026,"stv_name":"Uncletopia | Sydney | 2 | All Maps | STV","players":null},{"server_id":395,"name":"Uncletopia | Sydney | 3 | All Maps","name_short":"syd-3","host":"syd-1.au.uncletopia.com","port":27035,"enabled":true,"region":"au","cc":"au","latitude":-33.865143,"longitude":151.2099,"reserved":0,"last_update":"0001-01-01T00:00:00Z","name_a2s":"Uncletopia | Sydney | 3 | All Maps","protocol":17,"map":"cp_process_final","folder":"tf","game":"Team Fortress","app_id":440,"player_count":0,"max_players":24,"Bots":0,"server_type":"Dedicated","server_os":"Linux","password":true,"vac":true,"version":"7961495","steam_id":85568392925194467,"keywords":["cp","nocrits","nodmgspread","uncletopia"],"game_id":440,"stv_port":27036,"stv_name":"Uncletopia | Sydney | 3 | All Maps | STV","players":null},{"server_id":396,"name":"Uncletopia | Sydney | 4 | All Maps","name_short":"syd-4","host":"syd-1.au.uncletopia.com","port":27045,"enabled":true,"region":"au","cc":"au","latitude":-33.865143,"longitude":151.2099,"reserved":0,"last_update":"0001-01-01T00:00:00Z","name_a2s":"Uncletopia | Sydney | 4 | All Maps","protocol":17,"map":"plr_bananabay","folder":"tf","game":"Team Fortress","app_id":440,"player_count":0,"max_players":24,"Bots":0,"server_type":"Dedicated","server_os":"Linux","password":true,"vac":true,"version":"7961495","steam_id":85568392925397958,"keywords":["nocrits","nodmgspread","payload","uncletopia"],"game_id":440,"stv_port":27046,"stv_name":"Uncletopia | Sydney | 4 | All Maps | STV","players":null},{"server_id":58,"name":"Uncletopia | Sydney | 5 | Stopwatch","name_short":"syd-5","host":"syd-1.au.uncletopia.com","port":27055,"enabled":true,"region":"au","cc":"au","latitude":-33.865143,"longitude":151.2099,"reserved":0,"last_update":"0001-01-01T00:00:00Z","name_a2s":"Uncletopia | Sydney | 5 | Stopwatch","protocol":17,"map":"workshop/koth_bagel_rc6.ugc2514036946","folder":"tf","game":"Team Fortress","app_id":440,"player_count":0,"max_players":24,"Bots":0,"server_type":"Dedicated","server_os":"Linux","password":true,"vac":true,"version":"7961495","steam_id":85568392925397959,"keywords":["cp","nocrits","nodmgspread","uncletopia"],"game_id":440,"stv_port":27056,"stv_name":"Uncletopia | Sydney | 5 | Stopwatch | STV","players":null},{"server_id":59,"name":"Uncletopia | Sydney | 6 | Community","name_short":"syd-6","host":"syd-1.au.uncletopia.com","port":27065,"enabled":true,"region":"au","cc":"au","latitude":-33.865143,"longitude":151.2099,"reserved":0,"last_update":"0001-01-01T00:00:00Z","name_a2s":"Uncletopia | Sydney | 6 | Community","protocol":17,"map":"workshop/koth_kemptown_rc1.ugc767410655","folder":"tf","game":"Team Fortress","app_id":440,"player_count":0,"max_players":24,"Bots":0,"server_type":"Dedicated","server_os":"Linux","password":true,"vac":true,"version":"7961495","steam_id":85568392925397960,"keywords":["cp","nocrits","nodmgspread","uncletopia"],"game_id":440,"stv_port":27066,"stv_name":"Uncletopia | Sydney | 6 | Community | STV","players":null},{"server_id":49,"name":"Uncletopia | Warsaw | 1 | One Thousand Uncles","name_short":"waw-1","host":"waw-1.pl.uncletopia.com","port":27015,"enabled":true,"region":"eu","cc":"pl","latitude":52.2297,"longitude":21.017532,"reserved":0,"last_update":"0001-01-01T00:00:00Z","name_a2s":"Uncletopia | Warsaw | 1 | One Thousand Uncles","protocol":17,"map":"cp_egypt_final","folder":"tf","game":"Team Fortress","app_id":440,"player_count":6,"max_players":32,"Bots":5,"server_type":"Dedicated","server_os":"Linux","password":true,"vac":true,"version":"7961495","steam_id":85568392925397850,"keywords":["alltalk","cp","danepve","increased_maxplayers","nocrits","norespawntime","uncletopia"],"game_id":440,"stv_port":0,"stv_name":"","players":[{"user_id":82,"name":"Truegr","steam_id":76561198811912339,"connected_time":12000000000,"state":"active","ping":75}]},{"server_id":50,"name":"Uncletopia | Warsaw | 2 | One Thousand Uncles","name_short":"waw-2","host":"waw-1.pl.uncletopia.com","port":27025,"enabled":true,"region":"eu","cc":"pl","latitude":52.2297,"longitude":21.017532,"reserved":0,"last_update":"0001-01-01T00:00:00Z","name_a2s":"Uncletopia | Warsaw | 2 | One Thousand Uncles","protocol":17,"map":"pl_badwater","folder":"tf","game":"Team Fortress","app_id":440,"player_count":29,"max_players":32,"Bots":16,"server_type":"Dedicated","server_os":"Linux","password":true,"vac":true,"version":"7961495","steam_id":85568392925397851,"keywords":["alltalk","bots","danepve","increased_maxplayers","nocrits","norespawntime","payload","uncletopia"],"game_id":440,"stv_port":0,"stv_name":"","players":[{"user_id":439,"name":"Docia","steam_id":76561198214092639,"connected_time":1458000000000,"state":"active","ping":98},{"user_id":472,"name":"Mr. Fox","steam_id":76561198803610709,"connected_time":228000000000,"state":"active","ping":135},{"user_id":459,"name":"Kenan Citer","steam_id":76561199390531061,"connected_time":274000000000,"state":"active","ping":91},{"user_id":478,"name":"Feigelman","steam_id":76561199404585461,"connected_time":207000000000,"state":"active","ping":91},{"user_id":452,"name":"skille","steam_id":76561198005794325,"connected_time":903000000000,"state":"active","ping":73},{"user_id":455,"name":"adv6","steam_id":76561198029789989,"connected_time":537000000000,"state":"active","ping":74},{"user_id":407,"name":"LUKE [PL]","steam_id":76561198307059549,"connected_time":3640000000000,"state":"active","ping":152},{"user_id":408,"name":"please do not the cat","steam_id":76561198089003514,"connected_time":3347000000000,"state":"active","ping":60},{"user_id":409,"name":"JuJuMann","steam_id":76561198289461028,"connected_time":3268000000000,"state":"active","ping":188},{"user_id":457,"name":"Samuel L. Jackson","steam_id":76561198130427881,"connected_time":428000000000,"state":"active","ping":176},{"user_id":414,"name":"Skele","steam_id":76561199055970995,"connected_time":2820000000000,"state":"active","ping":115},{"user_id":419,"name":"Gusvenga","steam_id":76561199350840589,"connected_time":2148000000000,"state":"active","ping":59},{"user_id":487,"name":"nelom lulp","steam_id":76561198998684199,"connected_time":125000000000,"state":"active","ping":101}]},{"server_id":51,"name":"Uncletopia | Warsaw | 3 | All Maps","name_short":"waw-3","host":"waw-1.pl.uncletopia.com","port":27035,"enabled":true,"region":"eu","cc":"pl","latitude":52.2297,"longitude":21.017532,"reserved":0,"last_update":"0001-01-01T00:00:00Z","name_a2s":"Uncletopia | Warsaw | 3 | All Maps","protocol":17,"map":"pl_upward","folder":"tf","game":"Team Fortress","app_id":440,"player_count":6,"max_players":24,"Bots":0,"server_type":"Dedicated","server_os":"Linux","password":true,"vac":true,"version":"7961495","steam_id":85568392925397852,"keywords":["nocrits","nodmgspread","payload","uncletopia"],"game_id":440,"stv_port":27036,"stv_name":"Uncletopia | Warsaw | 3 | All Maps | STV","players":[{"user_id":14,"name":"cheesyanchovy","steam_id":76561198357351645,"connected_time":781000000000,"state":"active","ping":55},{"user_id":15,"name":"Jägermann","steam_id":76561198048506715,"connected_time":475000000000,"state":"active","ping":75},{"user_id":16,"name":"KrisZenn","steam_id":76561198366154894,"connected_time":421000000000,"state":"active","ping":66},{"user_id":17,"name":"Doctor Livesey","steam_id":76561198828037534,"connected_time":317000000000,"state":"active","ping":67},{"user_id":18,"name":"DokaA","steam_id":76561199267572023,"connected_time":275000000000,"state":"active","ping":62},{"user_id":19,"name":"Ziano","steam_id":76561199111746284,"connected_time":139000000000,"state":"active","ping":72}]},{"server_id":52,"name":"Uncletopia | Warsaw | 4 | All Maps","name_short":"waw-4","host":"waw-1.pl.uncletopia.com","port":27045,"enabled":true,"region":"eu","cc":"pl","latitude":52.2297,"longitude":21.017532,"reserved":0,"last_update":"0001-01-01T00:00:00Z","name_a2s":"Uncletopia | Warsaw | 4 | All Maps","protocol":17,"map":"cp_process_final","folder":"tf","game":"Team Fortress","app_id":440,"player_count":8,"max_players":24,"Bots":0,"server_type":"Dedicated","server_os":"Linux","password":true,"vac":true,"version":"7961495","steam_id":85568392925397853,"keywords":["cp","nocrits","nodmgspread","uncletopia"],"game_id":440,"stv_port":27046,"stv_name":"Uncletopia | Warsaw | 4 | All Maps | STV","players":[{"user_id":17,"name":"Cikula","steam_id":76561198324384778,"connected_time":454000000000,"state":"spawning","ping":65},{"user_id":18,"name":"pajakala","steam_id":76561198271641525,"connected_time":433000000000,"state":"spawning","ping":50},{"user_id":11,"name":"SoapySophie","steam_id":76561198902894934,"connected_time":1917000000000,"state":"spawning","ping":146},{"user_id":12,"name":"Skcall","steam_id":76561198818774460,"connected_time":1910000000000,"state":"spawning","ping":139},{"user_id":14,"name":"ellie","steam_id":76561198986197639,"connected_time":1894000000000,"state":"spawning","ping":102},{"user_id":15,"name":"soffy","steam_id":76561198209807837,"connected_time":1857000000000,"state":"spawning","ping":82},{"user_id":19,"name":"eLoeL","steam_id":76561198275528938,"connected_time":424000000000,"state":"spawning","ping":66},{"user_id":21,"name":"Yellowtt","steam_id":76561198374834340,"connected_time":232000000000,"state":"spawning","ping":81}]},{"server_id":53,"name":"Uncletopia | Warsaw | 5 | Stopwatch","name_short":"waw-5","host":"waw-1.pl.uncletopia.com","port":27055,"enabled":true,"region":"eu","cc":"pl","latitude":52.2297,"longitude":21.017532,"reserved":0,"last_update":"0001-01-01T00:00:00Z","name_a2s":"Uncletopia | Warsaw | 5 | Stopwatch","protocol":17,"map":"workshop/koth_product_final.ugc454272353","folder":"tf","game":"Team Fortress","app_id":440,"player_count":0,"max_players":24,"Bots":0,"server_type":"Dedicated","server_os":"Linux","password":true,"vac":true,"version":"7961495","steam_id":85568392925397854,"keywords":["cp","nocrits","nodmgspread","uncletopia"],"game_id":440,"stv_port":27056,"stv_name":"Uncletopia | Warsaw | 5 | Stopwatch | STV","players":null},{"server_id":54,"name":"Uncletopia | Warsaw | 6 | Community","name_short":"waw-6","host":"waw-1.pl.uncletopia.com","port":27065,"enabled":true,"region":"eu","cc":"pl","latitude":52.2297,"longitude":21.017532,"reserved":0,"last_update":"0001-01-01T00:00:00Z","name_a2s":"Uncletopia | Warsaw | 6 | Community","protocol":17,"map":"workshop/cp_glacier_rc6.ugc2905735376","folder":"tf","game":"Team Fortress","app_id":440,"player_count":0,"max_players":24,"Bots":0,"server_type":"Dedicated","server_os":"Linux","password":true,"vac":true,"version":"7961495","steam_id":85568392925397856,"keywords":["cp","nocrits","nodmgspread","uncletopia"],"game_id":440,"stv_port":27066,"stv_name":"Uncletopia | Warsaw | 6 | Community | STV","players":null}]}