{"status":true,"message":"","result":[{"server_id":9,"name":"Uncletopia | Atlanta | 1 | All Maps","name_short":"atl-1","host":"atl-1.us.uncletopia.com","port":27015,"enabled":true,"region":"us-east","cc":"us","latitude":33.753746,"longitude":-84.38633,"reserved":0,"last_update":"0001-01-01T00:00:00Z","name_a2s":"Uncletopia | Atlanta | 1 | All Maps","protocol":17,"map":"cp_steel","folder":"tf","game":"Team Fortress","app_id":440,"player_count":24,"max_players":24,"Bots":0,"server_type":"Dedicated","server_os":"Linux","password":true,"vac":true,"version":"7757534","steam_id":85568392924469982,"keywords":["cp","nocrits","nodmgspread","uncletopia"],"game_id":440,"stv_port":27016,"stv_name":"Uncletopia | Atlanta | 1 | All Maps | STV","players":[{"user_id":207,"name":"Ur gf's pubic hair","steam_id":76561198046928474,"connected_time":387000000000,"state":"active","ping":83},{"user_id":206,"name":"kick bots = gigachad","steam_id":76561198384098648,"connected_time":424000000000,"state":"active","ping":70},{"user_id":232,"name":"MyamE","steam_id":76561198133278462,"connected_time":6000000000,"state":"spawning","ping":58},{"user_id":208,"name":"knotsofunny","steam_id":76561198071336304,"connected_time":374000000000,"state":"active","ping":72},{"user_id":200,"name":"VnZ","steam_id":76561198123675820,"connected_time":841000000000,"state":"active","ping":57},{"user_id":187,"name":"The Shiigster","steam_id":76561198919981160,"connected_time":2624000000000,"state":"active","ping":66},{"user_id":195,"name":"Spy_Is_Pye","steam_id":76561199439622967,"connected_time":1425000000000,"state":"active","ping":71},{"user_id":183,"name":"ATL1 | Bandicario","steam_id":76561198432036026,"connected_time":3050000000000,"state":"active","ping":56},{"user_id":225,"name":"Bingus Bongos","steam_id":76561198935134697,"connected_time":168000000000,"state":"active","ping":64},{"user_id":184,"name":"PomsonPug","steam_id":76561198049093575,"connected_time":2955000000000,"state":"active","ping":91},{"user_id":189,"name":"The Spy from TF2","steam_id":76561199121276474,"connected_time":2127000000000,"state":"active","ping":80},{"user_id":170,"name":"M@verick","steam_id":76561198006363519,"connected_time":4283000000000,"state":"active","ping":76},{"user_id":191,"name":"cheeks","steam_id":76561197993371179,"connected_time":2122000000000,"state":"active","ping":56},{"user_id":186,"name":"MaximumAce","steam_id":76561198359596849,"connected_time":2927000000000,"state":"active","ping":59},{"user_id":214,"name":"jzplr üé∑üêõ","steam_id":76561198091901520,"connected_time":292000000000,"state":"active","ping":68},{"user_id":197,"name":"Thotimus Begonimus","steam_id":76561197970275938,"connected_time":1284000000000,"state":"active","ping":56},{"user_id":161,"name":"Ashes!","steam_id":76561197998475441,"connected_time":5433000000000,"state":"active","ping":92},{"user_id":188,"name":"ATL1 | Kramer","steam_id":76561198083595936,"connected_time":2277000000000,"state":"active","ping":86},{"user_id":148,"name":"Whoa","steam_id":76561197970353496,"connected_time":6544000000000,"state":"active","ping":74},{"user_id":154,"name":"hamal cine","steam_id":76561198079619374,"connected_time":5741000000000,"state":"active","ping":57},{"user_id":162,"name":"atserc","steam_id":76561197997570349,"connected_time":5377000000000,"state":"active","ping":81},{"user_id":228,"name":"gabagool","steam_id":76561198012131766,"connected_time":143000000000,"state":"active","ping":74},{"user_id":185,"name":"HarryjusttHarry","steam_id":76561198982810452,"connected_time":2955000000000,"state":"active","ping":80},{"user_id":205,"name":"Christmas Pyro","steam_id":76561199039805435,"connected_time":476000000000,"state":"active","ping":133}]},{"server_id":400,"name":"Uncletopia | Atlanta | 3 | Stopwatch Beta","name_short":"atl-3","host":"atl-1.us.uncletopia.com","port":27035,"enabled":true,"region":"us-east","cc":"us","latitude":33.753746,"longitude":-84.38633,"reserved":0,"last_update":"0001-01-01T00:00:00Z","name_a2s":"Uncletopia | Atlanta | 3 | Stopwatch Beta","protocol":17,"map":"pl_borneo","folder":"tf","game":"Team Fortress","app_id":440,"player_count":0,"max_players":24,"Bots":0,"server_type":"Dedicated","server_os":"Linux","password":true,"vac":true,"version":"7757534","steam_id":85568392924515187,"keywords":["nocrits","nodmgspread","payload","uncletopia"],"game_id":440,"stv_port":27036,"stv_name":"Uncletopia | Atlanta | 3 | Stopwatch Beta | STV","players":null},{"server_id":401,"name":"Uncletopia | Atlanta | 4 | No Payload","name_short":"atl-4","host":"atl-1.us.uncletopia.com","port":27045,"enabled":true,"region":"us-east","cc":"us","latitude":33.753746,"longitude":-84.38633,"reserved":0,"last_update":"0001-01-01T00:00:00Z","name_a2s":"Uncletopia | Atlanta | 4 | No Payload","protocol":17,"map":"pl_pier","folder":"tf","game":"Team Fortress","app_id":440,"player_count":0,"max_players":24,"Bots":0,"server_type":"Dedicated","server_os":"Linux","password":true,"vac":true,"version":"7723704","steam_id":85568392924515188,"keywords":["nocrits","nodmgspread","payload","uncletopia"],"game_id":440,"stv_port":27046,"stv_name":"Uncletopia | Atlanta | 4 | No Payload | STV","players":null},{"server_id":2,"name":"Uncletopia | Chicago | 1 | All Maps","name_short":"chi-1","host":"chi-1.us.uncletopia.com","port":27015,"enabled":true,"region":"us-central","cc":"us","latitude":41.881832,"longitude":-87.62318,"reserved":0,"last_update":"0001-01-01T00:00:00Z","name_a2s":"Uncletopia | Chicago | 1 | All Maps","protocol":17,"map":"pl_borneo","folder":"tf","game":"Team Fortress","app_id":440,"player_count":24,"max_players":24,"Bots":0,"server_type":"Dedicated","server_os":"Linux","password":true,"vac":true,"version":"7757534","steam_id":85568392924469984,"keywords":["nocrits","nodmgspread","payload","uncletopia"],"game_id":440,"stv_port":27016,"stv_name":"Uncletopia | Chicago | 1 | All Maps | STV","players":[{"user_id":309,"name":"GREG","steam_id":76561198073021168,"connected_time":2355000000000,"state":"active","ping":66},{"user_id":321,"name":"CB","steam_id":76561198246398702,"connected_time":1407000000000,"state":"active","ping":76},{"user_id":260,"name":"PotatoChamp","steam_id":76561198074247215,"connected_time":5837000000000,"state":"active","ping":114},{"user_id":330,"name":"Trackpad Gaming","steam_id":76561198334209581,"connected_time":902000000000,"state":"active","ping":56},{"user_id":326,"name":"craf","steam_id":76561198163535075,"connected_time":974000000000,"state":"active","ping":71},{"user_id":317,"name":"Lorelius Hogglefart","steam_id":76561198449527009,"connected_time":1470000000000,"state":"active","ping":59},{"user_id":301,"name":"stevemarshall","steam_id":76561198405982285,"connected_time":3263000000000,"state":"active","ping":45},{"user_id":325,"name":"superdude83","steam_id":76561198119727829,"connected_time":1096000000000,"state":"active","ping":74},{"user_id":331,"name":"floppy muppet","steam_id":76561198003076261,"connected_time":885000000000,"state":"active","ping":75},{"user_id":281,"name":"debin","steam_id":76561198070711217,"connected_time":4623000000000,"state":"active","ping":56},{"user_id":310,"name":"Iggy Dogg","steam_id":76561198059602545,"connected_time":2325000000000,"state":"active","ping":56},{"user_id":304,"name":"Fudgely","steam_id":76561198039425862,"connected_time":3178000000000,"state":"active","ping":69},{"user_id":328,"name":"Qball","steam_id":76561198179016466,"connected_time":928000000000,"state":"active","ping":52},{"user_id":315,"name":"Macko","steam_id":76561198452005461,"connected_time":1699000000000,"state":"active","ping":82},{"user_id":308,"name":"Fawful's Minion","steam_id":76561198090120779,"connected_time":2635000000000,"state":"active","ping":164},{"user_id":305,"name":"The ghostly Piss MN","steam_id":76561198209197020,"connected_time":3032000000000,"state":"active","ping":69},{"user_id":332,"name":"Doober","steam_id":76561198056661095,"connected_time":869000000000,"state":"active","ping":83},{"user_id":318,"name":"‚ô• Femboy‚ô•Ventily ‚ô•","steam_id":76561198157260335,"connected_time":1468000000000,"state":"active","ping":45},{"user_id":322,"name":"Squatchamo","steam_id":76561198012968239,"connected_time":1404000000000,"state":"active","ping":74},{"user_id":282,"name":"Tyco","steam_id":76561197978414167,"connected_time":4551000000000,"state":"active","ping":89},{"user_id":320,"name":"Hylic","steam_id":76561199051314589,"connected_time":1432000000000,"state":"active","ping":62},{"user_id":324,"name":"SLaPPy- oNaSiS","steam_id":76561198009286862,"connected_time":1331000000000,"state":"active","ping":69},{"user_id":199,"name":"Dali","steam_id":76561198077593486,"connected_time":11786000000000,"state":"active","ping":126},{"user_id":298,"name":"1rhythm","steam_id":76561199159347310,"connected_time":3481000000000,"state":"active","ping":83}]},{"server_id":106,"name":"Uncletopia | Chicago | 2 | All Maps","name_short":"chi-2","host":"chi-1.us.uncletopia.com","port":27025,"enabled":true,"region":"us-central","cc":"us","latitude":41.881832,"longitude":-87.62318,"reserved":0,"last_update":"0001-01-01T00:00:00Z","name_a2s":"Uncletopia | Chicago | 2 | All Maps","protocol":17,"map":"pl_barnblitz","folder":"tf","game":"Team Fortress","app_id":440,"player_count":23,"max_players":24,"Bots":0,"server_type":"Dedicated","server_os":"Linux","password":true,"vac":true,"version":"7757534","steam_id":85568392924469985,"keywords":["nocrits","nodmgspread","payload","uncletopia"],"game_id":440,"stv_port":27026,"stv_name":"Uncletopia | Chicago | 2 | All Maps | STV","players":[{"user_id":11,"name":"The World's Softest Sandwich","steam_id":76561198015577707,"connected_time":8489000000000,"state":"active","ping":76},{"user_id":129,"name":"kite","steam_id":76561198346516392,"connected_time":218000000000,"state":"active","ping":69},{"user_id":122,"name":"cyclops","steam_id":76561197970370198,"connected_time":1003000000000,"state":"active","ping":61},{"user_id":101,"name":"rico suave","steam_id":76561198093252989,"connected_time":2385000000000,"state":"active","ping":91},{"user_id":117,"name":"Wwaz","steam_id":76561198000240092,"connected_time":1180000000000,"state":"active","ping":55},{"user_id":88,"name":"Sentry (Egg_toast)","steam_id":76561198392370897,"connected_time":2626000000000,"state":"active","ping":65},{"user_id":89,"name":"GiraffeMan","steam_id":76561198042104084,"connected_time":2589000000000,"state":"active","ping":70},{"user_id":113,"name":"Vec","steam_id":76561198044505262,"connected_time":1734000000000,"state":"active","ping":108},{"user_id":121,"name":"Elizabeth truss","steam_id":76561198058250979,"connected_time":1024000000000,"state":"active","ping":67},{"user_id":77,"name":"PonYOOOOOOO","steam_id":76561199067424111,"connected_time":3916000000000,"state":"active","ping":117},{"user_id":115,"name":"Dill","steam_id":76561197995325198,"connected_time":1686000000000,"state":"active","ping":64},{"user_id":94,"name":"Hermit_","steam_id":76561198013807290,"connected_time":2551000000000,"state":"active","ping":85},{"user_id":111,"name":"OrangeCrab","steam_id":76561198982248872,"connected_time":1949000000000,"state":"active","ping":75},{"user_id":78,"name":"tasty","steam_id":76561198083839061,"connected_time":3915000000000,"state":"active","ping":67},{"user_id":127,"name":"Coop Draws","steam_id":76561198238568640,"connected_time":328000000000,"state":"active","ping":82},{"user_id":126,"name":"keffers","steam_id":76561198202338796,"connected_time":486000000000,"state":"active","ping":74},{"user_id":116,"name":"klaus","steam_id":76561199008634102,"connected_time":1348000000000,"state":"active","ping":74},{"user_id":128,"name":"Kaypo","steam_id":76561198262420097,"connected_time":299000000000,"state":"active","ping":69},{"user_id":64,"name":"bocchi la roca","steam_id":76561198025668771,"connected_time":4684000000000,"state":"active","ping":134},{"user_id":108,"name":"Uncle Majic the Hip Hop Magicia","steam_id":76561198107924303,"connected_time":2244000000000,"state":"active","ping":63},{"user_id":120,"name":"GIGANOURRISSON","steam_id":76561197975618509,"connected_time":1036000000000,"state":"active","ping":74},{"user_id":41,"name":"Fresh Lychee","steam_id":76561198045399559,"connected_time":7168000000000,"state":"active","ping":59},{"user_id":103,"name":"RandomInternetUser","steam_id":76561199230027049,"connected_time":2368000000000,"state":"active","ping":66}]},{"server_id":402,"name":"Uncletopia | Chicago | 3 | All Maps","name_short":"chi-3","host":"chi-1.us.uncletopia.com","port":27035,"enabled":true,"region":"us-central","cc":"us","latitude":41.881832,"longitude":-87.62318,"reserved":0,"last_update":"0001-01-01T00:00:00Z","name_a2s":"Uncletopia | Chicago | 3 | All Maps","protocol":17,"map":"pl_swiftwater_final1","folder":"tf","game":"Team Fortress","app_id":440,"player_count":24,"max_players":24,"Bots":0,"server_type":"Dedicated","server_os":"Linux","password":true,"vac":true,"version":"7757534","steam_id":85568392924515191,"keywords":["nocrits","nodmgspread","payload","uncletopia"],"game_id":440,"stv_port":27036,"stv_name":"Uncletopia | Chicago | 3 | All Maps | STV","players":[{"user_id":57,"name":"The Greendale Human Beings","steam_id":76561198055433422,"connected_time":3143000000000,"state":"active","ping":81},{"user_id":109,"name":"Resting Ouchie Face","steam_id":76561198017742083,"connected_time":96000000000,"state":"active","ping":60},{"user_id":95,"name":"PzVIIIMaus","steam_id":76561198346559365,"connected_time":1023000000000,"state":"active","ping":44},{"user_id":112,"name":"Shrake","steam_id":76561198114379995,"connected_time":65000000000,"state":"active","ping":39},{"user_id":74,"name":"Ozone-flavored Starburst","steam_id":76561199163688421,"connected_time":2788000000000,"state":"active","ping":98},{"user_id":116,"name":"Tealim","steam_id":76561198330085713,"connected_time":35000000000,"state":"active","ping":72},{"user_id":98,"name":"MeatwadMeatwad","steam_id":76561198202194160,"connected_time":905000000000,"state":"active","ping":46},{"user_id":110,"name":"evnobev","steam_id":76561198038966462,"connected_time":78000000000,"state":"active","ping":47},{"user_id":106,"name":"i will salt your canker sores","steam_id":76561198067994868,"connected_time":444000000000,"state":"active","ping":63},{"user_id":111,"name":"Veritox","steam_id":76561198075778026,"connected_time":71000000000,"state":"active","ping":110},{"user_id":114,"name":"no","steam_id":76561198248853140,"connected_time":50000000000,"state":"active","ping":49},{"user_id":107,"name":"Tyrone","steam_id":76561198189429665,"connected_time":441000000000,"state":"active","ping":74},{"user_id":105,"name":"Bread Baker","steam_id":76561198185335103,"connected_time":580000000000,"state":"active","ping":52},{"user_id":66,"name":"trackpad king","steam_id":76561198161199653,"connected_time":3009000000000,"state":"active","ping":62},{"user_id":115,"name":"Texas (no monitor)","steam_id":76561198088134979,"connected_time":47000000000,"state":"spawning","ping":47},{"user_id":101,"name":"Deltaco","steam_id":76561198094572694,"connected_time":829000000000,"state":"active","ping":112},{"user_id":94,"name":"Mycelion","steam_id":76561198024999530,"connected_time":1079000000000,"state":"active","ping":84},{"user_id":86,"name":"CFDv20","steam_id":76561198450073779,"connected_time":1790000000000,"state":"active","ping":85},{"user_id":93,"name":"Inhumane Toaster","steam_id":76561198019162167,"connected_time":1163000000000,"state":"active","ping":100},{"user_id":113,"name":"WM1 PYRO","steam_id":76561198045893896,"connected_time":63000000000,"state":"active","ping":99},{"user_id":102,"name":"a noob","steam_id":76561198360475156,"connected_time":823000000000,"state":"active","ping":112},{"user_id":108,"name":"scientist","steam_id":76561198215559840,"connected_time":434000000000,"state":"active","ping":60},{"user_id":78,"name":"Uncle Meat","steam_id":76561198012534850,"connected_time":2622000000000,"state":"active","ping":70},{"user_id":38,"name":"jstn","steam_id":76561198845283665,"connected_time":5390000000000,"state":"active","ping":75}]},{"server_id":403,"name":"Uncletopia | Chicago | 4 | All Maps","name_short":"chi-4","host":"chi-1.us.uncletopia.com","port":27045,"enabled":true,"region":"us-central","cc":"us","latitude":41.881832,"longitude":-87.62318,"reserved":0,"last_update":"0001-01-01T00:00:00Z","name_a2s":"Uncletopia | Chicago | 4 | All Maps","protocol":17,"map":"pl_frontier_final","folder":"tf","game":"Team Fortress","app_id":440,"player_count":22,"max_players":24,"Bots":0,"server_type":"Dedicated","server_os":"Linux","password":true,"vac":true,"version":"7757534","steam_id":85568392924515193,"keywords":["nocrits","nodmgspread","payload","uncletopia"],"game_id":440,"stv_port":27046,"stv_name":"Uncletopia | Chicago | 4 | All Maps | STV","players":[{"user_id":56,"name":"Biddy","steam_id":76561198255305591,"connected_time":25000000000,"state":"active","ping":59},{"user_id":21,"name":"Grenade_Addict","steam_id":76561199212037850,"connected_time":2252000000000,"state":"active","ping":94},{"user_id":12,"name":"Goober","steam_id":76561198988863807,"connected_time":3117000000000,"state":"active","ping":74},{"user_id":57,"name":"Penrose42","steam_id":76561198288577396,"connected_time":25000000000,"state":"active","ping":101},{"user_id":14,"name":"psy","steam_id":76561198013195018,"connected_time":2881000000000,"state":"active","ping":76},{"user_id":24,"name":"i drink gasoline","steam_id":76561199059257565,"connected_time":1689000000000,"state":"active","ping":90},{"user_id":49,"name":"PUNfactory","steam_id":76561198117388483,"connected_time":400000000000,"state":"active","ping":65},{"user_id":18,"name":"stupid ape","steam_id":76561198350027075,"connected_time":2353000000000,"state":"active","ping":48},{"user_id":44,"name":"Antknee","steam_id":76561198263793809,"connected_time":920000000000,"state":"active","ping":76},{"user_id":20,"name":"RetroJay","steam_id":76561198041718682,"connected_time":2306000000000,"state":"active","ping":139},{"user_id":50,"name":"Astrocircuit","steam_id":76561198014437544,"connected_time":382000000000,"state":"active","ping":61},{"user_id":52,"name":"penguinlord","steam_id":76561198305192692,"connected_time":366000000000,"state":"active","ping":61},{"user_id":45,"name":"No Third-Degree Bern","steam_id":76561198859103666,"connected_time":675000000000,"state":"active","ping":62},{"user_id":48,"name":"ambarasodor","steam_id":76561198799029492,"connected_time":548000000000,"state":"active","ping":157},{"user_id":55,"name":".9 lg","steam_id":76561198092238353,"connected_time":31000000000,"state":"active","ping":74},{"user_id":31,"name":"submackeen","steam_id":76561198799855913,"connected_time":1608000000000,"state":"active","ping":61},{"user_id":38,"name":"bhop","steam_id":76561198064885639,"connected_time":1566000000000,"state":"active","ping":71},{"user_id":33,"name":"space","steam_id":76561199012165476,"connected_time":1590000000000,"state":"active","ping":60},{"user_id":35,"name":"Lempii","steam_id":76561198433507634,"connected_time":1580000000000,"state":"active","ping":193},{"user_id":37,"name":"Night","steam_id":76561198377000809,"connected_time":1575000000000,"state":"active","ping":74},{"user_id":39,"name":"Winter the Witchie","steam_id":76561198151971178,"connected_time":1561000000000,"state":"active","ping":53},{"user_id":42,"name":"FROYO domando","steam_id":76561199150367705,"connected_time":1482000000000,"state":"active","ping":76}]},{"server_id":36,"name":"Uncletopia | Chicago | 5 | All Maps","name_short":"chi-5","host":"chi-2.us.uncletopia.com","port":27015,"enabled":true,"region":"us-central","cc":"us","latitude":41.881832,"longitude":-87.62318,"reserved":0,"last_update":"0001-01-01T00:00:00Z","name_a2s":"Uncletopia | Chicago | 5 | All Maps","protocol":17,"map":"cp_sunshine","folder":"tf","game":"Team Fortress","app_id":440,"player_count":24,"max_players":24,"Bots":0,"server_type":"Dedicated","server_os":"Linux","password":true,"vac":true,"version":"7757534","steam_id":85568392924866362,"keywords":["cp","nocrits","nodmgspread","uncletopia"],"game_id":440,"stv_port":27016,"stv_name":"Uncletopia | Chicago | 5 | All Maps | STV","players":[{"user_id":342,"name":"Melon Doge","steam_id":76561199006526991,"connected_time":650000000000,"state":"active","ping":101},{"user_id":339,"name":"Best Boy In Illinois","steam_id":76561198063876068,"connected_time":877000000000,"state":"active","ping":60},{"user_id":297,"name":"Blorgus_J_Blart","steam_id":76561198430926135,"connected_time":3473000000000,"state":"active","ping":75},{"user_id":334,"name":"Raincool","steam_id":76561198042953645,"connected_time":981000000000,"state":"active","ping":65},{"user_id":357,"name":"Balerion the Black Dread","steam_id":76561198003728369,"connected_time":162000000000,"state":"active","ping":66},{"user_id":322,"name":"Christopher Jobin","steam_id":76561198434784247,"connected_time":2274000000000,"state":"active","ping":104},{"user_id":318,"name":"SuperEvilPasta","steam_id":76561198078258907,"connected_time":2387000000000,"state":"active","ping":91},{"user_id":319,"name":"NovaStar","steam_id":76561198421340963,"connected_time":2358000000000,"state":"active","ping":77},{"user_id":355,"name":"swaglord","steam_id":76561198124236174,"connected_time":287000000000,"state":"active","ping":75},{"user_id":281,"name":"John Wilkes Booth","steam_id":76561198062103069,"connected_time":5225000000000,"state":"active","ping":84},{"user_id":326,"name":"thecal","steam_id":76561198307893384,"connected_time":2165000000000,"state":"active","ping":58},{"user_id":321,"name":"God of bread","steam_id":76561198373688035,"connected_time":2334000000000,"state":"active","ping":61},{"user_id":358,"name":"hey beautiful!","steam_id":76561198224614084,"connected_time":38000000000,"state":"active","ping":75},{"user_id":344,"name":"Private.TwinkleToes","steam_id":76561198276974275,"connected_time":583000000000,"state":"active","ping":61},{"user_id":291,"name":"Lennu","steam_id":76561198060730154,"connected_time":4135000000000,"state":"active","ping":74},{"user_id":286,"name":"Frogavious","steam_id":76561198067324603,"connected_time":5188000000000,"state":"active","ping":83},{"user_id":354,"name":"Fredrick","steam_id":76561197981419964,"connected_time":318000000000,"state":"active","ping":69},{"user_id":283,"name":"‚ú™kook ‚ô•  ‚ô•","steam_id":76561198037846151,"connected_time":5211000000000,"state":"active","ping":60},{"user_id":349,"name":"MedRed‚Ñ¢ #IATAH","steam_id":76561198002962970,"connected_time":527000000000,"state":"active","ping":101},{"user_id":353,"name":"three three","steam_id":76561198177354155,"connected_time":373000000000,"state":"active","ping":73},{"user_id":328,"name":"Sunvaar","steam_id":76561198852679851,"connected_time":2063000000000,"state":"active","ping":66},{"user_id":352,"name":"Snarkel","steam_id":76561198070688550,"connected_time":428000000000,"state":"active","ping":78},{"user_id":337,"name":"Rostovne","steam_id":76561198050293434,"connected_time":935000000000,"state":"active","ping":71},{"user_id":338,"name":"Clockwork","steam_id":76561198118123914,"connected_time":934000000000,"state":"active","ping":161}]},{"server_id":37,"name":"Uncletopia | Chicago | 6 | All Maps","name_short":"chi-6","host":"chi-2.us.uncletopia.com","port":27025,"enabled":true,"region":"us-central","cc":"us","latitude":41.881832,"longitude":-87.62318,"reserved":0,"last_update":"0001-01-01T00:00:00Z","name_a2s":"Uncletopia | Chicago | 6 | All Maps","protocol":17,"map":"pl_badwater","folder":"tf","game":"Team Fortress","app_id":440,"player_count":24,"max_players":24,"Bots":0,"server_type":"Dedicated","server_os":"Linux","password":true,"vac":true,"version":"7757534","steam_id":85568392924866363,"keywords":["nocrits","nodmgspread","payload","uncletopia"],"game_id":440,"stv_port":27026,"stv_name":"Uncletopia | Chicago | 6 | All Maps | STV","players":[{"user_id":187,"name":"Kinbo2487","steam_id":76561198184714198,"connected_time":3798000000000,"state":"active","ping":75},{"user_id":248,"name":"iamoctopii","steam_id":76561198876901076,"connected_time":750000000000,"state":"active","ping":136},{"user_id":231,"name":"Lawty","steam_id":76561198237705506,"connected_time":1679000000000,"state":"active","ping":94},{"user_id":205,"name":"Flying Emu","steam_id":76561198121632924,"connected_time":3058000000000,"state":"active","ping":80},{"user_id":241,"name":"Haunted Demopan","steam_id":76561198209881263,"connected_time":990000000000,"state":"active","ping":99},{"user_id":233,"name":"Bart Harley Jarvis","steam_id":76561199215811448,"connected_time":1647000000000,"state":"active","ping":77},{"user_id":243,"name":"PopcornNinja101","steam_id":76561198330680181,"connected_time":919000000000,"state":"active","ping":104},{"user_id":255,"name":"CHEWSDAY","steam_id":76561198839930170,"connected_time":348000000000,"state":"active","ping":97},{"user_id":228,"name":"shadow6","steam_id":76561197979807910,"connected_time":2018000000000,"state":"active","ping":109},{"user_id":251,"name":"conscripted monk","steam_id":76561199029246232,"connected_time":548000000000,"state":"active","ping":75},{"user_id":224,"name":"Scum Knight","steam_id":76561198282444763,"connected_time":2421000000000,"state":"active","ping":67},{"user_id":144,"name":"nnobi","steam_id":76561198878729277,"connected_time":6443000000000,"state":"active","ping":76},{"user_id":223,"name":"John Dungus (the real one)","steam_id":76561198049191027,"connected_time":2563000000000,"state":"active","ping":60},{"user_id":250,"name":"guh","steam_id":76561197972342286,"connected_time":607000000000,"state":"active","ping":77},{"user_id":256,"name":"Poison Ivy","steam_id":76561198072384574,"connected_time":345000000000,"state":"active","ping":51},{"user_id":180,"name":"Clean Lines","steam_id":76561197960691518,"connected_time":4216000000000,"state":"active","ping":57},{"user_id":246,"name":"Ursus Ludius","steam_id":76561198025470722,"connected_time":808000000000,"state":"active","ping":79},{"user_id":232,"name":"M249 | Spectre","steam_id":76561198118334485,"connected_time":1671000000000,"state":"active","ping":84},{"user_id":218,"name":"emctwo","steam_id":76561198095082517,"connected_time":2694000000000,"state":"active","ping":60},{"user_id":254,"name":"pencilneck","steam_id":76561198865971290,"connected_time":391000000000,"state":"active","ping":93},{"user_id":249,"name":"Lord GabeN","steam_id":76561198140862723,"connected_time":721000000000,"state":"active","ping":71},{"user_id":239,"name":"ucdrakebros","steam_id":76561199147788726,"connected_time":1162000000000,"state":"active","ping":57},{"user_id":253,"name":"Merach","steam_id":76561197994544587,"connected_time":504000000000,"state":"active","ping":61},{"user_id":257,"name":"loco503","steam_id":76561198827495121,"connected_time":324000000000,"state":"active","ping":112}]},{"server_id":38,"name":"Uncletopia | Chicago | 7 | Stopwatch Beta","name_short":"chi-7","host":"chi-2.us.uncletopia.com","port":27035,"enabled":true,"region":"us-central","cc":"us","latitude":41.881832,"longitude":-87.62318,"reserved":0,"last_update":"0001-01-01T00:00:00Z","name_a2s":"Uncletopia | Chicago | 7 | Stopwatch Beta","protocol":17,"map":"workshop/koth_product_final.ugc454272353","folder":"tf","game":"Team Fortress","app_id":440,"player_count":23,"max_players":24,"Bots":0,"server_type":"Dedicated","server_os":"Linux","password":true,"vac":true,"version":"7757534","steam_id":85568392924866364,"keywords":["cp","nocrits","nodmgspread","uncletopia"],"game_id":440,"stv_port":27036,"stv_name":"Uncletopia | Chicago | 7 | Stopwatch Beta | STV","players":[{"user_id":341,"name":"gretchling","steam_id":76561198046111695,"connected_time":1614000000000,"state":"active","ping":60},{"user_id":336,"name":"twix","steam_id":76561198040912048,"connected_time":1752000000000,"state":"active","ping":45},{"user_id":346,"name":"Data","steam_id":76561197996329548,"connected_time":1322000000000,"state":"active","ping":71},{"user_id":339,"name":"jturner1nm","steam_id":76561198344493652,"connected_time":1699000000000,"state":"active","ping":104},{"user_id":358,"name":"Lord Scrubling","steam_id":76561198263744445,"connected_time":647000000000,"state":"active","ping":71},{"user_id":348,"name":"IamLightning","steam_id":76561198193881559,"connected_time":1258000000000,"state":"active","ping":69},{"user_id":349,"name":"„Éå„Éô„Éº„É´ (Nubert)","steam_id":76561199121806567,"connected_time":1219000000000,"state":"active","ping":143},{"user_id":285,"name":"Snoopy","steam_id":76561198273735974,"connected_time":4605000000000,"state":"active","ping":106},{"user_id":367,"name":"LukeLeal","steam_id":76561198049822995,"connected_time":86000000000,"state":"active","ping":175},{"user_id":333,"name":"Wso1123","steam_id":76561198048040111,"connected_time":1825000000000,"state":"active","ping":67},{"user_id":350,"name":"mista wayne","steam_id":76561198056249150,"connected_time":1215000000000,"state":"active","ping":96},{"user_id":359,"name":"energem beholder","steam_id":76561197998344127,"connected_time":636000000000,"state":"active","ping":97},{"user_id":352,"name":"MrhobbitRequiem","steam_id":76561198976215013,"connected_time":1142000000000,"state":"active","ping":78},{"user_id":296,"name":"_normal","steam_id":76561198338505734,"connected_time":4216000000000,"state":"active","ping":57},{"user_id":353,"name":"Niamh","steam_id":76561198244253680,"connected_time":1097000000000,"state":"active","ping":60},{"user_id":366,"name":"glitchy","steam_id":76561199009135766,"connected_time":93000000000,"state":"active","ping":36},{"user_id":355,"name":"Yimberly","steam_id":76561199206923109,"connected_time":1062000000000,"state":"active","ping":83},{"user_id":356,"name":"viscodolante","steam_id":76561198013650292,"connected_time":1058000000000,"state":"active","ping":119},{"user_id":365,"name":"Post nut clarity","steam_id":76561198060246831,"connected_time":190000000000,"state":"active","ping":90},{"user_id":357,"name":"Colin102004","steam_id":76561198202384334,"connected_time":962000000000,"state":"active","ping":57},{"user_id":250,"name":"Fresh0c0","steam_id":76561198271933283,"connected_time":7661000000000,"state":"active","ping":62},{"user_id":362,"name":"UsingXbox360Controller","steam_id":76561198258253304,"connected_time":328000000000,"state":"active","ping":82},{"user_id":310,"name":"Weak","steam_id":76561198857135096,"connected_time":3680000000000,"state":"active","ping":69}]},{"server_id":39,"name":"Uncletopia | Chicago | 8 | Community","name_short":"chi-8","host":"chi-2.us.uncletopia.com","port":27045,"enabled":true,"region":"us-central","cc":"us","latitude":41.881832,"longitude":-87.62318,"reserved":0,"last_update":"0001-01-01T00:00:00Z","name_a2s":"Uncletopia | Chicago | 8 | Community","protocol":17,"map":"workshop/pl_vigil_rc9.ugc1266210012","folder":"tf","game":"Team Fortress","app_id":440,"player_count":7,"max_players":24,"Bots":0,"server_type":"Dedicated","server_os":"Linux","password":true,"vac":true,"version":"7757534","steam_id":85568392924866365,"keywords":["nocrits","nodmgspread","payload","uncletopia"],"game_id":440,"stv_port":27046,"stv_name":"Uncletopia | Chicago | 8 | Community | STV","players":[{"user_id":29,"name":"Puppeteerxerxes","steam_id":76561197991780208,"connected_time":362000000000,"state":"active","ping":55},{"user_id":30,"name":"gerge","steam_id":76561199160149960,"connected_time":342000000000,"state":"active","ping":164},{"user_id":31,"name":"Smooth - Santana ft. Rob Thomas","steam_id":76561198145283389,"connected_time":71000000000,"state":"active","ping":68},{"user_id":9,"name":"Athaz","steam_id":76561198296557673,"connected_time":2137000000000,"state":"active","ping":62},{"user_id":10,"name":"Carpicious","steam_id":76561198426619665,"connected_time":2132000000000,"state":"active","ping":116},{"user_id":23,"name":"T√ñZI","steam_id":76561198045268695,"connected_time":1082000000000,"state":"active","ping":57},{"user_id":24,"name":"shit stain daniel","steam_id":76561198342471256,"connected_time":923000000000,"state":"active","ping":76}]},{"server_id":8,"name":"Uncletopia | Dallas | 1 | All Maps","name_short":"dal-1","host":"dal-1.us.uncletopia.com","port":27015,"enabled":true,"region":"us-central","cc":"us","latitude":32.779167,"longitude":-96.80889,"reserved":0,"last_update":"0001-01-01T00:00:00Z","name_a2s":"Uncletopia | Dallas | 1 | All Maps","protocol":17,"map":"pl_badwater","folder":"tf","game":"Team Fortress","app_id":440,"player_count":24,"max_players":24,"Bots":0,"server_type":"Dedicated","server_os":"Linux","password":true,"vac":true,"version":"7757534","steam_id":85568392924469986,"keywords":["nocrits","nodmgspread","payload","uncletopia"],"game_id":440,"stv_port":27016,"stv_name":"Uncletopia | Dallas | 1 | All Maps | STV","players":[{"user_id":289,"name":"MonkyBoo„ÉÑ","steam_id":76561198304371716,"connected_time":750000000000,"state":"active","ping":46},{"user_id":267,"name":"sadbot","steam_id":76561198031249261,"connected_time":1863000000000,"state":"active","ping":88},{"user_id":264,"name":"[LINUX] Spooky Bitch Finder","steam_id":76561198093538786,"connected_time":1915000000000,"state":"active","ping":47},{"user_id":71,"name":"yitz","steam_id":76561198375575841,"connected_time":15088000000000,"state":"active","ping":74},{"user_id":257,"name":"ChefMike","steam_id":76561198414034069,"connected_time":2651000000000,"state":"active","ping":85},{"user_id":252,"name":"vastrobotmax","steam_id":76561198417110724,"connected_time":2767000000000,"state":"active","ping":97},{"user_id":285,"name":"NeutrinoCarrot","steam_id":76561199064279851,"connected_time":1490000000000,"state":"active","ping":48},{"user_id":279,"name":"Tree52","steam_id":76561198046763622,"connected_time":1689000000000,"state":"active","ping":80},{"user_id":269,"name":"pOTATO","steam_id":76561198834489470,"connected_time":1848000000000,"state":"active","ping":64},{"user_id":282,"name":"Soju","steam_id":76561198044130442,"connected_time":1590000000000,"state":"active","ping":46},{"user_id":283,"name":"Surly Joe","steam_id":76561199150833796,"connected_time":1579000000000,"state":"active","ping":109},{"user_id":284,"name":"OddAwter","steam_id":76561198073186405,"connected_time":1572000000000,"state":"active","ping":82},{"user_id":294,"name":"HeyItsYoshe","steam_id":76561198093342284,"connected_time":370000000000,"state":"active","ping":91},{"user_id":272,"name":"Thequirka","steam_id":76561198968058652,"connected_time":1836000000000,"state":"active","ping":96},{"user_id":288,"name":"Rin \"Hindwing\" Redtail","steam_id":76561199074865638,"connected_time":783000000000,"state":"active","ping":51},{"user_id":262,"name":"asianguyonachair","steam_id":76561199072584736,"connected_time":2541000000000,"state":"active","ping":98},{"user_id":253,"name":"SmokeyGalaxy","steam_id":76561198118780516,"connected_time":2746000000000,"state":"active","ping":59},{"user_id":286,"name":"Prophet","steam_id":76561198134948582,"connected_time":1263000000000,"state":"active","ping":108},{"user_id":291,"name":"degenerate","steam_id":76561198161389196,"connected_time":739000000000,"state":"active","ping":65},{"user_id":287,"name":"GLG.Liz","steam_id":76561198021957956,"connected_time":1172000000000,"state":"active","ping":45},{"user_id":292,"name":"Toddism","steam_id":76561198123117998,"connected_time":729000000000,"state":"active","ping":88},{"user_id":251,"name":"That70sDog","steam_id":76561198119396142,"connected_time":2912000000000,"state":"active","ping":68},{"user_id":293,"name":"Aleuric","steam_id":76561198246248220,"connected_time":683000000000,"state":"active","ping":86},{"user_id":231,"name":"Onyx","steam_id":76561198275349640,"connected_time":5017000000000,"state":"active","ping":65}]},{"server_id":108,"name":"Uncletopia | Dallas | 2 | All Maps","name_short":"dal-2","host":"dal-1.us.uncletopia.com","port":27025,"enabled":true,"region":"us-central","cc":"us","latitude":32.779167,"longitude":-96.80889,"reserved":0,"last_update":"0001-01-01T00:00:00Z","name_a2s":"Uncletopia | Dallas | 2 | All Maps","protocol":17,"map":"koth_viaduct","folder":"tf","game":"Team Fortress","app_id":440,"player_count":24,"max_players":24,"Bots":0,"server_type":"Dedicated","server_os":"Linux","password":true,"vac":true,"version":"7757534","steam_id":85568392924469988,"keywords":["cp","nocrits","nodmgspread","uncletopia"],"game_id":440,"stv_port":27026,"stv_name":"Uncletopia | Dallas | 2 | All Maps | STV","players":[{"user_id":143,"name":"yomo","steam_id":76561198063175935,"connected_time":2339000000000,"state":"active","ping":74},{"user_id":165,"name":"-W3E- grim10465","steam_id":76561198045698581,"connected_time":1283000000000,"state":"active","ping":75},{"user_id":138,"name":"rmbl","steam_id":76561198150137369,"connected_time":3029000000000,"state":"active","ping":71},{"user_id":154,"name":"zefir","steam_id":76561198041348890,"connected_time":1820000000000,"state":"active","ping":73},{"user_id":179,"name":"nav","steam_id":76561198872608266,"connected_time":449000000000,"state":"active","ping":89},{"user_id":144,"name":"Syrix","steam_id":76561198017328672,"connected_time":2332000000000,"state":"active","ping":47},{"user_id":85,"name":"Harold","steam_id":76561198057317770,"connected_time":5724000000000,"state":"active","ping":75},{"user_id":162,"name":"the npc killa","steam_id":76561198010370396,"connected_time":1390000000000,"state":"active","ping":71},{"user_id":177,"name":"ZonateBus","steam_id":76561198091188057,"connected_time":693000000000,"state":"active","ping":54},{"user_id":176,"name":"Ninty","steam_id":76561199364725776,"connected_time":712000000000,"state":"active","ping":88},{"user_id":145,"name":"Meep","steam_id":76561198267363181,"connected_time":2310000000000,"state":"active","ping":62},{"user_id":188,"name":"Emails","steam_id":76561198836919458,"connected_time":56000000000,"state":"active","ping":82},{"user_id":156,"name":"Smorg","steam_id":76561198368999744,"connected_time":1792000000000,"state":"active","ping":79},{"user_id":142,"name":"aidenmc3","steam_id":76561198062209166,"connected_time":2371000000000,"state":"active","ping":42},{"user_id":184,"name":"Praxis","steam_id":76561197960794303,"connected_time":120000000000,"state":"active","ping":146},{"user_id":174,"name":"Mr. Bixby","steam_id":76561198868839264,"connected_time":770000000000,"state":"active","ping":54},{"user_id":185,"name":"Bigfoot ate my ass","steam_id":76561198071605190,"connected_time":111000000000,"state":"active","ping":75},{"user_id":181,"name":"pan","steam_id":76561198093968095,"connected_time":421000000000,"state":"active","ping":91},{"user_id":183,"name":"Lo-Pan","steam_id":76561198085670133,"connected_time":222000000000,"state":"active","ping":57},{"user_id":157,"name":"CBTgaeming","steam_id":76561199089290128,"connected_time":1786000000000,"state":"active","ping":142},{"user_id":158,"name":"Riboflavin","steam_id":76561198077328593,"connected_time":1735000000000,"state":"active","ping":60},{"user_id":187,"name":"Johnny Lawrence #JohnnyMaxxing","steam_id":76561199367141671,"connected_time":85000000000,"state":"active","ping":90},{"user_id":169,"name":"Jacck916","steam_id":76561198176874157,"connected_time":1067000000000,"state":"active","ping":113},{"user_id":175,"name":"brolnareff","steam_id":76561198050000610,"connected_time":753000000000,"state":"active","ping":56}]},{"server_id":5,"name":"Uncletopia | Frankfurt | 1 | All Maps","name_short":"frk-1","host":"frk-1.de.uncletopia.com","port":27015,"enabled":true,"region":"eu","cc":"de","latitude":50.110924,"longitude":8.682127,"reserved":0,"last_update":"0001-01-01T00:00:00Z","name_a2s":"Uncletopia | Frankfurt | 1 | All Maps","protocol":17,"map":"pl_borneo","folder":"tf","game":"Team Fortress","app_id":440,"player_count":24,"max_players":24,"Bots":0,"server_type":"Dedicated","server_os":"Linux","password":true,"vac":true,"version":"7757534","steam_id":85568392924469989,"keywords":["nocrits","nodmgspread","payload","uncletopia"],"game_id":440,"stv_port":27016,"stv_name":"Uncletopia | Frankfurt | 1 | All Maps | STV","players":[{"user_id":599,"name":"Spieller","steam_id":76561198057197847,"connected_time":1026000000000,"state":"active","ping":69},{"user_id":566,"name":"BlinkedUp","steam_id":76561198249985618,"connected_time":2669000000000,"state":"active","ping":65},{"user_id":600,"name":"Lukey","steam_id":76561198074642724,"connected_time":1008000000000,"state":"active","ping":73},{"user_id":576,"name":"Kick gibus-engineers","steam_id":76561198046368451,"connected_time":2365000000000,"state":"active","ping":97},{"user_id":602,"name":"salatkas","steam_id":76561198033237090,"connected_time":822000000000,"state":"active","ping":45},{"user_id":581,"name":"Bornevowiy Flyer29 (sassy)","steam_id":76561198431616911,"connected_time":1584000000000,"state":"active","ping":79},{"user_id":592,"name":"Persic","steam_id":76561197997828319,"connected_time":1344000000000,"state":"active","ping":75},{"user_id":584,"name":"emko√ß","steam_id":76561198846782346,"connected_time":1539000000000,"state":"active","ping":111},{"user_id":579,"name":"I want my dog back","steam_id":76561198318748304,"connected_time":1791000000000,"state":"active","ping":137},{"user_id":604,"name":"Taskyy","steam_id":76561198134901175,"connected_time":191000000000,"state":"active","ping":84},{"user_id":608,"name":"Hexagon","steam_id":76561198151205758,"connected_time":134000000000,"state":"active","ping":54},{"user_id":590,"name":"magic kid","steam_id":76561198748720555,"connected_time":1511000000000,"state":"active","ping":69},{"user_id":593,"name":"Bumblebee","steam_id":76561198033551105,"connected_time":1280000000000,"state":"active","ping":60},{"user_id":555,"name":"PLUTO","steam_id":76561198312436128,"connected_time":3084000000000,"state":"active","ping":125},{"user_id":556,"name":"Phiphler","steam_id":76561197994055715,"connected_time":3074000000000,"state":"active","ping":65},{"user_id":605,"name":"Yoksar ◊ê◊†◊ô ◊õ◊ü.","steam_id":76561198059952535,"connected_time":189000000000,"state":"active","ping":61},{"user_id":577,"name":"barni","steam_id":76561198170420173,"connected_time":1971000000000,"state":"active","ping":85},{"user_id":569,"name":"‚òÖpoyo‚òÖ","steam_id":76561198150078959,"connected_time":2598000000000,"state":"active","ping":60},{"user_id":609,"name":"MAKENTAKEN","steam_id":76561199127359587,"connected_time":15000000000,"state":"active","ping":91},{"user_id":580,"name":"invis","steam_id":76561198120668070,"connected_time":1651000000000,"state":"active","ping":61},{"user_id":596,"name":"hellbound","steam_id":76561198160562773,"connected_time":1116000000000,"state":"active","ping":72},{"user_id":560,"name":"Groomable minor","steam_id":76561198345249841,"connected_time":2984000000000,"state":"active","ping":75},{"user_id":583,"name":"Coffee","steam_id":76561198129564179,"connected_time":1573000000000,"state":"active","ping":72},{"user_id":598,"name":"Grayblood","steam_id":76561198162656579,"connected_time":1116000000000,"state":"active","ping":75}]},{"server_id":110,"name":"Uncletopia | Frankfurt | 2 | All Maps","name_short":"frk-2","host":"frk-1.de.uncletopia.com","port":27025,"enabled":true,"region":"eu","cc":"de","latitude":50.110924,"longitude":8.682127,"reserved":0,"last_update":"0001-01-01T00:00:00Z","name_a2s":"Uncletopia | Frankfurt | 2 | All Maps","protocol":17,"map":"cp_sunshine","folder":"tf","game":"Team Fortress","app_id":440,"player_count":1,"max_players":24,"Bots":0,"server_type":"Dedicated","server_os":"Linux","password":true,"vac":true,"version":"7757534","steam_id":85568392924469990,"keywords":["cp","nocrits","nodmgspread","uncletopia"],"game_id":440,"stv_port":27026,"stv_name":"Uncletopia | Frankfurt | 2 | All Maps | STV","players":[{"user_id":481,"name":"laughing_psycho","steam_id":76561199146866410,"connected_time":132000000000,"state":"active","ping":84}]},{"server_id":308,"name":"Uncletopia | Frankfurt | 3 | All Maps","name_short":"frk-3","host":"frk-1.de.uncletopia.com","port":27035,"enabled":true,"region":"eu","cc":"de","latitude":50.110924,"longitude":8.682127,"reserved":0,"last_update":"0001-01-01T00:00:00Z","name_a2s":"Uncletopia | Frankfurt | 3 | All Maps","protocol":17,"map":"cp_sunshine","folder":"tf","game":"Team Fortress","app_id":440,"player_count":24,"max_players":24,"Bots":0,"server_type":"Dedicated","server_os":"Linux","password":true,"vac":true,"version":"7757534","steam_id":85568392924504274,"keywords":["cp","nocrits","nodmgspread","uncletopia"],"game_id":440,"stv_port":27036,"stv_name":"Uncletopia | Frankfurt | 3 | All Maps | STV","players":[{"user_id":707,"name":"The","steam_id":76561198359311605,"connected_time":234000000000,"state":"active","ping":76},{"user_id":668,"name":"The Tomfooler","steam_id":76561198167986695,"connected_time":2252000000000,"state":"active","ping":49},{"user_id":661,"name":"Caro-Kann","steam_id":76561198065506317,"connected_time":2766000000000,"state":"active","ping":65},{"user_id":682,"name":"Dingus","steam_id":76561198140514058,"connected_time":1457000000000,"state":"active","ping":47},{"user_id":688,"name":"Hunnington","steam_id":76561198052219699,"connected_time":1258000000000,"state":"active","ping":64},{"user_id":713,"name":"Gordon Birdman","steam_id":76561198013382324,"connected_time":69000000000,"state":"active","ping":69},{"user_id":689,"name":"Kevin","steam_id":76561198035625423,"connected_time":1064000000000,"state":"active","ping":91},{"user_id":635,"name":"lyudmilakh","steam_id":76561198362779878,"connected_time":4174000000000,"state":"active","ping":89},{"user_id":681,"name":"HungriSanta","steam_id":76561198020376441,"connected_time":1590000000000,"state":"active","ping":65},{"user_id":705,"name":"weasl","steam_id":76561198076388927,"connected_time":252000000000,"state":"active","ping":67},{"user_id":704,"name":"Z√°por√°k","steam_id":76561198207175503,"connected_time":269000000000,"state":"active","ping":62},{"user_id":656,"name":"nedilya","steam_id":76561198039692077,"connected_time":3285000000000,"state":"active","ping":54},{"user_id":708,"name":"Bond","steam_id":76561198070654906,"connected_time":181000000000,"state":"active","ping":47},{"user_id":693,"name":"Skuntle Bingoid","steam_id":76561199097297812,"connected_time":991000000000,"state":"active","ping":89},{"user_id":648,"name":"rat :3","steam_id":76561198151884156,"connected_time":3913000000000,"state":"active","ping":68},{"user_id":699,"name":"tsundora | „ÉÑ„É≥„Éâ„É©","steam_id":76561198086997247,"connected_time":524000000000,"state":"active","ping":69},{"user_id":691,"name":"Pancake","steam_id":76561198055464599,"connected_time":1034000000000,"state":"active","ping":67},{"user_id":706,"name":"kotamine","steam_id":76561198068907991,"connected_time":241000000000,"state":"active","ping":67},{"user_id":695,"name":"ash","steam_id":76561198004728744,"connected_time":781000000000,"state":"active","ping":48},{"user_id":710,"name":"Frager","steam_id":76561198016575620,"connected_time":145000000000,"state":"active","ping":71},{"user_id":657,"name":"soil.dirt.earth","steam_id":76561198014377623,"connected_time":3156000000000,"state":"active","ping":73},{"user_id":669,"name":"Carrot Arc","steam_id":76561198164957006,"connected_time":2137000000000,"state":"active","ping":96},{"user_id":712,"name":"leeloo","steam_id":76561199256962353,"connected_time":76000000000,"state":"active","ping":59},{"user_id":646,"name":"Enfield","steam_id":76561197981578171,"connected_time":3977000000000,"state":"active","ping":78}]},{"server_id":309,"name":"Uncletopia | Frankfurt | 4 | All Maps","name_short":"frk-4","host":"frk-1.de.uncletopia.com","port":27045,"enabled":true,"region":"eu","cc":"de","latitude":50.110924,"longitude":8.682127,"reserved":0,"last_update":"0001-01-01T00:00:00Z","name_a2s":"Uncletopia | Frankfurt | 4 | All Maps","protocol":17,"map":"pl_borneo","folder":"tf","game":"Team Fortress","app_id":440,"player_count":24,"max_players":24,"Bots":0,"server_type":"Dedicated","server_os":"Linux","password":true,"vac":true,"version":"7757534","steam_id":85568392924504275,"keywords":["nocrits","nodmgspread","payload","uncletopia"],"game_id":440,"stv_port":27046,"stv_name":"Uncletopia | Frankfurt | 4 | All Maps | STV","players":[{"user_id":455,"name":"sHIFTINGvORTEX","steam_id":76561198231648332,"connected_time":4245000000000,"state":"active","ping":78},{"user_id":478,"name":"JohnTraveltime","steam_id":76561199244281754,"connected_time":1996000000000,"state":"active","ping":92},{"user_id":483,"name":"Dr. Le Quack","steam_id":76561197995711176,"connected_time":1515000000000,"state":"active","ping":88},{"user_id":461,"name":"DeleteTrickster","steam_id":76561198397120242,"connected_time":3764000000000,"state":"active","ping":80},{"user_id":489,"name":":)","steam_id":76561198977420882,"connected_time":1135000000000,"state":"active","ping":57},{"user_id":471,"name":"PWizard","steam_id":76561198026458489,"connected_time":2746000000000,"state":"active","ping":69},{"user_id":446,"name":"grape","steam_id":76561198048836593,"connected_time":4650000000000,"state":"active","ping":68},{"user_id":481,"name":"Spoody #JustPassing","steam_id":76561198031523769,"connected_time":1585000000000,"state":"active","ping":54},{"user_id":494,"name":"VioBeeyo ‚ô•","steam_id":76561198066258544,"connected_time":871000000000,"state":"active","ping":54},{"user_id":480,"name":"PAN","steam_id":76561198118671779,"connected_time":1727000000000,"state":"active","ping":109},{"user_id":482,"name":"‚ñ≥catfood","steam_id":76561198024321232,"connected_time":1534000000000,"state":"active","ping":48},{"user_id":479,"name":"sork","steam_id":76561198082446459,"connected_time":1813000000000,"state":"active","ping":70},{"user_id":420,"name":"KittyKate ‚ù§","steam_id":76561198116340817,"connected_time":6786000000000,"state":"active","ping":61},{"user_id":496,"name":"dirty","steam_id":76561197995572935,"connected_time":562000000000,"state":"active","ping":88},{"user_id":457,"name":"Jimmy","steam_id":76561198133680783,"connected_time":4053000000000,"state":"active","ping":59},{"user_id":388,"name":"Sweat Plantation","steam_id":76561198025086883,"connected_time":8892000000000,"state":"active","ping":88},{"user_id":474,"name":"BuzzBees ‚ù§","steam_id":76561198101502273,"connected_time":2541000000000,"state":"active","ping":66},{"user_id":485,"name":".quickfast.","steam_id":76561199438900919,"connected_time":1502000000000,"state":"active","ping":54},{"user_id":477,"name":"nynon","steam_id":76561197998432126,"connected_time":2371000000000,"state":"active","ping":137},{"user_id":454,"name":"Gui","steam_id":76561198072054467,"connected_time":4381000000000,"state":"active","ping":80},{"user_id":491,"name":"fried","steam_id":76561198307522022,"connected_time":1087000000000,"state":"active","ping":53},{"user_id":487,"name":"Volterion #SaveTf2","steam_id":76561198293088484,"connected_time":1456000000000,"state":"active","ping":71},{"user_id":439,"name":"ZeeZer0","steam_id":76561198043828441,"connected_time":5902000000000,"state":"active","ping":44},{"user_id":497,"name":"Kawa inka","steam_id":76561198055900955,"connected_time":424000000000,"state":"active","ping":61}]},{"server_id":310,"name":"Uncletopia | Frankfurt | 5 | All Maps","name_short":"frk-5","host":"frk-1.de.uncletopia.com","port":27055,"enabled":true,"region":"eu","cc":"de","latitude":50.110924,"longitude":8.682127,"reserved":0,"last_update":"0001-01-01T00:00:00Z","name_a2s":"Uncletopia | Frankfurt | 5 | All Maps","protocol":17,"map":"pl_swiftwater_final1","folder":"tf","game":"Team Fortress","app_id":440,"player_count":23,"max_players":24,"Bots":0,"server_type":"Dedicated","server_os":"Linux","password":true,"vac":true,"version":"7757534","steam_id":85568392924504277,"keywords":["nocrits","nodmgspread","payload","uncletopia"],"game_id":440,"stv_port":27056,"stv_name":"Uncletopia | Frankfurt | 5 | All Maps | STV","players":[{"user_id":156,"name":"dafydd","steam_id":76561198052200325,"connected_time":2213000000000,"state":"active","ping":78},{"user_id":128,"name":"GamingClemence","steam_id":76561198271679142,"connected_time":3232000000000,"state":"active","ping":64},{"user_id":169,"name":"Acanda","steam_id":76561198123246537,"connected_time":789000000000,"state":"active","ping":53},{"user_id":147,"name":"Random Cap","steam_id":76561198129271321,"connected_time":2416000000000,"state":"active","ping":58},{"user_id":175,"name":"subway vergil","steam_id":76561199110064166,"connected_time":749000000000,"state":"active","ping":120},{"user_id":135,"name":"Bun","steam_id":76561198311686229,"connected_time":3092000000000,"state":"active","ping":122},{"user_id":170,"name":"Samus","steam_id":76561198045943019,"connected_time":786000000000,"state":"active","ping":56},{"user_id":148,"name":"makin' piss","steam_id":76561198052136478,"connected_time":2361000000000,"state":"active","ping":69},{"user_id":181,"name":"Ghostiiy","steam_id":76561198073427086,"connected_time":303000000000,"state":"active","ping":121},{"user_id":172,"name":"Videogamer","steam_id":76561198106012909,"connected_time":767000000000,"state":"active","ping":72},{"user_id":171,"name":"TurboTabs","steam_id":76561198009785131,"connected_time":777000000000,"state":"active","ping":72},{"user_id":99,"name":"Dirty Dom","steam_id":76561198043745396,"connected_time":4727000000000,"state":"active","ping":67},{"user_id":164,"name":"skittish maiden","steam_id":76561198096856475,"connected_time":1427000000000,"state":"active","ping":45},{"user_id":176,"name":"HwK!","steam_id":76561198287835588,"connected_time":744000000000,"state":"active","ping":87},{"user_id":162,"name":"Clamor_","steam_id":76561198104368295,"connected_time":1493000000000,"state":"active","ping":70},{"user_id":98,"name":"naleksi","steam_id":76561198018391055,"connected_time":4891000000000,"state":"active","ping":105},{"user_id":119,"name":"eple","steam_id":76561198017686306,"connected_time":3767000000000,"state":"active","ping":58},{"user_id":173,"name":"Crayzo A.s.","steam_id":76561199049654752,"connected_time":765000000000,"state":"active","ping":104},{"user_id":93,"name":"_zipfile","steam_id":76561198066133808,"connected_time":5198000000000,"state":"active","ping":66},{"user_id":114,"name":"lanzer","steam_id":76561198049983016,"connected_time":4138000000000,"state":"active","ping":103},{"user_id":177,"name":"TonTon","steam_id":76561198145468895,"connected_time":717000000000,"state":"active","ping":50},{"user_id":174,"name":"zyzamo","steam_id":76561198048264521,"connected_time":757000000000,"state":"active","ping":70},{"user_id":179,"name":"Solymr ibn Wali Barad","steam_id":76561198044008976,"connected_time":521000000000,"state":"active","ping":74}]},{"server_id":311,"name":"Uncletopia | Frankfurt | 6 | All Maps","name_short":"frk-6","host":"frk-1.de.uncletopia.com","port":27065,"enabled":true,"region":"eu","cc":"de","latitude":50.110924,"longitude":8.682127,"reserved":0,"last_update":"0001-01-01T00:00:00Z","name_a2s":"Uncletopia | Frankfurt | 6 | All Maps","protocol":17,"map":"pl_thundermountain","folder":"tf","game":"Team Fortress","app_id":440,"player_count":24,"max_players":24,"Bots":0,"server_type":"Dedicated","server_os":"Linux","password":true,"vac":true,"version":"7757534","steam_id":85568392924504278,"keywords":["nocrits","nodmgspread","payload","uncletopia"],"game_id":440,"stv_port":27066,"stv_name":"Uncletopia | Frankfurt | 6 | All Maps | STV","players":[{"user_id":321,"name":"Acidpets","steam_id":76561198875421227,"connected_time":1342000000000,"state":"active","ping":62},{"user_id":306,"name":"scrsch detf2pickup","steam_id":76561198044391172,"connected_time":2838000000000,"state":"active","ping":59},{"user_id":298,"name":"bANji","steam_id":76561198108898161,"connected_time":3390000000000,"state":"active","ping":38},{"user_id":312,"name":"KingofCubes","steam_id":76561198258037513,"connected_time":2499000000000,"state":"active","ping":70},{"user_id":296,"name":"manKe","steam_id":76561198008564860,"connected_time":3554000000000,"state":"active","ping":60},{"user_id":333,"name":"Sauce‚Ñ¢","steam_id":76561198155094400,"connected_time":846000000000,"state":"active","ping":55},{"user_id":323,"name":"b r o m b's","steam_id":76561198037793028,"connected_time":1278000000000,"state":"active","ping":99},{"user_id":271,"name":"Innocent Bystander","steam_id":76561198259885007,"connected_time":5417000000000,"state":"active","ping":55},{"user_id":246,"name":"Knez","steam_id":76561198043806388,"connected_time":6923000000000,"state":"active","ping":54},{"user_id":324,"name":"Heavy like a Brinks truck","steam_id":76561198197304886,"connected_time":1261000000000,"state":"active","ping":110},{"user_id":329,"name":"Burpman","steam_id":76561198022897937,"connected_time":1129000000000,"state":"active","ping":69},{"user_id":226,"name":"YuraGreek","steam_id":76561198050182252,"connected_time":8527000000000,"state":"active","ping":78},{"user_id":337,"name":"big noob","steam_id":76561198281332748,"connected_time":414000000000,"state":"active","ping":70},{"user_id":317,"name":"Sin","steam_id":76561198975489819,"connected_time":1831000000000,"state":"active","ping":67},{"user_id":303,"name":"Nemsio66 #SAVETF2","steam_id":76561198383959458,"connected_time":3180000000000,"state":"active","ping":108},{"user_id":269,"name":"ikc159","steam_id":76561198020559026,"connected_time":5441000000000,"state":"active","ping":72},{"user_id":311,"name":"paint","steam_id":76561199133080265,"connected_time":2567000000000,"state":"active","ping":107},{"user_id":326,"name":"Nickrome","steam_id":76561198055399721,"connected_time":1249000000000,"state":"active","ping":63},{"user_id":336,"name":"WICKED BARSIK","steam_id":76561198120927230,"connected_time":538000000000,"state":"active","ping":114},{"user_id":334,"name":"El Gato Volador","steam_id":76561198021296882,"connected_time":827000000000,"state":"active","ping":77},{"user_id":330,"name":"Xie Xil Ling","steam_id":76561198053394831,"connected_time":1099000000000,"state":"active","ping":60},{"user_id":293,"name":"BierBuikBarry","steam_id":76561198345790498,"connected_time":4094000000000,"state":"active","ping":75},{"user_id":328,"name":"„É†GeRmAn |√óUA√ó„É†","steam_id":76561199044754898,"connected_time":1192000000000,"state":"active","ping":63},{"user_id":331,"name":"tepih","steam_id":76561198384246286,"connected_time":1050000000000,"state":"active","ping":58}]},{"server_id":23,"name":"Uncletopia | Frankfurt | 7 | Stopwatch Beta","name_short":"frk-7","host":"frk-1.de.uncletopia.com","port":27075,"enabled":true,"region":"eu","cc":"de","latitude":50.110924,"longitude":8.682127,"reserved":0,"last_update":"0001-01-01T00:00:00Z","name_a2s":"Uncletopia | Frankfurt | 7 | Stopwatch Beta","protocol":17,"map":"workshop/pl_badwater_pro_v12.ugc2142942074","folder":"tf","game":"Team Fortress","app_id":440,"player_count":0,"max_players":24,"Bots":0,"server_type":"Dedicated","server_os":"Linux","password":true,"vac":true,"version":"7757534","steam_id":85568392924742827,"keywords":["nocrits","nodmgspread","payload","uncletopia"],"game_id":440,"stv_port":27076,"stv_name":"Uncletopia | Frankfurt | 7 | Stopwatch Beta | STV","players":null},{"server_id":24,"name":"Uncletopia | Frankfurt | 8 | Community","name_short":"frk-8","host":"frk-1.de.uncletopia.com","port":27085,"enabled":true,"region":"eu","cc":"de","latitude":50.110924,"longitude":8.682127,"reserved":0,"last_update":"0001-01-01T00:00:00Z","name_a2s":"Uncletopia | Frankfurt | 8 | Community","protocol":17,"map":"workshop/pl_cactuscanyon_redux_rc4b.ugc2579644293","folder":"tf","game":"Team Fortress","app_id":440,"player_count":23,"max_players":24,"Bots":0,"server_type":"Dedicated","server_os":"Linux","password":true,"vac":true,"version":"7757534","steam_id":85568392924742828,"keywords":["nocrits","nodmgspread","payload","uncletopia"],"game_id":440,"stv_port":27086,"stv_name":"Uncletopia | Frankfurt | 8 | Community | STV","players":[{"user_id":496,"name":"Tails8521","steam_id":76561198051747164,"connected_time":8084000000000,"state":"active","ping":53},{"user_id":561,"name":"78","steam_id":76561198208328357,"connected_time":4587000000000,"state":"active","ping":80},{"user_id":625,"name":"egzior","steam_id":76561198363608921,"connected_time":472000000000,"state":"active","ping":73},{"user_id":632,"name":"Sanic/JimBob","steam_id":76561198355467561,"connected_time":360000000000,"state":"active","ping":56},{"user_id":631,"name":"Simbax","steam_id":76561198012920375,"connected_time":392000000000,"state":"active","ping":68},{"user_id":577,"name":"Paulo","steam_id":76561198001386978,"connected_time":3912000000000,"state":"active","ping":56},{"user_id":635,"name":"Our Hero","steam_id":76561198132047538,"connected_time":278000000000,"state":"spawning","ping":1364},{"user_id":626,"name":"PaF Le ChieN","steam_id":76561197975169542,"connected_time":465000000000,"state":"active","ping":68},{"user_id":627,"name":"Emxx52","steam_id":76561198059374194,"connected_time":451000000000,"state":"active","ping":76},{"user_id":628,"name":"The Proclaimers","steam_id":76561198934886665,"connected_time":450000000000,"state":"active","ping":95},{"user_id":629,"name":"Bing Chilling","steam_id":76561198065376942,"connected_time":433000000000,"state":"active","ping":73},{"user_id":621,"name":"vert2spooky // RAT TRAP","steam_id":76561198914976373,"connected_time":916000000000,"state":"active","ping":59},{"user_id":597,"name":"Irbynx","steam_id":76561197980421195,"connected_time":2567000000000,"state":"active","ping":78},{"user_id":610,"name":"Andy","steam_id":76561198046918834,"connected_time":1693000000000,"state":"active","ping":70},{"user_id":633,"name":"Washed up medic main","steam_id":76561198347336086,"connected_time":325000000000,"state":"active","ping":61},{"user_id":630,"name":"tone","steam_id":76561197975301462,"connected_time":412000000000,"state":"active","ping":69},{"user_id":634,"name":"Woman (Real)","steam_id":76561199151823932,"connected_time":324000000000,"state":"active","ping":80},{"user_id":636,"name":"thefatcontroller","steam_id":76561199332965146,"connected_time":272000000000,"state":"active","ping":93},{"user_id":637,"name":"true","steam_id":76561198031145243,"connected_time":252000000000,"state":"active","ping":85},{"user_id":638,"name":"git bash -er","steam_id":76561198072586494,"connected_time":242000000000,"state":"active","ping":57},{"user_id":642,"name":"its christmas","steam_id":76561198144736277,"connected_time":57000000000,"state":"active","ping":69},{"user_id":643,"name":"Vikep'S","steam_id":76561199002274689,"connected_time":52000000000,"state":"spawning","ping":239},{"user_id":601,"name":"akakez","steam_id":76561198095432821,"connected_time":2486000000000,"state":"active","ping":118}]},{"server_id":202,"name":"Uncletopia | Hong Kong | 1 | All Maps","name_short":"hgk-1","host":"hgk-1.hk.uncletopia.com","port":27015,"enabled":true,"region":"asia","cc":"hk","latitude":22.302711,"longitude":114.177216,"reserved":0,"last_update":"0001-01-01T00:00:00Z","name_a2s":"Uncletopia | Hong Kong | 1 | All Maps","protocol":17,"map":"koth_highpass","folder":"tf","game":"Team Fortress","app_id":440,"player_count":0,"max_players":24,"Bots":0,"server_type":"Dedicated","server_os":"Linux","password":true,"vac":true,"version":"7757534","steam_id":85568392924494504,"keywords":["cp","nocrits","nodmgspread","uncletopia"],"game_id":440,"stv_port":27016,"stv_name":"Uncletopia | Hong Kong | 1 | All Maps | STV","players":null},{"server_id":1,"name":"Uncletopia | Los Angeles | 1 | All Maps","name_short":"lax-1","host":"lax-1.us.uncletopia.com","port":27015,"enabled":true,"region":"us-west","cc":"us","latitude":33.94279,"longitude":-118.41004,"reserved":0,"last_update":"0001-01-01T00:00:00Z","name_a2s":"Uncletopia | Los Angeles | 1 | All Maps","protocol":17,"map":"pl_badwater","folder":"tf","game":"Team Fortress","app_id":440,"player_count":0,"max_players":24,"Bots":0,"server_type":"Dedicated","server_os":"Linux","password":true,"vac":true,"version":"7757534","steam_id":85568392924469991,"keywords":["nocrits","nodmgspread","payload","uncletopia"],"game_id":440,"stv_port":27016,"stv_name":"Uncletopia | Los Angeles | 1 | All Maps | STV","players":null},{"server_id":112,"name":"Uncletopia | Los Angeles | 2 | All Maps","name_short":"lax-2","host":"lax-1.us.uncletopia.com","port":27025,"enabled":true,"region":"us-west","cc":"us","latitude":33.94279,"longitude":-118.41004,"reserved":0,"last_update":"0001-01-01T00:00:00Z","name_a2s":"Uncletopia | Los Angeles | 2 | All Maps","protocol":17,"map":"koth_viaduct","folder":"tf","game":"Team Fortress","app_id":440,"player_count":2,"max_players":24,"Bots":0,"server_type":"Dedicated","server_os":"Linux","password":true,"vac":true,"version":"7757534","steam_id":85568392924469992,"keywords":["cp","nocrits","nodmgspread","uncletopia"],"game_id":440,"stv_port":27026,"stv_name":"Uncletopia | Los Angeles | 2 | All Maps | STV","players":[{"user_id":8,"name":"Vablosdiar","steam_id":76561198299990313,"connected_time":109000000000,"state":"active","ping":175},{"user_id":10,"name":"you2isgood","steam_id":76561199134453239,"connected_time":31000000000,"state":"active","ping":68}]},{"server_id":324,"name":"Uncletopia | Los Angeles | 3 | All Maps","name_short":"lax-3","host":"lax-1.us.uncletopia.com","port":27035,"enabled":true,"region":"us-west","cc":"us","latitude":33.94279,"longitude":-118.41004,"reserved":0,"last_update":"0001-01-01T00:00:00Z","name_a2s":"Uncletopia | Los Angeles | 3 | All Maps","protocol":17,"map":"pl_badwater","folder":"tf","game":"Team Fortress","app_id":440,"player_count":2,"max_players":24,"Bots":0,"server_type":"Dedicated","server_os":"Linux","password":true,"vac":true,"version":"7757534","steam_id":85568392924510198,"keywords":["nocrits","nodmgspread","payload","uncletopia"],"game_id":440,"stv_port":27036,"stv_name":"Uncletopia | Los Angeles | 3 | All Maps | STV","players":[{"user_id":6,"name":"Kdoubledizz","steam_id":76561199074741602,"connected_time":337000000000,"state":"active","ping":75},{"user_id":7,"name":"BDMango","steam_id":76561199323225729,"connected_time":305000000000,"state":"active","ping":59}]},{"server_id":25,"name":"Uncletopia | Los Angeles | 4 | Stopwatch Beta","name_short":"lax-4","host":"lax-1.us.uncletopia.com","port":27045,"enabled":true,"region":"us-west","cc":"us","latitude":33.94279,"longitude":-118.41004,"reserved":0,"last_update":"0001-01-01T00:00:00Z","name_a2s":"Uncletopia | Los Angeles | 4 | Stopwatch Beta","protocol":17,"map":"pl_borneo","folder":"tf","game":"Team Fortress","app_id":440,"player_count":0,"max_players":24,"Bots":0,"server_type":"Dedicated","server_os":"Linux","password":true,"vac":true,"version":"7757534","steam_id":85568392924510199,"keywords":["nocrits","nodmgspread","payload","uncletopia"],"game_id":440,"stv_port":27046,"stv_name":"Uncletopia | Los Angeles | 4 | Stopwatch Beta | STV","players":null},{"server_id":11,"name":"Uncletopia | London | 1 | All Maps","name_short":"lon-1","host":"lon-1.uk.uncletopia.com","port":27015,"enabled":true,"region":"eu","cc":"gb","latitude":51.509865,"longitude":-0.118092,"reserved":0,"last_update":"0001-01-01T00:00:00Z","name_a2s":"Uncletopia | London | 1 | All Maps","protocol":17,"map":"pl_swiftwater_final1","folder":"tf","game":"Team Fortress","app_id":440,"player_count":22,"max_players":24,"Bots":0,"server_type":"Dedicated","server_os":"Linux","password":true,"vac":true,"version":"7757534","steam_id":85568392924367362,"keywords":["nocrits","nodmgspread","payload","uncletopia"],"game_id":440,"stv_port":27016,"stv_name":"Uncletopia | London | 1 | All Maps | STV","players":[{"user_id":511,"name":"bluemoon","steam_id":76561198097713633,"connected_time":115000000000,"state":"active","ping":68},{"user_id":504,"name":"Fuvuk","steam_id":76561198044458593,"connected_time":721000000000,"state":"active","ping":97},{"user_id":460,"name":"ciliorkun18","steam_id":76561198228942500,"connected_time":3347000000000,"state":"active","ping":95},{"user_id":508,"name":"silicon based life form","steam_id":76561199127121346,"connected_time":264000000000,"state":"active","ping":54},{"user_id":469,"name":"soopeli","steam_id":76561198003350251,"connected_time":3085000000000,"state":"active","ping":68},{"user_id":515,"name":"Burny Bob","steam_id":76561198073513081,"connected_time":90000000000,"state":"active","ping":62},{"user_id":516,"name":"Komputer1310","steam_id":76561198870066614,"connected_time":65000000000,"state":"active","ping":77},{"user_id":498,"name":"Grillem Dafoe","steam_id":76561198306874574,"connected_time":1140000000000,"state":"active","ping":68},{"user_id":507,"name":"Aaron","steam_id":76561197990046953,"connected_time":444000000000,"state":"active","ping":60},{"user_id":488,"name":"Garfield Gaming","steam_id":76561198254539791,"connected_time":2401000000000,"state":"active","ping":49},{"user_id":448,"name":"Celtins","steam_id":76561198839837475,"connected_time":4968000000000,"state":"active","ping":55},{"user_id":514,"name":"Caesium_R4","steam_id":76561198432410602,"connected_time":102000000000,"state":"active","ping":36},{"user_id":495,"name":"teddy","steam_id":76561198007436837,"connected_time":1472000000000,"state":"active","ping":33},{"user_id":418,"name":"Bad and Wuji","steam_id":76561199385280253,"connected_time":6276000000000,"state":"active","ping":123},{"user_id":518,"name":"·†å·†å ·†å ·†å ·†å ·†å ·†å·†å","steam_id":76561198139659854,"connected_time":43000000000,"state":"active","ping":84},{"user_id":431,"name":"Davey","steam_id":76561198256879107,"connected_time":6081000000000,"state":"active","ping":77},{"user_id":480,"name":"Dinges360","steam_id":76561198042032834,"connected_time":2853000000000,"state":"active","ping":53},{"user_id":510,"name":"Calanim","steam_id":76561198068163854,"connected_time":128000000000,"state":"active","ping":56},{"user_id":481,"name":"ViciousVinnyD","steam_id":76561198053822329,"connected_time":2815000000000,"state":"active","ping":60},{"user_id":404,"name":"Dominus.","steam_id":76561199065917088,"connected_time":7212000000000,"state":"active","ping":57},{"user_id":363,"name":"Numroth","steam_id":76561198001100167,"connected_time":10867000000000,"state":"active","ping":95},{"user_id":513,"name":"-TA- skai :3","steam_id":76561198184881255,"connected_time":108000000000,"state":"active","ping":62}]},{"server_id":114,"name":"Uncletopia | London | 2 | All Maps","name_short":"lon-2","host":"lon-1.uk.uncletopia.com","port":27025,"enabled":true,"region":"eu","cc":"gb","latitude":51.509865,"longitude":-0.118092,"reserved":0,"last_update":"0001-01-01T00:00:00Z","name_a2s":"Uncletopia | London | 2 | All Maps","protocol":17,"map":"pl_upward","folder":"tf","game":"Team Fortress","app_id":440,"player_count":24,"max_players":24,"Bots":0,"server_type":"Dedicated","server_os":"Linux","password":true,"vac":true,"version":"7757534","steam_id":85568392924470941,"keywords":["nocrits","nodmgspread","payload","uncletopia"],"game_id":440,"stv_port":27026,"stv_name":"Uncletopia | London | 2 | All Maps | STV","players":[{"user_id":680,"name":"sergey476a","steam_id":76561199468609800,"connected_time":1194000000000,"state":"active","ping":84},{"user_id":641,"name":"Mayor Wank from Wanker Town","steam_id":76561197998253588,"connected_time":2843000000000,"state":"active","ping":59},{"user_id":675,"name":"glyph","steam_id":76561197980736364,"connected_time":1365000000000,"state":"active","ping":81},{"user_id":650,"name":"MSPaintbrush","steam_id":76561198119987705,"connected_time":2086000000000,"state":"active","ping":60},{"user_id":581,"name":"Tuga inglesa","steam_id":76561198442803577,"connected_time":6291000000000,"state":"active","ping":74},{"user_id":690,"name":"shoras","steam_id":76561198019680159,"connected_time":401000000000,"state":"active","ping":91},{"user_id":681,"name":"Harpenden, Harpenden, Harpenden","steam_id":76561198118138546,"connected_time":1113000000000,"state":"active","ping":44},{"user_id":687,"name":"magnarull","steam_id":76561198972383118,"connected_time":441000000000,"state":"active","ping":83},{"user_id":638,"name":"fox gaming","steam_id":76561198201645150,"connected_time":2891000000000,"state":"active","ping":50},{"user_id":686,"name":"Dag!","steam_id":76561198030147941,"connected_time":684000000000,"state":"active","ping":71},{"user_id":651,"name":"hitman out to get YOU","steam_id":76561198982531043,"connected_time":2076000000000,"state":"active","ping":93},{"user_id":676,"name":"moser23","steam_id":76561197960543171,"connected_time":1365000000000,"state":"active","ping":62},{"user_id":613,"name":"frosty","steam_id":76561198094560834,"connected_time":4135000000000,"state":"active","ping":57},{"user_id":692,"name":"makiverem","steam_id":76561198425866216,"connected_time":394000000000,"state":"active","ping":84},{"user_id":688,"name":"Kalkkuna","steam_id":76561199410300277,"connected_time":413000000000,"state":"active","ping":74},{"user_id":627,"name":"Sgreff","steam_id":76561198036304365,"connected_time":3530000000000,"state":"active","ping":45},{"user_id":612,"name":"Zach","steam_id":76561198454281725,"connected_time":4186000000000,"state":"active","ping":108},{"user_id":689,"name":"jaMie","steam_id":76561198170148783,"connected_time":407000000000,"state":"active","ping":44},{"user_id":628,"name":"GuSkand","steam_id":76561198043775605,"connected_time":3490000000000,"state":"active","ping":95},{"user_id":618,"name":"pumpkin spice go.ggez.ro","steam_id":76561198449957490,"connected_time":4020000000000,"state":"active","ping":97},{"user_id":678,"name":"giclure :;","steam_id":76561197986362828,"connected_time":1236000000000,"state":"active","ping":49},{"user_id":633,"name":"Johnny Cockroach","steam_id":76561198049648277,"connected_time":3267000000000,"state":"active","ping":103},{"user_id":653,"name":"Spycrab101","steam_id":76561198141836805,"connected_time":2066000000000,"state":"active","ping":49},{"user_id":691,"name":"beurgeur","steam_id":76561198872426314,"connected_time":398000000000,"state":"active","ping":45}]},{"server_id":320,"name":"Uncletopia | London | 3 | All Maps","name_short":"lon-3","host":"lon-1.uk.uncletopia.com","port":27035,"enabled":true,"region":"eu","cc":"gb","latitude":51.509865,"longitude":-0.118092,"reserved":0,"last_update":"0001-01-01T00:00:00Z","name_a2s":"Uncletopia | London | 3 | All Maps","protocol":17,"map":"pl_borneo","folder":"tf","game":"Team Fortress","app_id":440,"player_count":25,"max_players":24,"Bots":0,"server_type":"Dedicated","server_os":"Linux","password":true,"vac":true,"version":"7757534","steam_id":85568392924510192,"keywords":["nocrits","nodmgspread","payload","uncletopia"],"game_id":440,"stv_port":27036,"stv_name":"Uncletopia | London | 3 | All Maps | STV","players":[{"user_id":393,"name":"astra","steam_id":76561198042980579,"connected_time":1391000000000,"state":"active","ping":63},{"user_id":412,"name":"play with your feelings","steam_id":76561199042470246,"connected_time":787000000000,"state":"active","ping":60},{"user_id":330,"name":"limbicsystem","steam_id":76561198025612680,"connected_time":6278000000000,"state":"active","ping":56},{"user_id":427,"name":"Shelly1052","steam_id":76561199043551053,"connected_time":490000000000,"state":"active","ping":44},{"user_id":422,"name":"Cliff Barnes","steam_id":76561198032213783,"connected_time":544000000000,"state":"active","ping":74},{"user_id":400,"name":"The Dwarf Who Says Grudge a lot","steam_id":76561197963866545,"connected_time":1068000000000,"state":"active","ping":67},{"user_id":435,"name":"Ben UFO","steam_id":76561198001648348,"connected_time":331000000000,"state":"active","ping":48},{"user_id":365,"name":"fucking awesome gangster minion","steam_id":76561198796600155,"connected_time":3821000000000,"state":"active","ping":92},{"user_id":389,"name":"Thorley","steam_id":76561199053031344,"connected_time":1831000000000,"state":"active","ping":33},{"user_id":382,"name":"You slumber","steam_id":76561198344639692,"connected_time":2910000000000,"state":"active","ping":88},{"user_id":443,"name":"The Caretaker","steam_id":76561198125241411,"connected_time":31000000000,"state":"spawning","ping":207},{"user_id":366,"name":"Badass gangnam style minion","steam_id":76561198297602677,"connected_time":3811000000000,"state":"active","ping":86},{"user_id":394,"name":"Matomatic","steam_id":76561198063013603,"connected_time":1387000000000,"state":"active","ping":63},{"user_id":402,"name":"IJN Amagi","steam_id":76561198090874324,"connected_time":1049000000000,"state":"active","ping":84},{"user_id":429,"name":"nox","steam_id":76561198287360892,"connected_time":453000000000,"state":"active","ping":80},{"user_id":383,"name":"pyroballs58","steam_id":76561199213901239,"connected_time":2687000000000,"state":"active","ping":49},{"user_id":335,"name":"Jedleo","steam_id":76561198347292531,"connected_time":6058000000000,"state":"active","ping":58},{"user_id":407,"name":"adamw40","steam_id":76561199244516422,"connected_time":957000000000,"state":"active","ping":101},{"user_id":398,"name":"Lord Maldimort","steam_id":76561198063150039,"connected_time":1265000000000,"state":"active","ping":67},{"user_id":409,"name":"Kotlet schabowy","steam_id":76561198048983509,"connected_time":871000000000,"state":"active","ping":89},{"user_id":378,"name":"Aximus","steam_id":76561198024575710,"connected_time":3286000000000,"state":"active","ping":70},{"user_id":420,"name":"AmadStatistician","steam_id":76561198163654770,"connected_time":592000000000,"state":"active","ping":57},{"user_id":411,"name":"gfjhsdf","steam_id":76561198136736426,"connected_time":838000000000,"state":"active","ping":62},{"user_id":396,"name":"leibh√©alfaidh m√© th√∫","steam_id":76561198078484073,"connected_time":1378000000000,"state":"active","ping":82},{"user_id":430,"name":"sleepyskull","steam_id":76561198269491159,"connected_time":453000000000,"state":"active","ping":60}]},{"server_id":321,"name":"Uncletopia | London | 4 | All Maps","name_short":"lon-4","host":"lon-1.uk.uncletopia.com","port":27045,"enabled":true,"region":"eu","cc":"gb","latitude":51.509865,"longitude":-0.118092,"reserved":0,"last_update":"0001-01-01T00:00:00Z","name_a2s":"Uncletopia | London | 4 | All Maps","protocol":17,"map":"koth_cascade","folder":"tf","game":"Team Fortress","app_id":440,"player_count":23,"max_players":24,"Bots":0,"server_type":"Dedicated","server_os":"Linux","password":true,"vac":true,"version":"7757534","steam_id":85568392924510193,"keywords":["cp","nocrits","nodmgspread","uncletopia"],"game_id":440,"stv_port":27046,"stv_name":"Uncletopia | London | 4 | All Maps | STV","players":[{"user_id":356,"name":"Priceybay","steam_id":76561198055389492,"connected_time":9000000000,"state":"active","ping":43},{"user_id":350,"name":"Jon_595","steam_id":76561198846843547,"connected_time":180000000000,"state":"active","ping":133},{"user_id":322,"name":"The Witch-Finder General","steam_id":76561198375599872,"connected_time":1520000000000,"state":"active","ping":72},{"user_id":346,"name":"Doctor__Mobius","steam_id":76561197971281806,"connected_time":267000000000,"state":"active","ping":70},{"user_id":355,"name":"teddyswk","steam_id":76561198404939571,"connected_time":32000000000,"state":"spawning","ping":71},{"user_id":337,"name":"McHatin","steam_id":76561198057806691,"connected_time":610000000000,"state":"active","ping":55},{"user_id":329,"name":"Jesse on cocainer","steam_id":76561198355545012,"connected_time":1333000000000,"state":"active","ping":98},{"user_id":324,"name":"ShadowWasUhOh","steam_id":76561198400361935,"connected_time":1443000000000,"state":"active","ping":143},{"user_id":335,"name":"Professor_Why_","steam_id":76561198184054187,"connected_time":826000000000,"state":"active","ping":70},{"user_id":348,"name":"Axio","steam_id":76561198046826031,"connected_time":231000000000,"state":"active","ping":60},{"user_id":349,"name":"Tomau5","steam_id":76561198027409468,"connected_time":220000000000,"state":"active","ping":53},{"user_id":344,"name":"Ritz","steam_id":76561198222317440,"connected_time":338000000000,"state":"active","ping":53},{"user_id":341,"name":"My balls itch","steam_id":76561199121794613,"connected_time":520000000000,"state":"active","ping":99},{"user_id":308,"name":"lawrencefishdom","steam_id":76561199190918059,"connected_time":2595000000000,"state":"active","ping":59},{"user_id":334,"name":"sPork","steam_id":76561198056880331,"connected_time":859000000000,"state":"active","ping":62},{"user_id":326,"name":"r06u3","steam_id":76561198254099253,"connected_time":1418000000000,"state":"active","ping":178},{"user_id":351,"name":"Superiumentarius","steam_id":76561198081642249,"connected_time":160000000000,"state":"active","ping":65},{"user_id":315,"name":"DooWooD","steam_id":76561198335810106,"connected_time":1893000000000,"state":"active","ping":72},{"user_id":352,"name":"ALLIA","steam_id":76561198001927753,"connected_time":148000000000,"state":"active","ping":50},{"user_id":353,"name":"Curlew","steam_id":76561198075884540,"connected_time":136000000000,"state":"active","ping":59},{"user_id":354,"name":"PineApple","steam_id":76561198114541452,"connected_time":119000000000,"state":"active","ping":56},{"user_id":331,"name":"*Monkey Noises*","steam_id":76561198136529691,"connected_time":1311000000000,"state":"active","ping":44},{"user_id":332,"name":"skilltissues","steam_id":76561198025828664,"connected_time":1264000000000,"state":"active","ping":56}]},{"server_id":21,"name":"Uncletopia | London | 5 | All Maps","name_short":"lon-5","host":"lon-1.uk.uncletopia.com","port":27055,"enabled":true,"region":"eu","cc":"gb","latitude":51.509865,"longitude":-0.118092,"reserved":0,"last_update":"0001-01-01T00:00:00Z","name_a2s":"Uncletopia | London | 5 | All Maps","protocol":17,"map":"pl_upward","folder":"tf","game":"Team Fortress","app_id":440,"player_count":24,"max_players":24,"Bots":0,"server_type":"Dedicated","server_os":"Linux","password":true,"vac":true,"version":"7757534","steam_id":85568392924742829,"keywords":["nocrits","nodmgspread","payload","uncletopia"],"game_id":440,"stv_port":27056,"stv_name":"Uncletopia | London | 5 | All Maps | STV","players":[{"user_id":757,"name":"Arcweld","steam_id":76561198816060720,"connected_time":994000000000,"state":"active","ping":70},{"user_id":754,"name":"toothpaste vaper","steam_id":76561198078458780,"connected_time":1385000000000,"state":"active","ping":64},{"user_id":747,"name":"pepper","steam_id":76561198059782462,"connected_time":1551000000000,"state":"active","ping":60},{"user_id":766,"name":"TylowStar","steam_id":76561198357107806,"connected_time":764000000000,"state":"active","ping":66},{"user_id":756,"name":"the joy of recycling","steam_id":76561198415564349,"connected_time":1024000000000,"state":"active","ping":61},{"user_id":776,"name":"alvinulv","steam_id":76561198024487177,"connected_time":245000000000,"state":"active","ping":58},{"user_id":744,"name":"Joel!","steam_id":76561198155422742,"connected_time":1687000000000,"state":"active","ping":62},{"user_id":772,"name":"Toukkis","steam_id":76561198140232191,"connected_time":584000000000,"state":"active","ping":93},{"user_id":759,"name":"Masquerade queen","steam_id":76561198218299273,"connected_time":949000000000,"state":"active","ping":96},{"user_id":771,"name":"SoupER","steam_id":76561198063056668,"connected_time":635000000000,"state":"active","ping":54},{"user_id":777,"name":"pineappleguy05","steam_id":76561199144546264,"connected_time":9000000000,"state":"spawning","ping":71},{"user_id":748,"name":"‚ô• ‚ô• Sp3ll soo SeXy ÊÆ∫Êâã#1","steam_id":76561197970593737,"connected_time":1490000000000,"state":"active","ping":75},{"user_id":768,"name":"Nag","steam_id":76561197970488206,"connected_time":702000000000,"state":"active","ping":66},{"user_id":745,"name":"mt","steam_id":76561197961319303,"connected_time":1685000000000,"state":"active","ping":60},{"user_id":761,"name":"ËìÆ Lotus","steam_id":76561198083141117,"connected_time":893000000000,"state":"active","ping":67},{"user_id":762,"name":"Sonnakai","steam_id":76561198051688749,"connected_time":864000000000,"state":"active","ping":45},{"user_id":730,"name":"Regan","steam_id":76561198100631086,"connected_time":2942000000000,"state":"active","ping":56},{"user_id":763,"name":"„É©„Çπ","steam_id":76561198124320485,"connected_time":851000000000,"state":"active","ping":84},{"user_id":775,"name":"TheEventGuy","steam_id":76561197972797744,"connected_time":469000000000,"state":"active","ping":76},{"user_id":765,"name":"drew","steam_id":76561198012304706,"connected_time":771000000000,"state":"active","ping":105},{"user_id":773,"name":"pain","steam_id":76561198047359132,"connected_time":567000000000,"state":"active","ping":75},{"user_id":770,"name":"LOBZIK","steam_id":76561198114830120,"connected_time":674000000000,"state":"active","ping":78},{"user_id":774,"name":"Dodoshka","steam_id":76561198093464840,"connected_time":563000000000,"state":"active","ping":148},{"user_id":724,"name":"Lord Commissar Drac","steam_id":76561198030371218,"connected_time":3498000000000,"state":"active","ping":71}]},{"server_id":22,"name":"Uncletopia | London | 6 | All Maps","name_short":"lon-6","host":"lon-1.uk.uncletopia.com","port":27065,"enabled":true,"region":"eu","cc":"gb","latitude":51.509865,"longitude":-0.118092,"reserved":0,"last_update":"0001-01-01T00:00:00Z","name_a2s":"Uncletopia | London | 6 | All Maps","protocol":17,"map":"pl_barnblitz","folder":"tf","game":"Team Fortress","app_id":440,"player_count":23,"max_players":24,"Bots":0,"server_type":"Dedicated","server_os":"Linux","password":true,"vac":true,"version":"7757534","steam_id":85568392924742830,"keywords":["nocrits","nodmgspread","payload","uncletopia"],"game_id":440,"stv_port":27066,"stv_name":"Uncletopia | London | 6 | All Maps | STV","players":[{"user_id":310,"name":"CosminSL","steam_id":76561198055827684,"connected_time":418000000000,"state":"active","ping":80},{"user_id":320,"name":"Jack\u003c3","steam_id":76561197968851846,"connected_time":300000000000,"state":"active","ping":67},{"user_id":307,"name":"Lew","steam_id":76561198076039504,"connected_time":733000000000,"state":"active","ping":60},{"user_id":324,"name":"FairlyFatFungus","steam_id":76561199152828854,"connected_time":138000000000,"state":"active","ping":54},{"user_id":315,"name":"Uncle Terry","steam_id":76561198396415736,"connected_time":376000000000,"state":"active","ping":56},{"user_id":276,"name":"Mollehh","steam_id":76561198354731126,"connected_time":2002000000000,"state":"active","ping":43},{"user_id":311,"name":"Ged","steam_id":76561198079288943,"connected_time":416000000000,"state":"active","ping":129},{"user_id":321,"name":"Rainlamp @SaveTF2","steam_id":76561198007394958,"connected_time":292000000000,"state":"active","ping":56},{"user_id":312,"name":"s a i","steam_id":76561197970379754,"connected_time":407000000000,"state":"active","ping":65},{"user_id":329,"name":"caxx","steam_id":76561198062953854,"connected_time":5000000000,"state":"spawning","ping":51},{"user_id":313,"name":"Mor'du","steam_id":76561198274105878,"connected_time":406000000000,"state":"active","ping":91},{"user_id":295,"name":"an abundance of missing","steam_id":76561198002162167,"connected_time":1704000000000,"state":"active","ping":64},{"user_id":318,"name":"Koi-Koi","steam_id":76561198045527771,"connected_time":360000000000,"state":"active","ping":56},{"user_id":328,"name":"ro","steam_id":76561198935253634,"connected_time":27000000000,"state":"active","ping":178},{"user_id":323,"name":"garbage mikuknight","steam_id":76561198361819054,"connected_time":260000000000,"state":"active","ping":101},{"user_id":309,"name":"FilipeLuk","steam_id":76561198150675438,"connected_time":444000000000,"state":"active","ping":70},{"user_id":296,"name":"hideki","steam_id":76561198030728517,"connected_time":1703000000000,"state":"active","ping":55},{"user_id":206,"name":"The Yes Man","steam_id":76561198112558416,"connected_time":6188000000000,"state":"active","ping":30},{"user_id":326,"name":"Flint","steam_id":76561197995920776,"connected_time":100000000000,"state":"active","ping":46},{"user_id":308,"name":"—Ç—É–∫–∫—É –∏—Ä–º–∞","steam_id":76561197998715016,"connected_time":567000000000,"state":"active","ping":60},{"user_id":327,"name":"It's Schradin' time.","steam_id":76561199037749675,"connected_time":92000000000,"state":"active","ping":34},{"user_id":319,"name":"Cocteau Twins - Heaven or Las V","steam_id":76561198119470669,"connected_time":348000000000,"state":"active","ping":56},{"user_id":275,"name":"Savric","steam_id":76561197984478559,"connected_time":2030000000000,"state":"active","ping":42}]},{"server_id":40,"name":"Uncletopia | London | 7 | No Payload","name_short":"lon-7","host":"lon-1.uk.uncletopia.com","port":27075,"enabled":true,"region":"eu","cc":"gb","latitude":51.509865,"longitude":-0.118092,"reserved":0,"last_update":"0001-01-01T00:00:00Z","name_a2s":"Uncletopia | London | 7 | No Payload","protocol":17,"map":"cp_well","folder":"tf","game":"Team Fortress","app_id":440,"player_count":23,"max_players":24,"Bots":0,"server_type":"Dedicated","server_os":"Linux","password":true,"vac":true,"version":"7757534","steam_id":85568392924964314,"keywords":["cp","nocrits","nodmgspread","uncletopia"],"game_id":440,"stv_port":27076,"stv_name":"Uncletopia | London | 7 | No Payload | STV","players":[{"user_id":503,"name":"Rasa","steam_id":76561198030864396,"connected_time":3250000000000,"state":"active","ping":91},{"user_id":456,"name":"Soihtu","steam_id":76561198025574278,"connected_time":5675000000000,"state":"active","ping":78},{"user_id":533,"name":"Ryder","steam_id":76561197993639825,"connected_time":1125000000000,"state":"active","ping":68},{"user_id":535,"name":"A Featherless Biped","steam_id":76561198307904901,"connected_time":1105000000000,"state":"active","ping":40},{"user_id":514,"name":"RussianPingLord","steam_id":76561199055517485,"connected_time":2199000000000,"state":"active","ping":106},{"user_id":522,"name":"Adopted?","steam_id":76561198118667043,"connected_time":1339000000000,"state":"active","ping":54},{"user_id":494,"name":"Eyeball Sucker","steam_id":76561198195865734,"connected_time":4585000000000,"state":"active","ping":83},{"user_id":524,"name":"The Deadly Doughnut","steam_id":76561198079049349,"connected_time":1322000000000,"state":"active","ping":55},{"user_id":538,"name":"Old Hat","steam_id":76561197994673297,"connected_time":710000000000,"state":"active","ping":63},{"user_id":542,"name":"Michael","steam_id":76561198003146906,"connected_time":497000000000,"state":"active","ping":43},{"user_id":512,"name":"Senor Ding Dong","steam_id":76561198102702616,"connected_time":2232000000000,"state":"active","ping":82},{"user_id":502,"name":"Topme","steam_id":76561198091734693,"connected_time":3293000000000,"state":"active","ping":61},{"user_id":548,"name":"Feelin' Supersonic","steam_id":76561198005738407,"connected_time":282000000000,"state":"active","ping":90},{"user_id":469,"name":"pebbles","steam_id":76561198884449271,"connected_time":5320000000000,"state":"active","ping":75},{"user_id":544,"name":"fume.","steam_id":76561197960476801,"connected_time":464000000000,"state":"active","ping":56},{"user_id":527,"name":"Paul B√§umer","steam_id":76561198308302932,"connected_time":1217000000000,"state":"active","ping":97},{"user_id":529,"name":"timvs5","steam_id":76561198136646312,"connected_time":1203000000000,"state":"active","ping":62},{"user_id":547,"name":"noire","steam_id":76561198426604784,"connected_time":308000000000,"state":"active","ping":38},{"user_id":482,"name":"Zezaid","steam_id":76561199031452227,"connected_time":4849000000000,"state":"active","ping":56},{"user_id":491,"name":"sex havin'","steam_id":76561198169857427,"connected_time":4638000000000,"state":"active","ping":76},{"user_id":531,"name":"Pablo","steam_id":76561198160394046,"connected_time":1175000000000,"state":"active","ping":120},{"user_id":532,"name":"KlevukaS‚Ñ¢","steam_id":76561198312867604,"connected_time":1162000000000,"state":"active","ping":81},{"user_id":519,"name":"Chinese censorship Bureau","steam_id":76561198397898616,"connected_time":1471000000000,"state":"active","ping":90}]},{"server_id":41,"name":"Uncletopia | London | 8 | Community","name_short":"lon-8","host":"lon-1.uk.uncletopia.com","port":27085,"enabled":true,"region":"eu","cc":"gb","latitude":51.509865,"longitude":-0.118092,"reserved":0,"last_update":"0001-01-01T00:00:00Z","name_a2s":"Uncletopia | London | 8 | Community","protocol":17,"map":"workshop/koth_ramjam_rc1.ugc459778887","folder":"tf","game":"Team Fortress","app_id":440,"player_count":9,"max_players":24,"Bots":0,"server_type":"Dedicated","server_os":"Linux","password":true,"vac":true,"version":"7757534","steam_id":85568392924964315,"keywords":["cp","nocrits","nodmgspread","uncletopia"],"game_id":440,"stv_port":27086,"stv_name":"Uncletopia | London | 8 | Community | STV","players":[{"user_id":23,"name":"chickenlord787","steam_id":76561198148045589,"connected_time":718000000000,"state":"active","ping":48},{"user_id":24,"name":"Xpload","steam_id":76561198188505089,"connected_time":718000000000,"state":"active","ping":30},{"user_id":25,"name":"demolition2n3","steam_id":76561198356060442,"connected_time":717000000000,"state":"active","ping":51},{"user_id":26,"name":"Stern","steam_id":76561198065421312,"connected_time":410000000000,"state":"active","ping":37},{"user_id":27,"name":"M√∂ppy #savetf2","steam_id":76561198020555530,"connected_time":395000000000,"state":"active","ping":30},{"user_id":29,"name":"Fat Pigeon","steam_id":76561198817940142,"connected_time":325000000000,"state":"active","ping":45},{"user_id":30,"name":"AwterSix","steam_id":76561198042561678,"connected_time":285000000000,"state":"active","ping":56},{"user_id":31,"name":"Oz","steam_id":76561198082977363,"connected_time":205000000000,"state":"active","ping":45},{"user_id":32,"name":"Sanji_Bukaj","steam_id":76561199205251708,"connected_time":146000000000,"state":"active","ping":74}]},{"server_id":300,"name":"Uncletopia | Montr√©al | 1 | All Maps","name_short":"mtl-1","host":"mtl-1.ca.uncletopia.com","port":27015,"enabled":true,"region":"us-east","cc":"ca","latitude":45.50889,"longitude":-73.56167,"reserved":0,"last_update":"0001-01-01T00:00:00Z","name_a2s":"Uncletopia | Montr√©al | 1 | All Maps","protocol":17,"map":"koth_cascade","folder":"tf","game":"Team Fortress","app_id":440,"player_count":0,"max_players":24,"Bots":0,"server_type":"Dedicated","server_os":"Linux","password":true,"vac":true,"version":"7757534","steam_id":85568392924500087,"keywords":["cp","nocrits","nodmgspread","uncletopia"],"game_id":440,"stv_port":27016,"stv_name":"Uncletopia | Montr√©al | 1 | All Maps | STV","players":null},{"server_id":301,"name":"Uncletopia | Montr√©al | 2 | All Maps","name_short":"mtl-2","host":"mtl-1.ca.uncletopia.com","port":27025,"enabled":true,"region":"us-east","cc":"ca","latitude":45.50889,"longitude":-73.56167,"reserved":0,"last_update":"0001-01-01T00:00:00Z","name_a2s":"Uncletopia | Montr√©al | 2 | All Maps","protocol":17,"map":"pl_badwater","folder":"tf","game":"Team Fortress","app_id":440,"player_count":0,"max_players":24,"Bots":0,"server_type":"Dedicated","server_os":"Linux","password":true,"vac":true,"version":"7757534","steam_id":85568392924500088,"keywords":["nocrits","nodmgspread","payload","uncletopia"],"game_id":440,"stv_port":27026,"stv_name":"Uncletopia | Montr√©al | 2 | All Maps | STV","players":null},{"server_id":302,"name":"Uncletopia | Montr√©al | 3 | All Maps","name_short":"mtl-3","host":"mtl-1.ca.uncletopia.com","port":27035,"enabled":true,"region":"us-east","cc":"ca","latitude":45.50889,"longitude":-73.56167,"reserved":0,"last_update":"0001-01-01T00:00:00Z","name_a2s":"Uncletopia | Montr√©al | 3 | All Maps","protocol":17,"map":"pl_swiftwater_final1","folder":"tf","game":"Team Fortress","app_id":440,"player_count":0,"max_players":24,"Bots":0,"server_type":"Dedicated","server_os":"Linux","password":true,"vac":true,"version":"7757534","steam_id":85568392924500089,"keywords":["nocrits","nodmgspread","payload","uncletopia"],"game_id":440,"stv_port":27036,"stv_name":"Uncletopia | Montr√©al | 3 | All Maps | STV","players":null},{"server_id":303,"name":"Uncletopia | Montr√©al | 4 | No Payload","name_short":"mtl-4","host":"mtl-1.ca.uncletopia.com","port":27045,"enabled":true,"region":"us-east","cc":"ca","latitude":45.50889,"longitude":-73.56167,"reserved":0,"last_update":"0001-01-01T00:00:00Z","name_a2s":"Uncletopia | Montr√©al | 4 | No Payload","protocol":17,"map":"koth_lakeside_final","folder":"tf","game":"Team Fortress","app_id":440,"player_count":0,"max_players":24,"Bots":0,"server_type":"Dedicated","server_os":"Linux","password":true,"vac":true,"version":"7757534","steam_id":85568392924500090,"keywords":["cp","nocrits","nodmgspread","uncletopia"],"game_id":440,"stv_port":27046,"stv_name":"Uncletopia | Montr√©al | 4 | No Payload | STV","players":null},{"server_id":13,"name":"Uncletopia | New York City | 1 | All Maps","name_short":"nyc-1","host":"nyc-1.us.uncletopia.com","port":27015,"enabled":true,"region":"us-east","cc":"us","latitude":40.73061,"longitude":-73.93524,"reserved":0,"last_update":"0001-01-01T00:00:00Z","name_a2s":"Uncletopia | New York City | 1 | All Maps","protocol":17,"map":"pl_upward","folder":"tf","game":"Team Fortress","app_id":440,"player_count":24,"max_players":24,"Bots":0,"server_type":"Dedicated","server_os":"Linux","password":true,"vac":true,"version":"7757534","steam_id":85568392924469993,"keywords":["nocrits","nodmgspread","payload","uncletopia"],"game_id":440,"stv_port":27016,"stv_name":"Uncletopia | New York City | 1 | All Maps | STV","players":[{"user_id":164,"name":"Havok","steam_id":76561198063455003,"connected_time":3730000000000,"state":"active","ping":49},{"user_id":201,"name":"St. Alban's Weenus","steam_id":76561198047578824,"connected_time":1145000000000,"state":"active","ping":64},{"user_id":174,"name":"shephard","steam_id":76561198043367011,"connected_time":3031000000000,"state":"active","ping":78},{"user_id":185,"name":"Zip-Doom","steam_id":76561198051689455,"connected_time":1743000000000,"state":"active","ping":42},{"user_id":181,"name":"Citron","steam_id":76561198278687374,"connected_time":2079000000000,"state":"active","ping":43},{"user_id":215,"name":"Raine","steam_id":76561199081937889,"connected_time":41000000000,"state":"active","ping":65},{"user_id":203,"name":"Soup","steam_id":76561198002803602,"connected_time":723000000000,"state":"active","ping":85},{"user_id":169,"name":"Snugboo","steam_id":76561198147970327,"connected_time":3342000000000,"state":"active","ping":43},{"user_id":72,"name":"localization files","steam_id":76561197997139225,"connected_time":9398000000000,"state":"active","ping":60},{"user_id":178,"name":"Stagred","steam_id":76561198055973266,"connected_time":2891000000000,"state":"active","ping":57},{"user_id":204,"name":"MonsterHunter","steam_id":76561198146118010,"connected_time":702000000000,"state":"active","ping":76},{"user_id":198,"name":"Gaymer Femboy","steam_id":76561198985794083,"connected_time":1183000000000,"state":"active","ping":56},{"user_id":210,"name":"TacticalGlizzy","steam_id":76561198144786171,"connected_time":427000000000,"state":"active","ping":45},{"user_id":199,"name":"drdoofus123","steam_id":76561198016826181,"connected_time":1173000000000,"state":"active","ping":64},{"user_id":214,"name":"Idiot on his Keyboard","steam_id":76561198217662787,"connected_time":59000000000,"state":"active","ping":79},{"user_id":216,"name":"Chaotic Rushu","steam_id":76561198170054407,"connected_time":36000000000,"state":"spawning","ping":77},{"user_id":202,"name":"MikeWaChubski","steam_id":76561198368151490,"connected_time":816000000000,"state":"active","ping":59},{"user_id":200,"name":"Syn","steam_id":76561198181153014,"connected_time":1159000000000,"state":"active","ping":55},{"user_id":176,"name":"lker","steam_id":76561197976975075,"connected_time":3012000000000,"state":"active","ping":60},{"user_id":217,"name":"maxxuss [AiRe]","steam_id":76561197999155912,"connected_time":31000000000,"state":"active","ping":44},{"user_id":194,"name":"SpontaneousCourage","steam_id":76561198074391124,"connected_time":1372000000000,"state":"active","ping":49},{"user_id":211,"name":"deech","steam_id":76561198066429444,"connected_time":318000000000,"state":"active","ping":49},{"user_id":196,"name":"Bong Rat","steam_id":76561198164308630,"connected_time":1354000000000,"state":"active","ping":66},{"user_id":213,"name":"Jeremy","steam_id":76561198352333793,"connected_time":73000000000,"state":"active","ping":77}]},{"server_id":14,"name":"Uncletopia | New York City | 2 | All Maps","name_short":"nyc-2","host":"nyc-1.us.uncletopia.com","port":27025,"enabled":true,"region":"us-east","cc":"us","latitude":40.73061,"longitude":-73.93524,"reserved":0,"last_update":"0001-01-01T00:00:00Z","name_a2s":"Uncletopia | New York City | 2 | All Maps","protocol":17,"map":"koth_highpass","folder":"tf","game":"Team Fortress","app_id":440,"player_count":0,"max_players":24,"Bots":0,"server_type":"Dedicated","server_os":"Linux","password":true,"vac":true,"version":"7757534","steam_id":85568392924469994,"keywords":["cp","nocrits","nodmgspread","uncletopia"],"game_id":440,"stv_port":27026,"stv_name":"Uncletopia | New York City | 2 | All Maps | STV","players":null},{"server_id":15,"name":"Uncletopia | New York City | 3 | Stopwatch Beta","name_short":"nyc-3","host":"nyc-1.us.uncletopia.com","port":27035,"enabled":true,"region":"us-east","cc":"us","latitude":40.73061,"longitude":-73.93524,"reserved":0,"last_update":"0001-01-01T00:00:00Z","name_a2s":"Uncletopia | New York City | 3 | Stopwatch Beta","protocol":17,"map":"koth_highpass","folder":"tf","game":"Team Fortress","app_id":440,"player_count":0,"max_players":24,"Bots":0,"server_type":"Dedicated","server_os":"Linux","password":true,"vac":true,"version":"7757534","steam_id":85568392924742820,"keywords":["cp","nocrits","nodmgspread","uncletopia"],"game_id":440,"stv_port":27036,"stv_name":"Uncletopia | New York City | 3 | Stopwatch Beta | STV","players":null},{"server_id":16,"name":"Uncletopia | New York City | 4 | Community","name_short":"nyc-4","host":"nyc-1.us.uncletopia.com","port":27045,"enabled":true,"region":"us-east","cc":"us","latitude":40.73061,"longitude":-73.93524,"reserved":0,"last_update":"0001-01-01T00:00:00Z","name_a2s":"Uncletopia | New York City | 4 | Community","protocol":17,"map":"workshop/koth_bagel_rc5.ugc2514036946","folder":"tf","game":"Team Fortress","app_id":440,"player_count":2,"max_players":24,"Bots":0,"server_type":"Dedicated","server_os":"Linux","password":true,"vac":true,"version":"7757534","steam_id":85568392924742821,"keywords":["cp","nocrits","nodmgspread","uncletopia"],"game_id":440,"stv_port":27046,"stv_name":"Uncletopia | New York City | 4 | Community | STV","players":[{"user_id":9,"name":"Shrimpinator","steam_id":76561199016595261,"connected_time":33000000000,"state":"active","ping":60},{"user_id":8,"name":"Berlioz","steam_id":76561198040532757,"connected_time":118000000000,"state":"active","ping":85}]},{"server_id":142,"name":"Uncletopia | S√£o Paulo | 1 | All Maps","name_short":"sao-1","host":"sao-1.br.uncletopia.com","port":27015,"enabled":true,"region":"sa","cc":"br","latitude":-23.533773,"longitude":-46.62529,"reserved":0,"last_update":"0001-01-01T00:00:00Z","name_a2s":"Uncletopia | S√£o Paulo | 1 | All Maps","protocol":17,"map":"pl_borneo","folder":"tf","game":"Team Fortress","app_id":440,"player_count":0,"max_players":24,"Bots":0,"server_type":"Dedicated","server_os":"Linux","password":true,"vac":true,"version":"7757534","steam_id":85568392924469996,"keywords":["nocrits","nodmgspread","payload","uncletopia"],"game_id":440,"stv_port":27016,"stv_name":"Uncletopia | S√£o Paulo | 1 | All Maps | STV","players":null},{"server_id":143,"name":"Uncletopia | S√£o Paulo | 2 | All Maps","name_short":"sao-2","host":"sao-2.br.uncletopia.com","port":27015,"enabled":true,"region":"sa","cc":"br","latitude":-23.533773,"longitude":-46.62529,"reserved":0,"last_update":"0001-01-01T00:00:00Z","name_a2s":"Uncletopia | S√£o Paulo | 2 | All Maps","protocol":17,"map":"koth_cascade","folder":"tf","game":"Team Fortress","app_id":440,"player_count":0,"max_players":24,"Bots":0,"server_type":"Dedicated","server_os":"Linux","password":true,"vac":true,"version":"7757534","steam_id":85568392924485349,"keywords":["cp","nocrits","nodmgspread","uncletopia"],"game_id":440,"stv_port":27016,"stv_name":"Uncletopia | S√£o Paulo | 2 | All Maps | STV","players":null},{"server_id":7,"name":"Uncletopia | Seattle | 1 | All Maps","name_short":"sea-1","host":"sea-1.us.uncletopia.com","port":27015,"enabled":true,"region":"us-west","cc":"us","latitude":47.608013,"longitude":-122.33517,"reserved":0,"last_update":"0001-01-01T00:00:00Z","name_a2s":"Uncletopia | Seattle | 1 | All Maps","protocol":17,"map":"cp_process_final","folder":"tf","game":"Team Fortress","app_id":440,"player_count":0,"max_players":24,"Bots":0,"server_type":"Dedicated","server_os":"Linux","password":true,"vac":true,"version":"7757534","steam_id":85568392924469997,"keywords":["cp","nocrits","nodmgspread","uncletopia"],"game_id":440,"stv_port":27016,"stv_name":"Uncletopia | Seattle | 1 | All Maps | STV","players":null},{"server_id":119,"name":"Uncletopia | Seattle | 2 | All Maps","name_short":"sea-2","host":"sea-1.us.uncletopia.com","port":27025,"enabled":true,"region":"us-west","cc":"us","latitude":47.608013,"longitude":-122.33517,"reserved":0,"last_update":"0001-01-01T00:00:00Z","name_a2s":"Uncletopia | Seattle | 2 | All Maps","protocol":17,"map":"pl_borneo","folder":"tf","game":"Team Fortress","app_id":440,"player_count":22,"max_players":24,"Bots":0,"server_type":"Dedicated","server_os":"Linux","password":true,"vac":true,"version":"7757534","steam_id":85568392924469998,"keywords":["nocrits","nodmgspread","payload","uncletopia"],"game_id":440,"stv_port":27026,"stv_name":"Uncletopia | Seattle | 2 | All Maps | STV","players":[{"user_id":51,"name":"dougrocks421","steam_id":76561198165063918,"connected_time":1733000000000,"state":"active","ping":33},{"user_id":56,"name":"Julien","steam_id":76561199389584938,"connected_time":1048000000000,"state":"active","ping":32},{"user_id":15,"name":"The Pepsi¬Æ Superbowl¬Æ!","steam_id":76561198080828981,"connected_time":3675000000000,"state":"spawning","ping":69},{"user_id":62,"name":"aon135","steam_id":76561197966931637,"connected_time":324000000000,"state":"active","ping":57},{"user_id":16,"name":"the harsh reality","steam_id":76561198419896433,"connected_time":3636000000000,"state":"active","ping":43},{"user_id":53,"name":"AmiableNebula","steam_id":76561198094306627,"connected_time":1566000000000,"state":"active","ping":75},{"user_id":42,"name":"TheTruthOfTheCessationOfDukkha","steam_id":76561198214370515,"connected_time":2183000000000,"state":"active","ping":133},{"user_id":20,"name":"The Horselords and Animal Gods","steam_id":76561197975094050,"connected_time":3317000000000,"state":"active","ping":88},{"user_id":68,"name":"judesro","steam_id":76561198352244888,"connected_time":7000000000,"state":"active","ping":488},{"user_id":39,"name":"Solifuga","steam_id":76561198119569902,"connected_time":2310000000000,"state":"active","ping":44},{"user_id":65,"name":"YuuriDaThrilla","steam_id":76561198184814466,"connected_time":50000000000,"state":"active","ping":44},{"user_id":48,"name":"KFC‚ò≠","steam_id":76561199206815320,"connected_time":1985000000000,"state":"spawning","ping":77},{"user_id":28,"name":"Pneumo.","steam_id":76561197987911883,"connected_time":2755000000000,"state":"active","ping":64},{"user_id":50,"name":"bronk","steam_id":76561198181109553,"connected_time":1874000000000,"state":"active","ping":95},{"user_id":58,"name":"Patio","steam_id":76561197986082608,"connected_time":878000000000,"state":"active","ping":46},{"user_id":64,"name":"supcupman","steam_id":76561198051513866,"connected_time":238000000000,"state":"active","ping":81},{"user_id":69,"name":"Dimple","steam_id":76561198980324190,"connected_time":2000000000,"state":"spawning","ping":53},{"user_id":43,"name":"Little Linguine","steam_id":76561198816986370,"connected_time":2153000000000,"state":"active","ping":137},{"user_id":57,"name":"COOL master_9","steam_id":76561198073041151,"connected_time":886000000000,"state":"active","ping":97},{"user_id":38,"name":"Tibetan Pop Star","steam_id":76561198844903984,"connected_time":2325000000000,"state":"active","ping":89},{"user_id":44,"name":"nappyzappy","steam_id":76561198095118953,"connected_time":2153000000000,"state":"active","ping":67},{"user_id":66,"name":"Olibeea","steam_id":76561198079445380,"connected_time":48000000000,"state":"active","ping":51}]},{"server_id":406,"name":"Uncletopia | Seattle | 3 | Stopwatch Beta","name_short":"sea-3","host":"sea-1.us.uncletopia.com","port":27035,"enabled":true,"region":"us-west","cc":"us","latitude":47.608013,"longitude":-122.33517,"reserved":0,"last_update":"0001-01-01T00:00:00Z","name_a2s":"Uncletopia | Seattle | 3 | Stopwatch Beta","protocol":17,"map":"cp_sunshine","folder":"tf","game":"Team Fortress","app_id":440,"player_count":0,"max_players":24,"Bots":0,"server_type":"Dedicated","server_os":"Linux","password":true,"vac":true,"version":"7757534","steam_id":85568392924515217,"keywords":["cp","nocrits","nodmgspread","uncletopia"],"game_id":440,"stv_port":27036,"stv_name":"Uncletopia | Seattle | 3 | Stopwatch Beta | STV","players":null},{"server_id":17,"name":"Uncletopia | San Francisco | 1 | All Maps","name_short":"sfo-1","host":"sfo-1.us.uncletopia.com","port":27015,"enabled":true,"region":"us-west","cc":"us","latitude":37.77397,"longitude":-122.4313,"reserved":0,"last_update":"0001-01-01T00:00:00Z","name_a2s":"Uncletopia | San Francisco | 1 | All Maps","protocol":17,"map":"koth_lakeside_final","folder":"tf","game":"Team Fortress","app_id":440,"player_count":0,"max_players":24,"Bots":0,"server_type":"Dedicated","server_os":"Linux","password":true,"vac":true,"version":"7757534","steam_id":85568392924469999,"keywords":["cp","nocrits","nodmgspread","uncletopia"],"game_id":440,"stv_port":27016,"stv_name":"Uncletopia | San Francisco | 1 | All Maps | STV","players":null},{"server_id":18,"name":"Uncletopia | San Francisco | 2 | All Maps","name_short":"sfo-2","host":"sfo-1.us.uncletopia.com","port":27025,"enabled":true,"region":"us-west","cc":"us","latitude":37.77397,"longitude":-122.4313,"reserved":0,"last_update":"0001-01-01T00:00:00Z","name_a2s":"Uncletopia | San Francisco | 2 | All Maps","protocol":17,"map":"pl_barnblitz","folder":"tf","game":"Team Fortress","app_id":440,"player_count":24,"max_players":24,"Bots":0,"server_type":"Dedicated","server_os":"Linux","password":true,"vac":true,"version":"7757534","steam_id":85568392924470000,"keywords":["nocrits","nodmgspread","payload","uncletopia"],"game_id":440,"stv_port":27026,"stv_name":"Uncletopia | San Francisco | 2 | All Maps | STV","players":[{"user_id":78,"name":"God im so badas.............","steam_id":76561199037497493,"connected_time":350000000000,"state":"spawning","ping":104},{"user_id":79,"name":"Suspicious Trench Coat","steam_id":76561198044362988,"connected_time":315000000000,"state":"spawning","ping":107},{"user_id":80,"name":"DrD","steam_id":76561198067266383,"connected_time":309000000000,"state":"spawning","ping":59},{"user_id":69,"name":"vÔπè v** Íï§","steam_id":76561198126358045,"connected_time":1055000000000,"state":"spawning","ping":110},{"user_id":77,"name":"zacccch #SaveTF2","steam_id":76561199153114723,"connected_time":560000000000,"state":"spawning","ping":31},{"user_id":72,"name":"HuntBunt","steam_id":76561199055381357,"connected_time":1019000000000,"state":"spawning","ping":79},{"user_id":49,"name":"BDRV","steam_id":76561198197535895,"connected_time":2913000000000,"state":"spawning","ping":87},{"user_id":50,"name":"Karazu","steam_id":76561198026674301,"connected_time":2869000000000,"state":"spawning","ping":75},{"user_id":28,"name":"Flarelo","steam_id":76561198086024407,"connected_time":3704000000000,"state":"spawning","ping":107},{"user_id":58,"name":"heisenberg","steam_id":76561198075341060,"connected_time":2511000000000,"state":"spawning","ping":54},{"user_id":30,"name":"big dog","steam_id":76561198243918128,"connected_time":3668000000000,"state":"spawning","ping":103},{"user_id":62,"name":"HAT-WEARING‚Ñ¢ Maggot Gamer Cat","steam_id":76561197973992705,"connected_time":1700000000000,"state":"spawning","ping":44},{"user_id":61,"name":"RedStyles","steam_id":76561198319211823,"connected_time":2020000000000,"state":"spawning","ping":112},{"user_id":52,"name":"Yabber habber","steam_id":76561198119307814,"connected_time":2653000000000,"state":"spawning","ping":94},{"user_id":53,"name":"Rodro","steam_id":76561198365756847,"connected_time":2622000000000,"state":"spawning","ping":115},{"user_id":59,"name":"Underscore","steam_id":76561198374209415,"connected_time":2503000000000,"state":"spawning","ping":89},{"user_id":81,"name":"non menthol newport","steam_id":76561198041907345,"connected_time":21000000000,"state":"spawning","ping":68},{"user_id":55,"name":"Cowboy Cookie","steam_id":76561198051483841,"connected_time":2562000000000,"state":"spawning","ping":76},{"user_id":82,"name":"Sir Nope (TSS)","steam_id":76561198035935649,"connected_time":10000000000,"state":"spawning","ping":42},{"user_id":73,"name":"BloodyRevel","steam_id":76561198286519652,"connected_time":894000000000,"state":"spawning","ping":61},{"user_id":68,"name":"The Squid Gamer‚Ñ¢","steam_id":76561198340621517,"connected_time":1187000000000,"state":"spawning","ping":66},{"user_id":75,"name":"mahgad","steam_id":76561198797828475,"connected_time":755000000000,"state":"spawning","ping":114},{"user_id":64,"name":"r u guys going trick or treatin","steam_id":76561199074585110,"connected_time":1435000000000,"state":"spawning","ping":40},{"user_id":65,"name":"Maid 'n' China","steam_id":76561198423392976,"connected_time":1435000000000,"state":"spawning","ping":22}]},{"server_id":19,"name":"Uncletopia | San Francisco | 3 | Stopwatch Beta","name_short":"sfo-3","host":"sfo-1.us.uncletopia.com","port":27035,"enabled":true,"region":"us-west","cc":"us","latitude":37.77397,"longitude":-122.4313,"reserved":0,"last_update":"0001-01-01T00:00:00Z","name_a2s":"Uncletopia | San Francisco | 3 | Stopwatch Beta","protocol":17,"map":"koth_viaduct","folder":"tf","game":"Team Fortress","app_id":440,"player_count":0,"max_players":24,"Bots":0,"server_type":"Dedicated","server_os":"Linux","password":true,"vac":true,"version":"7757534","steam_id":85568392924742824,"keywords":["cp","nocrits","nodmgspread","uncletopia"],"game_id":440,"stv_port":27036,"stv_name":"Uncletopia | San Francisco | 3 | Stopwatch Beta | STV","players":null},{"server_id":20,"name":"Uncletopia | San Francisco | 4 | Community","name_short":"sfo-4","host":"sfo-1.us.uncletopia.com","port":27045,"enabled":true,"region":"us-west","cc":"us","latitude":37.77397,"longitude":-122.4313,"reserved":0,"last_update":"0001-01-01T00:00:00Z","name_a2s":"Uncletopia | San Francisco | 4 | Community","protocol":17,"map":"workshop/koth_slaughter_rc1.ugc1712845210","folder":"tf","game":"Team Fortress","app_id":440,"player_count":1,"max_players":24,"Bots":0,"server_type":"Dedicated","server_os":"Linux","password":true,"vac":true,"version":"7757534","steam_id":85568392924742826,"keywords":["cp","nocrits","nodmgspread","uncletopia"],"game_id":440,"stv_port":27046,"stv_name":"Uncletopia | San Francisco | 4 | Community | STV","players":[{"user_id":304,"name":"schnedwob","steam_id":76561197999146588,"connected_time":2853000000000,"state":"active","ping":77}]},{"server_id":141,"name":"Uncletopia | Sydney | 1 | All Maps","name_short":"syd-1","host":"syd-1.au.uncletopia.com","port":27015,"enabled":true,"region":"au","cc":"au","latitude":-33.865143,"longitude":151.2099,"reserved":0,"last_update":"0001-01-01T00:00:00Z","name_a2s":"Uncletopia | Sydney | 1 | All Maps","protocol":17,"map":"koth_lakeside_final","folder":"tf","game":"Team Fortress","app_id":440,"player_count":0,"max_players":24,"Bots":0,"server_type":"Dedicated","server_os":"Linux","password":true,"vac":true,"version":"7757534","steam_id":85568392924470001,"keywords":["cp","nocrits","nodmgspread","uncletopia"],"game_id":440,"stv_port":27016,"stv_name":"Uncletopia | Sydney | 1 | All Maps | STV","players":null},{"server_id":123,"name":"Uncletopia | Sydney | 2 | All Maps","name_short":"syd-2","host":"syd-1.au.uncletopia.com","port":27025,"enabled":true,"region":"au","cc":"au","latitude":-33.865143,"longitude":151.2099,"reserved":0,"last_update":"0001-01-01T00:00:00Z","name_a2s":"Uncletopia | Sydney | 2 | All Maps","protocol":17,"map":"koth_viaduct","folder":"tf","game":"Team Fortress","app_id":440,"player_count":0,"max_players":24,"Bots":0,"server_type":"Dedicated","server_os":"Linux","password":true,"vac":true,"version":"7757534","steam_id":85568392924470002,"keywords":["cp","nocrits","nodmgspread","uncletopia"],"game_id":440,"stv_port":27026,"stv_name":"Uncletopia | Sydney | 2 | All Maps | STV","players":null},{"server_id":395,"name":"Uncletopia | Sydney | 3 | All Maps","name_short":"syd-3","host":"syd-1.au.uncletopia.com","port":27035,"enabled":true,"region":"au","cc":"au","latitude":-33.865143,"longitude":151.2099,"reserved":0,"last_update":"0001-01-01T00:00:00Z","name_a2s":"Uncletopia | Sydney | 3 | All Maps","protocol":17,"map":"koth_viaduct","folder":"tf","game":"Team Fortress","app_id":440,"player_count":0,"max_players":24,"Bots":0,"server_type":"Dedicated","server_os":"Linux","password":true,"vac":true,"version":"7757534","steam_id":85568392925194467,"keywords":["cp","nocrits","nodmgspread","uncletopia"],"game_id":440,"stv_port":27036,"stv_name":"Uncletopia | Sydney | 3 | All Maps | STV","players":null},{"server_id":396,"name":"Uncletopia | Sydney | 4 | All Maps","name_short":"syd-4","host":"syd-1.au.uncletopia.com","port":27045,"enabled":true,"region":"au","cc":"au","latitude":-33.865143,"longitude":151.2099,"reserved":0,"last_update":"0001-01-01T00:00:00Z","name_a2s":"Uncletopia | Sydney | 4 | All Maps","protocol":17,"map":"cp_snakewater_final1","folder":"tf","game":"Team Fortress","app_id":440,"player_count":0,"max_players":24,"Bots":0,"server_type":"Dedicated","server_os":"Linux","password":true,"vac":true,"version":"7757534","steam_id":85568392925397958,"keywords":["cp","nocrits","nodmgspread","uncletopia"],"game_id":440,"stv_port":27046,"stv_name":"Uncletopia | Sydney | 4 | All Maps | STV","players":null},{"server_id":58,"name":"Uncletopia | Sydney | 5 | Stopwatch Beta","name_short":"syd-5","host":"syd-1.au.uncletopia.com","port":27055,"enabled":true,"region":"au","cc":"au","latitude":-33.865143,"longitude":151.2099,"reserved":0,"last_update":"0001-01-01T00:00:00Z","name_a2s":"Uncletopia | Sydney | 5 | Stopwatch Beta","protocol":17,"map":"pl_barnblitz","folder":"tf","game":"Team Fortress","app_id":440,"player_count":0,"max_players":24,"Bots":0,"server_type":"Dedicated","server_os":"Linux","password":true,"vac":true,"version":"7757534","steam_id":85568392925397959,"keywords":["nocrits","nodmgspread","payload","uncletopia"],"game_id":440,"stv_port":27056,"stv_name":"Uncletopia | Sydney | 5 | Stopwatch Beta | STV","players":null},{"server_id":59,"name":"Uncletopia | Sydney | 6 | Community","name_short":"syd-6","host":"syd-1.au.uncletopia.com","port":27065,"enabled":true,"region":"au","cc":"au","latitude":-33.865143,"longitude":151.2099,"reserved":0,"last_update":"0001-01-01T00:00:00Z","name_a2s":"Uncletopia | Sydney | 6 | Community","protocol":17,"map":"cp_mountainlab","folder":"tf","game":"Team Fortress","app_id":440,"player_count":0,"max_players":24,"Bots":0,"server_type":"Dedicated","server_os":"Linux","password":true,"vac":true,"version":"7757534","steam_id":85568392925397960,"keywords":["cp","nocrits","nodmgspread","uncletopia"],"game_id":440,"stv_port":27066,"stv_name":"Uncletopia | Sydney | 6 | Community | STV","players":null},{"server_id":49,"name":"Uncletopia | Warsaw | 1 | All Maps","name_short":"waw-1","host":"waw-1.pl.uncletopia.com","port":27015,"enabled":true,"region":"eu","cc":"pl","latitude":52.2297,"longitude":21.017532,"reserved":0,"last_update":"0001-01-01T00:00:00Z","name_a2s":"","protocol":0,"map":"","folder":"","game":"","app_id":0,"player_count":0,"max_players":0,"Bots":0,"server_type":"","server_os":"","password":false,"vac":false,"version":"","steam_id":0,"keywords":null,"game_id":0,"stv_port":0,"stv_name":"","players":null},{"server_id":50,"name":"Uncletopia | Warsaw | 2 | All Maps","name_short":"waw-2","host":"waw-1.pl.uncletopia.com","port":27025,"enabled":true,"region":"eu","cc":"pl","latitude":52.2297,"longitude":21.017532,"reserved":0,"last_update":"0001-01-01T00:00:00Z","name_a2s":"Uncletopia | Warsaw | 2 | All Maps","protocol":17,"map":"koth_lakeside_final","folder":"tf","game":"Team Fortress","app_id":440,"player_count":0,"max_players":24,"Bots":0,"server_type":"Dedicated","server_os":"Linux","password":true,"vac":true,"version":"7757534","steam_id":85568392925397851,"keywords":["cp","nocrits","nodmgspread","uncletopia"],"game_id":440,"stv_port":27026,"stv_name":"Uncletopia | Warsaw | 2 | All Maps | STV","players":null},{"server_id":51,"name":"Uncletopia | Warsaw | 3 | All Maps","name_short":"waw-3","host":"waw-1.pl.uncletopia.com","port":27035,"enabled":true,"region":"eu","cc":"pl","latitude":52.2297,"longitude":21.017532,"reserved":0,"last_update":"0001-01-01T00:00:00Z","name_a2s":"Uncletopia | Warsaw | 3 | All Maps","protocol":17,"map":"pl_pier","folder":"tf","game":"Team Fortress","app_id":440,"player_count":0,"max_players":24,"Bots":0,"server_type":"Dedicated","server_os":"Linux","password":true,"vac":true,"version":"7757534","steam_id":85568392925397852,"keywords":["nocrits","nodmgspread","payload","uncletopia"],"game_id":440,"stv_port":27036,"stv_name":"Uncletopia | Warsaw | 3 | All Maps | STV","players":null},{"server_id":52,"name":"Uncletopia | Warsaw | 4 | All Maps","name_short":"waw-4","host":"waw-1.pl.uncletopia.com","port":27045,"enabled":true,"region":"eu","cc":"pl","latitude":52.2297,"longitude":21.017532,"reserved":0,"last_update":"0001-01-01T00:00:00Z","name_a2s":"Uncletopia | Warsaw | 4 | All Maps","protocol":17,"map":"koth_cascade","folder":"tf","game":"Team Fortress","app_id":440,"player_count":0,"max_players":24,"Bots":0,"server_type":"Dedicated","server_os":"Linux","password":true,"vac":true,"version":"7757534","steam_id":85568392925397853,"keywords":["cp","nocrits","nodmgspread","uncletopia"],"game_id":440,"stv_port":27046,"stv_name":"Uncletopia | Warsaw | 4 | All Maps | STV","players":null},{"server_id":53,"name":"Uncletopia | Warsaw | 5 | Stopwatch Beta","name_short":"waw-5","host":"waw-1.pl.uncletopia.com","port":27055,"enabled":true,"region":"eu","cc":"pl","latitude":52.2297,"longitude":21.017532,"reserved":0,"last_update":"0001-01-01T00:00:00Z","name_a2s":"Uncletopia | Warsaw | 5 | Stopwatch Beta","protocol":17,"map":"pl_upward","folder":"tf","game":"Team Fortress","app_id":440,"player_count":0,"max_players":24,"Bots":0,"server_type":"Dedicated","server_os":"Linux","password":true,"vac":true,"version":"7757534","steam_id":85568392925397854,"keywords":["nocrits","nodmgspread","payload","uncletopia"],"game_id":440,"stv_port":27056,"stv_name":"Uncletopia | Warsaw | 5 | Stopwatch Beta | STV","players":null},{"server_id":54,"name":"Uncletopia | Warsaw | 6 | Community","name_short":"waw-6","host":"waw-1.pl.uncletopia.com","port":27065,"enabled":true,"region":"eu","cc":"pl","latitude":52.2297,"longitude":21.017532,"reserved":0,"last_update":"0001-01-01T00:00:00Z","name_a2s":"Uncletopia | Warsaw | 6 | Community","protocol":17,"map":"workshop/koth_bagel_rc5.ugc2514036946","folder":"tf","game":"Team Fortress","app_id":440,"player_count":0,"max_players":24,"Bots":0,"server_type":"Dedicated","server_os":"Linux","password":true,"vac":true,"version":"7757534","steam_id":85568392925397856,"keywords":["cp","nocrits","nodmgspread","uncletopia"],"game_id":440,"stv_port":27066,"stv_name":"Uncletopia | Warsaw | 6 | Community | STV","players":null}]}