{"status":true,"message":"","result":[{"server_id":9,"name":"Uncletopia | Atlanta | 1 | All Maps","name_short":"atl-1","host":"atl-1.us.uncletopia.com","port":27015,"enabled":true,"region":"us-east","cc":"us","latitude":33.753746,"longitude":-84.38633,"reserved":0,"last_update":"0001-01-01T00:00:00Z","name_a2s":"Uncletopia | Atlanta | 1 | All Maps","protocol":17,"map":"pl_badwater","folder":"tf","game":"Team Fortress","app_id":440,"player_count":23,"max_players":24,"Bots":0,"server_type":"Dedicated","server_os":"Linux","password":true,"vac":true,"version":"7757534","steam_id":85568392924469982,"keywords":["nocrits","nodmgspread","payload","uncletopia"],"game_id":440,"stv_port":27016,"stv_name":"Uncletopia | Atlanta | 1 | All Maps | STV","players":[{"user_id":204,"name":"Infinity","steam_id":76561199134919099,"connected_time":1046000000000,"state":"active","ping":72},{"user_id":207,"name":"ATL1 | Pango","steam_id":76561198069811545,"connected_time":430000000000,"state":"active","ping":45},{"user_id":167,"name":"-W3E- grim10465","steam_id":76561198045698581,"connected_time":2933000000000,"state":"active","ping":46},{"user_id":155,"name":"floofy","steam_id":76561198389769098,"connected_time":4964000000000,"state":"active","ping":86},{"user_id":109,"name":"ratie","steam_id":76561198059399661,"connected_time":9101000000000,"state":"active","ping":89},{"user_id":209,"name":"Lilith","steam_id":76561198125102885,"connected_time":15000000000,"state":"active","ping":63},{"user_id":205,"name":"herb","steam_id":76561198185980055,"connected_time":1010000000000,"state":"active","ping":95},{"user_id":208,"name":"luxin","steam_id":76561198399383047,"connected_time":159000000000,"state":"active","ping":50},{"user_id":156,"name":"Skinny Pete","steam_id":76561198801608576,"connected_time":4951000000000,"state":"active","ping":71},{"user_id":149,"name":"pelt","steam_id":76561197993593754,"connected_time":5752000000000,"state":"active","ping":63},{"user_id":158,"name":"üÖúüÖîüÖîüÖöüÖ¢üÖ£üÖî\ufffd\ufffd\ufffd","steam_id":76561197999748343,"connected_time":4455000000000,"state":"active","ping":56},{"user_id":163,"name":"Just PYE","steam_id":76561199439622967,"connected_time":3824000000000,"state":"active","ping":76},{"user_id":185,"name":"TheTruthOfTheCessationOfDukkha","steam_id":76561198214370515,"connected_time":2036000000000,"state":"active","ping":68},{"user_id":193,"name":"Local Talent","steam_id":76561199053290637,"connected_time":1389000000000,"state":"active","ping":63},{"user_id":196,"name":"Nightingale von Carstein","steam_id":76561198382793308,"connected_time":1293000000000,"state":"active","ping":81},{"user_id":197,"name":"Spookskeppnook","steam_id":76561199216336545,"connected_time":1279000000000,"state":"active","ping":82},{"user_id":189,"name":"The Colonel","steam_id":76561198004147927,"connected_time":1602000000000,"state":"active","ping":73},{"user_id":198,"name":"northstar","steam_id":76561199148544932,"connected_time":1272000000000,"state":"active","ping":91},{"user_id":206,"name":"Carnold","steam_id":76561198163819918,"connected_time":476000000000,"state":"active","ping":58},{"user_id":180,"name":"Mug","steam_id":76561199282207802,"connected_time":2589000000000,"state":"active","ping":78},{"user_id":201,"name":"radiation","steam_id":76561198001157602,"connected_time":1236000000000,"state":"active","ping":54},{"user_id":179,"name":"FemboyNate","steam_id":76561198146636410,"connected_time":2620000000000,"state":"active","ping":56},{"user_id":202,"name":"Oopsie Daisy ‚ùã","steam_id":76561198042144492,"connected_time":1230000000000,"state":"active","ping":56}]},{"server_id":400,"name":"Uncletopia | Atlanta | 3 | Community","name_short":"atl-3","host":"atl-1.us.uncletopia.com","port":27035,"enabled":true,"region":"us-east","cc":"us","latitude":33.753746,"longitude":-84.38633,"reserved":0,"last_update":"0001-01-01T00:00:00Z","name_a2s":"Uncletopia | Atlanta | 3 | Community","protocol":17,"map":"workshop/cp_glacier_rc6.ugc2905735376","folder":"tf","game":"Team Fortress","app_id":440,"player_count":0,"max_players":24,"Bots":0,"server_type":"Dedicated","server_os":"Linux","password":true,"vac":true,"version":"7757534","steam_id":85568392924515187,"keywords":["cp","nocrits","nodmgspread","uncletopia"],"game_id":440,"stv_port":27036,"stv_name":"Uncletopia | Atlanta | 3 | Community | STV","players":null},{"server_id":401,"name":"Uncletopia | Atlanta | 4 | No Payload","name_short":"atl-4","host":"atl-1.us.uncletopia.com","port":27045,"enabled":true,"region":"us-east","cc":"us","latitude":33.753746,"longitude":-84.38633,"reserved":0,"last_update":"0001-01-01T00:00:00Z","name_a2s":"","protocol":0,"map":"","folder":"","game":"","app_id":0,"player_count":0,"max_players":0,"Bots":0,"server_type":"","server_os":"","password":false,"vac":false,"version":"","steam_id":0,"keywords":null,"game_id":0,"stv_port":0,"stv_name":"","players":null},{"server_id":2,"name":"Uncletopia | Chicago | 1 | All Maps","name_short":"chi-1","host":"chi-1.us.uncletopia.com","port":27015,"enabled":true,"region":"us-central","cc":"us","latitude":41.881832,"longitude":-87.62318,"reserved":0,"last_update":"0001-01-01T00:00:00Z","name_a2s":"Uncletopia | Chicago | 1 | All Maps","protocol":17,"map":"pl_borneo","folder":"tf","game":"Team Fortress","app_id":440,"player_count":24,"max_players":24,"Bots":0,"server_type":"Dedicated","server_os":"Linux","password":true,"vac":true,"version":"7757534","steam_id":85568392924469984,"keywords":["nocrits","nodmgspread","payload","uncletopia"],"game_id":440,"stv_port":27016,"stv_name":"Uncletopia | Chicago | 1 | All Maps | STV","players":[{"user_id":455,"name":"SHAZBOT","steam_id":76561198068536790,"connected_time":2579000000000,"state":"active","ping":56},{"user_id":478,"name":"hummus in my tummus","steam_id":76561199438698036,"connected_time":427000000000,"state":"active","ping":68},{"user_id":465,"name":"Spoon ¬Ω","steam_id":76561198032696548,"connected_time":1385000000000,"state":"active","ping":150},{"user_id":434,"name":"DocLucky","steam_id":76561199093899249,"connected_time":3748000000000,"state":"active","ping":162},{"user_id":469,"name":"jimbo","steam_id":76561198046059770,"connected_time":1140000000000,"state":"active","ping":66},{"user_id":447,"name":"recycle","steam_id":76561198819562111,"connected_time":3337000000000,"state":"active","ping":69},{"user_id":475,"name":"Sham Cow","steam_id":76561198064556977,"connected_time":958000000000,"state":"active","ping":90},{"user_id":449,"name":"Astoriae!","steam_id":76561199090168858,"connected_time":3171000000000,"state":"active","ping":67},{"user_id":387,"name":"chaos","steam_id":76561198055462404,"connected_time":8013000000000,"state":"active","ping":83},{"user_id":458,"name":"Wonko the Sober","steam_id":76561198009744133,"connected_time":2379000000000,"state":"active","ping":55},{"user_id":450,"name":"ashea =w=","steam_id":76561198082293288,"connected_time":3005000000000,"state":"active","ping":50},{"user_id":466,"name":"Toaster Bog","steam_id":76561198861642036,"connected_time":1303000000000,"state":"active","ping":117},{"user_id":435,"name":"blob","steam_id":76561198122375328,"connected_time":3746000000000,"state":"active","ping":67},{"user_id":470,"name":"CVS Louis","steam_id":76561198183468858,"connected_time":1125000000000,"state":"active","ping":69},{"user_id":459,"name":"beta central","steam_id":76561198301876831,"connected_time":2215000000000,"state":"active","ping":55},{"user_id":472,"name":"Kartyac","steam_id":76561197991069005,"connected_time":1070000000000,"state":"active","ping":77},{"user_id":432,"name":"Pourpel","steam_id":76561198059125470,"connected_time":3834000000000,"state":"active","ping":69},{"user_id":473,"name":"cirno","steam_id":76561198166081596,"connected_time":1044000000000,"state":"active","ping":104},{"user_id":476,"name":"Near","steam_id":76561199196342720,"connected_time":827000000000,"state":"active","ping":66},{"user_id":407,"name":"the lesbianist pyroshark","steam_id":76561198374227766,"connected_time":6574000000000,"state":"active","ping":70},{"user_id":477,"name":"Pretty Boy Swag","steam_id":76561198083463877,"connected_time":532000000000,"state":"active","ping":57},{"user_id":421,"name":"thatguy_luigi","steam_id":76561198968055462,"connected_time":5726000000000,"state":"active","ping":74},{"user_id":460,"name":"wheres my drink?","steam_id":76561198031675881,"connected_time":2210000000000,"state":"active","ping":64},{"user_id":480,"name":"wokky bin laddn","steam_id":76561198265200834,"connected_time":215000000000,"state":"active","ping":70}]},{"server_id":106,"name":"Uncletopia | Chicago | 2 | All Maps","name_short":"chi-2","host":"chi-1.us.uncletopia.com","port":27025,"enabled":true,"region":"us-central","cc":"us","latitude":41.881832,"longitude":-87.62318,"reserved":0,"last_update":"0001-01-01T00:00:00Z","name_a2s":"Uncletopia | Chicago | 2 | All Maps","protocol":17,"map":"koth_viaduct","folder":"tf","game":"Team Fortress","app_id":440,"player_count":25,"max_players":24,"Bots":0,"server_type":"Dedicated","server_os":"Linux","password":true,"vac":true,"version":"7757534","steam_id":85568392924469985,"keywords":["cp","nocrits","nodmgspread","uncletopia"],"game_id":440,"stv_port":27026,"stv_name":"Uncletopia | Chicago | 2 | All Maps | STV","players":[{"user_id":310,"name":"nerddorkgeek","steam_id":76561198043766217,"connected_time":1376000000000,"state":"active","ping":63},{"user_id":319,"name":"Œõnthony","steam_id":76561198062533005,"connected_time":508000000000,"state":"active","ping":86},{"user_id":321,"name":"Steven Minecraft","steam_id":76561198060072829,"connected_time":144000000000,"state":"connecting","ping":0},{"user_id":306,"name":"upside down cat","steam_id":76561198028288349,"connected_time":1645000000000,"state":"active","ping":85},{"user_id":301,"name":"CeigeBirb","steam_id":76561198068538473,"connected_time":1867000000000,"state":"active","ping":76},{"user_id":316,"name":"TimTam Tom's Birthday","steam_id":76561198045988062,"connected_time":808000000000,"state":"active","ping":74},{"user_id":317,"name":"go big or go gnome","steam_id":76561199075099223,"connected_time":788000000000,"state":"active","ping":99},{"user_id":305,"name":"Sergeant Joker #savetf2","steam_id":76561198854616604,"connected_time":1733000000000,"state":"active","ping":63},{"user_id":302,"name":"Errrmmett","steam_id":76561198041314051,"connected_time":1856000000000,"state":"active","ping":74},{"user_id":278,"name":"Admiral Crumbs","steam_id":76561198108791583,"connected_time":3518000000000,"state":"active","ping":63},{"user_id":308,"name":"Stormz64","steam_id":76561198239036482,"connected_time":1635000000000,"state":"active","ping":53},{"user_id":290,"name":"Foreskin Reattachment service","steam_id":76561198060342804,"connected_time":2644000000000,"state":"active","ping":81},{"user_id":314,"name":"StarCopper","steam_id":76561198024890295,"connected_time":844000000000,"state":"active","ping":86},{"user_id":320,"name":"oddlyobtuselemon1654","steam_id":76561198877069773,"connected_time":505000000000,"state":"active","ping":86},{"user_id":281,"name":"ApertureCity","steam_id":76561198004153607,"connected_time":3418000000000,"state":"active","ping":84},{"user_id":313,"name":"BeeMoe","steam_id":76561198002100697,"connected_time":1237000000000,"state":"active","ping":58},{"user_id":309,"name":"Plain Toast","steam_id":76561198451580251,"connected_time":1589000000000,"state":"active","ping":80},{"user_id":257,"name":"suckmycock47","steam_id":76561198063099828,"connected_time":4754000000000,"state":"active","ping":54},{"user_id":263,"name":"TimeCalm","steam_id":76561197991345488,"connected_time":4336000000000,"state":"active","ping":76},{"user_id":282,"name":"gretchling","steam_id":76561198046111695,"connected_time":3415000000000,"state":"active","ping":56},{"user_id":318,"name":"CopperBox","steam_id":76561198068217248,"connected_time":776000000000,"state":"active","ping":95},{"user_id":315,"name":"Fobby #Savetf2","steam_id":76561198047681469,"connected_time":840000000000,"state":"active","ping":69},{"user_id":300,"name":"Solid Snake","steam_id":76561198190077399,"connected_time":2064000000000,"state":"active","ping":59},{"user_id":148,"name":"Ringo x Seiran","steam_id":76561198357437908,"connected_time":13054000000000,"state":"active","ping":62},{"user_id":322,"name":"alolan duntski","steam_id":76561198038826744,"connected_time":112000000000,"state":"active","ping":57}]},{"server_id":402,"name":"Uncletopia | Chicago | 3 | All Maps","name_short":"chi-3","host":"chi-1.us.uncletopia.com","port":27035,"enabled":true,"region":"us-central","cc":"us","latitude":41.881832,"longitude":-87.62318,"reserved":0,"last_update":"0001-01-01T00:00:00Z","name_a2s":"Uncletopia | Chicago | 3 | All Maps","protocol":17,"map":"pl_frontier_final","folder":"tf","game":"Team Fortress","app_id":440,"player_count":0,"max_players":24,"Bots":0,"server_type":"Dedicated","server_os":"Linux","password":true,"vac":true,"version":"7757534","steam_id":85568392924515191,"keywords":["nocrits","nodmgspread","payload","uncletopia"],"game_id":440,"stv_port":27036,"stv_name":"Uncletopia | Chicago | 3 | All Maps | STV","players":null},{"server_id":403,"name":"Uncletopia | Chicago | 4 | All Maps","name_short":"chi-4","host":"chi-1.us.uncletopia.com","port":27045,"enabled":true,"region":"us-central","cc":"us","latitude":41.881832,"longitude":-87.62318,"reserved":0,"last_update":"0001-01-01T00:00:00Z","name_a2s":"Uncletopia | Chicago | 4 | All Maps","protocol":17,"map":"koth_cascade","folder":"tf","game":"Team Fortress","app_id":440,"player_count":3,"max_players":24,"Bots":0,"server_type":"Dedicated","server_os":"Linux","password":true,"vac":true,"version":"7757534","steam_id":85568392924515193,"keywords":["cp","nocrits","nodmgspread","uncletopia"],"game_id":440,"stv_port":27046,"stv_name":"Uncletopia | Chicago | 4 | All Maps | STV","players":[{"user_id":10,"name":"Ask Nicely For Heals","steam_id":76561198138478907,"connected_time":343000000000,"state":"active","ping":57},{"user_id":14,"name":"SexySpectacles","steam_id":76561198211449103,"connected_time":38000000000,"state":"active","ping":54},{"user_id":13,"name":"KingCrawful","steam_id":76561198104291657,"connected_time":176000000000,"state":"active","ping":93}]},{"server_id":36,"name":"Uncletopia | Chicago | 5 | All Maps","name_short":"chi-5","host":"chi-2.us.uncletopia.com","port":27015,"enabled":true,"region":"us-central","cc":"us","latitude":41.881832,"longitude":-87.62318,"reserved":0,"last_update":"0001-01-01T00:00:00Z","name_a2s":"Uncletopia | Chicago | 5 | All Maps","protocol":17,"map":"pl_pier","folder":"tf","game":"Team Fortress","app_id":440,"player_count":24,"max_players":24,"Bots":0,"server_type":"Dedicated","server_os":"Linux","password":true,"vac":true,"version":"7757534","steam_id":85568392924866362,"keywords":["nocrits","nodmgspread","payload","uncletopia"],"game_id":440,"stv_port":27016,"stv_name":"Uncletopia | Chicago | 5 | All Maps | STV","players":[{"user_id":166,"name":"Liberty Launcher TF2","steam_id":76561198400058665,"connected_time":805000000000,"state":"active","ping":71},{"user_id":131,"name":"turd ferguson","steam_id":76561198071620782,"connected_time":2571000000000,"state":"active","ping":86},{"user_id":165,"name":"Huey","steam_id":76561198972816386,"connected_time":844000000000,"state":"active","ping":78},{"user_id":156,"name":"Scared Duck","steam_id":76561198081348409,"connected_time":1226000000000,"state":"active","ping":55},{"user_id":167,"name":"Krysys","steam_id":76561198059740403,"connected_time":781000000000,"state":"active","ping":60},{"user_id":139,"name":"the horse from schenectady?","steam_id":76561198142756572,"connected_time":2357000000000,"state":"active","ping":67},{"user_id":171,"name":"jorjor wells","steam_id":76561199073429082,"connected_time":529000000000,"state":"active","ping":62},{"user_id":140,"name":"crabapples","steam_id":76561198075818655,"connected_time":2344000000000,"state":"active","ping":57},{"user_id":141,"name":"O'brien","steam_id":76561198289339403,"connected_time":2192000000000,"state":"active","ping":90},{"user_id":162,"name":"Gravelord FreeToes","steam_id":76561198041740401,"connected_time":875000000000,"state":"active","ping":84},{"user_id":142,"name":"Transbian mommy GF","steam_id":76561198153233822,"connected_time":2190000000000,"state":"active","ping":64},{"user_id":144,"name":"Mogwr","steam_id":76561198124942972,"connected_time":2165000000000,"state":"active","ping":75},{"user_id":103,"name":"Enron Hubbard","steam_id":76561198012951411,"connected_time":5575000000000,"state":"active","ping":55},{"user_id":163,"name":"radiohead enjoyer","steam_id":76561198397662124,"connected_time":866000000000,"state":"active","ping":85},{"user_id":170,"name":"NovaSc6ut","steam_id":76561198277163301,"connected_time":607000000000,"state":"active","ping":70},{"user_id":147,"name":"[GUT] RiDiK¬Æ","steam_id":76561197969756446,"connected_time":2101000000000,"state":"active","ping":58},{"user_id":116,"name":"beE","steam_id":76561198122687173,"connected_time":4428000000000,"state":"active","ping":67},{"user_id":158,"name":"yeeye","steam_id":76561198094306054,"connected_time":941000000000,"state":"active","ping":75},{"user_id":169,"name":"Cerberus","steam_id":76561198025970306,"connected_time":736000000000,"state":"active","ping":77},{"user_id":151,"name":"General Jimbo","steam_id":76561198075426735,"connected_time":1883000000000,"state":"active","ping":83},{"user_id":160,"name":"Interrobang","steam_id":76561198385044529,"connected_time":900000000000,"state":"active","ping":149},{"user_id":153,"name":"LevelZ3R0","steam_id":76561199239710681,"connected_time":1856000000000,"state":"active","ping":98},{"user_id":157,"name":"NoahSherlock(wln.tf)","steam_id":76561199015641953,"connected_time":1078000000000,"state":"active","ping":142},{"user_id":161,"name":"Femboy Hooters","steam_id":76561198333128330,"connected_time":900000000000,"state":"active","ping":41}]},{"server_id":37,"name":"Uncletopia | Chicago | 6 | All Maps","name_short":"chi-6","host":"chi-2.us.uncletopia.com","port":27025,"enabled":true,"region":"us-central","cc":"us","latitude":41.881832,"longitude":-87.62318,"reserved":0,"last_update":"0001-01-01T00:00:00Z","name_a2s":"Uncletopia | Chicago | 6 | All Maps","protocol":17,"map":"cp_dustbowl","folder":"tf","game":"Team Fortress","app_id":440,"player_count":0,"max_players":24,"Bots":0,"server_type":"Dedicated","server_os":"Linux","password":true,"vac":true,"version":"7757534","steam_id":85568392924866363,"keywords":["cp","nocrits","nodmgspread","uncletopia"],"game_id":440,"stv_port":27026,"stv_name":"Uncletopia | Chicago | 6 | All Maps | STV","players":null},{"server_id":38,"name":"Uncletopia | Chicago | 7 | Stopwatch Beta","name_short":"chi-7","host":"chi-2.us.uncletopia.com","port":27035,"enabled":true,"region":"us-central","cc":"us","latitude":41.881832,"longitude":-87.62318,"reserved":0,"last_update":"0001-01-01T00:00:00Z","name_a2s":"Uncletopia | Chicago | 7 | Stopwatch Beta","protocol":17,"map":"koth_viaduct","folder":"tf","game":"Team Fortress","app_id":440,"player_count":0,"max_players":24,"Bots":0,"server_type":"Dedicated","server_os":"Linux","password":true,"vac":true,"version":"7757534","steam_id":85568392924866364,"keywords":["cp","nocrits","nodmgspread","uncletopia"],"game_id":440,"stv_port":27036,"stv_name":"Uncletopia | Chicago | 7 | Stopwatch Beta | STV","players":null},{"server_id":39,"name":"Uncletopia | Chicago | 8 | Community","name_short":"chi-8","host":"chi-2.us.uncletopia.com","port":27045,"enabled":true,"region":"us-central","cc":"us","latitude":41.881832,"longitude":-87.62318,"reserved":0,"last_update":"0001-01-01T00:00:00Z","name_a2s":"Uncletopia | Chicago | 8 | Community","protocol":17,"map":"koth_lakeside_final","folder":"tf","game":"Team Fortress","app_id":440,"player_count":0,"max_players":24,"Bots":0,"server_type":"Dedicated","server_os":"Linux","password":true,"vac":true,"version":"7757534","steam_id":85568392924866365,"keywords":["cp","nocrits","nodmgspread","uncletopia"],"game_id":440,"stv_port":27046,"stv_name":"Uncletopia | Chicago | 8 | Community | STV","players":null},{"server_id":8,"name":"Uncletopia | Dallas | 1 | All Maps","name_short":"dal-1","host":"dal-1.us.uncletopia.com","port":27015,"enabled":true,"region":"us-central","cc":"us","latitude":32.779167,"longitude":-96.80889,"reserved":0,"last_update":"0001-01-01T00:00:00Z","name_a2s":"Uncletopia | Dallas | 1 | All Maps","protocol":17,"map":"pl_swiftwater_final1","folder":"tf","game":"Team Fortress","app_id":440,"player_count":22,"max_players":24,"Bots":0,"server_type":"Dedicated","server_os":"Linux","password":true,"vac":true,"version":"7757534","steam_id":85568392924469986,"keywords":["nocrits","nodmgspread","payload","uncletopia"],"game_id":440,"stv_port":27016,"stv_name":"Uncletopia | Dallas | 1 | All Maps | STV","players":[{"user_id":185,"name":"watchfull","steam_id":76561198433266742,"connected_time":859000000000,"state":"active","ping":91},{"user_id":148,"name":"Indicative","steam_id":76561199076612537,"connected_time":2935000000000,"state":"active","ping":59},{"user_id":150,"name":"Sup m8","steam_id":76561198081659121,"connected_time":2722000000000,"state":"active","ping":37},{"user_id":173,"name":"President Mocha","steam_id":76561198072769262,"connected_time":1650000000000,"state":"active","ping":60},{"user_id":186,"name":"Shinies","steam_id":76561198169459631,"connected_time":748000000000,"state":"active","ping":45},{"user_id":27,"name":"Lolxdloldx","steam_id":76561198136887125,"connected_time":12616000000000,"state":"active","ping":78},{"user_id":187,"name":"Jaydyn","steam_id":76561198140326797,"connected_time":727000000000,"state":"active","ping":95},{"user_id":180,"name":"The Horseless Headless Horseman","steam_id":76561198384098648,"connected_time":1339000000000,"state":"active","ping":78},{"user_id":189,"name":"Rick O'Connell","steam_id":76561198140709878,"connected_time":694000000000,"state":"active","ping":122},{"user_id":160,"name":"laszlo","steam_id":76561198141198352,"connected_time":2162000000000,"state":"active","ping":61},{"user_id":175,"name":"Alkimia","steam_id":76561198385763137,"connected_time":1562000000000,"state":"active","ping":115},{"user_id":162,"name":"a Salty Individual","steam_id":76561197979951077,"connected_time":2117000000000,"state":"active","ping":134},{"user_id":196,"name":"ic","steam_id":76561198009288860,"connected_time":129000000000,"state":"active","ping":105},{"user_id":195,"name":"bendera","steam_id":76561197965486503,"connected_time":222000000000,"state":"active","ping":87},{"user_id":192,"name":"heimdall","steam_id":76561198069380992,"connected_time":556000000000,"state":"active","ping":64},{"user_id":197,"name":"b I I G M A N","steam_id":76561198111147624,"connected_time":114000000000,"state":"active","ping":70},{"user_id":188,"name":"Klip","steam_id":76561198316254429,"connected_time":717000000000,"state":"active","ping":59},{"user_id":178,"name":"dad vibes","steam_id":76561197990714447,"connected_time":1485000000000,"state":"active","ping":52},{"user_id":198,"name":"A Space-Owl in a Windstorm","steam_id":76561198067827514,"connected_time":94000000000,"state":"active","ping":43},{"user_id":176,"name":"gun_slinger","steam_id":76561199052123458,"connected_time":1549000000000,"state":"active","ping":102},{"user_id":190,"name":"Indigolake","steam_id":76561198202215807,"connected_time":680000000000,"state":"active","ping":102},{"user_id":61,"name":"[√òWQJ√ò]chubacaalatake","steam_id":76561198136201697,"connected_time":10566000000000,"state":"active","ping":125}]},{"server_id":108,"name":"Uncletopia | Dallas | 2 | All Maps","name_short":"dal-2","host":"dal-1.us.uncletopia.com","port":27025,"enabled":true,"region":"us-central","cc":"us","latitude":32.779167,"longitude":-96.80889,"reserved":0,"last_update":"0001-01-01T00:00:00Z","name_a2s":"Uncletopia | Dallas | 2 | All Maps","protocol":17,"map":"cp_altitude","folder":"tf","game":"Team Fortress","app_id":440,"player_count":20,"max_players":24,"Bots":0,"server_type":"Dedicated","server_os":"Linux","password":true,"vac":true,"version":"7757534","steam_id":85568392924469988,"keywords":["cp","nocrits","nodmgspread","uncletopia"],"game_id":440,"stv_port":27026,"stv_name":"Uncletopia | Dallas | 2 | All Maps | STV","players":[{"user_id":19,"name":"uh_what?","steam_id":76561198885206263,"connected_time":495000000000,"state":"active","ping":70},{"user_id":8,"name":"Spha","steam_id":76561198796297800,"connected_time":1404000000000,"state":"active","ping":63},{"user_id":12,"name":"Gardvord","steam_id":76561198120715753,"connected_time":1022000000000,"state":"active","ping":174},{"user_id":10,"name":"b.net queue waiter","steam_id":76561197968787431,"connected_time":1320000000000,"state":"active","ping":108},{"user_id":11,"name":"Kayahdi","steam_id":76561198072500179,"connected_time":1218000000000,"state":"active","ping":82},{"user_id":34,"name":"Emu","steam_id":76561198004595048,"connected_time":3000000000,"state":"spawning","ping":92},{"user_id":14,"name":"Hollowoctopus","steam_id":76561198158453533,"connected_time":950000000000,"state":"active","ping":162},{"user_id":15,"name":"SquidFurBrains","steam_id":76561198293899688,"connected_time":883000000000,"state":"active","ping":91},{"user_id":16,"name":"vincentfo05","steam_id":76561198162580010,"connected_time":857000000000,"state":"active","ping":175},{"user_id":17,"name":"Yangjo","steam_id":76561198043593122,"connected_time":800000000000,"state":"active","ping":75},{"user_id":18,"name":"techturkey","steam_id":76561199154637989,"connected_time":706000000000,"state":"active","ping":97},{"user_id":25,"name":"Boysenberry Syrup","steam_id":76561198243582986,"connected_time":276000000000,"state":"active","ping":46},{"user_id":26,"name":"G.I.R","steam_id":76561198829130492,"connected_time":242000000000,"state":"active","ping":80},{"user_id":27,"name":"Aspiradora56","steam_id":76561198365850712,"connected_time":235000000000,"state":"active","ping":173},{"user_id":24,"name":"Elvis Depressedly","steam_id":76561198943694656,"connected_time":309000000000,"state":"active","ping":102},{"user_id":28,"name":"TF2SuperFanandOtherGamesEnjoyer","steam_id":76561199122470298,"connected_time":144000000000,"state":"active","ping":97},{"user_id":29,"name":"McSmitten","steam_id":76561198022358379,"connected_time":143000000000,"state":"active","ping":73},{"user_id":31,"name":"Dad","steam_id":76561199091290729,"connected_time":63000000000,"state":"active","ping":64},{"user_id":32,"name":"Vorg","steam_id":76561198271959087,"connected_time":49000000000,"state":"spawning","ping":47},{"user_id":33,"name":"Pie","steam_id":76561198009460548,"connected_time":42000000000,"state":"active","ping":72}]},{"server_id":5,"name":"Uncletopia | Frankfurt | 1 | All Maps","name_short":"frk-1","host":"frk-1.de.uncletopia.com","port":27015,"enabled":true,"region":"eu","cc":"de","latitude":50.110924,"longitude":8.682127,"reserved":0,"last_update":"0001-01-01T00:00:00Z","name_a2s":"Uncletopia | Frankfurt | 1 | All Maps","protocol":17,"map":"pl_snowycoast","folder":"tf","game":"Team Fortress","app_id":440,"player_count":22,"max_players":24,"Bots":0,"server_type":"Dedicated","server_os":"Linux","password":true,"vac":true,"version":"7757534","steam_id":85568392924469989,"keywords":["nocrits","nodmgspread","payload","uncletopia"],"game_id":440,"stv_port":27016,"stv_name":"Uncletopia | Frankfurt | 1 | All Maps | STV","players":[{"user_id":583,"name":"CrazyEarth","steam_id":76561198101745576,"connected_time":1749000000000,"state":"active","ping":68},{"user_id":594,"name":"tricycle rollout","steam_id":76561198074917015,"connected_time":958000000000,"state":"active","ping":70},{"user_id":554,"name":"Kepucz","steam_id":76561197977634244,"connected_time":3452000000000,"state":"active","ping":60},{"user_id":497,"name":"rizook","steam_id":76561198055010039,"connected_time":8576000000000,"state":"active","ping":63},{"user_id":576,"name":"unscrupulous white male","steam_id":76561198081559669,"connected_time":1998000000000,"state":"active","ping":79},{"user_id":607,"name":"bruh","steam_id":76561197993922244,"connected_time":398000000000,"state":"active","ping":45},{"user_id":584,"name":"SpeedyBoy","steam_id":76561199222795521,"connected_time":1722000000000,"state":"active","ping":86},{"user_id":574,"name":"Klumz","steam_id":76561198045750180,"connected_time":2156000000000,"state":"active","ping":88},{"user_id":549,"name":"SkaaQ","steam_id":76561197977463022,"connected_time":3668000000000,"state":"active","ping":55},{"user_id":608,"name":"blackhippie.","steam_id":76561198026148048,"connected_time":388000000000,"state":"active","ping":75},{"user_id":577,"name":"Healix","steam_id":76561198130270161,"connected_time":1989000000000,"state":"active","ping":53},{"user_id":514,"name":"Kylul_","steam_id":76561198042981061,"connected_time":6533000000000,"state":"active","ping":45},{"user_id":609,"name":"I have no path in life","steam_id":76561198418538887,"connected_time":332000000000,"state":"active","ping":96},{"user_id":593,"name":"Pancake lover","steam_id":76561199137392321,"connected_time":1055000000000,"state":"active","ping":45},{"user_id":604,"name":"jerf","steam_id":76561199213901239,"connected_time":775000000000,"state":"active","ping":60},{"user_id":597,"name":"luma","steam_id":76561198081649669,"connected_time":897000000000,"state":"active","ping":63},{"user_id":567,"name":"Lewylow","steam_id":76561198005425686,"connected_time":2791000000000,"state":"active","ping":74},{"user_id":606,"name":"reichwald","steam_id":76561198118412910,"connected_time":488000000000,"state":"active","ping":184},{"user_id":612,"name":"Painkiller (real)‚òë","steam_id":76561199036837091,"connected_time":172000000000,"state":"active","ping":81},{"user_id":600,"name":"Antimation","steam_id":76561198125649544,"connected_time":861000000000,"state":"active","ping":61},{"user_id":589,"name":"Dark_Prelate","steam_id":76561199065671442,"connected_time":1572000000000,"state":"active","ping":50},{"user_id":605,"name":"jt7","steam_id":76561198073655162,"connected_time":738000000000,"state":"active","ping":70}]},{"server_id":110,"name":"Uncletopia | Frankfurt | 2 | All Maps","name_short":"frk-2","host":"frk-1.de.uncletopia.com","port":27025,"enabled":true,"region":"eu","cc":"de","latitude":50.110924,"longitude":8.682127,"reserved":0,"last_update":"0001-01-01T00:00:00Z","name_a2s":"Uncletopia | Frankfurt | 2 | All Maps","protocol":17,"map":"koth_suijin","folder":"tf","game":"Team Fortress","app_id":440,"player_count":21,"max_players":24,"Bots":0,"server_type":"Dedicated","server_os":"Linux","password":true,"vac":true,"version":"7757534","steam_id":85568392924469990,"keywords":["cp","nocrits","nodmgspread","uncletopia"],"game_id":440,"stv_port":27026,"stv_name":"Uncletopia | Frankfurt | 2 | All Maps | STV","players":[{"user_id":501,"name":"hovietchil","steam_id":76561198880622567,"connected_time":490000000000,"state":"active","ping":186},{"user_id":475,"name":"Forgotten Weapons","steam_id":76561198047955867,"connected_time":1901000000000,"state":"active","ping":112},{"user_id":488,"name":"R","steam_id":76561199379233899,"connected_time":1542000000000,"state":"active","ping":90},{"user_id":470,"name":"DeCypher [She/Her]","steam_id":76561198171992619,"connected_time":2559000000000,"state":"active","ping":64},{"user_id":468,"name":"reik","steam_id":76561198075239099,"connected_time":2728000000000,"state":"active","ping":67},{"user_id":498,"name":"Radegast the Brown","steam_id":76561198075489505,"connected_time":713000000000,"state":"active","ping":61},{"user_id":502,"name":"Sploogal","steam_id":76561198112789615,"connected_time":459000000000,"state":"active","ping":59},{"user_id":503,"name":"NhouBrane","steam_id":76561198293577735,"connected_time":452000000000,"state":"active","ping":63},{"user_id":504,"name":"Arx","steam_id":76561198182901217,"connected_time":263000000000,"state":"active","ping":106},{"user_id":416,"name":"the","steam_id":76561198293567489,"connected_time":5815000000000,"state":"active","ping":70},{"user_id":479,"name":"Deva Path","steam_id":76561198085763542,"connected_time":1785000000000,"state":"active","ping":72},{"user_id":418,"name":"ldshwt","steam_id":76561198090364357,"connected_time":5771000000000,"state":"active","ping":45},{"user_id":507,"name":"John Salad","steam_id":76561198240372376,"connected_time":196000000000,"state":"active","ping":91},{"user_id":505,"name":"jtchil","steam_id":76561199122144404,"connected_time":255000000000,"state":"active","ping":179},{"user_id":506,"name":"Yami","steam_id":76561198274052936,"connected_time":249000000000,"state":"active","ping":114},{"user_id":423,"name":"Slice :)","steam_id":76561198081699492,"connected_time":5746000000000,"state":"active","ping":65},{"user_id":508,"name":"Ixsus\u003c3","steam_id":76561198094756869,"connected_time":179000000000,"state":"active","ping":57},{"user_id":509,"name":"Cod","steam_id":76561198087848782,"connected_time":171000000000,"state":"active","ping":188},{"user_id":511,"name":"tank","steam_id":76561198068027379,"connected_time":68000000000,"state":"active","ping":69},{"user_id":512,"name":"dAg","steam_id":76561198047819527,"connected_time":19000000000,"state":"active","ping":102},{"user_id":496,"name":"minespweper","steam_id":76561199096919345,"connected_time":943000000000,"state":"active","ping":74}]},{"server_id":308,"name":"Uncletopia | Frankfurt | 3 | All Maps","name_short":"frk-3","host":"frk-1.de.uncletopia.com","port":27035,"enabled":true,"region":"eu","cc":"de","latitude":50.110924,"longitude":8.682127,"reserved":0,"last_update":"0001-01-01T00:00:00Z","name_a2s":"Uncletopia | Frankfurt | 3 | All Maps","protocol":17,"map":"pl_snowycoast","folder":"tf","game":"Team Fortress","app_id":440,"player_count":24,"max_players":24,"Bots":0,"server_type":"Dedicated","server_os":"Linux","password":true,"vac":true,"version":"7757534","steam_id":85568392924504274,"keywords":["nocrits","nodmgspread","payload","uncletopia"],"game_id":440,"stv_port":27036,"stv_name":"Uncletopia | Frankfurt | 3 | All Maps | STV","players":[{"user_id":291,"name":"Staffy","steam_id":76561198859722036,"connected_time":1191000000000,"state":"active","ping":97},{"user_id":302,"name":"KittyKate ‚ù§","steam_id":76561198116340817,"connected_time":776000000000,"state":"active","ping":61},{"user_id":311,"name":"S4mura!","steam_id":76561198374412262,"connected_time":360000000000,"state":"active","ping":72},{"user_id":286,"name":"the foe","steam_id":76561198065743977,"connected_time":1256000000000,"state":"active","ping":58},{"user_id":306,"name":"jameso","steam_id":76561198064042970,"connected_time":669000000000,"state":"active","ping":69},{"user_id":274,"name":"lemao","steam_id":76561198058366676,"connected_time":2888000000000,"state":"active","ping":89},{"user_id":279,"name":"Frog","steam_id":76561198034348966,"connected_time":2056000000000,"state":"active","ping":74},{"user_id":288,"name":"tralalaOuiOui","steam_id":76561197963471507,"connected_time":1221000000000,"state":"active","ping":47},{"user_id":303,"name":"Lessoz","steam_id":76561199211572036,"connected_time":713000000000,"state":"active","ping":93},{"user_id":272,"name":"Borat","steam_id":76561198122226417,"connected_time":2937000000000,"state":"active","ping":51},{"user_id":315,"name":"SoggyMuffins","steam_id":76561199298434024,"connected_time":87000000000,"state":"active","ping":164},{"user_id":316,"name":"Markus R√ºhl","steam_id":76561198074899144,"connected_time":66000000000,"state":"active","ping":53},{"user_id":314,"name":"galaxy","steam_id":76561198164819022,"connected_time":112000000000,"state":"active","ping":61},{"user_id":308,"name":"Cane","steam_id":76561197976831215,"connected_time":527000000000,"state":"active","ping":92},{"user_id":293,"name":"yyny","steam_id":76561198066287297,"connected_time":1169000000000,"state":"active","ping":45},{"user_id":309,"name":"click1634","steam_id":76561198058936016,"connected_time":491000000000,"state":"active","ping":61},{"user_id":317,"name":".bRdyyy","steam_id":76561198057256978,"connected_time":64000000000,"state":"active","ping":48},{"user_id":304,"name":"loUBotiüê∞","steam_id":76561198013987633,"connected_time":703000000000,"state":"active","ping":60},{"user_id":238,"name":"ChickyCoop","steam_id":76561199072983488,"connected_time":5368000000000,"state":"active","ping":79},{"user_id":296,"name":"KingofCubes","steam_id":76561198258037513,"connected_time":1066000000000,"state":"active","ping":76},{"user_id":298,"name":"tired","steam_id":76561198046838168,"connected_time":931000000000,"state":"active","ping":45},{"user_id":312,"name":"Wc Biere","steam_id":76561198200886539,"connected_time":339000000000,"state":"active","ping":113},{"user_id":318,"name":"sork","steam_id":76561198082446459,"connected_time":48000000000,"state":"active","ping":68},{"user_id":301,"name":"Zombi3","steam_id":76561198326290621,"connected_time":916000000000,"state":"active","ping":74}]},{"server_id":309,"name":"Uncletopia | Frankfurt | 4 | All Maps","name_short":"frk-4","host":"frk-1.de.uncletopia.com","port":27045,"enabled":true,"region":"eu","cc":"de","latitude":50.110924,"longitude":8.682127,"reserved":0,"last_update":"0001-01-01T00:00:00Z","name_a2s":"Uncletopia | Frankfurt | 4 | All Maps","protocol":17,"map":"pl_upward","folder":"tf","game":"Team Fortress","app_id":440,"player_count":23,"max_players":24,"Bots":0,"server_type":"Dedicated","server_os":"Linux","password":true,"vac":true,"version":"7757534","steam_id":85568392924504275,"keywords":["nocrits","nodmgspread","payload","uncletopia"],"game_id":440,"stv_port":27046,"stv_name":"Uncletopia | Frankfurt | 4 | All Maps | STV","players":[{"user_id":462,"name":"M1rkus","steam_id":76561198171215447,"connected_time":2173000000000,"state":"active","ping":86},{"user_id":483,"name":"mismatch","steam_id":76561198041993514,"connected_time":488000000000,"state":"active","ping":60},{"user_id":452,"name":"„É†GeRmAn |√óUA√ó„É†","steam_id":76561199044754898,"connected_time":2876000000000,"state":"active","ping":66},{"user_id":385,"name":"Yachox","steam_id":76561198158259745,"connected_time":9217000000000,"state":"active","ping":90},{"user_id":441,"name":"Homeless man with a home","steam_id":76561198274105878,"connected_time":4324000000000,"state":"active","ping":77},{"user_id":473,"name":"Udinese Dion","steam_id":76561198067931573,"connected_time":1113000000000,"state":"active","ping":38},{"user_id":490,"name":"Zank Frappa","steam_id":76561199227624104,"connected_time":39000000000,"state":"spawning","ping":44},{"user_id":475,"name":"GuSkand","steam_id":76561198043775605,"connected_time":722000000000,"state":"active","ping":85},{"user_id":348,"name":"rz-/Atomic Punch","steam_id":76561199195508541,"connected_time":10316000000000,"state":"active","ping":78},{"user_id":489,"name":"Thors","steam_id":76561197968739075,"connected_time":107000000000,"state":"active","ping":47},{"user_id":469,"name":"Hexagon","steam_id":76561198151205758,"connected_time":1425000000000,"state":"active","ping":50},{"user_id":449,"name":"Spajro","steam_id":76561198257383813,"connected_time":3458000000000,"state":"active","ping":50},{"user_id":447,"name":"Rat, the ungodly rat #SaveTF2","steam_id":76561199126577423,"connected_time":3745000000000,"state":"active","ping":67},{"user_id":484,"name":"donut capybara","steam_id":76561199151054645,"connected_time":431000000000,"state":"active","ping":98},{"user_id":488,"name":"Grumtsior","steam_id":76561198043563111,"connected_time":258000000000,"state":"active","ping":68},{"user_id":486,"name":"Guwop","steam_id":76561197970425737,"connected_time":386000000000,"state":"active","ping":171},{"user_id":478,"name":"‚ú™ m_br3","steam_id":76561198044981990,"connected_time":650000000000,"state":"active","ping":72},{"user_id":467,"name":"B ull","steam_id":76561199233979726,"connected_time":1917000000000,"state":"active","ping":87},{"user_id":479,"name":"rock the bottle MANN","steam_id":76561198241772340,"connected_time":606000000000,"state":"active","ping":97},{"user_id":487,"name":"Flex","steam_id":76561197970482191,"connected_time":350000000000,"state":"active","ping":38},{"user_id":480,"name":"Chikapu_Xek","steam_id":76561198428023493,"connected_time":594000000000,"state":"active","ping":77},{"user_id":482,"name":"Nimcike Senpai","steam_id":76561198418525039,"connected_time":575000000000,"state":"active","ping":89},{"user_id":470,"name":"Gabys","steam_id":76561198282892553,"connected_time":1398000000000,"state":"active","ping":75}]},{"server_id":310,"name":"Uncletopia | Frankfurt | 5 | All Maps","name_short":"frk-5","host":"frk-1.de.uncletopia.com","port":27055,"enabled":true,"region":"eu","cc":"de","latitude":50.110924,"longitude":8.682127,"reserved":0,"last_update":"0001-01-01T00:00:00Z","name_a2s":"Uncletopia | Frankfurt | 5 | All Maps","protocol":17,"map":"cp_process_final","folder":"tf","game":"Team Fortress","app_id":440,"player_count":24,"max_players":24,"Bots":0,"server_type":"Dedicated","server_os":"Linux","password":true,"vac":true,"version":"7757534","steam_id":85568392924504277,"keywords":["cp","nocrits","nodmgspread","uncletopia"],"game_id":440,"stv_port":27056,"stv_name":"Uncletopia | Frankfurt | 5 | All Maps | STV","players":[{"user_id":216,"name":"Reiyo the Interloper","steam_id":76561198155092485,"connected_time":5550000000000,"state":"active","ping":50},{"user_id":278,"name":"0Phill","steam_id":76561198399587139,"connected_time":661000000000,"state":"active","ping":59},{"user_id":273,"name":"Oppai","steam_id":76561199475745176,"connected_time":1231000000000,"state":"active","ping":61},{"user_id":279,"name":"Ghostler","steam_id":76561198008734235,"connected_time":632000000000,"state":"active","ping":47},{"user_id":217,"name":"fifamirek","steam_id":76561198160567190,"connected_time":5546000000000,"state":"active","ping":50},{"user_id":280,"name":"Dodoshka","steam_id":76561198093464840,"connected_time":627000000000,"state":"active","ping":95},{"user_id":287,"name":"BROOMSTER","steam_id":76561198344833818,"connected_time":442000000000,"state":"active","ping":83},{"user_id":276,"name":"MrBanana","steam_id":76561198116021623,"connected_time":725000000000,"state":"active","ping":47},{"user_id":282,"name":"Miedzan","steam_id":76561198405250516,"connected_time":570000000000,"state":"active","ping":71},{"user_id":162,"name":"jo bidn' | ETLARTORM","steam_id":76561198869576262,"connected_time":8995000000000,"state":"active","ping":104},{"user_id":277,"name":"possiblename","steam_id":76561199064350902,"connected_time":716000000000,"state":"active","ping":105},{"user_id":262,"name":"Mowelic","steam_id":76561198873641222,"connected_time":2098000000000,"state":"active","ping":87},{"user_id":283,"name":"Endsea","steam_id":76561198799107411,"connected_time":536000000000,"state":"active","ping":75},{"user_id":252,"name":"cat (they/them)","steam_id":76561198416657815,"connected_time":3143000000000,"state":"active","ping":85},{"user_id":284,"name":"Aaron Rodgers Gaming","steam_id":76561198394221491,"connected_time":523000000000,"state":"active","ping":60},{"user_id":264,"name":"syndenz","steam_id":76561198176063813,"connected_time":1917000000000,"state":"active","ping":61},{"user_id":249,"name":"KNARRER","steam_id":76561199130777953,"connected_time":3173000000000,"state":"active","ping":55},{"user_id":208,"name":"MEDiUM","steam_id":76561198112328561,"connected_time":6540000000000,"state":"active","ping":76},{"user_id":285,"name":"Layton","steam_id":76561198087221314,"connected_time":519000000000,"state":"active","ping":47},{"user_id":292,"name":"IKERIUS","steam_id":76561198274164589,"connected_time":185000000000,"state":"active","ping":78},{"user_id":270,"name":"ur weird, not me","steam_id":76561198808819694,"connected_time":1410000000000,"state":"active","ping":48},{"user_id":290,"name":"Setter Ball Gaul","steam_id":76561198130427881,"connected_time":266000000000,"state":"active","ping":164},{"user_id":291,"name":"ant753","steam_id":76561198103458889,"connected_time":215000000000,"state":"active","ping":67},{"user_id":257,"name":"Seeker","steam_id":76561198873052772,"connected_time":2772000000000,"state":"active","ping":66}]},{"server_id":311,"name":"Uncletopia | Frankfurt | 6 | All Maps","name_short":"frk-6","host":"frk-1.de.uncletopia.com","port":27065,"enabled":true,"region":"eu","cc":"de","latitude":50.110924,"longitude":8.682127,"reserved":0,"last_update":"0001-01-01T00:00:00Z","name_a2s":"Uncletopia | Frankfurt | 6 | All Maps","protocol":17,"map":"pl_upward","folder":"tf","game":"Team Fortress","app_id":440,"player_count":23,"max_players":24,"Bots":0,"server_type":"Dedicated","server_os":"Linux","password":true,"vac":true,"version":"7757534","steam_id":85568392924504278,"keywords":["nocrits","nodmgspread","payload","uncletopia"],"game_id":440,"stv_port":27066,"stv_name":"Uncletopia | Frankfurt | 6 | All Maps | STV","players":[{"user_id":495,"name":"Relix18144","steam_id":76561199202454318,"connected_time":2508000000000,"state":"active","ping":111},{"user_id":524,"name":"SeriousSam","steam_id":76561198390314734,"connected_time":428000000000,"state":"active","ping":63},{"user_id":476,"name":"JGV","steam_id":76561198094654971,"connected_time":3298000000000,"state":"active","ping":71},{"user_id":525,"name":"Darko","steam_id":76561198318825528,"connected_time":375000000000,"state":"active","ping":58},{"user_id":523,"name":"TryX","steam_id":76561199356781475,"connected_time":445000000000,"state":"active","ping":67},{"user_id":477,"name":"NoNutZ \u003c3","steam_id":76561198092500604,"connected_time":3290000000000,"state":"active","ping":80},{"user_id":511,"name":"jones","steam_id":76561198044434971,"connected_time":1757000000000,"state":"active","ping":60},{"user_id":526,"name":"Snapnix","steam_id":76561198107369567,"connected_time":276000000000,"state":"active","ping":70},{"user_id":496,"name":"Forgetful","steam_id":76561198147445965,"connected_time":2498000000000,"state":"active","ping":67},{"user_id":487,"name":"pogfish","steam_id":76561198061427584,"connected_time":2894000000000,"state":"active","ping":75},{"user_id":491,"name":"T K","steam_id":76561198134256917,"connected_time":2686000000000,"state":"active","ping":62},{"user_id":519,"name":"0","steam_id":76561198267909207,"connected_time":1348000000000,"state":"active","ping":79},{"user_id":516,"name":"Kateder","steam_id":76561198876802132,"connected_time":1401000000000,"state":"active","ping":55},{"user_id":513,"name":"Elon Ma","steam_id":76561199018053264,"connected_time":1695000000000,"state":"active","ping":72},{"user_id":527,"name":"joelttyjoel","steam_id":76561198035036816,"connected_time":244000000000,"state":"active","ping":74},{"user_id":530,"name":"Superconductors","steam_id":76561198014649013,"connected_time":194000000000,"state":"active","ping":80},{"user_id":528,"name":"‡∂ûbominasus 2137  #SaveTF2","steam_id":76561198030062981,"connected_time":233000000000,"state":"active","ping":68},{"user_id":529,"name":"Luna","steam_id":76561199140738350,"connected_time":217000000000,"state":"active","ping":65},{"user_id":521,"name":"tf2 snake","steam_id":76561198193971167,"connected_time":897000000000,"state":"active","ping":60},{"user_id":401,"name":"s a i","steam_id":76561197970379754,"connected_time":7944000000000,"state":"active","ping":59},{"user_id":505,"name":"TheMilOne","steam_id":76561198058910512,"connected_time":2183000000000,"state":"active","ping":64},{"user_id":522,"name":"Dewotter","steam_id":76561198007653168,"connected_time":516000000000,"state":"active","ping":75},{"user_id":497,"name":"Baki ‡∂û","steam_id":76561198193615529,"connected_time":2446000000000,"state":"active","ping":58}]},{"server_id":23,"name":"Uncletopia | Frankfurt | 7 | Stopwatch Beta","name_short":"frk-7","host":"frk-1.de.uncletopia.com","port":27075,"enabled":true,"region":"eu","cc":"de","latitude":50.110924,"longitude":8.682127,"reserved":0,"last_update":"0001-01-01T00:00:00Z","name_a2s":"Uncletopia | Frankfurt | 7 | Stopwatch Beta","protocol":17,"map":"workshop/koth_bagel_rc6.ugc2514036946","folder":"tf","game":"Team Fortress","app_id":440,"player_count":0,"max_players":24,"Bots":0,"server_type":"Dedicated","server_os":"Linux","password":true,"vac":true,"version":"7757534","steam_id":85568392924742827,"keywords":["cp","nocrits","nodmgspread","uncletopia"],"game_id":440,"stv_port":27076,"stv_name":"Uncletopia | Frankfurt | 7 | Stopwatch Beta | STV","players":null},{"server_id":24,"name":"Uncletopia | Frankfurt | 8 | Community","name_short":"frk-8","host":"frk-1.de.uncletopia.com","port":27085,"enabled":true,"region":"eu","cc":"de","latitude":50.110924,"longitude":8.682127,"reserved":0,"last_update":"0001-01-01T00:00:00Z","name_a2s":"Uncletopia | Frankfurt | 8 | Community","protocol":17,"map":"workshop/cp_propaganda_b18.ugc1603743849","folder":"tf","game":"Team Fortress","app_id":440,"player_count":17,"max_players":24,"Bots":0,"server_type":"Dedicated","server_os":"Linux","password":true,"vac":true,"version":"7757534","steam_id":85568392924742828,"keywords":["cp","nocrits","nodmgspread","uncletopia"],"game_id":440,"stv_port":27086,"stv_name":"Uncletopia | Frankfurt | 8 | Community | STV","players":[{"user_id":141,"name":"–µ–±–ª–æ —É—Ç–∏–Ω–æ–µ","steam_id":76561198163244605,"connected_time":1117000000000,"state":"active","ping":64},{"user_id":126,"name":"akakez","steam_id":76561198095432821,"connected_time":2337000000000,"state":"active","ping":119},{"user_id":148,"name":"etc","steam_id":76561197998394797,"connected_time":523000000000,"state":"active","ping":55},{"user_id":142,"name":"Pinkchup","steam_id":76561198106802803,"connected_time":1048000000000,"state":"active","ping":77},{"user_id":147,"name":"Lukey","steam_id":76561198074642724,"connected_time":604000000000,"state":"active","ping":70},{"user_id":149,"name":"Krabs","steam_id":76561198161679477,"connected_time":523000000000,"state":"active","ping":54},{"user_id":69,"name":"burger","steam_id":76561198071674964,"connected_time":5861000000000,"state":"active","ping":66},{"user_id":151,"name":"God's Goofiest Goober","steam_id":76561198103175187,"connected_time":424000000000,"state":"active","ping":64},{"user_id":114,"name":"TylowStar","steam_id":76561198357107806,"connected_time":2922000000000,"state":"active","ping":60},{"user_id":139,"name":"fumo?","steam_id":76561198148074472,"connected_time":1228000000000,"state":"active","ping":38},{"user_id":152,"name":"herbal space program","steam_id":76561198023211417,"connected_time":294000000000,"state":"active","ping":64},{"user_id":119,"name":"YO MAMA(CZ)#VolimGenerala","steam_id":76561198057308825,"connected_time":2619000000000,"state":"active","ping":56},{"user_id":70,"name":"CRAZY VIKING","steam_id":76561198061440669,"connected_time":5740000000000,"state":"active","ping":60},{"user_id":120,"name":"Minimi","steam_id":76561198873850443,"connected_time":2616000000000,"state":"active","ping":60},{"user_id":140,"name":"silly","steam_id":76561198147277460,"connected_time":1217000000000,"state":"active","ping":57},{"user_id":128,"name":"dotdotdot","steam_id":76561198057628751,"connected_time":2247000000000,"state":"active","ping":62},{"user_id":136,"name":"Mi Manchi","steam_id":76561198171573129,"connected_time":1495000000000,"state":"active","ping":59}]},{"server_id":202,"name":"Uncletopia | Hong Kong | 1 | All Maps","name_short":"hgk-1","host":"hgk-1.hk.uncletopia.com","port":27015,"enabled":true,"region":"asia","cc":"hk","latitude":22.302711,"longitude":114.177216,"reserved":0,"last_update":"0001-01-01T00:00:00Z","name_a2s":"Uncletopia | Hong Kong | 1 | All Maps","protocol":17,"map":"pl_badwater","folder":"tf","game":"Team Fortress","app_id":440,"player_count":1,"max_players":24,"Bots":0,"server_type":"Dedicated","server_os":"Linux","password":true,"vac":true,"version":"7757534","steam_id":85568392924494504,"keywords":["nocrits","nodmgspread","payload","uncletopia"],"game_id":440,"stv_port":27016,"stv_name":"Uncletopia | Hong Kong | 1 | All Maps | STV","players":[{"user_id":456,"name":"gilsomnia","steam_id":76561198830813639,"connected_time":267000000000,"state":"active","ping":69}]},{"server_id":1,"name":"Uncletopia | Los Angeles | 1 | All Maps","name_short":"lax-1","host":"lax-1.us.uncletopia.com","port":27015,"enabled":true,"region":"us-west","cc":"us","latitude":33.94279,"longitude":-118.41004,"reserved":0,"last_update":"0001-01-01T00:00:00Z","name_a2s":"Uncletopia | Los Angeles | 1 | All Maps","protocol":17,"map":"koth_highpass","folder":"tf","game":"Team Fortress","app_id":440,"player_count":0,"max_players":24,"Bots":0,"server_type":"Dedicated","server_os":"Linux","password":true,"vac":true,"version":"7757534","steam_id":85568392924469991,"keywords":["cp","nocrits","nodmgspread","uncletopia"],"game_id":440,"stv_port":27016,"stv_name":"Uncletopia | Los Angeles | 1 | All Maps | STV","players":null},{"server_id":112,"name":"Uncletopia | Los Angeles | 2 | All Maps","name_short":"lax-2","host":"lax-1.us.uncletopia.com","port":27025,"enabled":true,"region":"us-west","cc":"us","latitude":33.94279,"longitude":-118.41004,"reserved":0,"last_update":"0001-01-01T00:00:00Z","name_a2s":"Uncletopia | Los Angeles | 2 | All Maps","protocol":17,"map":"pl_badwater","folder":"tf","game":"Team Fortress","app_id":440,"player_count":24,"max_players":24,"Bots":0,"server_type":"Dedicated","server_os":"Linux","password":true,"vac":true,"version":"7757534","steam_id":85568392924469992,"keywords":["nocrits","nodmgspread","payload","uncletopia"],"game_id":440,"stv_port":27026,"stv_name":"Uncletopia | Los Angeles | 2 | All Maps | STV","players":[{"user_id":328,"name":"Soda","steam_id":76561198219209367,"connected_time":1177000000000,"state":"active","ping":54},{"user_id":309,"name":"Octosquidy","steam_id":76561198047002532,"connected_time":3228000000000,"state":"active","ping":69},{"user_id":337,"name":"TriggerPullPone","steam_id":76561198071789810,"connected_time":775000000000,"state":"active","ping":50},{"user_id":307,"name":"Moonflower ‚ú¶","steam_id":76561198191782483,"connected_time":3442000000000,"state":"active","ping":64},{"user_id":349,"name":"Uta","steam_id":76561198271964253,"connected_time":195000000000,"state":"active","ping":99},{"user_id":350,"name":"land0","steam_id":76561198321264704,"connected_time":90000000000,"state":"active","ping":52},{"user_id":334,"name":"mu","steam_id":76561197997530228,"connected_time":896000000000,"state":"active","ping":88},{"user_id":344,"name":"gryffinp","steam_id":76561197985948754,"connected_time":532000000000,"state":"active","ping":111},{"user_id":340,"name":"MajorSwags","steam_id":76561199013011235,"connected_time":585000000000,"state":"active","ping":127},{"user_id":323,"name":"BLACK MAN FROM JOJO","steam_id":76561198272948471,"connected_time":1870000000000,"state":"active","ping":109},{"user_id":326,"name":"tlm","steam_id":76561198178457461,"connected_time":1276000000000,"state":"active","ping":75},{"user_id":263,"name":"DerpyFlapjack31","steam_id":76561198386322393,"connected_time":5962000000000,"state":"active","ping":99},{"user_id":338,"name":"PeachFlavoredBleach","steam_id":76561198116226449,"connected_time":679000000000,"state":"active","ping":109},{"user_id":332,"name":"Tinyangel124","steam_id":76561199387234901,"connected_time":1059000000000,"state":"active","ping":97},{"user_id":301,"name":"Joe Biden (Deceased)","steam_id":76561198170427507,"connected_time":3896000000000,"state":"active","ping":49},{"user_id":293,"name":"forg","steam_id":76561199475739960,"connected_time":4693000000000,"state":"active","ping":66},{"user_id":342,"name":"VioletSpecs","steam_id":76561198089366466,"connected_time":577000000000,"state":"active","ping":117},{"user_id":327,"name":"Leftshadows","steam_id":76561199089515791,"connected_time":1274000000000,"state":"active","ping":63},{"user_id":331,"name":"Shin Tae Il's Lighter","steam_id":76561198984360849,"connected_time":1094000000000,"state":"active","ping":76},{"user_id":339,"name":"iphoneibong","steam_id":76561198054647777,"connected_time":672000000000,"state":"active","ping":65},{"user_id":343,"name":"Taco","steam_id":76561198158621392,"connected_time":571000000000,"state":"active","ping":114},{"user_id":346,"name":"Shwicky","steam_id":76561198145026611,"connected_time":327000000000,"state":"active","ping":46},{"user_id":284,"name":"Satori Komeiji","steam_id":76561198158211423,"connected_time":5330000000000,"state":"active","ping":43},{"user_id":324,"name":"the glooble","steam_id":76561199167035057,"connected_time":1384000000000,"state":"active","ping":43}]},{"server_id":324,"name":"Uncletopia | Los Angeles | 3 | All Maps","name_short":"lax-3","host":"lax-1.us.uncletopia.com","port":27035,"enabled":true,"region":"us-west","cc":"us","latitude":33.94279,"longitude":-118.41004,"reserved":0,"last_update":"0001-01-01T00:00:00Z","name_a2s":"Uncletopia | Los Angeles | 3 | All Maps","protocol":17,"map":"cp_altitude","folder":"tf","game":"Team Fortress","app_id":440,"player_count":0,"max_players":24,"Bots":0,"server_type":"Dedicated","server_os":"Linux","password":true,"vac":true,"version":"7757534","steam_id":85568392924510198,"keywords":["cp","nocrits","nodmgspread","uncletopia"],"game_id":440,"stv_port":27036,"stv_name":"Uncletopia | Los Angeles | 3 | All Maps | STV","players":null},{"server_id":25,"name":"Uncletopia | Los Angeles | 4 | Stopwatch Beta","name_short":"lax-4","host":"lax-1.us.uncletopia.com","port":27045,"enabled":true,"region":"us-west","cc":"us","latitude":33.94279,"longitude":-118.41004,"reserved":0,"last_update":"0001-01-01T00:00:00Z","name_a2s":"Uncletopia | Los Angeles | 4 | Stopwatch Beta","protocol":17,"map":"workshop/pl_barnblitz_pro7.ugc582280235","folder":"tf","game":"Team Fortress","app_id":440,"player_count":0,"max_players":24,"Bots":0,"server_type":"Dedicated","server_os":"Linux","password":true,"vac":true,"version":"7757534","steam_id":85568392924510199,"keywords":["nocrits","nodmgspread","payload","uncletopia"],"game_id":440,"stv_port":27046,"stv_name":"Uncletopia | Los Angeles | 4 | Stopwatch Beta | STV","players":null},{"server_id":11,"name":"Uncletopia | London | 1 | All Maps","name_short":"lon-1","host":"lon-1.uk.uncletopia.com","port":27015,"enabled":true,"region":"eu","cc":"gb","latitude":51.509865,"longitude":-0.118092,"reserved":0,"last_update":"0001-01-01T00:00:00Z","name_a2s":"Uncletopia | London | 1 | All Maps","protocol":17,"map":"pl_pier","folder":"tf","game":"Team Fortress","app_id":440,"player_count":24,"max_players":24,"Bots":0,"server_type":"Dedicated","server_os":"Linux","password":true,"vac":true,"version":"7757534","steam_id":85568392924367362,"keywords":["nocrits","nodmgspread","payload","uncletopia"],"game_id":440,"stv_port":27016,"stv_name":"Uncletopia | London | 1 | All Maps | STV","players":[{"user_id":779,"name":"I.C. Wiener","steam_id":76561197999912254,"connected_time":2458000000000,"state":"active","ping":96},{"user_id":780,"name":"Dim","steam_id":76561198141549249,"connected_time":2444000000000,"state":"active","ping":133},{"user_id":772,"name":"VanillaWoof","steam_id":76561198158343951,"connected_time":3075000000000,"state":"active","ping":59},{"user_id":770,"name":"AnonTron","steam_id":76561199031895493,"connected_time":3097000000000,"state":"active","ping":151},{"user_id":743,"name":"Mapavri","steam_id":76561198370196400,"connected_time":5909000000000,"state":"active","ping":90},{"user_id":755,"name":"badrobot","steam_id":76561198322878356,"connected_time":4051000000000,"state":"active","ping":105},{"user_id":761,"name":"BlevRuz","steam_id":76561198184452553,"connected_time":3626000000000,"state":"active","ping":52},{"user_id":784,"name":"ducks","steam_id":76561198148378654,"connected_time":2405000000000,"state":"active","ping":88},{"user_id":794,"name":"Desj","steam_id":76561198114212636,"connected_time":1710000000000,"state":"active","ping":59},{"user_id":778,"name":"Tre3","steam_id":76561198054795379,"connected_time":2469000000000,"state":"active","ping":72},{"user_id":796,"name":"dec","steam_id":76561198009660168,"connected_time":1294000000000,"state":"active","ping":56},{"user_id":732,"name":"Joseph Stalin","steam_id":76561198033199746,"connected_time":7257000000000,"state":"active","ping":45},{"user_id":802,"name":"HanhiGaming","steam_id":76561198877007477,"connected_time":516000000000,"state":"active","ping":88},{"user_id":799,"name":"MrXtr","steam_id":76561198966247397,"connected_time":842000000000,"state":"active","ping":65},{"user_id":805,"name":"hananamanna","steam_id":76561198006570285,"connected_time":314000000000,"state":"active","ping":117},{"user_id":631,"name":"Hasty Fool","steam_id":76561199474081953,"connected_time":13094000000000,"state":"active","ping":125},{"user_id":801,"name":"J3LLY","steam_id":76561198048453764,"connected_time":815000000000,"state":"active","ping":54},{"user_id":790,"name":"kilikia","steam_id":76561198350261670,"connected_time":1981000000000,"state":"active","ping":104},{"user_id":764,"name":"kornetov.vitalya","steam_id":76561199286034833,"connected_time":3558000000000,"state":"active","ping":101},{"user_id":793,"name":"Kaky≈çin Noriaki","steam_id":76561198123809642,"connected_time":1807000000000,"state":"active","ping":132},{"user_id":788,"name":"Cpt. Flashbang","steam_id":76561198034617743,"connected_time":2174000000000,"state":"active","ping":68},{"user_id":804,"name":"After8","steam_id":76561198090750865,"connected_time":465000000000,"state":"active","ping":69},{"user_id":776,"name":"BlobsOfWax","steam_id":76561198041752402,"connected_time":2521000000000,"state":"active","ping":45},{"user_id":797,"name":"Red Dynamite","steam_id":76561199073167935,"connected_time":1294000000000,"state":"active","ping":149}]},{"server_id":114,"name":"Uncletopia | London | 2 | All Maps","name_short":"lon-2","host":"lon-1.uk.uncletopia.com","port":27025,"enabled":true,"region":"eu","cc":"gb","latitude":51.509865,"longitude":-0.118092,"reserved":0,"last_update":"0001-01-01T00:00:00Z","name_a2s":"Uncletopia | London | 2 | All Maps","protocol":17,"map":"cp_coldfront","folder":"tf","game":"Team Fortress","app_id":440,"player_count":24,"max_players":24,"Bots":0,"server_type":"Dedicated","server_os":"Linux","password":true,"vac":true,"version":"7757534","steam_id":85568392924470941,"keywords":["cp","nocrits","nodmgspread","uncletopia"],"game_id":440,"stv_port":27026,"stv_name":"Uncletopia | London | 2 | All Maps | STV","players":[{"user_id":515,"name":"UltimateSlayer","steam_id":76561198384109309,"connected_time":2630000000000,"state":"active","ping":56},{"user_id":528,"name":"Homicidal Tendencies","steam_id":76561198828681043,"connected_time":1761000000000,"state":"active","ping":35},{"user_id":545,"name":"Gideon","steam_id":76561198045132575,"connected_time":200000000000,"state":"active","ping":40},{"user_id":501,"name":"Big They/Them is watching YOU","steam_id":76561198307598168,"connected_time":4197000000000,"state":"active","ping":60},{"user_id":505,"name":"silicon based life form","steam_id":76561199127121346,"connected_time":4044000000000,"state":"active","ping":57},{"user_id":540,"name":"the cuck","steam_id":76561199210613967,"connected_time":898000000000,"state":"active","ping":176},{"user_id":534,"name":"Vince","steam_id":76561199103000131,"connected_time":1266000000000,"state":"active","ping":46},{"user_id":514,"name":"edgar","steam_id":76561198212862423,"connected_time":3032000000000,"state":"active","ping":31},{"user_id":537,"name":"sammy308","steam_id":76561198842892733,"connected_time":958000000000,"state":"active","ping":167},{"user_id":458,"name":"demonio fleur","steam_id":76561198059782462,"connected_time":6599000000000,"state":"active","ping":64},{"user_id":517,"name":"TSAR FACE","steam_id":76561198822725169,"connected_time":2609000000000,"state":"active","ping":50},{"user_id":538,"name":"doodgie","steam_id":76561198264934115,"connected_time":951000000000,"state":"active","ping":54},{"user_id":539,"name":"Chris","steam_id":76561198018626828,"connected_time":919000000000,"state":"active","ping":50},{"user_id":549,"name":"grzybiarz2022","steam_id":76561199409218561,"connected_time":31000000000,"state":"active","ping":160},{"user_id":541,"name":"engie?","steam_id":76561198331852832,"connected_time":876000000000,"state":"active","ping":50},{"user_id":544,"name":"Omni // Feoraz","steam_id":76561197964320557,"connected_time":587000000000,"state":"active","ping":64},{"user_id":546,"name":"arowin24","steam_id":76561198077342689,"connected_time":198000000000,"state":"active","ping":54},{"user_id":527,"name":"hmscole09","steam_id":76561198811362788,"connected_time":2182000000000,"state":"active","ping":56},{"user_id":531,"name":"Nugget","steam_id":76561198338916407,"connected_time":1701000000000,"state":"active","ping":73},{"user_id":476,"name":"the joy of recycling","steam_id":76561198415564349,"connected_time":5875000000000,"state":"active","ping":60},{"user_id":547,"name":"KFC Enjoyer","steam_id":76561198840259819,"connected_time":169000000000,"state":"active","ping":59},{"user_id":548,"name":"holykyckling","steam_id":76561198040661615,"connected_time":144000000000,"state":"active","ping":89},{"user_id":543,"name":"rlty","steam_id":76561198009395055,"connected_time":767000000000,"state":"active","ping":120},{"user_id":523,"name":"Bonk!","steam_id":76561198402289367,"connected_time":2540000000000,"state":"active","ping":47}]},{"server_id":320,"name":"Uncletopia | London | 3 | All Maps","name_short":"lon-3","host":"lon-1.uk.uncletopia.com","port":27035,"enabled":true,"region":"eu","cc":"gb","latitude":51.509865,"longitude":-0.118092,"reserved":0,"last_update":"0001-01-01T00:00:00Z","name_a2s":"Uncletopia | London | 3 | All Maps","protocol":17,"map":"pl_snowycoast","folder":"tf","game":"Team Fortress","app_id":440,"player_count":24,"max_players":24,"Bots":0,"server_type":"Dedicated","server_os":"Linux","password":true,"vac":true,"version":"7757534","steam_id":85568392924510192,"keywords":["nocrits","nodmgspread","payload","uncletopia"],"game_id":440,"stv_port":27036,"stv_name":"Uncletopia | London | 3 | All Maps | STV","players":[{"user_id":303,"name":"poy","steam_id":76561198114063534,"connected_time":823000000000,"state":"active","ping":58},{"user_id":286,"name":"relic_","steam_id":76561199053114167,"connected_time":1930000000000,"state":"active","ping":84},{"user_id":300,"name":"AWP Bodyshot :) ‚ù§","steam_id":76561198029928533,"connected_time":890000000000,"state":"active","ping":53},{"user_id":302,"name":"SkiTzIe","steam_id":76561198010381798,"connected_time":856000000000,"state":"active","ping":55},{"user_id":267,"name":"Jon (alt)","steam_id":76561199380849468,"connected_time":3447000000000,"state":"active","ping":61},{"user_id":310,"name":"awesome rat","steam_id":76561198252656316,"connected_time":384000000000,"state":"active","ping":60},{"user_id":245,"name":"Frog","steam_id":76561198131977071,"connected_time":4792000000000,"state":"active","ping":54},{"user_id":270,"name":"poopcorn","steam_id":76561198435246575,"connected_time":3124000000000,"state":"active","ping":56},{"user_id":313,"name":"punchmypotatoes","steam_id":76561198091255731,"connected_time":10000000000,"state":"spawning","ping":55},{"user_id":312,"name":"quake 2 hater","steam_id":76561198101451654,"connected_time":256000000000,"state":"active","ping":47},{"user_id":265,"name":"Gry","steam_id":76561198053961616,"connected_time":3738000000000,"state":"active","ping":47},{"user_id":261,"name":"balanced diet","steam_id":76561198240320806,"connected_time":3804000000000,"state":"active","ping":75},{"user_id":287,"name":"Big Knoxy","steam_id":76561198291107227,"connected_time":1880000000000,"state":"active","ping":70},{"user_id":306,"name":"Riel","steam_id":76561198066017633,"connected_time":658000000000,"state":"active","ping":72},{"user_id":262,"name":"big hoops","steam_id":76561198004703799,"connected_time":3787000000000,"state":"active","ping":45},{"user_id":290,"name":"Lewis Was Robbed","steam_id":76561198152696748,"connected_time":1652000000000,"state":"active","ping":44},{"user_id":294,"name":"The_Jaystone","steam_id":76561198126280691,"connected_time":1370000000000,"state":"active","ping":44},{"user_id":271,"name":"doopsuiker","steam_id":76561198025916703,"connected_time":3082000000000,"state":"active","ping":67},{"user_id":309,"name":"–ù—ñ–∫—ñ—Ç—Ä–æ–Ω","steam_id":76561198044401080,"connected_time":411000000000,"state":"active","ping":63},{"user_id":305,"name":"varven","steam_id":76561197965907387,"connected_time":733000000000,"state":"active","ping":56},{"user_id":308,"name":"Locke","steam_id":76561198339408300,"connected_time":480000000000,"state":"active","ping":66},{"user_id":311,"name":"george B","steam_id":76561198104933135,"connected_time":381000000000,"state":"active","ping":75},{"user_id":266,"name":"Milca_11","steam_id":76561198848650365,"connected_time":3689000000000,"state":"active","ping":85},{"user_id":297,"name":"incel little fucker","steam_id":76561198133341026,"connected_time":1196000000000,"state":"active","ping":98}]},{"server_id":321,"name":"Uncletopia | London | 4 | All Maps","name_short":"lon-4","host":"lon-1.uk.uncletopia.com","port":27045,"enabled":true,"region":"eu","cc":"gb","latitude":51.509865,"longitude":-0.118092,"reserved":0,"last_update":"0001-01-01T00:00:00Z","name_a2s":"Uncletopia | London | 4 | All Maps","protocol":17,"map":"cp_dustbowl","folder":"tf","game":"Team Fortress","app_id":440,"player_count":3,"max_players":24,"Bots":0,"server_type":"Dedicated","server_os":"Linux","password":true,"vac":true,"version":"7757534","steam_id":85568392924510193,"keywords":["cp","nocrits","nodmgspread","uncletopia"],"game_id":440,"stv_port":27046,"stv_name":"Uncletopia | London | 4 | All Maps | STV","players":[{"user_id":32,"name":"big buff oily man","steam_id":76561198820590780,"connected_time":722000000000,"state":"active","ping":100},{"user_id":34,"name":"Skeletons625","steam_id":76561198245617124,"connected_time":588000000000,"state":"active","ping":148},{"user_id":35,"name":"Mr. ToXedia","steam_id":76561198842728898,"connected_time":565000000000,"state":"active","ping":99}]},{"server_id":21,"name":"Uncletopia | London | 5 | All Maps","name_short":"lon-5","host":"lon-1.uk.uncletopia.com","port":27055,"enabled":true,"region":"eu","cc":"gb","latitude":51.509865,"longitude":-0.118092,"reserved":0,"last_update":"0001-01-01T00:00:00Z","name_a2s":"Uncletopia | London | 5 | All Maps","protocol":17,"map":"pl_hoodoo_final","folder":"tf","game":"Team Fortress","app_id":440,"player_count":24,"max_players":24,"Bots":0,"server_type":"Dedicated","server_os":"Linux","password":true,"vac":true,"version":"7757534","steam_id":85568392924742829,"keywords":["nocrits","nodmgspread","payload","uncletopia"],"game_id":440,"stv_port":27056,"stv_name":"Uncletopia | London | 5 | All Maps | STV","players":[{"user_id":76,"name":"‚àö(-Wolf)","steam_id":76561198024769704,"connected_time":1081000000000,"state":"active","ping":96},{"user_id":85,"name":"Prox","steam_id":76561198351490981,"connected_time":197000000000,"state":"active","ping":36},{"user_id":9,"name":"Looking for Goth with tiddies!?","steam_id":76561198067204908,"connected_time":5717000000000,"state":"active","ping":58},{"user_id":10,"name":"big tiddy goth bf","steam_id":76561198170609049,"connected_time":5660000000000,"state":"active","ping":80},{"user_id":87,"name":"alpha","steam_id":76561198250491640,"connected_time":120000000000,"state":"active","ping":51},{"user_id":86,"name":"Spotmonkey","steam_id":76561198003994092,"connected_time":155000000000,"state":"active","ping":55},{"user_id":73,"name":"Big Benn","steam_id":76561199024168373,"connected_time":1231000000000,"state":"active","ping":72},{"user_id":84,"name":"Modulus X","steam_id":76561198178430222,"connected_time":268000000000,"state":"active","ping":39},{"user_id":74,"name":"transgender e-girl","steam_id":76561198168589809,"connected_time":1219000000000,"state":"active","ping":45},{"user_id":75,"name":"big tiddy goth gf","steam_id":76561198097507847,"connected_time":1171000000000,"state":"active","ping":77},{"user_id":70,"name":"Sebiromanes (Spookm√°ster)","steam_id":76561198112800408,"connected_time":1278000000000,"state":"active","ping":103},{"user_id":77,"name":"I AM DOT","steam_id":76561198354118090,"connected_time":1071000000000,"state":"active","ping":83},{"user_id":39,"name":"PlushtrapDev","steam_id":76561199109026519,"connected_time":4594000000000,"state":"active","ping":105},{"user_id":47,"name":"Axord","steam_id":76561199289652176,"connected_time":2529000000000,"state":"active","ping":63},{"user_id":44,"name":"Wardruna96","steam_id":76561199057083828,"connected_time":3520000000000,"state":"active","ping":77},{"user_id":61,"name":"r06u3","steam_id":76561198254099253,"connected_time":1348000000000,"state":"active","ping":180},{"user_id":78,"name":"sp00ky","steam_id":76561198279985917,"connected_time":1020000000000,"state":"active","ping":54},{"user_id":79,"name":"Slimmmnut","steam_id":76561198070390257,"connected_time":963000000000,"state":"active","ping":59},{"user_id":51,"name":"Roman Bogfork","steam_id":76561198045347066,"connected_time":1763000000000,"state":"active","ping":57},{"user_id":41,"name":"NitPig","steam_id":76561198212991935,"connected_time":4255000000000,"state":"active","ping":101},{"user_id":43,"name":"DrExplosive","steam_id":76561198063678579,"connected_time":4038000000000,"state":"active","ping":46},{"user_id":88,"name":"Lukas","steam_id":76561198009118452,"connected_time":20000000000,"state":"active","ping":68},{"user_id":72,"name":"Michi","steam_id":76561199110655288,"connected_time":1260000000000,"state":"active","ping":73},{"user_id":83,"name":"Thalgorock","steam_id":76561198195315022,"connected_time":362000000000,"state":"active","ping":143}]},{"server_id":22,"name":"Uncletopia | London | 6 | All Maps","name_short":"lon-6","host":"lon-1.uk.uncletopia.com","port":27065,"enabled":true,"region":"eu","cc":"gb","latitude":51.509865,"longitude":-0.118092,"reserved":0,"last_update":"0001-01-01T00:00:00Z","name_a2s":"Uncletopia | London | 6 | All Maps","protocol":17,"map":"koth_highpass","folder":"tf","game":"Team Fortress","app_id":440,"player_count":0,"max_players":24,"Bots":0,"server_type":"Dedicated","server_os":"Linux","password":true,"vac":true,"version":"7757534","steam_id":85568392924742830,"keywords":["cp","nocrits","nodmgspread","uncletopia"],"game_id":440,"stv_port":27066,"stv_name":"Uncletopia | London | 6 | All Maps | STV","players":null},{"server_id":40,"name":"Uncletopia | London | 7 | No Payload","name_short":"lon-7","host":"lon-1.uk.uncletopia.com","port":27075,"enabled":true,"region":"eu","cc":"gb","latitude":51.509865,"longitude":-0.118092,"reserved":0,"last_update":"0001-01-01T00:00:00Z","name_a2s":"Uncletopia | London | 7 | No Payload","protocol":17,"map":"ctf_doublecross","folder":"tf","game":"Team Fortress","app_id":440,"player_count":8,"max_players":24,"Bots":0,"server_type":"Dedicated","server_os":"Linux","password":true,"vac":true,"version":"7757534","steam_id":85568392924964314,"keywords":["ctf","nocrits","nodmgspread","uncletopia"],"game_id":440,"stv_port":27076,"stv_name":"Uncletopia | London | 7 | No Payload | STV","players":[{"user_id":7,"name":"ran is running","steam_id":76561199443185667,"connected_time":4288000000000,"state":"active","ping":136},{"user_id":8,"name":"justin_ (f2p) (real)","steam_id":76561198839843428,"connected_time":4282000000000,"state":"active","ping":118},{"user_id":16,"name":"Profile","steam_id":76561198966737485,"connected_time":1356000000000,"state":"active","ping":76},{"user_id":17,"name":"Unvid","steam_id":76561198031588080,"connected_time":1163000000000,"state":"active","ping":59},{"user_id":18,"name":"Cormdawg","steam_id":76561198336483216,"connected_time":765000000000,"state":"active","ping":55},{"user_id":20,"name":"skelly boi","steam_id":76561199091812183,"connected_time":228000000000,"state":"active","ping":118},{"user_id":21,"name":"Recon","steam_id":76561197993507705,"connected_time":202000000000,"state":"active","ping":45},{"user_id":22,"name":"fish","steam_id":76561199175173199,"connected_time":162000000000,"state":"active","ping":45}]},{"server_id":41,"name":"Uncletopia | London | 8 | Community","name_short":"lon-8","host":"lon-1.uk.uncletopia.com","port":27085,"enabled":true,"region":"eu","cc":"gb","latitude":51.509865,"longitude":-0.118092,"reserved":0,"last_update":"0001-01-01T00:00:00Z","name_a2s":"Uncletopia | London | 8 | Community","protocol":17,"map":"workshop/koth_ramjam_rc1.ugc459778887","folder":"tf","game":"Team Fortress","app_id":440,"player_count":0,"max_players":24,"Bots":0,"server_type":"Dedicated","server_os":"Linux","password":true,"vac":true,"version":"7757534","steam_id":85568392924964315,"keywords":["cp","nocrits","nodmgspread","uncletopia"],"game_id":440,"stv_port":27086,"stv_name":"Uncletopia | London | 8 | Community | STV","players":null},{"server_id":300,"name":"Uncletopia | Montr√©al | 1 | All Maps","name_short":"mtl-1","host":"mtl-1.ca.uncletopia.com","port":27015,"enabled":true,"region":"us-east","cc":"ca","latitude":45.50889,"longitude":-73.56167,"reserved":0,"last_update":"0001-01-01T00:00:00Z","name_a2s":"Uncletopia | Montr√©al | 1 | All Maps","protocol":17,"map":"pl_pier","folder":"tf","game":"Team Fortress","app_id":440,"player_count":0,"max_players":24,"Bots":0,"server_type":"Dedicated","server_os":"Linux","password":true,"vac":true,"version":"7757534","steam_id":85568392924500087,"keywords":["nocrits","nodmgspread","payload","uncletopia"],"game_id":440,"stv_port":27016,"stv_name":"Uncletopia | Montr√©al | 1 | All Maps | STV","players":null},{"server_id":301,"name":"Uncletopia | Montr√©al | 2 | All Maps","name_short":"mtl-2","host":"mtl-1.ca.uncletopia.com","port":27025,"enabled":true,"region":"us-east","cc":"ca","latitude":45.50889,"longitude":-73.56167,"reserved":0,"last_update":"0001-01-01T00:00:00Z","name_a2s":"Uncletopia | Montr√©al | 2 | All Maps","protocol":17,"map":"pl_barnblitz","folder":"tf","game":"Team Fortress","app_id":440,"player_count":0,"max_players":24,"Bots":0,"server_type":"Dedicated","server_os":"Linux","password":true,"vac":true,"version":"7757534","steam_id":85568392924500088,"keywords":["nocrits","nodmgspread","payload","uncletopia"],"game_id":440,"stv_port":27026,"stv_name":"Uncletopia | Montr√©al | 2 | All Maps | STV","players":null},{"server_id":302,"name":"Uncletopia | Montr√©al | 3 | All Maps","name_short":"mtl-3","host":"mtl-1.ca.uncletopia.com","port":27035,"enabled":true,"region":"us-east","cc":"ca","latitude":45.50889,"longitude":-73.56167,"reserved":0,"last_update":"0001-01-01T00:00:00Z","name_a2s":"Uncletopia | Montr√©al | 3 | All Maps","protocol":17,"map":"pl_borneo","folder":"tf","game":"Team Fortress","app_id":440,"player_count":0,"max_players":24,"Bots":0,"server_type":"Dedicated","server_os":"Linux","password":true,"vac":true,"version":"7757534","steam_id":85568392924500089,"keywords":["nocrits","nodmgspread","payload","uncletopia"],"game_id":440,"stv_port":27036,"stv_name":"Uncletopia | Montr√©al | 3 | All Maps | STV","players":null},{"server_id":303,"name":"Uncletopia | Montr√©al | 4 | No Payload","name_short":"mtl-4","host":"mtl-1.ca.uncletopia.com","port":27045,"enabled":true,"region":"us-east","cc":"ca","latitude":45.50889,"longitude":-73.56167,"reserved":0,"last_update":"0001-01-01T00:00:00Z","name_a2s":"Uncletopia | Montr√©al | 4 | No Payload","protocol":17,"map":"plr_pipeline","folder":"tf","game":"Team Fortress","app_id":440,"player_count":0,"max_players":24,"Bots":0,"server_type":"Dedicated","server_os":"Linux","password":true,"vac":true,"version":"7757534","steam_id":85568392924500090,"keywords":["nocrits","nodmgspread","payload","uncletopia"],"game_id":440,"stv_port":27046,"stv_name":"Uncletopia | Montr√©al | 4 | No Payload | STV","players":null},{"server_id":13,"name":"Uncletopia | New York City | 1 | All Maps","name_short":"nyc-1","host":"nyc-1.us.uncletopia.com","port":27015,"enabled":true,"region":"us-east","cc":"us","latitude":40.73061,"longitude":-73.93524,"reserved":0,"last_update":"0001-01-01T00:00:00Z","name_a2s":"Uncletopia | New York City | 1 | All Maps","protocol":17,"map":"koth_highpass","folder":"tf","game":"Team Fortress","app_id":440,"player_count":0,"max_players":24,"Bots":0,"server_type":"Dedicated","server_os":"Linux","password":true,"vac":true,"version":"7757534","steam_id":85568392924469993,"keywords":["cp","nocrits","nodmgspread","uncletopia"],"game_id":440,"stv_port":27016,"stv_name":"Uncletopia | New York City | 1 | All Maps | STV","players":null},{"server_id":14,"name":"Uncletopia | New York City | 2 | All Maps","name_short":"nyc-2","host":"nyc-1.us.uncletopia.com","port":27025,"enabled":true,"region":"us-east","cc":"us","latitude":40.73061,"longitude":-73.93524,"reserved":0,"last_update":"0001-01-01T00:00:00Z","name_a2s":"Uncletopia | New York City | 2 | All Maps","protocol":17,"map":"pl_snowycoast","folder":"tf","game":"Team Fortress","app_id":440,"player_count":24,"max_players":24,"Bots":0,"server_type":"Dedicated","server_os":"Linux","password":true,"vac":true,"version":"7757534","steam_id":85568392924469994,"keywords":["nocrits","nodmgspread","payload","uncletopia"],"game_id":440,"stv_port":27026,"stv_name":"Uncletopia | New York City | 2 | All Maps | STV","players":[{"user_id":341,"name":"GotYourNose","steam_id":76561198803527852,"connected_time":1983000000000,"state":"active","ping":51},{"user_id":372,"name":"Kurt Biscuitmaker","steam_id":76561198331701823,"connected_time":278000000000,"state":"active","ping":69},{"user_id":363,"name":"fast","steam_id":76561198311704368,"connected_time":1223000000000,"state":"active","ping":63},{"user_id":373,"name":"tatron73","steam_id":76561198354955849,"connected_time":264000000000,"state":"active","ping":86},{"user_id":348,"name":"Vegerot","steam_id":76561197997843710,"connected_time":1678000000000,"state":"active","ping":42},{"user_id":378,"name":"gromit","steam_id":76561198037746805,"connected_time":186000000000,"state":"active","ping":59},{"user_id":357,"name":"Mr_Frosty","steam_id":76561199380389079,"connected_time":1430000000000,"state":"active","ping":88},{"user_id":328,"name":"Riske","steam_id":76561198115840568,"connected_time":2769000000000,"state":"active","ping":71},{"user_id":349,"name":"QwilfishFan22","steam_id":76561198078565975,"connected_time":1653000000000,"state":"active","ping":41},{"user_id":376,"name":"Teleporter  (Entrance, Level 3)","steam_id":76561198316927664,"connected_time":201000000000,"state":"active","ping":47},{"user_id":377,"name":"wahooka","steam_id":76561197981211922,"connected_time":199000000000,"state":"active","ping":61},{"user_id":374,"name":"Ripley","steam_id":76561198080766916,"connected_time":215000000000,"state":"active","ping":64},{"user_id":367,"name":"goodheartchris","steam_id":76561198045836210,"connected_time":1134000000000,"state":"active","ping":76},{"user_id":379,"name":"femboy gaming","steam_id":76561199121980584,"connected_time":181000000000,"state":"active","ping":61},{"user_id":375,"name":"N0xferatu","steam_id":76561198013225832,"connected_time":213000000000,"state":"active","ping":86},{"user_id":365,"name":"Uncle Majic the Hip Hop Magicia","steam_id":76561198107924303,"connected_time":1193000000000,"state":"active","ping":39},{"user_id":366,"name":"Hoogidaba","steam_id":76561198069299219,"connected_time":1182000000000,"state":"active","ping":60},{"user_id":383,"name":"meghan trainor's bass","steam_id":76561198075858067,"connected_time":49000000000,"state":"active","ping":47},{"user_id":356,"name":"yeyoi","steam_id":76561198069821885,"connected_time":1438000000000,"state":"active","ping":58},{"user_id":381,"name":"Tigros","steam_id":76561198021569362,"connected_time":124000000000,"state":"active","ping":72},{"user_id":382,"name":"Steven Minecraft","steam_id":76561198060072829,"connected_time":109000000000,"state":"active","ping":88},{"user_id":369,"name":"ThePacBruno","steam_id":76561198046084545,"connected_time":621000000000,"state":"active","ping":177},{"user_id":360,"name":"lavbubl","steam_id":76561199468150742,"connected_time":1417000000000,"state":"active","ping":127},{"user_id":371,"name":"wake up","steam_id":76561198072179483,"connected_time":336000000000,"state":"active","ping":87}]},{"server_id":15,"name":"Uncletopia | New York City | 3 | Stopwatch Beta","name_short":"nyc-3","host":"nyc-1.us.uncletopia.com","port":27035,"enabled":true,"region":"us-east","cc":"us","latitude":40.73061,"longitude":-73.93524,"reserved":0,"last_update":"0001-01-01T00:00:00Z","name_a2s":"Uncletopia | New York City | 3 | Stopwatch Beta","protocol":17,"map":"koth_cascade","folder":"tf","game":"Team Fortress","app_id":440,"player_count":0,"max_players":24,"Bots":0,"server_type":"Dedicated","server_os":"Linux","password":true,"vac":true,"version":"7757534","steam_id":85568392924742820,"keywords":["cp","nocrits","nodmgspread","uncletopia"],"game_id":440,"stv_port":27036,"stv_name":"Uncletopia | New York City | 3 | Stopwatch Beta | STV","players":null},{"server_id":16,"name":"Uncletopia | New York City | 4 | Community","name_short":"nyc-4","host":"nyc-1.us.uncletopia.com","port":27045,"enabled":true,"region":"us-east","cc":"us","latitude":40.73061,"longitude":-73.93524,"reserved":0,"last_update":"0001-01-01T00:00:00Z","name_a2s":"Uncletopia | New York City | 4 | Community","protocol":17,"map":"pl_frontier_final","folder":"tf","game":"Team Fortress","app_id":440,"player_count":0,"max_players":24,"Bots":0,"server_type":"Dedicated","server_os":"Linux","password":true,"vac":true,"version":"7757534","steam_id":85568392924742821,"keywords":["nocrits","nodmgspread","payload","uncletopia"],"game_id":440,"stv_port":27046,"stv_name":"Uncletopia | New York City | 4 | Community | STV","players":null},{"server_id":142,"name":"Uncletopia | S√£o Paulo | 1 | All Maps","name_short":"sao-1","host":"sao-1.br.uncletopia.com","port":27015,"enabled":true,"region":"sa","cc":"br","latitude":-23.533773,"longitude":-46.62529,"reserved":0,"last_update":"0001-01-01T00:00:00Z","name_a2s":"Uncletopia | S√£o Paulo | 1 | All Maps","protocol":17,"map":"cp_altitude","folder":"tf","game":"Team Fortress","app_id":440,"player_count":0,"max_players":24,"Bots":0,"server_type":"Dedicated","server_os":"Linux","password":true,"vac":true,"version":"7757534","steam_id":85568392924469996,"keywords":["cp","nocrits","nodmgspread","uncletopia"],"game_id":440,"stv_port":27016,"stv_name":"Uncletopia | S√£o Paulo | 1 | All Maps | STV","players":null},{"server_id":143,"name":"Uncletopia | S√£o Paulo | 2 | All Maps","name_short":"sao-2","host":"sao-2.br.uncletopia.com","port":27015,"enabled":true,"region":"sa","cc":"br","latitude":-23.533773,"longitude":-46.62529,"reserved":0,"last_update":"0001-01-01T00:00:00Z","name_a2s":"Uncletopia | S√£o Paulo | 2 | All Maps","protocol":17,"map":"koth_viaduct","folder":"tf","game":"Team Fortress","app_id":440,"player_count":0,"max_players":24,"Bots":0,"server_type":"Dedicated","server_os":"Linux","password":true,"vac":true,"version":"7757534","steam_id":85568392924485349,"keywords":["cp","nocrits","nodmgspread","uncletopia"],"game_id":440,"stv_port":27016,"stv_name":"Uncletopia | S√£o Paulo | 2 | All Maps | STV","players":null},{"server_id":7,"name":"Uncletopia | Seattle | 1 | All Maps","name_short":"sea-1","host":"sea-1.us.uncletopia.com","port":27015,"enabled":true,"region":"us-west","cc":"us","latitude":47.608013,"longitude":-122.33517,"reserved":0,"last_update":"0001-01-01T00:00:00Z","name_a2s":"Uncletopia | Seattle | 1 | All Maps","protocol":17,"map":"pl_upward","folder":"tf","game":"Team Fortress","app_id":440,"player_count":17,"max_players":24,"Bots":0,"server_type":"Dedicated","server_os":"Linux","password":true,"vac":true,"version":"7757534","steam_id":85568392924469997,"keywords":["nocrits","nodmgspread","payload","uncletopia"],"game_id":440,"stv_port":27016,"stv_name":"Uncletopia | Seattle | 1 | All Maps | STV","players":[{"user_id":25,"name":"Birdman743","steam_id":76561198799636748,"connected_time":1482000000000,"state":"active","ping":54},{"user_id":33,"name":"Joe Chi Minh","steam_id":76561198070838770,"connected_time":830000000000,"state":"active","ping":58},{"user_id":37,"name":"Killer-Slime","steam_id":76561198075583362,"connected_time":347000000000,"state":"active","ping":55},{"user_id":28,"name":"[TrC] Dackstrus","steam_id":76561197973518509,"connected_time":1333000000000,"state":"active","ping":48},{"user_id":31,"name":"26O3 Ê•µÂÖâÈù¢Á¥ó","steam_id":76561198964074985,"connected_time":949000000000,"state":"active","ping":57},{"user_id":32,"name":"Star","steam_id":76561199090601424,"connected_time":885000000000,"state":"active","ping":70},{"user_id":42,"name":"lol","steam_id":76561198026491738,"connected_time":173000000000,"state":"active","ping":79},{"user_id":35,"name":"JFK Shot First TF2Hunt.com","steam_id":76561198165597659,"connected_time":753000000000,"state":"active","ping":44},{"user_id":44,"name":"KeZ","steam_id":76561198275364564,"connected_time":109000000000,"state":"active","ping":45},{"user_id":40,"name":"Greg Heffley","steam_id":76561198861436861,"connected_time":269000000000,"state":"active","ping":100},{"user_id":41,"name":"SirJellyRolls","steam_id":76561198119277244,"connected_time":262000000000,"state":"active","ping":63},{"user_id":43,"name":"cero","steam_id":76561199089389969,"connected_time":166000000000,"state":"active","ping":128},{"user_id":45,"name":"Deltaco","steam_id":76561198094572694,"connected_time":76000000000,"state":"spawning","ping":155},{"user_id":46,"name":"TheUrgeWithin","steam_id":76561198033385972,"connected_time":73000000000,"state":"active","ping":101},{"user_id":48,"name":"Ellis","steam_id":76561198993634489,"connected_time":28000000000,"state":"spawning","ping":76},{"user_id":49,"name":"WANKER .LLC","steam_id":76561198165773382,"connected_time":24000000000,"state":"spawning","ping":242},{"user_id":50,"name":"sammy","steam_id":76561199001307670,"connected_time":21000000000,"state":"active","ping":45}]},{"server_id":119,"name":"Uncletopia | Seattle | 2 | All Maps","name_short":"sea-2","host":"sea-1.us.uncletopia.com","port":27025,"enabled":true,"region":"us-west","cc":"us","latitude":47.608013,"longitude":-122.33517,"reserved":0,"last_update":"0001-01-01T00:00:00Z","name_a2s":"Uncletopia | Seattle | 2 | All Maps","protocol":17,"map":"cp_sunshine","folder":"tf","game":"Team Fortress","app_id":440,"player_count":23,"max_players":24,"Bots":0,"server_type":"Dedicated","server_os":"Linux","password":true,"vac":true,"version":"7757534","steam_id":85568392924469998,"keywords":["cp","nocrits","nodmgspread","uncletopia"],"game_id":440,"stv_port":27026,"stv_name":"Uncletopia | Seattle | 2 | All Maps | STV","players":[{"user_id":219,"name":"lili.winters","steam_id":76561199391478575,"connected_time":1214000000000,"state":"active","ping":69},{"user_id":205,"name":"DIZ","steam_id":76561199065119525,"connected_time":2175000000000,"state":"active","ping":129},{"user_id":206,"name":"corbenis","steam_id":76561199012442511,"connected_time":2162000000000,"state":"active","ping":76},{"user_id":225,"name":"bird‡πá‡πá‡πá ‡πá","steam_id":76561198145598073,"connected_time":376000000000,"state":"active","ping":82},{"user_id":180,"name":"Level 99 Mudcrab","steam_id":76561198077452771,"connected_time":4428000000000,"state":"active","ping":57},{"user_id":232,"name":"O bez","steam_id":76561198841579939,"connected_time":142000000000,"state":"active","ping":87},{"user_id":200,"name":"ScoutBox","steam_id":76561198111539895,"connected_time":2537000000000,"state":"active","ping":77},{"user_id":221,"name":"Mom?","steam_id":76561198079483175,"connected_time":1132000000000,"state":"active","ping":125},{"user_id":233,"name":"gravy","steam_id":76561198089644778,"connected_time":98000000000,"state":"active","ping":94},{"user_id":197,"name":"Hindmost","steam_id":76561199081837220,"connected_time":2605000000000,"state":"active","ping":111},{"user_id":229,"name":"Ass Blassum","steam_id":76561198095571628,"connected_time":330000000000,"state":"active","ping":41},{"user_id":223,"name":"jungus","steam_id":76561198129862008,"connected_time":500000000000,"state":"active","ping":82},{"user_id":198,"name":"oil","steam_id":76561198099980149,"connected_time":2580000000000,"state":"active","ping":78},{"user_id":228,"name":"picea","steam_id":76561198134664196,"connected_time":350000000000,"state":"active","ping":61},{"user_id":218,"name":"Lazy","steam_id":76561198802747832,"connected_time":1402000000000,"state":"active","ping":54},{"user_id":162,"name":"Fh","steam_id":76561198000903511,"connected_time":6003000000000,"state":"active","ping":72},{"user_id":213,"name":"Tort boi","steam_id":76561198125327110,"connected_time":1957000000000,"state":"active","ping":87},{"user_id":224,"name":"jawnymac","steam_id":76561198179529599,"connected_time":394000000000,"state":"active","ping":72},{"user_id":230,"name":"cran","steam_id":76561198178840075,"connected_time":283000000000,"state":"active","ping":80},{"user_id":216,"name":"BallinLikeStalin","steam_id":76561198229454868,"connected_time":1632000000000,"state":"active","ping":66},{"user_id":217,"name":"Mignyanne :3","steam_id":76561198048754056,"connected_time":1629000000000,"state":"active","ping":67},{"user_id":231,"name":"Breve","steam_id":76561198065141099,"connected_time":277000000000,"state":"active","ping":121},{"user_id":192,"name":"keffers","steam_id":76561198202338796,"connected_time":3132000000000,"state":"active","ping":115}]},{"server_id":406,"name":"Uncletopia | Seattle | 3 | Stopwatch Beta","name_short":"sea-3","host":"sea-1.us.uncletopia.com","port":27035,"enabled":true,"region":"us-west","cc":"us","latitude":47.608013,"longitude":-122.33517,"reserved":0,"last_update":"0001-01-01T00:00:00Z","name_a2s":"Uncletopia | Seattle | 3 | Stopwatch Beta","protocol":17,"map":"cp_process_final","folder":"tf","game":"Team Fortress","app_id":440,"player_count":0,"max_players":24,"Bots":0,"server_type":"Dedicated","server_os":"Linux","password":true,"vac":true,"version":"7757534","steam_id":85568392924515217,"keywords":["cp","nocrits","nodmgspread","uncletopia"],"game_id":440,"stv_port":27036,"stv_name":"Uncletopia | Seattle | 3 | Stopwatch Beta | STV","players":null},{"server_id":17,"name":"Uncletopia | San Francisco | 1 | All Maps","name_short":"sfo-1","host":"sfo-1.us.uncletopia.com","port":27015,"enabled":true,"region":"us-west","cc":"us","latitude":37.77397,"longitude":-122.4313,"reserved":0,"last_update":"0001-01-01T00:00:00Z","name_a2s":"Uncletopia | San Francisco | 1 | All Maps","protocol":17,"map":"pl_badwater","folder":"tf","game":"Team Fortress","app_id":440,"player_count":24,"max_players":24,"Bots":0,"server_type":"Dedicated","server_os":"Linux","password":true,"vac":true,"version":"7757534","steam_id":85568392924469999,"keywords":["nocrits","nodmgspread","payload","uncletopia"],"game_id":440,"stv_port":27016,"stv_name":"Uncletopia | San Francisco | 1 | All Maps | STV","players":[{"user_id":57,"name":"Mr.Mrausky","steam_id":76561199120622265,"connected_time":1879000000000,"state":"active","ping":89},{"user_id":78,"name":"Saggy","steam_id":76561198166706479,"connected_time":949000000000,"state":"active","ping":107},{"user_id":16,"name":"Nibotshooter","steam_id":76561199284825579,"connected_time":5774000000000,"state":"active","ping":92},{"user_id":42,"name":"Boing Boom Tschak","steam_id":76561198256553006,"connected_time":2937000000000,"state":"active","ping":53},{"user_id":29,"name":"Koffy","steam_id":76561198184386039,"connected_time":4283000000000,"state":"active","ping":170},{"user_id":85,"name":"Natalie","steam_id":76561198048848289,"connected_time":381000000000,"state":"active","ping":63},{"user_id":41,"name":"MORE BOUNCE TO THE OUNCE","steam_id":76561198243399336,"connected_time":3017000000000,"state":"active","ping":62},{"user_id":79,"name":"Brutus","steam_id":76561198213163211,"connected_time":787000000000,"state":"active","ping":128},{"user_id":33,"name":"Killer_Bite_","steam_id":76561198153259922,"connected_time":3608000000000,"state":"active","ping":54},{"user_id":35,"name":"cardboardwarrior1","steam_id":76561199145044693,"connected_time":3571000000000,"state":"active","ping":106},{"user_id":44,"name":"PinguEnjoyer6","steam_id":76561199186723516,"connected_time":2852000000000,"state":"active","ping":42},{"user_id":53,"name":"DREAMVXIIILE","steam_id":76561199268197009,"connected_time":2417000000000,"state":"active","ping":66},{"user_id":45,"name":"Kopenich","steam_id":76561198066205245,"connected_time":2835000000000,"state":"active","ping":57},{"user_id":64,"name":"skelter","steam_id":76561199228915146,"connected_time":1606000000000,"state":"active","ping":80},{"user_id":56,"name":"Doctor Bear  ï ‚Ä¢·¥•‚Ä¢ î","steam_id":76561197968103161,"connected_time":2040000000000,"state":"active","ping":103},{"user_id":60,"name":"\u003c3Elise\u003c3","steam_id":76561198146435005,"connected_time":1759000000000,"state":"active","ping":92},{"user_id":49,"name":"jello","steam_id":76561198149683030,"connected_time":2528000000000,"state":"active","ping":61},{"user_id":80,"name":"FaZe_Ram-Ranch","steam_id":76561198190654173,"connected_time":773000000000,"state":"active","ping":107},{"user_id":75,"name":"Octis","steam_id":76561198118322999,"connected_time":1374000000000,"state":"active","ping":82},{"user_id":84,"name":"Nat the kat","steam_id":76561198144338191,"connected_time":437000000000,"state":"active","ping":64},{"user_id":74,"name":"Blare","steam_id":76561198023669032,"connected_time":1396000000000,"state":"active","ping":44},{"user_id":86,"name":"Wizops","steam_id":76561198907030448,"connected_time":347000000000,"state":"active","ping":131},{"user_id":82,"name":"McLovin","steam_id":76561198114934503,"connected_time":711000000000,"state":"active","ping":72},{"user_id":87,"name":"Good Mudkip","steam_id":76561198439784449,"connected_time":339000000000,"state":"active","ping":79}]},{"server_id":18,"name":"Uncletopia | San Francisco | 2 | All Maps","name_short":"sfo-2","host":"sfo-1.us.uncletopia.com","port":27025,"enabled":true,"region":"us-west","cc":"us","latitude":37.77397,"longitude":-122.4313,"reserved":0,"last_update":"0001-01-01T00:00:00Z","name_a2s":"Uncletopia | San Francisco | 2 | All Maps","protocol":17,"map":"pl_pier","folder":"tf","game":"Team Fortress","app_id":440,"player_count":0,"max_players":24,"Bots":0,"server_type":"Dedicated","server_os":"Linux","password":true,"vac":true,"version":"7757534","steam_id":85568392924470000,"keywords":["nocrits","nodmgspread","payload","uncletopia"],"game_id":440,"stv_port":27026,"stv_name":"Uncletopia | San Francisco | 2 | All Maps | STV","players":null},{"server_id":19,"name":"Uncletopia | San Francisco | 3 | Stopwatch Beta","name_short":"sfo-3","host":"sfo-1.us.uncletopia.com","port":27035,"enabled":true,"region":"us-west","cc":"us","latitude":37.77397,"longitude":-122.4313,"reserved":0,"last_update":"0001-01-01T00:00:00Z","name_a2s":"Uncletopia | San Francisco | 3 | Stopwatch Beta","protocol":17,"map":"workshop/koth_ramjam_rc1.ugc459778887","folder":"tf","game":"Team Fortress","app_id":440,"player_count":0,"max_players":24,"Bots":0,"server_type":"Dedicated","server_os":"Linux","password":true,"vac":true,"version":"7757534","steam_id":85568392924742824,"keywords":["cp","nocrits","nodmgspread","uncletopia"],"game_id":440,"stv_port":27036,"stv_name":"Uncletopia | San Francisco | 3 | Stopwatch Beta | STV","players":null},{"server_id":20,"name":"Uncletopia | San Francisco | 4 | Community","name_short":"sfo-4","host":"sfo-1.us.uncletopia.com","port":27045,"enabled":true,"region":"us-west","cc":"us","latitude":37.77397,"longitude":-122.4313,"reserved":0,"last_update":"0001-01-01T00:00:00Z","name_a2s":"Uncletopia | San Francisco | 4 | Community","protocol":17,"map":"workshop/cp_fulgur_rc2a.ugc2068252300","folder":"tf","game":"Team Fortress","app_id":440,"player_count":1,"max_players":24,"Bots":0,"server_type":"Dedicated","server_os":"Linux","password":true,"vac":true,"version":"7757534","steam_id":85568392924742826,"keywords":["cp","nocrits","nodmgspread","uncletopia"],"game_id":440,"stv_port":27046,"stv_name":"Uncletopia | San Francisco | 4 | Community | STV","players":[{"user_id":7,"name":"BoX_hEaD101","steam_id":76561198200875467,"connected_time":266000000000,"state":"active","ping":61}]},{"server_id":141,"name":"Uncletopia | Sydney | 1 | All Maps","name_short":"syd-1","host":"syd-1.au.uncletopia.com","port":27015,"enabled":true,"region":"au","cc":"au","latitude":-33.865143,"longitude":151.2099,"reserved":0,"last_update":"0001-01-01T00:00:00Z","name_a2s":"Uncletopia | Sydney | 1 | All Maps","protocol":17,"map":"pl_borneo","folder":"tf","game":"Team Fortress","app_id":440,"player_count":0,"max_players":24,"Bots":0,"server_type":"Dedicated","server_os":"Linux","password":true,"vac":true,"version":"7757534","steam_id":85568392924470001,"keywords":["nocrits","nodmgspread","payload","uncletopia"],"game_id":440,"stv_port":27016,"stv_name":"Uncletopia | Sydney | 1 | All Maps | STV","players":null},{"server_id":123,"name":"Uncletopia | Sydney | 2 | All Maps","name_short":"syd-2","host":"syd-1.au.uncletopia.com","port":27025,"enabled":true,"region":"au","cc":"au","latitude":-33.865143,"longitude":151.2099,"reserved":0,"last_update":"0001-01-01T00:00:00Z","name_a2s":"Uncletopia | Sydney | 2 | All Maps","protocol":17,"map":"pl_barnblitz","folder":"tf","game":"Team Fortress","app_id":440,"player_count":0,"max_players":24,"Bots":0,"server_type":"Dedicated","server_os":"Linux","password":true,"vac":true,"version":"7757534","steam_id":85568392924470002,"keywords":["nocrits","nodmgspread","payload","uncletopia"],"game_id":440,"stv_port":27026,"stv_name":"Uncletopia | Sydney | 2 | All Maps | STV","players":null},{"server_id":395,"name":"Uncletopia | Sydney | 3 | All Maps","name_short":"syd-3","host":"syd-1.au.uncletopia.com","port":27035,"enabled":true,"region":"au","cc":"au","latitude":-33.865143,"longitude":151.2099,"reserved":0,"last_update":"0001-01-01T00:00:00Z","name_a2s":"Uncletopia | Sydney | 3 | All Maps","protocol":17,"map":"pl_borneo","folder":"tf","game":"Team Fortress","app_id":440,"player_count":0,"max_players":24,"Bots":0,"server_type":"Dedicated","server_os":"Linux","password":true,"vac":true,"version":"7757534","steam_id":85568392925194467,"keywords":["nocrits","nodmgspread","payload","uncletopia"],"game_id":440,"stv_port":27036,"stv_name":"Uncletopia | Sydney | 3 | All Maps | STV","players":null},{"server_id":396,"name":"Uncletopia | Sydney | 4 | All Maps","name_short":"syd-4","host":"syd-1.au.uncletopia.com","port":27045,"enabled":true,"region":"au","cc":"au","latitude":-33.865143,"longitude":151.2099,"reserved":0,"last_update":"0001-01-01T00:00:00Z","name_a2s":"Uncletopia | Sydney | 4 | All Maps","protocol":17,"map":"cp_process_final","folder":"tf","game":"Team Fortress","app_id":440,"player_count":0,"max_players":24,"Bots":0,"server_type":"Dedicated","server_os":"Linux","password":true,"vac":true,"version":"7757534","steam_id":85568392925397958,"keywords":["cp","nocrits","nodmgspread","uncletopia"],"game_id":440,"stv_port":27046,"stv_name":"Uncletopia | Sydney | 4 | All Maps | STV","players":null},{"server_id":58,"name":"Uncletopia | Sydney | 5 | Stopwatch Beta","name_short":"syd-5","host":"syd-1.au.uncletopia.com","port":27055,"enabled":true,"region":"au","cc":"au","latitude":-33.865143,"longitude":151.2099,"reserved":0,"last_update":"0001-01-01T00:00:00Z","name_a2s":"Uncletopia | Sydney | 5 | Stopwatch Beta","protocol":17,"map":"koth_cascade","folder":"tf","game":"Team Fortress","app_id":440,"player_count":0,"max_players":24,"Bots":0,"server_type":"Dedicated","server_os":"Linux","password":true,"vac":true,"version":"7757534","steam_id":85568392925397959,"keywords":["cp","nocrits","nodmgspread","uncletopia"],"game_id":440,"stv_port":27056,"stv_name":"Uncletopia | Sydney | 5 | Stopwatch Beta | STV","players":null},{"server_id":59,"name":"Uncletopia | Sydney | 6 | Community","name_short":"syd-6","host":"syd-1.au.uncletopia.com","port":27065,"enabled":true,"region":"au","cc":"au","latitude":-33.865143,"longitude":151.2099,"reserved":0,"last_update":"0001-01-01T00:00:00Z","name_a2s":"Uncletopia | Sydney | 6 | Community","protocol":17,"map":"pl_badwater","folder":"tf","game":"Team Fortress","app_id":440,"player_count":0,"max_players":24,"Bots":0,"server_type":"Dedicated","server_os":"Linux","password":true,"vac":true,"version":"7757534","steam_id":85568392925397960,"keywords":["nocrits","nodmgspread","payload","uncletopia"],"game_id":440,"stv_port":27066,"stv_name":"Uncletopia | Sydney | 6 | Community | STV","players":null},{"server_id":49,"name":"Uncletopia | Warsaw | 1 | All Maps","name_short":"waw-1","host":"waw-1.pl.uncletopia.com","port":27015,"enabled":true,"region":"eu","cc":"pl","latitude":52.2297,"longitude":21.017532,"reserved":0,"last_update":"0001-01-01T00:00:00Z","name_a2s":"","protocol":0,"map":"","folder":"","game":"","app_id":0,"player_count":0,"max_players":0,"Bots":0,"server_type":"","server_os":"","password":false,"vac":false,"version":"","steam_id":0,"keywords":null,"game_id":0,"stv_port":0,"stv_name":"","players":null},{"server_id":50,"name":"Uncletopia | Warsaw | 2 | All Maps","name_short":"waw-2","host":"waw-1.pl.uncletopia.com","port":27025,"enabled":true,"region":"eu","cc":"pl","latitude":52.2297,"longitude":21.017532,"reserved":0,"last_update":"0001-01-01T00:00:00Z","name_a2s":"Uncletopia | Warsaw | 2 | All Maps","protocol":17,"map":"koth_highpass","folder":"tf","game":"Team Fortress","app_id":440,"player_count":0,"max_players":24,"Bots":0,"server_type":"Dedicated","server_os":"Linux","password":true,"vac":true,"version":"7757534","steam_id":85568392925397851,"keywords":["cp","nocrits","nodmgspread","uncletopia"],"game_id":440,"stv_port":27026,"stv_name":"Uncletopia | Warsaw | 2 | All Maps | STV","players":null},{"server_id":51,"name":"Uncletopia | Warsaw | 3 | All Maps","name_short":"waw-3","host":"waw-1.pl.uncletopia.com","port":27035,"enabled":true,"region":"eu","cc":"pl","latitude":52.2297,"longitude":21.017532,"reserved":0,"last_update":"0001-01-01T00:00:00Z","name_a2s":"Uncletopia | Warsaw | 3 | All Maps","protocol":17,"map":"koth_highpass","folder":"tf","game":"Team Fortress","app_id":440,"player_count":0,"max_players":24,"Bots":0,"server_type":"Dedicated","server_os":"Linux","password":true,"vac":true,"version":"7757534","steam_id":85568392925397852,"keywords":["cp","nocrits","nodmgspread","uncletopia"],"game_id":440,"stv_port":27036,"stv_name":"Uncletopia | Warsaw | 3 | All Maps | STV","players":null},{"server_id":52,"name":"Uncletopia | Warsaw | 4 | All Maps","name_short":"waw-4","host":"waw-1.pl.uncletopia.com","port":27045,"enabled":true,"region":"eu","cc":"pl","latitude":52.2297,"longitude":21.017532,"reserved":0,"last_update":"0001-01-01T00:00:00Z","name_a2s":"Uncletopia | Warsaw | 4 | All Maps","protocol":17,"map":"koth_lakeside_final","folder":"tf","game":"Team Fortress","app_id":440,"player_count":0,"max_players":24,"Bots":0,"server_type":"Dedicated","server_os":"Linux","password":true,"vac":true,"version":"7757534","steam_id":85568392925397853,"keywords":["cp","nocrits","nodmgspread","uncletopia"],"game_id":440,"stv_port":27046,"stv_name":"Uncletopia | Warsaw | 4 | All Maps | STV","players":null},{"server_id":53,"name":"Uncletopia | Warsaw | 5 | Stopwatch Beta","name_short":"waw-5","host":"waw-1.pl.uncletopia.com","port":27055,"enabled":true,"region":"eu","cc":"pl","latitude":52.2297,"longitude":21.017532,"reserved":0,"last_update":"0001-01-01T00:00:00Z","name_a2s":"Uncletopia | Warsaw | 5 | Stopwatch Beta","protocol":17,"map":"pl_pier","folder":"tf","game":"Team Fortress","app_id":440,"player_count":0,"max_players":24,"Bots":0,"server_type":"Dedicated","server_os":"Linux","password":true,"vac":true,"version":"7757534","steam_id":85568392925397854,"keywords":["nocrits","nodmgspread","payload","uncletopia"],"game_id":440,"stv_port":27056,"stv_name":"Uncletopia | Warsaw | 5 | Stopwatch Beta | STV","players":null},{"server_id":54,"name":"Uncletopia | Warsaw | 6 | Community","name_short":"waw-6","host":"waw-1.pl.uncletopia.com","port":27065,"enabled":true,"region":"eu","cc":"pl","latitude":52.2297,"longitude":21.017532,"reserved":0,"last_update":"0001-01-01T00:00:00Z","name_a2s":"Uncletopia | Warsaw | 6 | Community","protocol":17,"map":"koth_highpass","folder":"tf","game":"Team Fortress","app_id":440,"player_count":0,"max_players":24,"Bots":0,"server_type":"Dedicated","server_os":"Linux","password":true,"vac":true,"version":"7757534","steam_id":85568392925397856,"keywords":["cp","nocrits","nodmgspread","uncletopia"],"game_id":440,"stv_port":27066,"stv_name":"Uncletopia | Warsaw | 6 | Community | STV","players":null}]}