{"status":true,"message":"","result":[{"server_id":9,"name":"Uncletopia | Atlanta | 1 | All Maps","name_short":"atl-1","host":"atl-1.us.uncletopia.com","port":27015,"enabled":true,"region":"us-east","cc":"us","latitude":33.753746,"longitude":-84.38633,"reserved":0,"last_update":"0001-01-01T00:00:00Z","name_a2s":"Uncletopia | Atlanta | 1 | All Maps","protocol":17,"map":"pl_frontier_final","folder":"tf","game":"Team Fortress","app_id":440,"player_count":24,"max_players":24,"Bots":0,"server_type":"Dedicated","server_os":"Linux","password":true,"vac":true,"version":"7757534","steam_id":85568392924469982,"keywords":["nocrits","nodmgspread","payload","uncletopia"],"game_id":440,"stv_port":27016,"stv_name":"Uncletopia | Atlanta | 1 | All Maps | STV","players":[{"user_id":196,"name":"The Caretaker","steam_id":76561198125241411,"connected_time":2507000000000,"state":"connecting","ping":140},{"user_id":207,"name":"Goon Event #3349 (5hrs 22mins)","steam_id":76561198062410522,"connected_time":1290000000000,"state":"connecting","ping":76},{"user_id":229,"name":"gutty_ranks","steam_id":76561199063666275,"connected_time":33000000000,"state":"connecting","ping":58},{"user_id":223,"name":"Moofins","steam_id":76561198050291949,"connected_time":625000000000,"state":"connecting","ping":79},{"user_id":83,"name":"gallowsCalibrator","steam_id":76561198404707578,"connected_time":11644000000000,"state":"connecting","ping":57},{"user_id":208,"name":"iroh","steam_id":76561198065109145,"connected_time":1284000000000,"state":"connecting","ping":96},{"user_id":230,"name":"Chirox","steam_id":76561198034516923,"connected_time":22000000000,"state":"connecting","ping":71},{"user_id":225,"name":"fudo myoo","steam_id":76561198456258164,"connected_time":595000000000,"state":"connecting","ping":59},{"user_id":210,"name":"DRPIELZ (QuePirata)","steam_id":76561198816135253,"connected_time":1243000000000,"state":"connecting","ping":95},{"user_id":206,"name":"Gus","steam_id":76561198085203150,"connected_time":1301000000000,"state":"connecting","ping":78},{"user_id":228,"name":"new years hooters","steam_id":76561198068022595,"connected_time":116000000000,"state":"connecting","ping":77},{"user_id":214,"name":"Jin Gulilo","steam_id":76561198065151242,"connected_time":1231000000000,"state":"connecting","ping":82},{"user_id":217,"name":".-.","steam_id":76561198820617005,"connected_time":1153000000000,"state":"connecting","ping":113},{"user_id":171,"name":"Nephs","steam_id":76561198136763403,"connected_time":5468000000000,"state":"connecting","ping":88},{"user_id":133,"name":"ATL1 | Chance","steam_id":76561198122256825,"connected_time":7379000000000,"state":"connecting","ping":77},{"user_id":226,"name":"ATL1 | eish","steam_id":76561198089463603,"connected_time":593000000000,"state":"connecting","ping":149},{"user_id":159,"name":"Snorty","steam_id":76561198114304454,"connected_time":5849000000000,"state":"connecting","ping":95},{"user_id":215,"name":"Goonstar☆","steam_id":76561198054571242,"connected_time":1222000000000,"state":"connecting","ping":94},{"user_id":195,"name":"ash","steam_id":76561198127890645,"connected_time":2516000000000,"state":"connecting","ping":88},{"user_id":194,"name":"lil hog","steam_id":76561199230929836,"connected_time":2519000000000,"state":"connecting","ping":102},{"user_id":200,"name":"Flint","steam_id":76561198066547582,"connected_time":1961000000000,"state":"connecting","ping":121},{"user_id":175,"name":"Veilos","steam_id":76561198071897172,"connected_time":4729000000000,"state":"connecting","ping":87},{"user_id":231,"name":"Spooky Scary","steam_id":76561198195388759,"connected_time":4000000000,"state":"connecting","ping":109},{"user_id":204,"name":"floofy","steam_id":76561198389769098,"connected_time":1477000000000,"state":"connecting","ping":105}]},{"server_id":400,"name":"Uncletopia | Atlanta | 3 | Stopwatch Beta","name_short":"atl-3","host":"atl-1.us.uncletopia.com","port":27035,"enabled":true,"region":"us-east","cc":"us","latitude":33.753746,"longitude":-84.38633,"reserved":0,"last_update":"0001-01-01T00:00:00Z","name_a2s":"Uncletopia | Atlanta | 3 | Stopwatch Beta","protocol":17,"map":"koth_highpass","folder":"tf","game":"Team Fortress","app_id":440,"player_count":0,"max_players":24,"Bots":0,"server_type":"Dedicated","server_os":"Linux","password":true,"vac":true,"version":"7757534","steam_id":85568392924515187,"keywords":["cp","nocrits","nodmgspread","uncletopia"],"game_id":440,"stv_port":27036,"stv_name":"Uncletopia | Atlanta | 3 | Stopwatch Beta | STV","players":null},{"server_id":401,"name":"Uncletopia | Atlanta | 4 | No Payload","name_short":"atl-4","host":"atl-1.us.uncletopia.com","port":27045,"enabled":true,"region":"us-east","cc":"us","latitude":33.753746,"longitude":-84.38633,"reserved":0,"last_update":"0001-01-01T00:00:00Z","name_a2s":"Uncletopia | Atlanta | 4 | No Payload","protocol":17,"map":"pl_pier","folder":"tf","game":"Team Fortress","app_id":440,"player_count":0,"max_players":24,"Bots":0,"server_type":"Dedicated","server_os":"Linux","password":true,"vac":true,"version":"7723704","steam_id":85568392924515188,"keywords":["nocrits","nodmgspread","payload","uncletopia"],"game_id":440,"stv_port":27046,"stv_name":"Uncletopia | Atlanta | 4 | No Payload | STV","players":null},{"server_id":2,"name":"Uncletopia | Chicago | 1 | All Maps","name_short":"chi-1","host":"chi-1.us.uncletopia.com","port":27015,"enabled":true,"region":"us-central","cc":"us","latitude":41.881832,"longitude":-87.62318,"reserved":0,"last_update":"0001-01-01T00:00:00Z","name_a2s":"Uncletopia | Chicago | 1 | All Maps","protocol":17,"map":"pl_badwater","folder":"tf","game":"Team Fortress","app_id":440,"player_count":24,"max_players":24,"Bots":0,"server_type":"Dedicated","server_os":"Linux","password":true,"vac":true,"version":"7757534","steam_id":85568392924469984,"keywords":["nocrits","nodmgspread","payload","uncletopia"],"game_id":440,"stv_port":27016,"stv_name":"Uncletopia | Chicago | 1 | All Maps | STV","players":[{"user_id":252,"name":"PKBEAST_7","steam_id":76561198177136537,"connected_time":7429000000000,"state":"active","ping":89},{"user_id":271,"name":"GDHURRICANE","steam_id":76561199067561497,"connected_time":4250000000000,"state":"active","ping":73},{"user_id":293,"name":".JIFF","steam_id":76561198045181760,"connected_time":2459000000000,"state":"active","ping":58},{"user_id":295,"name":"Fankik","steam_id":76561198384764077,"connected_time":2012000000000,"state":"active","ping":75},{"user_id":300,"name":"Probably Aleks","steam_id":76561199106731358,"connected_time":1232000000000,"state":"active","ping":66},{"user_id":299,"name":"matchstick","steam_id":76561198190100027,"connected_time":1237000000000,"state":"active","ping":62},{"user_id":298,"name":"rabscootle","steam_id":76561198045619076,"connected_time":1254000000000,"state":"active","ping":48},{"user_id":272,"name":"fancyfreak","steam_id":76561198326466375,"connected_time":4185000000000,"state":"active","ping":99},{"user_id":307,"name":"Holdie","steam_id":76561198070378200,"connected_time":1104000000000,"state":"active","ping":46},{"user_id":303,"name":"fat fuck chicken joe","steam_id":76561198840876723,"connected_time":1156000000000,"state":"active","ping":119},{"user_id":317,"name":"EmeraldCola","steam_id":76561198066663687,"connected_time":198000000000,"state":"active","ping":66},{"user_id":243,"name":"blob","steam_id":76561198122375328,"connected_time":8270000000000,"state":"active","ping":65},{"user_id":318,"name":"a crazy hobo","steam_id":76561198289650060,"connected_time":181000000000,"state":"active","ping":83},{"user_id":304,"name":"Ground Control to Majortom","steam_id":76561198065589126,"connected_time":1154000000000,"state":"active","ping":85},{"user_id":305,"name":"Limasio","steam_id":76561198198176191,"connected_time":1147000000000,"state":"active","ping":68},{"user_id":306,"name":"Female Gamer","steam_id":76561199366482682,"connected_time":1139000000000,"state":"active","ping":103},{"user_id":316,"name":"MrSirGent","steam_id":76561199086357213,"connected_time":260000000000,"state":"active","ping":82},{"user_id":314,"name":"Whizzo the Clown","steam_id":76561197995910627,"connected_time":374000000000,"state":"active","ping":82},{"user_id":312,"name":"Tom","steam_id":76561198070630154,"connected_time":539000000000,"state":"active","ping":91},{"user_id":309,"name":"Rocco__","steam_id":76561197992824074,"connected_time":1102000000000,"state":"active","ping":67},{"user_id":320,"name":"InMyJammies","steam_id":76561199026734167,"connected_time":62000000000,"state":"active","ping":73},{"user_id":259,"name":"Rornir","steam_id":76561198081829615,"connected_time":6389000000000,"state":"active","ping":36},{"user_id":222,"name":"the deadliest pyroshark","steam_id":76561198374227766,"connected_time":9641000000000,"state":"active","ping":73},{"user_id":310,"name":"Good Seed","steam_id":76561198013443319,"connected_time":1102000000000,"state":"active","ping":63}]},{"server_id":106,"name":"Uncletopia | Chicago | 2 | All Maps","name_short":"chi-2","host":"chi-1.us.uncletopia.com","port":27025,"enabled":true,"region":"us-central","cc":"us","latitude":41.881832,"longitude":-87.62318,"reserved":0,"last_update":"0001-01-01T00:00:00Z","name_a2s":"Uncletopia | Chicago | 2 | All Maps","protocol":17,"map":"cp_dustbowl","folder":"tf","game":"Team Fortress","app_id":440,"player_count":24,"max_players":24,"Bots":0,"server_type":"Dedicated","server_os":"Linux","password":true,"vac":true,"version":"7757534","steam_id":85568392924469985,"keywords":["cp","nocrits","nodmgspread","uncletopia"],"game_id":440,"stv_port":27026,"stv_name":"Uncletopia | Chicago | 2 | All Maps | STV","players":[{"user_id":14,"name":"Skeedie","steam_id":76561198268591634,"connected_time":7511000000000,"state":"active","ping":82},{"user_id":15,"name":"Fellow Paisano","steam_id":76561198097847998,"connected_time":7506000000000,"state":"active","ping":56},{"user_id":16,"name":"The Bear of Dojima","steam_id":76561198097995505,"connected_time":7496000000000,"state":"active","ping":101},{"user_id":116,"name":"Azula's #1 Fan","steam_id":76561198133111058,"connected_time":1126000000000,"state":"active","ping":65},{"user_id":58,"name":"T.w² | Sliced Bread","steam_id":76561198128489595,"connected_time":5297000000000,"state":"active","ping":83},{"user_id":117,"name":"Le","steam_id":76561198817754233,"connected_time":1118000000000,"state":"active","ping":86},{"user_id":124,"name":"funkinear1001","steam_id":76561199157665272,"connected_time":506000000000,"state":"active","ping":155},{"user_id":92,"name":"Doggo","steam_id":76561198973038585,"connected_time":3184000000000,"state":"active","ping":82},{"user_id":106,"name":"PintoVero","steam_id":76561198088369252,"connected_time":2173000000000,"state":"active","ping":60},{"user_id":94,"name":"Ripheart","steam_id":76561198089661561,"connected_time":3114000000000,"state":"active","ping":57},{"user_id":108,"name":"Tako","steam_id":76561199264073138,"connected_time":2150000000000,"state":"active","ping":84},{"user_id":107,"name":"Nickson1","steam_id":76561198175839309,"connected_time":2169000000000,"state":"active","ping":62},{"user_id":127,"name":"t(-_-t)","steam_id":76561198193704069,"connected_time":28000000000,"state":"active","ping":58},{"user_id":76,"name":"TheTrashMann","steam_id":76561199174242639,"connected_time":3996000000000,"state":"active","ping":67},{"user_id":113,"name":"Ur gf's pubic hair","steam_id":76561198046928474,"connected_time":1703000000000,"state":"active","ping":67},{"user_id":125,"name":"primordialheath","steam_id":76561199386942638,"connected_time":478000000000,"state":"active","ping":67},{"user_id":121,"name":"head crypto bioengineer analyst","steam_id":76561198070635731,"connected_time":880000000000,"state":"active","ping":75},{"user_id":122,"name":"JustSomeInternetGuy","steam_id":76561199066037843,"connected_time":723000000000,"state":"active","ping":77},{"user_id":123,"name":"weeb_whacker #Jenius","steam_id":76561198187098041,"connected_time":529000000000,"state":"active","ping":52},{"user_id":119,"name":"Jill the Owl","steam_id":76561197999210583,"connected_time":1079000000000,"state":"active","ping":73},{"user_id":128,"name":"CheeseCake488","steam_id":76561199407617942,"connected_time":11000000000,"state":"spawning","ping":117},{"user_id":101,"name":"can my wife use your toilet","steam_id":76561198120973162,"connected_time":2795000000000,"state":"active","ping":75},{"user_id":100,"name":"Hindmost","steam_id":76561199081837220,"connected_time":3047000000000,"state":"active","ping":131},{"user_id":120,"name":"Maniac","steam_id":76561197993729460,"connected_time":1076000000000,"state":"active","ping":127}]},{"server_id":402,"name":"Uncletopia | Chicago | 3 | All Maps","name_short":"chi-3","host":"chi-1.us.uncletopia.com","port":27035,"enabled":true,"region":"us-central","cc":"us","latitude":41.881832,"longitude":-87.62318,"reserved":0,"last_update":"0001-01-01T00:00:00Z","name_a2s":"Uncletopia | Chicago | 3 | All Maps","protocol":17,"map":"cp_process_final","folder":"tf","game":"Team Fortress","app_id":440,"player_count":17,"max_players":24,"Bots":0,"server_type":"Dedicated","server_os":"Linux","password":true,"vac":true,"version":"7757534","steam_id":85568392924515191,"keywords":["cp","nocrits","nodmgspread","uncletopia"],"game_id":440,"stv_port":27036,"stv_name":"Uncletopia | Chicago | 3 | All Maps | STV","players":[{"user_id":158,"name":"abomination","steam_id":76561198167974713,"connected_time":1299000000000,"state":"active","ping":77},{"user_id":123,"name":"Fk it we Ball","steam_id":76561198078421075,"connected_time":3392000000000,"state":"active","ping":64},{"user_id":164,"name":"Mystary Reborn","steam_id":76561199221425966,"connected_time":141000000000,"state":"active","ping":73},{"user_id":145,"name":"frid","steam_id":76561198005806915,"connected_time":1803000000000,"state":"active","ping":78},{"user_id":141,"name":"tlar","steam_id":76561198060117460,"connected_time":2231000000000,"state":"active","ping":78},{"user_id":165,"name":"Sicko Mode (Chris Pratt Cover)","steam_id":76561198315786174,"connected_time":137000000000,"state":"active","ping":81},{"user_id":166,"name":"TheElderFrog","steam_id":76561197985743135,"connected_time":104000000000,"state":"active","ping":70},{"user_id":167,"name":"Jason the DemoKnight main","steam_id":76561199100258990,"connected_time":18000000000,"state":"active","ping":83},{"user_id":147,"name":"stop it","steam_id":76561198102681457,"connected_time":1743000000000,"state":"active","ping":69},{"user_id":156,"name":"Tick","steam_id":76561198184161214,"connected_time":1388000000000,"state":"active","ping":41},{"user_id":137,"name":"ZekeThePlumber","steam_id":76561197995016724,"connected_time":2611000000000,"state":"active","ping":71},{"user_id":134,"name":"leonardo doujinshi","steam_id":76561198025810326,"connected_time":3036000000000,"state":"active","ping":76},{"user_id":160,"name":"DazzlingMaggot","steam_id":76561197972716928,"connected_time":323000000000,"state":"active","ping":70},{"user_id":78,"name":"rude boi","steam_id":76561198006783260,"connected_time":5911000000000,"state":"active","ping":57},{"user_id":116,"name":"Lara","steam_id":76561199072612733,"connected_time":3764000000000,"state":"active","ping":72},{"user_id":155,"name":"cosmik","steam_id":76561198071193180,"connected_time":1420000000000,"state":"active","ping":73},{"user_id":162,"name":"lapi","steam_id":76561198302976864,"connected_time":281000000000,"state":"active","ping":68}]},{"server_id":403,"name":"Uncletopia | Chicago | 4 | All Maps","name_short":"chi-4","host":"chi-1.us.uncletopia.com","port":27045,"enabled":true,"region":"us-central","cc":"us","latitude":41.881832,"longitude":-87.62318,"reserved":0,"last_update":"0001-01-01T00:00:00Z","name_a2s":"Uncletopia | Chicago | 4 | All Maps","protocol":17,"map":"koth_highpass","folder":"tf","game":"Team Fortress","app_id":440,"player_count":19,"max_players":24,"Bots":0,"server_type":"Dedicated","server_os":"Linux","password":true,"vac":true,"version":"7757534","steam_id":85568392924515193,"keywords":["cp","nocrits","nodmgspread","uncletopia"],"game_id":440,"stv_port":27046,"stv_name":"Uncletopia | Chicago | 4 | All Maps | STV","players":[{"user_id":411,"name":"snail","steam_id":76561198312155722,"connected_time":799000000000,"state":"active","ping":149},{"user_id":412,"name":"Rhutebeer","steam_id":76561198018302761,"connected_time":704000000000,"state":"active","ping":94},{"user_id":388,"name":"three three","steam_id":76561198177354155,"connected_time":3328000000000,"state":"active","ping":54},{"user_id":433,"name":"Candy Sparkles","steam_id":76561198126871264,"connected_time":105000000000,"state":"active","ping":83},{"user_id":422,"name":"kablong","steam_id":76561199094392047,"connected_time":477000000000,"state":"active","ping":108},{"user_id":430,"name":"Pop Pop","steam_id":76561198211396781,"connected_time":200000000000,"state":"active","ping":64},{"user_id":402,"name":"Poison Ivy","steam_id":76561198072384574,"connected_time":2168000000000,"state":"active","ping":53},{"user_id":404,"name":"forgy","steam_id":76561198273428784,"connected_time":1499000000000,"state":"active","ping":72},{"user_id":410,"name":"The Prankster™","steam_id":76561199123285878,"connected_time":835000000000,"state":"active","ping":79},{"user_id":426,"name":"Ch4rl33","steam_id":76561198037008621,"connected_time":247000000000,"state":"active","ping":48},{"user_id":432,"name":"mush","steam_id":76561198310089797,"connected_time":137000000000,"state":"active","ping":60},{"user_id":416,"name":"spinz","steam_id":76561198353098481,"connected_time":629000000000,"state":"active","ping":68},{"user_id":417,"name":"gaylittlemouse","steam_id":76561198819562111,"connected_time":625000000000,"state":"active","ping":63},{"user_id":434,"name":"Dolphiniz","steam_id":76561199093367765,"connected_time":87000000000,"state":"active","ping":97},{"user_id":420,"name":"Rugbmilk","steam_id":76561199389283507,"connected_time":538000000000,"state":"active","ping":66},{"user_id":418,"name":"loser","steam_id":76561198171507451,"connected_time":573000000000,"state":"active","ping":86},{"user_id":419,"name":"John Coolguy","steam_id":76561199083537308,"connected_time":551000000000,"state":"active","ping":98},{"user_id":421,"name":"conscripted monk","steam_id":76561199029246232,"connected_time":537000000000,"state":"active","ping":70},{"user_id":431,"name":"Laura Palmer Gaming","steam_id":76561198282965733,"connected_time":191000000000,"state":"active","ping":60}]},{"server_id":36,"name":"Uncletopia | Chicago | 5 | All Maps","name_short":"chi-5","host":"chi-2.us.uncletopia.com","port":27015,"enabled":true,"region":"us-central","cc":"us","latitude":41.881832,"longitude":-87.62318,"reserved":0,"last_update":"0001-01-01T00:00:00Z","name_a2s":"Uncletopia | Chicago | 5 | All Maps","protocol":17,"map":"pl_badwater","folder":"tf","game":"Team Fortress","app_id":440,"player_count":23,"max_players":24,"Bots":0,"server_type":"Dedicated","server_os":"Linux","password":true,"vac":true,"version":"7757534","steam_id":85568392924866362,"keywords":["nocrits","nodmgspread","payload","uncletopia"],"game_id":440,"stv_port":27016,"stv_name":"Uncletopia | Chicago | 5 | All Maps | STV","players":[{"user_id":306,"name":"darkjustin54","steam_id":76561198060056280,"connected_time":215000000000,"state":"active","ping":59},{"user_id":291,"name":"Kamin","steam_id":76561198255299559,"connected_time":875000000000,"state":"active","ping":84},{"user_id":303,"name":"neet","steam_id":76561197968115168,"connected_time":324000000000,"state":"active","ping":51},{"user_id":292,"name":"demoknight tf2","steam_id":76561198070393998,"connected_time":812000000000,"state":"active","ping":75},{"user_id":293,"name":"[DATS➡] Sugar Meowth","steam_id":76561197995251793,"connected_time":808000000000,"state":"active","ping":89},{"user_id":177,"name":"Red","steam_id":76561197998285162,"connected_time":5656000000000,"state":"active","ping":84},{"user_id":301,"name":"LobusHasAIDS","steam_id":76561198932408033,"connected_time":408000000000,"state":"active","ping":187},{"user_id":295,"name":"Chris","steam_id":76561197970315094,"connected_time":797000000000,"state":"active","ping":56},{"user_id":309,"name":"Johnny Lawrence #JohnnyMaxxing","steam_id":76561199367141671,"connected_time":24000000000,"state":"active","ping":79},{"user_id":302,"name":"noot noot","steam_id":76561198318446417,"connected_time":394000000000,"state":"active","ping":83},{"user_id":170,"name":"real zingers","steam_id":76561198097160898,"connected_time":5776000000000,"state":"active","ping":87},{"user_id":277,"name":"stale bread boi","steam_id":76561198879238698,"connected_time":1340000000000,"state":"active","ping":72},{"user_id":298,"name":"jrdoran","steam_id":76561197984753094,"connected_time":698000000000,"state":"active","ping":57},{"user_id":299,"name":"Twan (no vibes plz)","steam_id":76561197991064908,"connected_time":674000000000,"state":"active","ping":61},{"user_id":305,"name":"Menachem","steam_id":76561198041226420,"connected_time":274000000000,"state":"active","ping":50},{"user_id":307,"name":"Walruse","steam_id":76561198083844586,"connected_time":196000000000,"state":"active","ping":76},{"user_id":280,"name":"Ghost Lord","steam_id":76561198088956723,"connected_time":1281000000000,"state":"active","ping":101},{"user_id":308,"name":"Jeremy","steam_id":76561198352333793,"connected_time":164000000000,"state":"active","ping":77},{"user_id":267,"name":"Sunvaar","steam_id":76561198852679851,"connected_time":2371000000000,"state":"active","ping":64},{"user_id":113,"name":"skrt","steam_id":76561198233984300,"connected_time":8527000000000,"state":"active","ping":48},{"user_id":283,"name":"Epicus Lusor","steam_id":76561198271981088,"connected_time":1225000000000,"state":"active","ping":69},{"user_id":287,"name":"Volkan, Pervert Extraordinaire","steam_id":76561198004569575,"connected_time":1109000000000,"state":"active","ping":72},{"user_id":211,"name":"real goblin videos","steam_id":76561198119536224,"connected_time":4866000000000,"state":"active","ping":77}]},{"server_id":37,"name":"Uncletopia | Chicago | 6 | All Maps","name_short":"chi-6","host":"chi-2.us.uncletopia.com","port":27025,"enabled":true,"region":"us-central","cc":"us","latitude":41.881832,"longitude":-87.62318,"reserved":0,"last_update":"0001-01-01T00:00:00Z","name_a2s":"Uncletopia | Chicago | 6 | All Maps","protocol":17,"map":"koth_highpass","folder":"tf","game":"Team Fortress","app_id":440,"player_count":2,"max_players":24,"Bots":0,"server_type":"Dedicated","server_os":"Linux","password":true,"vac":true,"version":"7757534","steam_id":85568392924866363,"keywords":["cp","nocrits","nodmgspread","uncletopia"],"game_id":440,"stv_port":27026,"stv_name":"Uncletopia | Chicago | 6 | All Maps | STV","players":[{"user_id":13,"name":"Jane Notwoodman","steam_id":76561199227269239,"connected_time":3053000000000,"state":"active","ping":67},{"user_id":18,"name":"Optional Friday","steam_id":76561199424229712,"connected_time":1971000000000,"state":"active","ping":58}]},{"server_id":38,"name":"Uncletopia | Chicago | 7 | Stopwatch Beta","name_short":"chi-7","host":"chi-2.us.uncletopia.com","port":27035,"enabled":true,"region":"us-central","cc":"us","latitude":41.881832,"longitude":-87.62318,"reserved":0,"last_update":"0001-01-01T00:00:00Z","name_a2s":"Uncletopia | Chicago | 7 | Stopwatch Beta","protocol":17,"map":"workshop/koth_bagel_rc5.ugc2514036946","folder":"tf","game":"Team Fortress","app_id":440,"player_count":0,"max_players":24,"Bots":0,"server_type":"Dedicated","server_os":"Linux","password":true,"vac":true,"version":"7757534","steam_id":85568392924866364,"keywords":["cp","nocrits","nodmgspread","uncletopia"],"game_id":440,"stv_port":27036,"stv_name":"Uncletopia | Chicago | 7 | Stopwatch Beta | STV","players":null},{"server_id":39,"name":"Uncletopia | Chicago | 8 | Community","name_short":"chi-8","host":"chi-2.us.uncletopia.com","port":27045,"enabled":true,"region":"us-central","cc":"us","latitude":41.881832,"longitude":-87.62318,"reserved":0,"last_update":"0001-01-01T00:00:00Z","name_a2s":"Uncletopia | Chicago | 8 | Community","protocol":17,"map":"workshop/koth_product_final.ugc454272353","folder":"tf","game":"Team Fortress","app_id":440,"player_count":0,"max_players":24,"Bots":0,"server_type":"Dedicated","server_os":"Linux","password":true,"vac":true,"version":"7757534","steam_id":85568392924866365,"keywords":["cp","nocrits","nodmgspread","uncletopia"],"game_id":440,"stv_port":27046,"stv_name":"Uncletopia | Chicago | 8 | Community | STV","players":null},{"server_id":8,"name":"Uncletopia | Dallas | 1 | All Maps","name_short":"dal-1","host":"dal-1.us.uncletopia.com","port":27015,"enabled":true,"region":"us-central","cc":"us","latitude":32.779167,"longitude":-96.80889,"reserved":0,"last_update":"0001-01-01T00:00:00Z","name_a2s":"Uncletopia | Dallas | 1 | All Maps","protocol":17,"map":"cp_steel","folder":"tf","game":"Team Fortress","app_id":440,"player_count":16,"max_players":24,"Bots":0,"server_type":"Dedicated","server_os":"Linux","password":true,"vac":true,"version":"7757534","steam_id":85568392924469986,"keywords":["cp","nocrits","nodmgspread","uncletopia"],"game_id":440,"stv_port":27016,"stv_name":"Uncletopia | Dallas | 1 | All Maps | STV","players":[{"user_id":316,"name":"baxl","steam_id":76561199467885190,"connected_time":1976000000000,"state":"active","ping":105},{"user_id":292,"name":"Kirbothebrony","steam_id":76561198971911330,"connected_time":4112000000000,"state":"active","ping":66},{"user_id":313,"name":"JelloSniffer","steam_id":76561198142770733,"connected_time":2427000000000,"state":"active","ping":75},{"user_id":341,"name":"ayaya?","steam_id":76561199000188109,"connected_time":255000000000,"state":"active","ping":80},{"user_id":342,"name":"airport alan","steam_id":76561198027337461,"connected_time":232000000000,"state":"active","ping":93},{"user_id":343,"name":"HE'S BACK","steam_id":76561198018146136,"connected_time":218000000000,"state":"active","ping":101},{"user_id":344,"name":"BeanieBomber","steam_id":76561198128337215,"connected_time":175000000000,"state":"active","ping":62},{"user_id":323,"name":"happy man!!! :D!!!!","steam_id":76561198128468316,"connected_time":1622000000000,"state":"active","ping":59},{"user_id":324,"name":"arashsmash","steam_id":76561198277649058,"connected_time":1608000000000,"state":"active","ping":75},{"user_id":326,"name":"DocDankDandy","steam_id":76561197999440195,"connected_time":1536000000000,"state":"active","ping":61},{"user_id":305,"name":"SmokeyGalaxy","steam_id":76561198118780516,"connected_time":3133000000000,"state":"active","ping":58},{"user_id":331,"name":"Crab12","steam_id":76561198398818373,"connected_time":1406000000000,"state":"active","ping":99},{"user_id":281,"name":"Borgir","steam_id":76561198325390265,"connected_time":4795000000000,"state":"active","ping":67},{"user_id":329,"name":"coolbust carti","steam_id":76561198065384345,"connected_time":1473000000000,"state":"active","ping":85},{"user_id":340,"name":"egyptiangodcard","steam_id":76561198855935442,"connected_time":647000000000,"state":"active","ping":105},{"user_id":333,"name":"Commodore_Perry","steam_id":76561197986675784,"connected_time":1376000000000,"state":"active","ping":85}]},{"server_id":108,"name":"Uncletopia | Dallas | 2 | All Maps","name_short":"dal-2","host":"dal-1.us.uncletopia.com","port":27025,"enabled":true,"region":"us-central","cc":"us","latitude":32.779167,"longitude":-96.80889,"reserved":0,"last_update":"0001-01-01T00:00:00Z","name_a2s":"Uncletopia | Dallas | 2 | All Maps","protocol":17,"map":"ctf_turbine","folder":"tf","game":"Team Fortress","app_id":440,"player_count":24,"max_players":24,"Bots":0,"server_type":"Dedicated","server_os":"Linux","password":true,"vac":true,"version":"7757534","steam_id":85568392924469988,"keywords":["ctf","nocrits","nodmgspread","uncletopia"],"game_id":440,"stv_port":27026,"stv_name":"Uncletopia | Dallas | 2 | All Maps | STV","players":[{"user_id":254,"name":"Soft Fuzzy Horse","steam_id":76561198005777544,"connected_time":1516000000000,"state":"active","ping":92},{"user_id":212,"name":"Jailbreaker186","steam_id":76561199079970931,"connected_time":3919000000000,"state":"active","ping":159},{"user_id":196,"name":"KaiDuck4348","steam_id":76561199060186538,"connected_time":4516000000000,"state":"active","ping":92},{"user_id":272,"name":"Blixstorm","steam_id":76561198352750870,"connected_time":126000000000,"state":"active","ping":103},{"user_id":267,"name":"The Skinny One","steam_id":76561198031430046,"connected_time":515000000000,"state":"active","ping":103},{"user_id":244,"name":"drdoofus123","steam_id":76561198016826181,"connected_time":2001000000000,"state":"active","ping":72},{"user_id":231,"name":"Plant","steam_id":76561198892328663,"connected_time":2880000000000,"state":"active","ping":83},{"user_id":248,"name":"Go Away","steam_id":76561199213453506,"connected_time":1722000000000,"state":"active","ping":113},{"user_id":256,"name":"Cinnifox","steam_id":76561198068773971,"connected_time":1419000000000,"state":"active","ping":71},{"user_id":207,"name":"IZISOO","steam_id":76561198970380577,"connected_time":4225000000000,"state":"active","ping":66},{"user_id":250,"name":"Randy \"the Man\" Johnson","steam_id":76561198039124445,"connected_time":1608000000000,"state":"active","ping":103},{"user_id":263,"name":"Charles","steam_id":76561198155322277,"connected_time":852000000000,"state":"active","ping":92},{"user_id":251,"name":"mumbles","steam_id":76561197994528974,"connected_time":1571000000000,"state":"active","ping":134},{"user_id":273,"name":"webaline","steam_id":76561199052450127,"connected_time":106000000000,"state":"active","ping":75},{"user_id":253,"name":"Dick's Pizza","steam_id":76561198837864144,"connected_time":1547000000000,"state":"active","ping":46},{"user_id":241,"name":"Arizona","steam_id":76561198113748347,"connected_time":2267000000000,"state":"active","ping":68},{"user_id":257,"name":"HarryPotterGotSuckedByADementor","steam_id":76561199093494578,"connected_time":1384000000000,"state":"active","ping":72},{"user_id":274,"name":"young thug weaponry","steam_id":76561198363821364,"connected_time":79000000000,"state":"active","ping":79},{"user_id":239,"name":"abolish the federal reserve","steam_id":76561198047796437,"connected_time":2554000000000,"state":"active","ping":83},{"user_id":271,"name":"Minerkid2004","steam_id":76561198044262827,"connected_time":316000000000,"state":"active","ping":87},{"user_id":226,"name":"Merchant","steam_id":76561199028854247,"connected_time":3171000000000,"state":"active","ping":106},{"user_id":238,"name":"lukamine","steam_id":76561198166827208,"connected_time":2638000000000,"state":"active","ping":99},{"user_id":270,"name":"Potentially","steam_id":76561198821984325,"connected_time":365000000000,"state":"active","ping":163},{"user_id":266,"name":"Plo","steam_id":76561198080689959,"connected_time":655000000000,"state":"active","ping":73}]},{"server_id":5,"name":"Uncletopia | Frankfurt | 1 | All Maps","name_short":"frk-1","host":"frk-1.de.uncletopia.com","port":27015,"enabled":true,"region":"eu","cc":"de","latitude":50.110924,"longitude":8.682127,"reserved":0,"last_update":"0001-01-01T00:00:00Z","name_a2s":"Uncletopia | Frankfurt | 1 | All Maps","protocol":17,"map":"pl_thundermountain","folder":"tf","game":"Team Fortress","app_id":440,"player_count":24,"max_players":24,"Bots":0,"server_type":"Dedicated","server_os":"Linux","password":true,"vac":true,"version":"7757534","steam_id":85568392924469989,"keywords":["nocrits","nodmgspread","payload","uncletopia"],"game_id":440,"stv_port":27016,"stv_name":"Uncletopia | Frankfurt | 1 | All Maps | STV","players":[{"user_id":584,"name":"Mr_Pulse_","steam_id":76561198095001602,"connected_time":5444000000000,"state":"active","ping":95},{"user_id":635,"name":"GogsCrunchyNuts","steam_id":76561198150599213,"connected_time":742000000000,"state":"active","ping":105},{"user_id":549,"name":"Bobo","steam_id":76561198052308399,"connected_time":9912000000000,"state":"active","ping":57},{"user_id":623,"name":"Taskyy","steam_id":76561198134901175,"connected_time":2184000000000,"state":"active","ping":84},{"user_id":613,"name":"Loretne","steam_id":76561198351178590,"connected_time":2650000000000,"state":"active","ping":64},{"user_id":637,"name":"Gravity™","steam_id":76561197992193212,"connected_time":731000000000,"state":"active","ping":63},{"user_id":626,"name":"grzybiarz2022","steam_id":76561199409218561,"connected_time":1868000000000,"state":"active","ping":92},{"user_id":648,"name":"Sulatejuusto","steam_id":76561198063971856,"connected_time":378000000000,"state":"active","ping":84},{"user_id":642,"name":"The Stupid Fucking Gamer","steam_id":76561198068213670,"connected_time":586000000000,"state":"active","ping":52},{"user_id":621,"name":"Bidoof the Knight","steam_id":76561199214044702,"connected_time":2348000000000,"state":"active","ping":101},{"user_id":539,"name":"LarsInABox","steam_id":76561198028329262,"connected_time":10129000000000,"state":"active","ping":67},{"user_id":646,"name":"men snus","steam_id":76561198311864757,"connected_time":488000000000,"state":"active","ping":64},{"user_id":599,"name":"r06u3","steam_id":76561198254099253,"connected_time":3173000000000,"state":"active","ping":164},{"user_id":627,"name":"EdSuedi","steam_id":76561199387956486,"connected_time":1854000000000,"state":"active","ping":48},{"user_id":644,"name":"Lord Commissar Drac","steam_id":76561198030371218,"connected_time":543000000000,"state":"active","ping":67},{"user_id":645,"name":"Juiceydough","steam_id":76561197997323419,"connected_time":499000000000,"state":"active","ping":88},{"user_id":647,"name":"Zax","steam_id":76561198311575521,"connected_time":456000000000,"state":"active","ping":74},{"user_id":651,"name":"|20BB)\u003eMach","steam_id":76561198952487564,"connected_time":205000000000,"state":"active","ping":71},{"user_id":649,"name":"blue","steam_id":76561198216200092,"connected_time":323000000000,"state":"active","ping":60},{"user_id":634,"name":"Frazzle","steam_id":76561198262577951,"connected_time":1041000000000,"state":"active","ping":76},{"user_id":629,"name":"AsuX","steam_id":76561197990333289,"connected_time":1787000000000,"state":"active","ping":61},{"user_id":632,"name":"homeinvasion$","steam_id":76561199111905021,"connected_time":1451000000000,"state":"active","ping":115},{"user_id":650,"name":"Néodamode","steam_id":76561197968575924,"connected_time":319000000000,"state":"active","ping":66},{"user_id":589,"name":"Kappa ඞ","steam_id":76561198000402582,"connected_time":5054000000000,"state":"active","ping":69}]},{"server_id":110,"name":"Uncletopia | Frankfurt | 2 | All Maps","name_short":"frk-2","host":"frk-1.de.uncletopia.com","port":27025,"enabled":true,"region":"eu","cc":"de","latitude":50.110924,"longitude":8.682127,"reserved":0,"last_update":"0001-01-01T00:00:00Z","name_a2s":"Uncletopia | Frankfurt | 2 | All Maps","protocol":17,"map":"pl_swiftwater_final1","folder":"tf","game":"Team Fortress","app_id":440,"player_count":24,"max_players":24,"Bots":0,"server_type":"Dedicated","server_os":"Linux","password":true,"vac":true,"version":"7757534","steam_id":85568392924469990,"keywords":["nocrits","nodmgspread","payload","uncletopia"],"game_id":440,"stv_port":27026,"stv_name":"Uncletopia | Frankfurt | 2 | All Maps | STV","players":[{"user_id":681,"name":"S0LDaTo","steam_id":76561198269413360,"connected_time":1159000000000,"state":"active","ping":58},{"user_id":650,"name":"Wöff","steam_id":76561198327760130,"connected_time":3126000000000,"state":"active","ping":84},{"user_id":685,"name":"KingVoker","steam_id":76561198039602539,"connected_time":1080000000000,"state":"active","ping":66},{"user_id":699,"name":"Mottinen","steam_id":76561198223868928,"connected_time":680000000000,"state":"active","ping":73},{"user_id":667,"name":"KingPotatoChips","steam_id":76561198035156465,"connected_time":2057000000000,"state":"active","ping":65},{"user_id":698,"name":"Volcyy","steam_id":76561198063979124,"connected_time":686000000000,"state":"active","ping":40},{"user_id":663,"name":"PuttePossu","steam_id":76561198350078793,"connected_time":2511000000000,"state":"active","ping":91},{"user_id":662,"name":"chumra","steam_id":76561198938098190,"connected_time":2558000000000,"state":"active","ping":78},{"user_id":638,"name":"♡☠MORPHINE OVERDOSE☠♡","steam_id":76561198312877267,"connected_time":4335000000000,"state":"active","ping":90},{"user_id":693,"name":"DM_Tiz","steam_id":76561198061478257,"connected_time":844000000000,"state":"active","ping":42},{"user_id":704,"name":"dYnamo","steam_id":76561198448443559,"connected_time":511000000000,"state":"active","ping":71},{"user_id":694,"name":"cl","steam_id":76561199436640904,"connected_time":832000000000,"state":"active","ping":61},{"user_id":700,"name":"TidB","steam_id":76561198055342304,"connected_time":678000000000,"state":"active","ping":46},{"user_id":695,"name":"★poyo★","steam_id":76561198150078959,"connected_time":802000000000,"state":"active","ping":63},{"user_id":599,"name":"VLADIM:IR","steam_id":76561198070275802,"connected_time":7440000000000,"state":"active","ping":79},{"user_id":705,"name":"Anri Okita's Massive Milkers","steam_id":76561199186352720,"connected_time":485000000000,"state":"active","ping":66},{"user_id":657,"name":"Kawashim","steam_id":76561198285967281,"connected_time":2719000000000,"state":"active","ping":73},{"user_id":641,"name":"=PB=","steam_id":76561197999146612,"connected_time":4284000000000,"state":"active","ping":61},{"user_id":707,"name":"Nikola","steam_id":76561197993300020,"connected_time":231000000000,"state":"active","ping":66},{"user_id":692,"name":"Gryoss","steam_id":76561197999837111,"connected_time":898000000000,"state":"active","ping":103},{"user_id":688,"name":"Zero (Orbital Gear Mastermind)","steam_id":76561198017416816,"connected_time":1023000000000,"state":"active","ping":62},{"user_id":702,"name":"dangdut koplo vs chutney soca","steam_id":76561198051852765,"connected_time":556000000000,"state":"active","ping":68},{"user_id":708,"name":"Stormy 2pointO","steam_id":76561198127638432,"connected_time":83000000000,"state":"active","ping":52},{"user_id":677,"name":"iAmBack!\u003c3","steam_id":76561198004525276,"connected_time":1390000000000,"state":"active","ping":89}]},{"server_id":308,"name":"Uncletopia | Frankfurt | 3 | All Maps","name_short":"frk-3","host":"frk-1.de.uncletopia.com","port":27035,"enabled":true,"region":"eu","cc":"de","latitude":50.110924,"longitude":8.682127,"reserved":0,"last_update":"0001-01-01T00:00:00Z","name_a2s":"Uncletopia | Frankfurt | 3 | All Maps","protocol":17,"map":"cp_sunshine","folder":"tf","game":"Team Fortress","app_id":440,"player_count":0,"max_players":24,"Bots":0,"server_type":"Dedicated","server_os":"Linux","password":true,"vac":true,"version":"7757534","steam_id":85568392924504274,"keywords":["cp","nocrits","nodmgspread","uncletopia"],"game_id":440,"stv_port":27036,"stv_name":"Uncletopia | Frankfurt | 3 | All Maps | STV","players":null},{"server_id":309,"name":"Uncletopia | Frankfurt | 4 | All Maps","name_short":"frk-4","host":"frk-1.de.uncletopia.com","port":27045,"enabled":true,"region":"eu","cc":"de","latitude":50.110924,"longitude":8.682127,"reserved":0,"last_update":"0001-01-01T00:00:00Z","name_a2s":"Uncletopia | Frankfurt | 4 | All Maps","protocol":17,"map":"cp_sunshine","folder":"tf","game":"Team Fortress","app_id":440,"player_count":18,"max_players":24,"Bots":0,"server_type":"Dedicated","server_os":"Linux","password":true,"vac":true,"version":"7757534","steam_id":85568392924504275,"keywords":["cp","nocrits","nodmgspread","uncletopia"],"game_id":440,"stv_port":27046,"stv_name":"Uncletopia | Frankfurt | 4 | All Maps | STV","players":[{"user_id":599,"name":"bugpov","steam_id":76561198104896547,"connected_time":7453000000000,"state":"active","ping":60},{"user_id":715,"name":"Plop_","steam_id":76561198112567921,"connected_time":70000000000,"state":"active","ping":45},{"user_id":704,"name":"MicardoRilos","steam_id":76561198860205441,"connected_time":721000000000,"state":"active","ping":61},{"user_id":716,"name":"mespe","steam_id":76561198121530649,"connected_time":43000000000,"state":"active","ping":61},{"user_id":695,"name":"mikis","steam_id":76561198000624262,"connected_time":1415000000000,"state":"active","ping":60},{"user_id":705,"name":"That girl put a spell on me","steam_id":76561198154888327,"connected_time":678000000000,"state":"active","ping":60},{"user_id":636,"name":"silves","steam_id":76561198106407598,"connected_time":5122000000000,"state":"active","ping":65},{"user_id":712,"name":"Monster Machine","steam_id":76561198253592133,"connected_time":259000000000,"state":"active","ping":60},{"user_id":699,"name":"Wacht","steam_id":76561199033018467,"connected_time":1145000000000,"state":"active","ping":46},{"user_id":708,"name":"FTH -AA-","steam_id":76561198066287815,"connected_time":509000000000,"state":"active","ping":120},{"user_id":706,"name":"zak","steam_id":76561197998895428,"connected_time":626000000000,"state":"active","ping":46},{"user_id":711,"name":"Koli","steam_id":76561197992428783,"connected_time":360000000000,"state":"active","ping":45},{"user_id":659,"name":"RoXeUr-KaMiKaZe","steam_id":76561197998204782,"connected_time":3700000000000,"state":"active","ping":60},{"user_id":594,"name":"Yassine","steam_id":76561198140565712,"connected_time":8364000000000,"state":"active","ping":53},{"user_id":707,"name":"timothytrombone456","steam_id":76561197995676953,"connected_time":528000000000,"state":"active","ping":45},{"user_id":709,"name":"onku","steam_id":76561199230709660,"connected_time":419000000000,"state":"active","ping":45},{"user_id":713,"name":"Tarixxiv","steam_id":76561198084365415,"connected_time":249000000000,"state":"active","ping":85},{"user_id":653,"name":"waluigi","steam_id":76561198215809251,"connected_time":4038000000000,"state":"active","ping":51}]},{"server_id":310,"name":"Uncletopia | Frankfurt | 5 | All Maps","name_short":"frk-5","host":"frk-1.de.uncletopia.com","port":27055,"enabled":true,"region":"eu","cc":"de","latitude":50.110924,"longitude":8.682127,"reserved":0,"last_update":"0001-01-01T00:00:00Z","name_a2s":"Uncletopia | Frankfurt | 5 | All Maps","protocol":17,"map":"pl_goldrush","folder":"tf","game":"Team Fortress","app_id":440,"player_count":0,"max_players":24,"Bots":0,"server_type":"Dedicated","server_os":"Linux","password":true,"vac":true,"version":"7757534","steam_id":85568392924504277,"keywords":["nocrits","nodmgspread","payload","uncletopia"],"game_id":440,"stv_port":27056,"stv_name":"Uncletopia | Frankfurt | 5 | All Maps | STV","players":null},{"server_id":311,"name":"Uncletopia | Frankfurt | 6 | All Maps","name_short":"frk-6","host":"frk-1.de.uncletopia.com","port":27065,"enabled":true,"region":"eu","cc":"de","latitude":50.110924,"longitude":8.682127,"reserved":0,"last_update":"0001-01-01T00:00:00Z","name_a2s":"Uncletopia | Frankfurt | 6 | All Maps","protocol":17,"map":"pl_upward","folder":"tf","game":"Team Fortress","app_id":440,"player_count":19,"max_players":24,"Bots":0,"server_type":"Dedicated","server_os":"Linux","password":true,"vac":true,"version":"7757534","steam_id":85568392924504278,"keywords":["nocrits","nodmgspread","payload","uncletopia"],"game_id":440,"stv_port":27066,"stv_name":"Uncletopia | Frankfurt | 6 | All Maps | STV","players":[{"user_id":245,"name":"iPhone 4S","steam_id":76561198281913312,"connected_time":644000000000,"state":"active","ping":67},{"user_id":246,"name":"[P-roc] Cmm Bert","steam_id":76561198016658674,"connected_time":606000000000,"state":"active","ping":68},{"user_id":225,"name":"DesmondTheBear","steam_id":76561198038847568,"connected_time":2096000000000,"state":"active","ping":56},{"user_id":247,"name":"makin' piss","steam_id":76561198052136478,"connected_time":504000000000,"state":"active","ping":60},{"user_id":162,"name":"ZePequenio","steam_id":76561197968506094,"connected_time":7129000000000,"state":"active","ping":53},{"user_id":248,"name":"imrealylazy","steam_id":76561198878574518,"connected_time":487000000000,"state":"active","ping":61},{"user_id":239,"name":"Darth Szilvas Ripper","steam_id":76561198408693611,"connected_time":922000000000,"state":"active","ping":70},{"user_id":253,"name":"Onyx Odin - Alcoholic Alchemist","steam_id":76561198044560148,"connected_time":270000000000,"state":"active","ping":70},{"user_id":260,"name":"BAGASSER","steam_id":76561198051283300,"connected_time":2000000000,"state":"spawning","ping":73},{"user_id":251,"name":"historicalpoultry","steam_id":76561198148422688,"connected_time":359000000000,"state":"active","ping":43},{"user_id":252,"name":"Eskimo","steam_id":76561198154147392,"connected_time":329000000000,"state":"active","ping":43},{"user_id":254,"name":"PilloF","steam_id":76561198088635943,"connected_time":197000000000,"state":"active","ping":69},{"user_id":212,"name":"Julez","steam_id":76561198045505082,"connected_time":3444000000000,"state":"active","ping":62},{"user_id":255,"name":"Arturias","steam_id":76561198188720263,"connected_time":168000000000,"state":"active","ping":58},{"user_id":256,"name":"etc","steam_id":76561197998394797,"connected_time":164000000000,"state":"active","ping":56},{"user_id":257,"name":"matter","steam_id":76561199394052715,"connected_time":123000000000,"state":"active","ping":66},{"user_id":258,"name":"CEO of Pen Island","steam_id":76561198037212191,"connected_time":81000000000,"state":"active","ping":78},{"user_id":259,"name":"Warrez the Emu","steam_id":76561198080840887,"connected_time":66000000000,"state":"active","ping":75},{"user_id":219,"name":"yasser","steam_id":76561198103973320,"connected_time":3145000000000,"state":"active","ping":104}]},{"server_id":23,"name":"Uncletopia | Frankfurt | 7 | Stopwatch Beta","name_short":"frk-7","host":"frk-1.de.uncletopia.com","port":27075,"enabled":true,"region":"eu","cc":"de","latitude":50.110924,"longitude":8.682127,"reserved":0,"last_update":"0001-01-01T00:00:00Z","name_a2s":"Uncletopia | Frankfurt | 7 | Stopwatch Beta","protocol":17,"map":"workshop/koth_ashville_final.ugc2130459942","folder":"tf","game":"Team Fortress","app_id":440,"player_count":0,"max_players":24,"Bots":0,"server_type":"Dedicated","server_os":"Linux","password":true,"vac":true,"version":"7757534","steam_id":85568392924742827,"keywords":["cp","nocrits","nodmgspread","uncletopia"],"game_id":440,"stv_port":27076,"stv_name":"Uncletopia | Frankfurt | 7 | Stopwatch Beta | STV","players":null},{"server_id":24,"name":"Uncletopia | Frankfurt | 8 | Community","name_short":"frk-8","host":"frk-1.de.uncletopia.com","port":27085,"enabled":true,"region":"eu","cc":"de","latitude":50.110924,"longitude":8.682127,"reserved":0,"last_update":"0001-01-01T00:00:00Z","name_a2s":"Uncletopia | Frankfurt | 8 | Community","protocol":17,"map":"workshop/koth_bagel_rc5.ugc2514036946","folder":"tf","game":"Team Fortress","app_id":440,"player_count":3,"max_players":24,"Bots":0,"server_type":"Dedicated","server_os":"Linux","password":true,"vac":true,"version":"7757534","steam_id":85568392924742828,"keywords":["cp","nocrits","nodmgspread","uncletopia"],"game_id":440,"stv_port":27086,"stv_name":"Uncletopia | Frankfurt | 8 | Community | STV","players":[{"user_id":116,"name":"Harry der Harald","steam_id":76561199222772983,"connected_time":876000000000,"state":"active","ping":58},{"user_id":117,"name":"Florian_Albers","steam_id":76561198323441117,"connected_time":818000000000,"state":"active","ping":55},{"user_id":119,"name":"Dragon","steam_id":76561198163255365,"connected_time":401000000000,"state":"active","ping":79}]},{"server_id":202,"name":"Uncletopia | Hong Kong | 1 | All Maps","name_short":"hgk-1","host":"hgk-1.hk.uncletopia.com","port":27015,"enabled":true,"region":"asia","cc":"hk","latitude":22.302711,"longitude":114.177216,"reserved":0,"last_update":"0001-01-01T00:00:00Z","name_a2s":"Uncletopia | Hong Kong | 1 | All Maps","protocol":17,"map":"pl_frontier_final","folder":"tf","game":"Team Fortress","app_id":440,"player_count":1,"max_players":24,"Bots":0,"server_type":"Dedicated","server_os":"Linux","password":true,"vac":true,"version":"7757534","steam_id":85568392924494504,"keywords":["nocrits","nodmgspread","payload","uncletopia"],"game_id":440,"stv_port":27016,"stv_name":"Uncletopia | Hong Kong | 1 | All Maps | STV","players":[{"user_id":4,"name":"ocha お茶 전통차","steam_id":76561199224096189,"connected_time":164000000000,"state":"active","ping":90}]},{"server_id":1,"name":"Uncletopia | Los Angeles | 1 | All Maps","name_short":"lax-1","host":"lax-1.us.uncletopia.com","port":27015,"enabled":true,"region":"us-west","cc":"us","latitude":33.94279,"longitude":-118.41004,"reserved":0,"last_update":"0001-01-01T00:00:00Z","name_a2s":"Uncletopia | Los Angeles | 1 | All Maps","protocol":17,"map":"cp_dustbowl","folder":"tf","game":"Team Fortress","app_id":440,"player_count":2,"max_players":24,"Bots":0,"server_type":"Dedicated","server_os":"Linux","password":true,"vac":true,"version":"7757534","steam_id":85568392924469991,"keywords":["cp","nocrits","nodmgspread","uncletopia"],"game_id":440,"stv_port":27016,"stv_name":"Uncletopia | Los Angeles | 1 | All Maps | STV","players":[{"user_id":7,"name":"JamesR","steam_id":76561199436941161,"connected_time":2023000000000,"state":"active","ping":99},{"user_id":8,"name":"Chickenwing","steam_id":76561199347103141,"connected_time":1981000000000,"state":"active","ping":99}]},{"server_id":112,"name":"Uncletopia | Los Angeles | 2 | All Maps","name_short":"lax-2","host":"lax-1.us.uncletopia.com","port":27025,"enabled":true,"region":"us-west","cc":"us","latitude":33.94279,"longitude":-118.41004,"reserved":0,"last_update":"0001-01-01T00:00:00Z","name_a2s":"Uncletopia | Los Angeles | 2 | All Maps","protocol":17,"map":"pl_upward","folder":"tf","game":"Team Fortress","app_id":440,"player_count":24,"max_players":24,"Bots":0,"server_type":"Dedicated","server_os":"Linux","password":true,"vac":true,"version":"7757534","steam_id":85568392924469992,"keywords":["nocrits","nodmgspread","payload","uncletopia"],"game_id":440,"stv_port":27026,"stv_name":"Uncletopia | Los Angeles | 2 | All Maps | STV","players":[{"user_id":430,"name":"They could be starlings","steam_id":76561198441020995,"connected_time":967000000000,"state":"active","ping":61},{"user_id":431,"name":"Batso","steam_id":76561198106589452,"connected_time":963000000000,"state":"active","ping":70},{"user_id":411,"name":"rickey rat","steam_id":76561198173107162,"connected_time":2149000000000,"state":"active","ping":76},{"user_id":442,"name":"Merach","steam_id":76561197994544587,"connected_time":324000000000,"state":"active","ping":45},{"user_id":395,"name":"GardenOfStone","steam_id":76561199069870534,"connected_time":3501000000000,"state":"active","ping":61},{"user_id":365,"name":"nappyzappy","steam_id":76561198095118953,"connected_time":5946000000000,"state":"active","ping":90},{"user_id":434,"name":"UneditedAndy","steam_id":76561198982544947,"connected_time":635000000000,"state":"active","ping":52},{"user_id":435,"name":"Tanner The Fish Man","steam_id":76561198372696640,"connected_time":631000000000,"state":"active","ping":46},{"user_id":427,"name":"LJ","steam_id":76561199229551104,"connected_time":1180000000000,"state":"active","ping":102},{"user_id":436,"name":"LogicalFurret","steam_id":76561198350604657,"connected_time":613000000000,"state":"active","ping":54},{"user_id":388,"name":"Danny","steam_id":76561198089084860,"connected_time":3776000000000,"state":"active","ping":139},{"user_id":416,"name":"aon135","steam_id":76561197966931637,"connected_time":1814000000000,"state":"active","ping":86},{"user_id":439,"name":"Mr. Call You Back","steam_id":76561198025172811,"connected_time":473000000000,"state":"active","ping":58},{"user_id":396,"name":"Seo Demen","steam_id":76561198004096792,"connected_time":3499000000000,"state":"active","ping":60},{"user_id":440,"name":"some nerd","steam_id":76561198297272878,"connected_time":431000000000,"state":"active","ping":43},{"user_id":417,"name":"The Squid Gamer™","steam_id":76561198340621517,"connected_time":1756000000000,"state":"active","ping":82},{"user_id":447,"name":"Goalie","steam_id":76561198307517249,"connected_time":165000000000,"state":"active","ping":45},{"user_id":425,"name":"setch","steam_id":76561198252328518,"connected_time":1360000000000,"state":"active","ping":59},{"user_id":443,"name":"Amogous Supreme","steam_id":76561198025476774,"connected_time":300000000000,"state":"active","ping":70},{"user_id":444,"name":"Joe Burrow Appreciator","steam_id":76561198142420107,"connected_time":274000000000,"state":"active","ping":44},{"user_id":428,"name":"fishe enjoyer","steam_id":76561199045901994,"connected_time":1167000000000,"state":"active","ping":60},{"user_id":445,"name":"mango cafe","steam_id":76561198142328193,"connected_time":262000000000,"state":"active","ping":73},{"user_id":429,"name":"zuna","steam_id":76561199038981515,"connected_time":1142000000000,"state":"active","ping":53},{"user_id":446,"name":"Snazz","steam_id":76561198106458195,"connected_time":202000000000,"state":"active","ping":74}]},{"server_id":324,"name":"Uncletopia | Los Angeles | 3 | All Maps","name_short":"lax-3","host":"lax-1.us.uncletopia.com","port":27035,"enabled":true,"region":"us-west","cc":"us","latitude":33.94279,"longitude":-118.41004,"reserved":0,"last_update":"0001-01-01T00:00:00Z","name_a2s":"Uncletopia | Los Angeles | 3 | All Maps","protocol":17,"map":"pl_barnblitz","folder":"tf","game":"Team Fortress","app_id":440,"player_count":0,"max_players":24,"Bots":0,"server_type":"Dedicated","server_os":"Linux","password":true,"vac":true,"version":"7757534","steam_id":85568392924510198,"keywords":["nocrits","nodmgspread","payload","uncletopia"],"game_id":440,"stv_port":27036,"stv_name":"Uncletopia | Los Angeles | 3 | All Maps | STV","players":null},{"server_id":25,"name":"Uncletopia | Los Angeles | 4 | Stopwatch Beta","name_short":"lax-4","host":"lax-1.us.uncletopia.com","port":27045,"enabled":true,"region":"us-west","cc":"us","latitude":33.94279,"longitude":-118.41004,"reserved":0,"last_update":"0001-01-01T00:00:00Z","name_a2s":"Uncletopia | Los Angeles | 4 | Stopwatch Beta","protocol":17,"map":"koth_viaduct","folder":"tf","game":"Team Fortress","app_id":440,"player_count":0,"max_players":24,"Bots":0,"server_type":"Dedicated","server_os":"Linux","password":true,"vac":true,"version":"7757534","steam_id":85568392924510199,"keywords":["cp","nocrits","nodmgspread","uncletopia"],"game_id":440,"stv_port":27046,"stv_name":"Uncletopia | Los Angeles | 4 | Stopwatch Beta | STV","players":null},{"server_id":11,"name":"Uncletopia | London | 1 | All Maps","name_short":"lon-1","host":"lon-1.uk.uncletopia.com","port":27015,"enabled":true,"region":"eu","cc":"gb","latitude":51.509865,"longitude":-0.118092,"reserved":0,"last_update":"0001-01-01T00:00:00Z","name_a2s":"Uncletopia | London | 1 | All Maps","protocol":17,"map":"koth_harvest_final","folder":"tf","game":"Team Fortress","app_id":440,"player_count":24,"max_players":24,"Bots":0,"server_type":"Dedicated","server_os":"Linux","password":true,"vac":true,"version":"7757534","steam_id":85568392924367362,"keywords":["cp","nocrits","nodmgspread","uncletopia"],"game_id":440,"stv_port":27016,"stv_name":"Uncletopia | London | 1 | All Maps | STV","players":[{"user_id":794,"name":"dec","steam_id":76561198009660168,"connected_time":8737000000000,"state":"active","ping":47},{"user_id":853,"name":"player in a bathrobe","steam_id":76561199112265219,"connected_time":2532000000000,"state":"active","ping":71},{"user_id":858,"name":"alf","steam_id":76561198060249715,"connected_time":1938000000000,"state":"active","ping":47},{"user_id":784,"name":"LemonIsYellow","steam_id":76561198380771739,"connected_time":9865000000000,"state":"active","ping":87},{"user_id":859,"name":"Hazza","steam_id":76561198220057697,"connected_time":1736000000000,"state":"active","ping":59},{"user_id":848,"name":"donal rump","steam_id":76561198136239861,"connected_time":3386000000000,"state":"active","ping":34},{"user_id":868,"name":"goexo","steam_id":76561198112421389,"connected_time":170000000000,"state":"active","ping":69},{"user_id":811,"name":"Silent Person","steam_id":76561198107763537,"connected_time":6807000000000,"state":"active","ping":69},{"user_id":864,"name":"Lime","steam_id":76561198107113928,"connected_time":546000000000,"state":"active","ping":58},{"user_id":852,"name":"Aaron","steam_id":76561197990046953,"connected_time":2539000000000,"state":"active","ping":71},{"user_id":863,"name":"RubberNips","steam_id":76561198133538209,"connected_time":648000000000,"state":"active","ping":42},{"user_id":869,"name":"maS","steam_id":76561198033846407,"connected_time":131000000000,"state":"active","ping":123},{"user_id":825,"name":"Mr Prince","steam_id":76561199006591691,"connected_time":6297000000000,"state":"active","ping":203},{"user_id":813,"name":"SOPHIIEE","steam_id":76561198443798981,"connected_time":6804000000000,"state":"active","ping":57},{"user_id":866,"name":"Adam Sandler","steam_id":76561198310408309,"connected_time":194000000000,"state":"active","ping":60},{"user_id":836,"name":"Scutchy","steam_id":76561198104431220,"connected_time":5039000000000,"state":"active","ping":67},{"user_id":862,"name":"Dirty Joe","steam_id":76561198142418870,"connected_time":1250000000000,"state":"active","ping":45},{"user_id":850,"name":"jorogumo","steam_id":76561198838277022,"connected_time":3071000000000,"state":"active","ping":76},{"user_id":834,"name":"Kai","steam_id":76561198800004578,"connected_time":5125000000000,"state":"active","ping":55},{"user_id":865,"name":"The cost of living in the UK","steam_id":76561199000520747,"connected_time":210000000000,"state":"active","ping":48},{"user_id":842,"name":"Dominus.","steam_id":76561199065917088,"connected_time":4478000000000,"state":"active","ping":68},{"user_id":856,"name":"vosikos","steam_id":76561198298576765,"connected_time":2110000000000,"state":"active","ping":74},{"user_id":860,"name":"D_Ink","steam_id":76561198267716662,"connected_time":1579000000000,"state":"active","ping":43},{"user_id":867,"name":"Scrap","steam_id":76561199159785850,"connected_time":192000000000,"state":"active","ping":45}]},{"server_id":114,"name":"Uncletopia | London | 2 | All Maps","name_short":"lon-2","host":"lon-1.uk.uncletopia.com","port":27025,"enabled":true,"region":"eu","cc":"gb","latitude":51.509865,"longitude":-0.118092,"reserved":0,"last_update":"0001-01-01T00:00:00Z","name_a2s":"Uncletopia | London | 2 | All Maps","protocol":17,"map":"pl_borneo","folder":"tf","game":"Team Fortress","app_id":440,"player_count":24,"max_players":24,"Bots":0,"server_type":"Dedicated","server_os":"Linux","password":true,"vac":true,"version":"7757534","steam_id":85568392924470941,"keywords":["nocrits","nodmgspread","payload","uncletopia"],"game_id":440,"stv_port":27026,"stv_name":"Uncletopia | London | 2 | All Maps | STV","players":[{"user_id":675,"name":"Bob","steam_id":76561198218200489,"connected_time":820000000000,"state":"active","ping":59},{"user_id":665,"name":"BrainLacking","steam_id":76561198965574196,"connected_time":1655000000000,"state":"active","ping":57},{"user_id":642,"name":"Yangus","steam_id":76561198147796010,"connected_time":3933000000000,"state":"active","ping":54},{"user_id":676,"name":"bumblebee","steam_id":76561197994568475,"connected_time":816000000000,"state":"active","ping":132},{"user_id":666,"name":"sora","steam_id":76561198096547662,"connected_time":1651000000000,"state":"active","ping":55},{"user_id":667,"name":"Totoro-Motoro","steam_id":76561198279083427,"connected_time":1647000000000,"state":"active","ping":55},{"user_id":680,"name":"sassy the sasquatch","steam_id":76561198844060342,"connected_time":94000000000,"state":"active","ping":46},{"user_id":668,"name":"engie?","steam_id":76561198331852832,"connected_time":1632000000000,"state":"active","ping":72},{"user_id":649,"name":"Le Bon Toutou","steam_id":76561198300902712,"connected_time":3219000000000,"state":"active","ping":78},{"user_id":677,"name":"dunduu","steam_id":76561198875240717,"connected_time":642000000000,"state":"active","ping":80},{"user_id":620,"name":"pepper","steam_id":76561198059782462,"connected_time":5972000000000,"state":"active","ping":61},{"user_id":659,"name":"Darkmaen","steam_id":76561198060543390,"connected_time":2509000000000,"state":"active","ping":56},{"user_id":603,"name":"deskray@yahoo.com","steam_id":76561198805536170,"connected_time":7892000000000,"state":"active","ping":76},{"user_id":656,"name":"term.niko","steam_id":76561198111941470,"connected_time":3108000000000,"state":"active","ping":65},{"user_id":669,"name":"FLOU","steam_id":76561198056171993,"connected_time":1627000000000,"state":"active","ping":161},{"user_id":679,"name":"Cabbch","steam_id":76561198045955679,"connected_time":417000000000,"state":"active","ping":57},{"user_id":672,"name":"IceDreamer","steam_id":76561197997569989,"connected_time":1420000000000,"state":"active","ping":44},{"user_id":663,"name":"Thors","steam_id":76561197968739075,"connected_time":1939000000000,"state":"active","ping":44},{"user_id":671,"name":"XavierSweet","steam_id":76561198091781913,"connected_time":1482000000000,"state":"active","ping":53},{"user_id":674,"name":"wouris","steam_id":76561198876188003,"connected_time":900000000000,"state":"active","ping":74},{"user_id":585,"name":"Vershal Smershal","steam_id":76561198116223995,"connected_time":9690000000000,"state":"active","ping":59},{"user_id":640,"name":"dochris.2@yahoo.com","steam_id":76561198026478625,"connected_time":4239000000000,"state":"active","ping":57},{"user_id":641,"name":"sareena@yahoo.com","steam_id":76561198810194062,"connected_time":4220000000000,"state":"active","ping":68}]},{"server_id":320,"name":"Uncletopia | London | 3 | All Maps","name_short":"lon-3","host":"lon-1.uk.uncletopia.com","port":27035,"enabled":true,"region":"eu","cc":"gb","latitude":51.509865,"longitude":-0.118092,"reserved":0,"last_update":"0001-01-01T00:00:00Z","name_a2s":"Uncletopia | London | 3 | All Maps","protocol":17,"map":"cp_badlands","folder":"tf","game":"Team Fortress","app_id":440,"player_count":23,"max_players":24,"Bots":0,"server_type":"Dedicated","server_os":"Linux","password":true,"vac":true,"version":"7757534","steam_id":85568392924510192,"keywords":["cp","nocrits","nodmgspread","uncletopia"],"game_id":440,"stv_port":27036,"stv_name":"Uncletopia | London | 3 | All Maps | STV","players":[{"user_id":664,"name":"opaacic","steam_id":76561199158514501,"connected_time":1162000000000,"state":"active","ping":74},{"user_id":672,"name":"🌼 HugeE","steam_id":76561198245495152,"connected_time":532000000000,"state":"active","ping":61},{"user_id":673,"name":"Vosteria","steam_id":76561198290253884,"connected_time":531000000000,"state":"active","ping":93},{"user_id":547,"name":"Goat Enjoyer","steam_id":76561198000054669,"connected_time":11421000000000,"state":"active","ping":60},{"user_id":670,"name":"G.L.O.R.I.","steam_id":76561198134414380,"connected_time":770000000000,"state":"active","ping":54},{"user_id":621,"name":"Milosz52","steam_id":76561199060940204,"connected_time":4958000000000,"state":"active","ping":87},{"user_id":549,"name":"Wire  Bash","steam_id":76561198033268371,"connected_time":11410000000000,"state":"active","ping":60},{"user_id":649,"name":"Kenny","steam_id":76561198107911141,"connected_time":2794000000000,"state":"active","ping":60},{"user_id":662,"name":"ShoobyDooby","steam_id":76561198118473910,"connected_time":1281000000000,"state":"active","ping":60},{"user_id":641,"name":"Snowmotion","steam_id":76561198075022454,"connected_time":3494000000000,"state":"active","ping":68},{"user_id":677,"name":"Asfreild","steam_id":76561198055901120,"connected_time":20000000000,"state":"active","ping":76},{"user_id":633,"name":"Pinkchup","steam_id":76561198106802803,"connected_time":4494000000000,"state":"active","ping":82},{"user_id":674,"name":"Immovable Gonzalez","steam_id":76561198072233046,"connected_time":514000000000,"state":"active","ping":78},{"user_id":650,"name":"Up High! Down Low!","steam_id":76561198819871606,"connected_time":2751000000000,"state":"active","ping":98},{"user_id":556,"name":"Boz","steam_id":76561198020297825,"connected_time":11361000000000,"state":"active","ping":110},{"user_id":669,"name":"Homeless (Len)","steam_id":76561198111144783,"connected_time":855000000000,"state":"active","ping":75},{"user_id":676,"name":"🤔","steam_id":76561197990579131,"connected_time":495000000000,"state":"active","ping":78},{"user_id":552,"name":"rat exterminator","steam_id":76561198101537890,"connected_time":11400000000000,"state":"active","ping":59},{"user_id":661,"name":"8114","steam_id":76561198069214797,"connected_time":1789000000000,"state":"active","ping":72},{"user_id":652,"name":"*","steam_id":76561198095572159,"connected_time":2724000000000,"state":"active","ping":43},{"user_id":635,"name":"Minimi","steam_id":76561198873850443,"connected_time":4485000000000,"state":"active","ping":39},{"user_id":668,"name":"fallingpencil","steam_id":76561199230233148,"connected_time":1032000000000,"state":"active","ping":64},{"user_id":654,"name":"Dr. Funkenstein","steam_id":76561197977816210,"connected_time":2669000000000,"state":"active","ping":49}]},{"server_id":321,"name":"Uncletopia | London | 4 | All Maps","name_short":"lon-4","host":"lon-1.uk.uncletopia.com","port":27045,"enabled":true,"region":"eu","cc":"gb","latitude":51.509865,"longitude":-0.118092,"reserved":0,"last_update":"0001-01-01T00:00:00Z","name_a2s":"Uncletopia | London | 4 | All Maps","protocol":17,"map":"pl_swiftwater_final1","folder":"tf","game":"Team Fortress","app_id":440,"player_count":24,"max_players":24,"Bots":0,"server_type":"Dedicated","server_os":"Linux","password":true,"vac":true,"version":"7757534","steam_id":85568392924510193,"keywords":["nocrits","nodmgspread","payload","uncletopia"],"game_id":440,"stv_port":27046,"stv_name":"Uncletopia | London | 4 | All Maps | STV","players":[{"user_id":526,"name":"stonebum","steam_id":76561198057004606,"connected_time":1681000000000,"state":"active","ping":52},{"user_id":475,"name":"Old Man Winter","steam_id":76561198007653168,"connected_time":4728000000000,"state":"active","ping":61},{"user_id":520,"name":"Dr-je-kill","steam_id":76561198890817226,"connected_time":1784000000000,"state":"active","ping":70},{"user_id":533,"name":"Max Andrew","steam_id":76561198158955194,"connected_time":1280000000000,"state":"active","ping":65},{"user_id":503,"name":"Lethal","steam_id":76561198452042648,"connected_time":2829000000000,"state":"active","ping":69},{"user_id":504,"name":"CalThePal","steam_id":76561198084842126,"connected_time":2794000000000,"state":"active","ping":47},{"user_id":538,"name":"ThatGuyHarvey","steam_id":76561198113776826,"connected_time":499000000000,"state":"active","ping":47},{"user_id":485,"name":"cropper","steam_id":76561198047728149,"connected_time":4461000000000,"state":"active","ping":43},{"user_id":505,"name":"holykyckling","steam_id":76561198040661615,"connected_time":2776000000000,"state":"active","ping":75},{"user_id":536,"name":"murf","steam_id":76561199184831395,"connected_time":617000000000,"state":"active","ping":41},{"user_id":523,"name":"And Hit It!","steam_id":76561198030956814,"connected_time":1737000000000,"state":"active","ping":87},{"user_id":537,"name":"Bilaterial Newt","steam_id":76561198074655679,"connected_time":585000000000,"state":"active","ping":89},{"user_id":493,"name":"Zilouw","steam_id":76561198026596988,"connected_time":4143000000000,"state":"active","ping":65},{"user_id":506,"name":"saml","steam_id":76561198040716257,"connected_time":2762000000000,"state":"active","ping":78},{"user_id":525,"name":"TheKindleTheory","steam_id":76561198010230101,"connected_time":1711000000000,"state":"active","ping":57},{"user_id":529,"name":"X45Y","steam_id":76561198112534025,"connected_time":1654000000000,"state":"active","ping":57},{"user_id":535,"name":"hupa","steam_id":76561198241901284,"connected_time":708000000000,"state":"active","ping":69},{"user_id":507,"name":"Thumnder","steam_id":76561198271944544,"connected_time":2752000000000,"state":"active","ping":151},{"user_id":519,"name":"sethlington14","steam_id":76561199438357690,"connected_time":2161000000000,"state":"active","ping":62},{"user_id":498,"name":"Potato","steam_id":76561198883934935,"connected_time":3871000000000,"state":"active","ping":77},{"user_id":409,"name":"mohemmedmokhter2005","steam_id":76561199197650506,"connected_time":10909000000000,"state":"active","ping":113},{"user_id":438,"name":"Piteras","steam_id":76561198858532207,"connected_time":7434000000000,"state":"active","ping":81},{"user_id":528,"name":"triangle","steam_id":76561198046838168,"connected_time":1656000000000,"state":"active","ping":60},{"user_id":531,"name":"✧ Luigi Time ✧","steam_id":76561198026903673,"connected_time":1648000000000,"state":"active","ping":69}]},{"server_id":21,"name":"Uncletopia | London | 5 | All Maps","name_short":"lon-5","host":"lon-1.uk.uncletopia.com","port":27055,"enabled":true,"region":"eu","cc":"gb","latitude":51.509865,"longitude":-0.118092,"reserved":0,"last_update":"0001-01-01T00:00:00Z","name_a2s":"Uncletopia | London | 5 | All Maps","protocol":17,"map":"pl_swiftwater_final1","folder":"tf","game":"Team Fortress","app_id":440,"player_count":24,"max_players":24,"Bots":0,"server_type":"Dedicated","server_os":"Linux","password":true,"vac":true,"version":"7757534","steam_id":85568392924742829,"keywords":["nocrits","nodmgspread","payload","uncletopia"],"game_id":440,"stv_port":27056,"stv_name":"Uncletopia | London | 5 | All Maps | STV","players":[{"user_id":365,"name":"sun","steam_id":76561198190185971,"connected_time":55000000000,"state":"active","ping":61},{"user_id":293,"name":"Mr.Cupcake","steam_id":76561198152711174,"connected_time":3983000000000,"state":"active","ping":82},{"user_id":308,"name":"america","steam_id":76561199212197300,"connected_time":3476000000000,"state":"active","ping":56},{"user_id":354,"name":"Xoriss","steam_id":76561198045892147,"connected_time":429000000000,"state":"active","ping":71},{"user_id":350,"name":"Stümpy","steam_id":76561198255904077,"connected_time":1152000000000,"state":"active","ping":75},{"user_id":317,"name":"Swayer","steam_id":76561198056192460,"connected_time":2982000000000,"state":"active","ping":67},{"user_id":356,"name":"kieran","steam_id":76561198115357403,"connected_time":308000000000,"state":"active","ping":63},{"user_id":332,"name":"Laurie","steam_id":76561198082951750,"connected_time":2294000000000,"state":"active","ping":45},{"user_id":287,"name":"AWP Bodyshot :) ❤","steam_id":76561198029928533,"connected_time":4613000000000,"state":"active","ping":59},{"user_id":344,"name":"WoodrowWilson","steam_id":76561198044501988,"connected_time":1368000000000,"state":"active","ping":56},{"user_id":363,"name":"Troll","steam_id":76561199466152892,"connected_time":99000000000,"state":"active","ping":62},{"user_id":208,"name":"Annie the ekitten medic :3","steam_id":76561198241529554,"connected_time":8741000000000,"state":"active","ping":84},{"user_id":324,"name":"snowii","steam_id":76561198836246326,"connected_time":2716000000000,"state":"active","ping":44},{"user_id":352,"name":"Steen","steam_id":76561198122992510,"connected_time":902000000000,"state":"active","ping":47},{"user_id":362,"name":"Mega Man Legends 3","steam_id":76561198014110199,"connected_time":169000000000,"state":"active","ping":45},{"user_id":347,"name":"JumJim","steam_id":76561198038099760,"connected_time":1223000000000,"state":"active","ping":85},{"user_id":285,"name":"Tsar Bombastic","steam_id":76561198185444307,"connected_time":4824000000000,"state":"active","ping":53},{"user_id":315,"name":"roggzerz","steam_id":76561198056170459,"connected_time":3112000000000,"state":"active","ping":65},{"user_id":329,"name":"intrusive thoughts","steam_id":76561198411107729,"connected_time":2529000000000,"state":"active","ping":92},{"user_id":244,"name":"Onim","steam_id":76561198008057987,"connected_time":6061000000000,"state":"active","ping":61},{"user_id":176,"name":"Loop_Cat","steam_id":76561199045902145,"connected_time":11262000000000,"state":"active","ping":126},{"user_id":355,"name":"Bear","steam_id":76561198259885007,"connected_time":418000000000,"state":"active","ping":46},{"user_id":364,"name":"lizard","steam_id":76561198061513180,"connected_time":96000000000,"state":"active","ping":39},{"user_id":366,"name":"Prox","steam_id":76561198351490981,"connected_time":36000000000,"state":"active","ping":36}]},{"server_id":22,"name":"Uncletopia | London | 6 | All Maps","name_short":"lon-6","host":"lon-1.uk.uncletopia.com","port":27065,"enabled":true,"region":"eu","cc":"gb","latitude":51.509865,"longitude":-0.118092,"reserved":0,"last_update":"0001-01-01T00:00:00Z","name_a2s":"Uncletopia | London | 6 | All Maps","protocol":17,"map":"pl_swiftwater_final1","folder":"tf","game":"Team Fortress","app_id":440,"player_count":24,"max_players":24,"Bots":0,"server_type":"Dedicated","server_os":"Linux","password":true,"vac":true,"version":"7757534","steam_id":85568392924742830,"keywords":["nocrits","nodmgspread","payload","uncletopia"],"game_id":440,"stv_port":27066,"stv_name":"Uncletopia | London | 6 | All Maps | STV","players":[{"user_id":237,"name":"VoxelTwyst","steam_id":76561198179388166,"connected_time":3102000000000,"state":"active","ping":56},{"user_id":236,"name":"■Sir SC■","steam_id":76561198114638963,"connected_time":3130000000000,"state":"active","ping":56},{"user_id":238,"name":"muttonmaster","steam_id":76561198309257989,"connected_time":2754000000000,"state":"active","ping":55},{"user_id":279,"name":"Jank","steam_id":76561198251508752,"connected_time":11000000000,"state":"spawning","ping":353},{"user_id":240,"name":"A_Spoopy_Keenkeep1","steam_id":76561198128992159,"connected_time":2254000000000,"state":"active","ping":54},{"user_id":260,"name":"The Phantom of the Opera","steam_id":76561199403298146,"connected_time":1542000000000,"state":"active","ping":52},{"user_id":272,"name":"Raider","steam_id":76561198065444938,"connected_time":750000000000,"state":"active","ping":66},{"user_id":270,"name":"lunch muncher","steam_id":76561198353096483,"connected_time":1033000000000,"state":"active","ping":38},{"user_id":245,"name":"BeefHammer","steam_id":76561198078426223,"connected_time":2130000000000,"state":"active","ping":86},{"user_id":246,"name":"Ready Rice™","steam_id":76561198091969871,"connected_time":2126000000000,"state":"active","ping":85},{"user_id":247,"name":"FishD.ck_47","steam_id":76561198114773103,"connected_time":2059000000000,"state":"active","ping":83},{"user_id":248,"name":"oscail","steam_id":76561198180640198,"connected_time":2017000000000,"state":"active","ping":70},{"user_id":252,"name":"William","steam_id":76561198135931040,"connected_time":1747000000000,"state":"active","ping":69},{"user_id":273,"name":"binkstug","steam_id":76561198867644865,"connected_time":742000000000,"state":"active","ping":76},{"user_id":264,"name":"the high amby spy","steam_id":76561198212488780,"connected_time":1440000000000,"state":"active","ping":74},{"user_id":255,"name":"ANCK","steam_id":76561198092506016,"connected_time":1671000000000,"state":"active","ping":108},{"user_id":277,"name":"RIFT","steam_id":76561198991622379,"connected_time":416000000000,"state":"active","ping":47},{"user_id":258,"name":"Endo","steam_id":76561198130227890,"connected_time":1581000000000,"state":"active","ping":40},{"user_id":271,"name":"frosty","steam_id":76561198094560834,"connected_time":1023000000000,"state":"active","ping":59},{"user_id":265,"name":"rainbowmaster25!","steam_id":76561199215255414,"connected_time":1380000000000,"state":"active","ping":176},{"user_id":266,"name":"HeavyMetal","steam_id":76561199158386096,"connected_time":1378000000000,"state":"active","ping":69},{"user_id":267,"name":"lawrencefishdom","steam_id":76561199190918059,"connected_time":1355000000000,"state":"active","ping":57},{"user_id":268,"name":"YourFriendlyNeighborhoodDemopan","steam_id":76561198180396145,"connected_time":1342000000000,"state":"active","ping":102},{"user_id":275,"name":"Fidel","steam_id":76561198132416668,"connected_time":621000000000,"state":"active","ping":72}]},{"server_id":40,"name":"Uncletopia | London | 7 | No Payload","name_short":"lon-7","host":"lon-1.uk.uncletopia.com","port":27075,"enabled":true,"region":"eu","cc":"gb","latitude":51.509865,"longitude":-0.118092,"reserved":0,"last_update":"0001-01-01T00:00:00Z","name_a2s":"Uncletopia | London | 7 | No Payload","protocol":17,"map":"plr_bananabay","folder":"tf","game":"Team Fortress","app_id":440,"player_count":17,"max_players":24,"Bots":0,"server_type":"Dedicated","server_os":"Linux","password":true,"vac":true,"version":"7757534","steam_id":85568392924964314,"keywords":["nocrits","nodmgspread","payload","uncletopia"],"game_id":440,"stv_port":27076,"stv_name":"Uncletopia | London | 7 | No Payload | STV","players":[{"user_id":473,"name":"Popbob (notorious griefer)","steam_id":76561198100730234,"connected_time":2775000000000,"state":"active","ping":73},{"user_id":482,"name":"Frank","steam_id":76561198086672774,"connected_time":1144000000000,"state":"spawning","ping":24},{"user_id":471,"name":"bigmama412","steam_id":76561198300870712,"connected_time":2857000000000,"state":"active","ping":211},{"user_id":501,"name":"TumblinTrouble","steam_id":76561199106640153,"connected_time":298000000000,"state":"active","ping":69},{"user_id":484,"name":"weed dispenser","steam_id":76561199090859842,"connected_time":1096000000000,"state":"active","ping":148},{"user_id":507,"name":"balkerk","steam_id":76561198215315428,"connected_time":86000000000,"state":"spawning","ping":65},{"user_id":485,"name":"FireStorm","steam_id":76561198350478325,"connected_time":1025000000000,"state":"active","ping":30},{"user_id":487,"name":"Doc","steam_id":76561198433991203,"connected_time":990000000000,"state":"active","ping":39},{"user_id":489,"name":"foolproof","steam_id":76561198115801132,"connected_time":952000000000,"state":"active","ping":58},{"user_id":490,"name":"Green Goblen","steam_id":76561198251997252,"connected_time":943000000000,"state":"active","ping":95},{"user_id":218,"name":"LasagnaLarry22","steam_id":76561198089478290,"connected_time":23117000000000,"state":"active","ping":34},{"user_id":462,"name":"A Succulent Chinese Meal","steam_id":76561198069472440,"connected_time":4616000000000,"state":"spawning","ping":52},{"user_id":504,"name":"Bonk my Balls","steam_id":76561198070154445,"connected_time":234000000000,"state":"active","ping":152},{"user_id":495,"name":"ReflqzTTV","steam_id":76561199080694842,"connected_time":556000000000,"state":"active","ping":97},{"user_id":508,"name":"harrison","steam_id":76561198990132243,"connected_time":63000000000,"state":"active","ping":66},{"user_id":208,"name":"Fat Pigeon","steam_id":76561198817940142,"connected_time":24403000000000,"state":"active","ping":55},{"user_id":497,"name":"Adamkriaco","steam_id":76561198410311369,"connected_time":507000000000,"state":"spawning","ping":377}]},{"server_id":41,"name":"Uncletopia | London | 8 | Community","name_short":"lon-8","host":"lon-1.uk.uncletopia.com","port":27085,"enabled":true,"region":"eu","cc":"gb","latitude":51.509865,"longitude":-0.118092,"reserved":0,"last_update":"0001-01-01T00:00:00Z","name_a2s":"Uncletopia | London | 8 | Community","protocol":17,"map":"workshop/koth_ashville_final.ugc2130459942","folder":"tf","game":"Team Fortress","app_id":440,"player_count":0,"max_players":24,"Bots":0,"server_type":"Dedicated","server_os":"Linux","password":true,"vac":true,"version":"7757534","steam_id":85568392924964315,"keywords":["cp","nocrits","nodmgspread","uncletopia"],"game_id":440,"stv_port":27086,"stv_name":"Uncletopia | London | 8 | Community | STV","players":null},{"server_id":300,"name":"Uncletopia | Montréal | 1 | All Maps","name_short":"mtl-1","host":"mtl-1.ca.uncletopia.com","port":27015,"enabled":true,"region":"us-east","cc":"ca","latitude":45.50889,"longitude":-73.56167,"reserved":0,"last_update":"0001-01-01T00:00:00Z","name_a2s":"Uncletopia | Montréal | 1 | All Maps","protocol":17,"map":"koth_cascade","folder":"tf","game":"Team Fortress","app_id":440,"player_count":0,"max_players":24,"Bots":0,"server_type":"Dedicated","server_os":"Linux","password":true,"vac":true,"version":"7757534","steam_id":85568392924500087,"keywords":["cp","nocrits","nodmgspread","uncletopia"],"game_id":440,"stv_port":27016,"stv_name":"Uncletopia | Montréal | 1 | All Maps | STV","players":null},{"server_id":301,"name":"Uncletopia | Montréal | 2 | All Maps","name_short":"mtl-2","host":"mtl-1.ca.uncletopia.com","port":27025,"enabled":true,"region":"us-east","cc":"ca","latitude":45.50889,"longitude":-73.56167,"reserved":0,"last_update":"0001-01-01T00:00:00Z","name_a2s":"Uncletopia | Montréal | 2 | All Maps","protocol":17,"map":"pl_frontier_final","folder":"tf","game":"Team Fortress","app_id":440,"player_count":1,"max_players":24,"Bots":0,"server_type":"Dedicated","server_os":"Linux","password":true,"vac":true,"version":"7757534","steam_id":85568392924500088,"keywords":["nocrits","nodmgspread","payload","uncletopia"],"game_id":440,"stv_port":27026,"stv_name":"Uncletopia | Montréal | 2 | All Maps | STV","players":[{"user_id":14,"name":"Tezza48","steam_id":76561198024797922,"connected_time":22000000000,"state":"active","ping":128}]},{"server_id":302,"name":"Uncletopia | Montréal | 3 | All Maps","name_short":"mtl-3","host":"mtl-1.ca.uncletopia.com","port":27035,"enabled":true,"region":"us-east","cc":"ca","latitude":45.50889,"longitude":-73.56167,"reserved":0,"last_update":"0001-01-01T00:00:00Z","name_a2s":"Uncletopia | Montréal | 3 | All Maps","protocol":17,"map":"cp_sunshine","folder":"tf","game":"Team Fortress","app_id":440,"player_count":0,"max_players":24,"Bots":0,"server_type":"Dedicated","server_os":"Linux","password":true,"vac":true,"version":"7757534","steam_id":85568392924500089,"keywords":["cp","nocrits","nodmgspread","uncletopia"],"game_id":440,"stv_port":27036,"stv_name":"Uncletopia | Montréal | 3 | All Maps | STV","players":null},{"server_id":303,"name":"Uncletopia | Montréal | 4 | No Payload","name_short":"mtl-4","host":"mtl-1.ca.uncletopia.com","port":27045,"enabled":true,"region":"us-east","cc":"ca","latitude":45.50889,"longitude":-73.56167,"reserved":0,"last_update":"0001-01-01T00:00:00Z","name_a2s":"Uncletopia | Montréal | 4 | No Payload","protocol":17,"map":"koth_lakeside_final","folder":"tf","game":"Team Fortress","app_id":440,"player_count":0,"max_players":24,"Bots":0,"server_type":"Dedicated","server_os":"Linux","password":true,"vac":true,"version":"7757534","steam_id":85568392924500090,"keywords":["cp","nocrits","nodmgspread","uncletopia"],"game_id":440,"stv_port":27046,"stv_name":"Uncletopia | Montréal | 4 | No Payload | STV","players":null},{"server_id":13,"name":"Uncletopia | New York City | 1 | All Maps","name_short":"nyc-1","host":"nyc-1.us.uncletopia.com","port":27015,"enabled":true,"region":"us-east","cc":"us","latitude":40.73061,"longitude":-73.93524,"reserved":0,"last_update":"0001-01-01T00:00:00Z","name_a2s":"Uncletopia | New York City | 1 | All Maps","protocol":17,"map":"pl_thundermountain","folder":"tf","game":"Team Fortress","app_id":440,"player_count":24,"max_players":24,"Bots":0,"server_type":"Dedicated","server_os":"Linux","password":true,"vac":true,"version":"7757534","steam_id":85568392924469993,"keywords":["nocrits","nodmgspread","payload","uncletopia"],"game_id":440,"stv_port":27016,"stv_name":"Uncletopia | New York City | 1 | All Maps | STV","players":[{"user_id":196,"name":"Dr.Coke","steam_id":76561198047988499,"connected_time":29000000000,"state":"active","ping":126},{"user_id":155,"name":"Delta_4K","steam_id":76561198878343222,"connected_time":2409000000000,"state":"active","ping":76},{"user_id":193,"name":"Socialism Doesn't Work","steam_id":76561198044115698,"connected_time":517000000000,"state":"active","ping":111},{"user_id":186,"name":"ultra instinct cringe micheal","steam_id":76561198275625984,"connected_time":808000000000,"state":"active","ping":109},{"user_id":135,"name":"The Funny man","steam_id":76561199053955604,"connected_time":3366000000000,"state":"active","ping":70},{"user_id":187,"name":"blue drink","steam_id":76561199260739414,"connected_time":802000000000,"state":"active","ping":132},{"user_id":146,"name":"mxtry599","steam_id":76561199278383267,"connected_time":2818000000000,"state":"active","ping":60},{"user_id":175,"name":"that fat croc from donkey kong","steam_id":76561198159172495,"connected_time":1544000000000,"state":"active","ping":189},{"user_id":188,"name":"ivy","steam_id":76561198131876013,"connected_time":794000000000,"state":"active","ping":52},{"user_id":189,"name":"Lord Headass","steam_id":76561198182813630,"connected_time":751000000000,"state":"active","ping":112},{"user_id":161,"name":"Lezduit","steam_id":76561198049201471,"connected_time":2034000000000,"state":"active","ping":91},{"user_id":121,"name":"Laelaps","steam_id":76561198100061416,"connected_time":4307000000000,"state":"active","ping":53},{"user_id":180,"name":"Slazzer","steam_id":76561198404351844,"connected_time":1298000000000,"state":"active","ping":64},{"user_id":172,"name":"unsubtract","steam_id":76561198865158742,"connected_time":1637000000000,"state":"active","ping":65},{"user_id":141,"name":"luminary","steam_id":76561198126358045,"connected_time":3217000000000,"state":"active","ping":51},{"user_id":194,"name":"tsaide","steam_id":76561198384120999,"connected_time":133000000000,"state":"active","ping":53},{"user_id":190,"name":"the mouse from sing (2016)","steam_id":76561198126489501,"connected_time":746000000000,"state":"active","ping":70},{"user_id":93,"name":"Juan Pablo Gonzalez 2022","steam_id":76561199197961413,"connected_time":6089000000000,"state":"active","ping":41},{"user_id":160,"name":"a child","steam_id":76561198803040574,"connected_time":2206000000000,"state":"active","ping":45},{"user_id":191,"name":"Goldbug","steam_id":76561198025221202,"connected_time":657000000000,"state":"active","ping":119},{"user_id":182,"name":"CJ_from_Groove","steam_id":76561198889928743,"connected_time":913000000000,"state":"active","ping":174},{"user_id":177,"name":"Joy #savetf2","steam_id":76561198073690173,"connected_time":1480000000000,"state":"active","ping":63},{"user_id":192,"name":"e","steam_id":76561198131245396,"connected_time":587000000000,"state":"active","ping":64},{"user_id":179,"name":"Ryptyde","steam_id":76561199017101978,"connected_time":1375000000000,"state":"active","ping":69}]},{"server_id":14,"name":"Uncletopia | New York City | 2 | All Maps","name_short":"nyc-2","host":"nyc-1.us.uncletopia.com","port":27025,"enabled":true,"region":"us-east","cc":"us","latitude":40.73061,"longitude":-73.93524,"reserved":0,"last_update":"0001-01-01T00:00:00Z","name_a2s":"Uncletopia | New York City | 2 | All Maps","protocol":17,"map":"pl_snowycoast","folder":"tf","game":"Team Fortress","app_id":440,"player_count":24,"max_players":24,"Bots":0,"server_type":"Dedicated","server_os":"Linux","password":true,"vac":true,"version":"7757534","steam_id":85568392924469994,"keywords":["nocrits","nodmgspread","payload","uncletopia"],"game_id":440,"stv_port":27026,"stv_name":"Uncletopia | New York City | 2 | All Maps | STV","players":[{"user_id":169,"name":"WitheringLeo","steam_id":76561198046722918,"connected_time":2395000000000,"state":"active","ping":57},{"user_id":186,"name":"Donuts","steam_id":76561198209147332,"connected_time":581000000000,"state":"active","ping":156},{"user_id":185,"name":"you forgot the sauce","steam_id":76561198387016713,"connected_time":876000000000,"state":"active","ping":61},{"user_id":155,"name":"Infinity","steam_id":76561199134919099,"connected_time":3223000000000,"state":"active","ping":54},{"user_id":187,"name":"♡Valari♡","steam_id":76561198806050097,"connected_time":567000000000,"state":"active","ping":83},{"user_id":159,"name":"1 zeptosecond no za","steam_id":76561198325549536,"connected_time":3044000000000,"state":"active","ping":85},{"user_id":164,"name":"The Land Admiral","steam_id":76561198159356609,"connected_time":2549000000000,"state":"active","ping":57},{"user_id":188,"name":"FunnyUsernameWow","steam_id":76561198324177635,"connected_time":567000000000,"state":"active","ping":47},{"user_id":163,"name":"monke","steam_id":76561198035138859,"connected_time":2557000000000,"state":"active","ping":64},{"user_id":144,"name":"Myn","steam_id":76561198055438857,"connected_time":3772000000000,"state":"active","ping":66},{"user_id":196,"name":"RetroBoy64","steam_id":76561198994764060,"connected_time":27000000000,"state":"spawning","ping":55},{"user_id":190,"name":"Huntpk","steam_id":76561198340591674,"connected_time":518000000000,"state":"active","ping":116},{"user_id":126,"name":"Oomitch","steam_id":76561198071702759,"connected_time":4689000000000,"state":"active","ping":119},{"user_id":191,"name":"B","steam_id":76561198015740144,"connected_time":501000000000,"state":"active","ping":120},{"user_id":151,"name":"Sensitive Shooter","steam_id":76561198041439581,"connected_time":3542000000000,"state":"active","ping":100},{"user_id":113,"name":"-π- BakaD","steam_id":76561197960559169,"connected_time":5394000000000,"state":"active","ping":45},{"user_id":173,"name":"CRAZY engineer","steam_id":76561198887937902,"connected_time":2273000000000,"state":"active","ping":44},{"user_id":184,"name":"DDM","steam_id":76561197989699054,"connected_time":903000000000,"state":"active","ping":98},{"user_id":192,"name":"Copter_Boy","steam_id":76561198322921312,"connected_time":474000000000,"state":"active","ping":58},{"user_id":193,"name":"nhbiker","steam_id":76561198081277675,"connected_time":464000000000,"state":"active","ping":44},{"user_id":194,"name":"Dan Flashes Rewards Card Holder","steam_id":76561199215811448,"connected_time":456000000000,"state":"active","ping":59},{"user_id":195,"name":"Zakarya","steam_id":76561198176061250,"connected_time":360000000000,"state":"active","ping":53},{"user_id":177,"name":"Nic0","steam_id":76561198305690218,"connected_time":2039000000000,"state":"active","ping":105},{"user_id":127,"name":"Seru","steam_id":76561199219827214,"connected_time":4655000000000,"state":"active","ping":75}]},{"server_id":15,"name":"Uncletopia | New York City | 3 | Stopwatch Beta","name_short":"nyc-3","host":"nyc-1.us.uncletopia.com","port":27035,"enabled":true,"region":"us-east","cc":"us","latitude":40.73061,"longitude":-73.93524,"reserved":0,"last_update":"0001-01-01T00:00:00Z","name_a2s":"Uncletopia | New York City | 3 | Stopwatch Beta","protocol":17,"map":"pl_upward","folder":"tf","game":"Team Fortress","app_id":440,"player_count":0,"max_players":24,"Bots":0,"server_type":"Dedicated","server_os":"Linux","password":true,"vac":true,"version":"7757534","steam_id":85568392924742820,"keywords":["nocrits","nodmgspread","payload","uncletopia"],"game_id":440,"stv_port":27036,"stv_name":"Uncletopia | New York City | 3 | Stopwatch Beta | STV","players":null},{"server_id":16,"name":"Uncletopia | New York City | 4 | Community","name_short":"nyc-4","host":"nyc-1.us.uncletopia.com","port":27045,"enabled":true,"region":"us-east","cc":"us","latitude":40.73061,"longitude":-73.93524,"reserved":0,"last_update":"0001-01-01T00:00:00Z","name_a2s":"Uncletopia | New York City | 4 | Community","protocol":17,"map":"pl_borneo","folder":"tf","game":"Team Fortress","app_id":440,"player_count":0,"max_players":24,"Bots":0,"server_type":"Dedicated","server_os":"Linux","password":true,"vac":true,"version":"7757534","steam_id":85568392924742821,"keywords":["nocrits","nodmgspread","payload","uncletopia"],"game_id":440,"stv_port":27046,"stv_name":"Uncletopia | New York City | 4 | Community | STV","players":null},{"server_id":142,"name":"Uncletopia | São Paulo | 1 | All Maps","name_short":"sao-1","host":"sao-1.br.uncletopia.com","port":27015,"enabled":true,"region":"sa","cc":"br","latitude":-23.533773,"longitude":-46.62529,"reserved":0,"last_update":"0001-01-01T00:00:00Z","name_a2s":"Uncletopia | São Paulo | 1 | All Maps","protocol":17,"map":"koth_highpass","folder":"tf","game":"Team Fortress","app_id":440,"player_count":0,"max_players":24,"Bots":0,"server_type":"Dedicated","server_os":"Linux","password":true,"vac":true,"version":"7757534","steam_id":85568392924469996,"keywords":["cp","nocrits","nodmgspread","uncletopia"],"game_id":440,"stv_port":27016,"stv_name":"Uncletopia | São Paulo | 1 | All Maps | STV","players":null},{"server_id":143,"name":"Uncletopia | São Paulo | 2 | All Maps","name_short":"sao-2","host":"sao-2.br.uncletopia.com","port":27015,"enabled":true,"region":"sa","cc":"br","latitude":-23.533773,"longitude":-46.62529,"reserved":0,"last_update":"0001-01-01T00:00:00Z","name_a2s":"Uncletopia | São Paulo | 2 | All Maps","protocol":17,"map":"koth_viaduct","folder":"tf","game":"Team Fortress","app_id":440,"player_count":0,"max_players":24,"Bots":0,"server_type":"Dedicated","server_os":"Linux","password":true,"vac":true,"version":"7757534","steam_id":85568392924485349,"keywords":["cp","nocrits","nodmgspread","uncletopia"],"game_id":440,"stv_port":27016,"stv_name":"Uncletopia | São Paulo | 2 | All Maps | STV","players":null},{"server_id":7,"name":"Uncletopia | Seattle | 1 | All Maps","name_short":"sea-1","host":"sea-1.us.uncletopia.com","port":27015,"enabled":true,"region":"us-west","cc":"us","latitude":47.608013,"longitude":-122.33517,"reserved":0,"last_update":"0001-01-01T00:00:00Z","name_a2s":"Uncletopia | Seattle | 1 | All Maps","protocol":17,"map":"cp_freight_final1","folder":"tf","game":"Team Fortress","app_id":440,"player_count":24,"max_players":24,"Bots":0,"server_type":"Dedicated","server_os":"Linux","password":true,"vac":true,"version":"7757534","steam_id":85568392924469997,"keywords":["cp","nocrits","nodmgspread","uncletopia"],"game_id":440,"stv_port":27016,"stv_name":"Uncletopia | Seattle | 1 | All Maps | STV","players":[{"user_id":255,"name":"Malicious Sigma Ape","steam_id":76561198384515132,"connected_time":863000000000,"state":"active","ping":117},{"user_id":248,"name":"Wolf with a flashlight","steam_id":76561197999816472,"connected_time":1016000000000,"state":"active","ping":85},{"user_id":231,"name":"Y'o","steam_id":76561198098462500,"connected_time":2935000000000,"state":"active","ping":86},{"user_id":256,"name":"SlurpyTheDog","steam_id":76561198799733154,"connected_time":861000000000,"state":"active","ping":112},{"user_id":258,"name":"Sealops","steam_id":76561198126918709,"connected_time":692000000000,"state":"active","ping":79},{"user_id":245,"name":"SPOON MAN","steam_id":76561199028500370,"connected_time":1289000000000,"state":"active","ping":50},{"user_id":249,"name":"Dovid65","steam_id":76561199277530814,"connected_time":1016000000000,"state":"active","ping":170},{"user_id":204,"name":"shane","steam_id":76561198060491451,"connected_time":5011000000000,"state":"active","ping":88},{"user_id":238,"name":"surrealist neophyte","steam_id":76561198325306660,"connected_time":1933000000000,"state":"active","ping":53},{"user_id":195,"name":"Maxmanlz","steam_id":76561198112057874,"connected_time":5254000000000,"state":"active","ping":97},{"user_id":228,"name":"Sloppy Joe (Extra Sauce)","steam_id":76561198359703432,"connected_time":2969000000000,"state":"active","ping":88},{"user_id":206,"name":"rat gets a little more baklava","steam_id":76561198031234032,"connected_time":5007000000000,"state":"active","ping":120},{"user_id":183,"name":"luis","steam_id":76561198081341347,"connected_time":6017000000000,"state":"active","ping":74},{"user_id":260,"name":"PvZ Enthusiast","steam_id":76561199089562026,"connected_time":374000000000,"state":"active","ping":50},{"user_id":188,"name":"Lord Brocktree","steam_id":76561198415527061,"connected_time":5744000000000,"state":"active","ping":49},{"user_id":259,"name":"Marie","steam_id":76561198056104899,"connected_time":578000000000,"state":"active","ping":133},{"user_id":234,"name":"mrs. business","steam_id":76561198025454291,"connected_time":2371000000000,"state":"active","ping":34},{"user_id":241,"name":"Buckytr","steam_id":76561198096335025,"connected_time":1714000000000,"state":"active","ping":67},{"user_id":261,"name":"Tom Skirrett","steam_id":76561198014600788,"connected_time":274000000000,"state":"active","ping":65},{"user_id":257,"name":"Psych03","steam_id":76561198061753667,"connected_time":827000000000,"state":"active","ping":80},{"user_id":210,"name":"♥ President Shitfart ♥","steam_id":76561198141819053,"connected_time":4745000000000,"state":"active","ping":73},{"user_id":247,"name":"AmyPercent","steam_id":76561198071896932,"connected_time":1165000000000,"state":"active","ping":87},{"user_id":230,"name":"Greskrendtregk","steam_id":76561197969553142,"connected_time":2936000000000,"state":"active","ping":71},{"user_id":166,"name":"crow","steam_id":76561198046802071,"connected_time":7574000000000,"state":"active","ping":108}]},{"server_id":119,"name":"Uncletopia | Seattle | 2 | All Maps","name_short":"sea-2","host":"sea-1.us.uncletopia.com","port":27025,"enabled":true,"region":"us-west","cc":"us","latitude":47.608013,"longitude":-122.33517,"reserved":0,"last_update":"0001-01-01T00:00:00Z","name_a2s":"Uncletopia | Seattle | 2 | All Maps","protocol":17,"map":"cp_sunshine","folder":"tf","game":"Team Fortress","app_id":440,"player_count":0,"max_players":24,"Bots":0,"server_type":"Dedicated","server_os":"Linux","password":true,"vac":true,"version":"7757534","steam_id":85568392924469998,"keywords":["cp","nocrits","nodmgspread","uncletopia"],"game_id":440,"stv_port":27026,"stv_name":"Uncletopia | Seattle | 2 | All Maps | STV","players":null},{"server_id":406,"name":"Uncletopia | Seattle | 3 | Stopwatch Beta","name_short":"sea-3","host":"sea-1.us.uncletopia.com","port":27035,"enabled":true,"region":"us-west","cc":"us","latitude":47.608013,"longitude":-122.33517,"reserved":0,"last_update":"0001-01-01T00:00:00Z","name_a2s":"Uncletopia | Seattle | 3 | Stopwatch Beta","protocol":17,"map":"workshop/pl_badwater_pro_v12.ugc2142942074","folder":"tf","game":"Team Fortress","app_id":440,"player_count":0,"max_players":24,"Bots":0,"server_type":"Dedicated","server_os":"Linux","password":true,"vac":true,"version":"7757534","steam_id":85568392924515217,"keywords":["nocrits","nodmgspread","payload","uncletopia"],"game_id":440,"stv_port":27036,"stv_name":"Uncletopia | Seattle | 3 | Stopwatch Beta | STV","players":null},{"server_id":17,"name":"Uncletopia | San Francisco | 1 | All Maps","name_short":"sfo-1","host":"sfo-1.us.uncletopia.com","port":27015,"enabled":true,"region":"us-west","cc":"us","latitude":37.77397,"longitude":-122.4313,"reserved":0,"last_update":"0001-01-01T00:00:00Z","name_a2s":"Uncletopia | San Francisco | 1 | All Maps","protocol":17,"map":"cp_dustbowl","folder":"tf","game":"Team Fortress","app_id":440,"player_count":8,"max_players":24,"Bots":0,"server_type":"Dedicated","server_os":"Linux","password":true,"vac":true,"version":"7757534","steam_id":85568392924469999,"keywords":["cp","nocrits","nodmgspread","uncletopia"],"game_id":440,"stv_port":27016,"stv_name":"Uncletopia | San Francisco | 1 | All Maps | STV","players":[{"user_id":6,"name":"똥 ( ͡° ͜ʖ ͡°)","steam_id":76561198256306854,"connected_time":2118000000000,"state":"active","ping":48},{"user_id":7,"name":"yer","steam_id":76561198160008998,"connected_time":2112000000000,"state":"active","ping":55},{"user_id":8,"name":"GargantuanMango","steam_id":76561199136698299,"connected_time":1100000000000,"state":"active","ping":80},{"user_id":9,"name":"Perry the Platypus #savetf2","steam_id":76561198273045773,"connected_time":1086000000000,"state":"active","ping":61},{"user_id":10,"name":"Helpful Hobo","steam_id":76561198250872082,"connected_time":1018000000000,"state":"active","ping":102},{"user_id":11,"name":"Hero Smasher","steam_id":76561198150681669,"connected_time":989000000000,"state":"active","ping":45},{"user_id":18,"name":"Pavvler","steam_id":76561199446614223,"connected_time":219000000000,"state":"active","ping":91},{"user_id":14,"name":"Percoid","steam_id":76561198039229199,"connected_time":636000000000,"state":"active","ping":66}]},{"server_id":18,"name":"Uncletopia | San Francisco | 2 | All Maps","name_short":"sfo-2","host":"sfo-1.us.uncletopia.com","port":27025,"enabled":true,"region":"us-west","cc":"us","latitude":37.77397,"longitude":-122.4313,"reserved":0,"last_update":"0001-01-01T00:00:00Z","name_a2s":"Uncletopia | San Francisco | 2 | All Maps","protocol":17,"map":"koth_viaduct","folder":"tf","game":"Team Fortress","app_id":440,"player_count":0,"max_players":24,"Bots":0,"server_type":"Dedicated","server_os":"Linux","password":true,"vac":true,"version":"7757534","steam_id":85568392924470000,"keywords":["cp","nocrits","nodmgspread","uncletopia"],"game_id":440,"stv_port":27026,"stv_name":"Uncletopia | San Francisco | 2 | All Maps | STV","players":null},{"server_id":19,"name":"Uncletopia | San Francisco | 3 | Stopwatch Beta","name_short":"sfo-3","host":"sfo-1.us.uncletopia.com","port":27035,"enabled":true,"region":"us-west","cc":"us","latitude":37.77397,"longitude":-122.4313,"reserved":0,"last_update":"0001-01-01T00:00:00Z","name_a2s":"Uncletopia | San Francisco | 3 | Stopwatch Beta","protocol":17,"map":"koth_viaduct","folder":"tf","game":"Team Fortress","app_id":440,"player_count":0,"max_players":24,"Bots":0,"server_type":"Dedicated","server_os":"Linux","password":true,"vac":true,"version":"7757534","steam_id":85568392924742824,"keywords":["cp","nocrits","nodmgspread","uncletopia"],"game_id":440,"stv_port":27036,"stv_name":"Uncletopia | San Francisco | 3 | Stopwatch Beta | STV","players":null},{"server_id":20,"name":"Uncletopia | San Francisco | 4 | Community","name_short":"sfo-4","host":"sfo-1.us.uncletopia.com","port":27045,"enabled":true,"region":"us-west","cc":"us","latitude":37.77397,"longitude":-122.4313,"reserved":0,"last_update":"0001-01-01T00:00:00Z","name_a2s":"Uncletopia | San Francisco | 4 | Community","protocol":17,"map":"workshop/koth_bagel_rc5.ugc2514036946","folder":"tf","game":"Team Fortress","app_id":440,"player_count":0,"max_players":24,"Bots":0,"server_type":"Dedicated","server_os":"Linux","password":true,"vac":true,"version":"7757534","steam_id":85568392924742826,"keywords":["cp","nocrits","nodmgspread","uncletopia"],"game_id":440,"stv_port":27046,"stv_name":"Uncletopia | San Francisco | 4 | Community | STV","players":null},{"server_id":141,"name":"Uncletopia | Sydney | 1 | All Maps","name_short":"syd-1","host":"syd-1.au.uncletopia.com","port":27015,"enabled":true,"region":"au","cc":"au","latitude":-33.865143,"longitude":151.2099,"reserved":0,"last_update":"0001-01-01T00:00:00Z","name_a2s":"Uncletopia | Sydney | 1 | All Maps","protocol":17,"map":"koth_lakeside_final","folder":"tf","game":"Team Fortress","app_id":440,"player_count":0,"max_players":24,"Bots":0,"server_type":"Dedicated","server_os":"Linux","password":true,"vac":true,"version":"7757534","steam_id":85568392924470001,"keywords":["cp","nocrits","nodmgspread","uncletopia"],"game_id":440,"stv_port":27016,"stv_name":"Uncletopia | Sydney | 1 | All Maps | STV","players":null},{"server_id":123,"name":"Uncletopia | Sydney | 2 | All Maps","name_short":"syd-2","host":"syd-1.au.uncletopia.com","port":27025,"enabled":true,"region":"au","cc":"au","latitude":-33.865143,"longitude":151.2099,"reserved":0,"last_update":"0001-01-01T00:00:00Z","name_a2s":"Uncletopia | Sydney | 2 | All Maps","protocol":17,"map":"cp_dustbowl","folder":"tf","game":"Team Fortress","app_id":440,"player_count":5,"max_players":24,"Bots":0,"server_type":"Dedicated","server_os":"Linux","password":true,"vac":true,"version":"7757534","steam_id":85568392924470002,"keywords":["cp","nocrits","nodmgspread","uncletopia"],"game_id":440,"stv_port":27026,"stv_name":"Uncletopia | Sydney | 2 | All Maps | STV","players":[{"user_id":20,"name":"blaze","steam_id":76561198241303512,"connected_time":106000000000,"state":"active","ping":56},{"user_id":8,"name":"internetkittenz13","steam_id":76561198881042979,"connected_time":2570000000000,"state":"active","ping":79},{"user_id":10,"name":"Toba","steam_id":76561199218162666,"connected_time":1379000000000,"state":"active","ping":65},{"user_id":17,"name":"Saint","steam_id":76561198241813158,"connected_time":533000000000,"state":"active","ping":70},{"user_id":18,"name":"Toody","steam_id":76561198212656752,"connected_time":515000000000,"state":"active","ping":47}]},{"server_id":395,"name":"Uncletopia | Sydney | 3 | All Maps","name_short":"syd-3","host":"syd-1.au.uncletopia.com","port":27035,"enabled":true,"region":"au","cc":"au","latitude":-33.865143,"longitude":151.2099,"reserved":0,"last_update":"0001-01-01T00:00:00Z","name_a2s":"Uncletopia | Sydney | 3 | All Maps","protocol":17,"map":"cp_dustbowl","folder":"tf","game":"Team Fortress","app_id":440,"player_count":0,"max_players":24,"Bots":0,"server_type":"Dedicated","server_os":"Linux","password":true,"vac":true,"version":"7757534","steam_id":85568392925194467,"keywords":["cp","nocrits","nodmgspread","uncletopia"],"game_id":440,"stv_port":27036,"stv_name":"Uncletopia | Sydney | 3 | All Maps | STV","players":null},{"server_id":396,"name":"Uncletopia | Sydney | 4 | All Maps","name_short":"syd-4","host":"syd-1.au.uncletopia.com","port":27045,"enabled":true,"region":"au","cc":"au","latitude":-33.865143,"longitude":151.2099,"reserved":0,"last_update":"0001-01-01T00:00:00Z","name_a2s":"Uncletopia | Sydney | 4 | All Maps","protocol":17,"map":"pl_borneo","folder":"tf","game":"Team Fortress","app_id":440,"player_count":0,"max_players":24,"Bots":0,"server_type":"Dedicated","server_os":"Linux","password":true,"vac":true,"version":"7757534","steam_id":85568392925397958,"keywords":["nocrits","nodmgspread","payload","uncletopia"],"game_id":440,"stv_port":27046,"stv_name":"Uncletopia | Sydney | 4 | All Maps | STV","players":null},{"server_id":58,"name":"Uncletopia | Sydney | 5 | Stopwatch Beta","name_short":"syd-5","host":"syd-1.au.uncletopia.com","port":27055,"enabled":true,"region":"au","cc":"au","latitude":-33.865143,"longitude":151.2099,"reserved":0,"last_update":"0001-01-01T00:00:00Z","name_a2s":"Uncletopia | Sydney | 5 | Stopwatch Beta","protocol":17,"map":"pl_barnblitz","folder":"tf","game":"Team Fortress","app_id":440,"player_count":0,"max_players":24,"Bots":0,"server_type":"Dedicated","server_os":"Linux","password":true,"vac":true,"version":"7757534","steam_id":85568392925397959,"keywords":["nocrits","nodmgspread","payload","uncletopia"],"game_id":440,"stv_port":27056,"stv_name":"Uncletopia | Sydney | 5 | Stopwatch Beta | STV","players":null},{"server_id":59,"name":"Uncletopia | Sydney | 6 | Community","name_short":"syd-6","host":"syd-1.au.uncletopia.com","port":27065,"enabled":true,"region":"au","cc":"au","latitude":-33.865143,"longitude":151.2099,"reserved":0,"last_update":"0001-01-01T00:00:00Z","name_a2s":"Uncletopia | Sydney | 6 | Community","protocol":17,"map":"cp_mountainlab","folder":"tf","game":"Team Fortress","app_id":440,"player_count":0,"max_players":24,"Bots":0,"server_type":"Dedicated","server_os":"Linux","password":true,"vac":true,"version":"7757534","steam_id":85568392925397960,"keywords":["cp","nocrits","nodmgspread","uncletopia"],"game_id":440,"stv_port":27066,"stv_name":"Uncletopia | Sydney | 6 | Community | STV","players":null},{"server_id":49,"name":"Uncletopia | Warsaw | 1 | All Maps","name_short":"waw-1","host":"waw-1.pl.uncletopia.com","port":27015,"enabled":true,"region":"eu","cc":"pl","latitude":52.2297,"longitude":21.017532,"reserved":0,"last_update":"0001-01-01T00:00:00Z","name_a2s":"","protocol":0,"map":"","folder":"","game":"","app_id":0,"player_count":0,"max_players":0,"Bots":0,"server_type":"","server_os":"","password":false,"vac":false,"version":"","steam_id":0,"keywords":null,"game_id":0,"stv_port":0,"stv_name":"","players":null},{"server_id":50,"name":"Uncletopia | Warsaw | 2 | All Maps","name_short":"waw-2","host":"waw-1.pl.uncletopia.com","port":27025,"enabled":true,"region":"eu","cc":"pl","latitude":52.2297,"longitude":21.017532,"reserved":0,"last_update":"0001-01-01T00:00:00Z","name_a2s":"Uncletopia | Warsaw | 2 | All Maps","protocol":17,"map":"pl_snowycoast","folder":"tf","game":"Team Fortress","app_id":440,"player_count":24,"max_players":24,"Bots":0,"server_type":"Dedicated","server_os":"Linux","password":true,"vac":true,"version":"7757534","steam_id":85568392925397851,"keywords":["nocrits","nodmgspread","payload","uncletopia"],"game_id":440,"stv_port":27026,"stv_name":"Uncletopia | Warsaw | 2 | All Maps | STV","players":[{"user_id":176,"name":"Reast","steam_id":76561198022796927,"connected_time":601000000000,"state":"active","ping":74},{"user_id":179,"name":"spud Johnson (fake) - Allkeysho","steam_id":76561199380974466,"connected_time":312000000000,"state":"active","ping":152},{"user_id":183,"name":"Płaza","steam_id":76561199114405614,"connected_time":154000000000,"state":"active","ping":63},{"user_id":178,"name":"Dave The Sloth","steam_id":76561199135831355,"connected_time":495000000000,"state":"active","ping":82},{"user_id":145,"name":"Nel","steam_id":76561198335891676,"connected_time":4487000000000,"state":"active","ping":120},{"user_id":106,"name":"ChickyCoop","steam_id":76561199072983488,"connected_time":7176000000000,"state":"active","ping":59},{"user_id":167,"name":"NACHO VARGAS","steam_id":76561198061874517,"connected_time":2878000000000,"state":"active","ping":108},{"user_id":172,"name":"Záporák","steam_id":76561198207175503,"connected_time":2276000000000,"state":"active","ping":53},{"user_id":184,"name":"Mads Mikkelsen","steam_id":76561198083482001,"connected_time":122000000000,"state":"active","ping":74},{"user_id":174,"name":"Big Benn","steam_id":76561199024168373,"connected_time":1710000000000,"state":"active","ping":95},{"user_id":171,"name":"Dr Ludwig","steam_id":76561198426522902,"connected_time":2448000000000,"state":"active","ping":86},{"user_id":147,"name":"Cliff Barnes","steam_id":76561198032213783,"connected_time":4353000000000,"state":"active","ping":74},{"user_id":119,"name":"go follow ttv/biofun_","steam_id":76561198097507847,"connected_time":6255000000000,"state":"active","ping":91},{"user_id":182,"name":"Daan77","steam_id":76561198129940468,"connected_time":246000000000,"state":"active","ping":83},{"user_id":180,"name":"Cosmic Gamer","steam_id":76561198027357981,"connected_time":281000000000,"state":"active","ping":70},{"user_id":122,"name":"Follow biofun for heals","steam_id":76561198067204908,"connected_time":6097000000000,"state":"active","ping":87},{"user_id":181,"name":"NOOBTRON7777","steam_id":76561198115132399,"connected_time":278000000000,"state":"active","ping":54},{"user_id":185,"name":"papa smurf","steam_id":76561198881752406,"connected_time":115000000000,"state":"active","ping":62},{"user_id":158,"name":"We are in a world of magic","steam_id":76561198104745492,"connected_time":3363000000000,"state":"active","ping":78},{"user_id":165,"name":"Silvan","steam_id":76561198415391988,"connected_time":2947000000000,"state":"active","ping":66},{"user_id":169,"name":"GaySchlatt","steam_id":76561198436817109,"connected_time":2681000000000,"state":"active","ping":89},{"user_id":186,"name":"BELADIT","steam_id":76561198011911501,"connected_time":54000000000,"state":"active","ping":90},{"user_id":175,"name":"Dr.Dejmous","steam_id":76561198061796090,"connected_time":652000000000,"state":"active","ping":77},{"user_id":154,"name":"Jar","steam_id":76561198156384007,"connected_time":3629000000000,"state":"active","ping":83}]},{"server_id":51,"name":"Uncletopia | Warsaw | 3 | All Maps","name_short":"waw-3","host":"waw-1.pl.uncletopia.com","port":27035,"enabled":true,"region":"eu","cc":"pl","latitude":52.2297,"longitude":21.017532,"reserved":0,"last_update":"0001-01-01T00:00:00Z","name_a2s":"Uncletopia | Warsaw | 3 | All Maps","protocol":17,"map":"pl_upward","folder":"tf","game":"Team Fortress","app_id":440,"player_count":0,"max_players":24,"Bots":0,"server_type":"Dedicated","server_os":"Linux","password":true,"vac":true,"version":"7757534","steam_id":85568392925397852,"keywords":["nocrits","nodmgspread","payload","uncletopia"],"game_id":440,"stv_port":27036,"stv_name":"Uncletopia | Warsaw | 3 | All Maps | STV","players":null},{"server_id":52,"name":"Uncletopia | Warsaw | 4 | All Maps","name_short":"waw-4","host":"waw-1.pl.uncletopia.com","port":27045,"enabled":true,"region":"eu","cc":"pl","latitude":52.2297,"longitude":21.017532,"reserved":0,"last_update":"0001-01-01T00:00:00Z","name_a2s":"Uncletopia | Warsaw | 4 | All Maps","protocol":17,"map":"koth_highpass","folder":"tf","game":"Team Fortress","app_id":440,"player_count":0,"max_players":24,"Bots":0,"server_type":"Dedicated","server_os":"Linux","password":true,"vac":true,"version":"7757534","steam_id":85568392925397853,"keywords":["cp","nocrits","nodmgspread","uncletopia"],"game_id":440,"stv_port":27046,"stv_name":"Uncletopia | Warsaw | 4 | All Maps | STV","players":null},{"server_id":53,"name":"Uncletopia | Warsaw | 5 | Stopwatch Beta","name_short":"waw-5","host":"waw-1.pl.uncletopia.com","port":27055,"enabled":true,"region":"eu","cc":"pl","latitude":52.2297,"longitude":21.017532,"reserved":0,"last_update":"0001-01-01T00:00:00Z","name_a2s":"Uncletopia | Warsaw | 5 | Stopwatch Beta","protocol":17,"map":"workshop/koth_product_final.ugc454272353","folder":"tf","game":"Team Fortress","app_id":440,"player_count":0,"max_players":24,"Bots":0,"server_type":"Dedicated","server_os":"Linux","password":true,"vac":true,"version":"7757534","steam_id":85568392925397854,"keywords":["cp","nocrits","nodmgspread","uncletopia"],"game_id":440,"stv_port":27056,"stv_name":"Uncletopia | Warsaw | 5 | Stopwatch Beta | STV","players":null},{"server_id":54,"name":"Uncletopia | Warsaw | 6 | Community","name_short":"waw-6","host":"waw-1.pl.uncletopia.com","port":27065,"enabled":true,"region":"eu","cc":"pl","latitude":52.2297,"longitude":21.017532,"reserved":0,"last_update":"0001-01-01T00:00:00Z","name_a2s":"Uncletopia | Warsaw | 6 | Community","protocol":17,"map":"workshop/pl_vigil_rc9.ugc1266210012","folder":"tf","game":"Team Fortress","app_id":440,"player_count":0,"max_players":24,"Bots":0,"server_type":"Dedicated","server_os":"Linux","password":true,"vac":true,"version":"7757534","steam_id":85568392925397856,"keywords":["nocrits","nodmgspread","payload","uncletopia"],"game_id":440,"stv_port":27066,"stv_name":"Uncletopia | Warsaw | 6 | Community | STV","players":null}]}