{"status":true,"message":"","result":[{"server_id":9,"name":"Uncletopia | Atlanta | 1 | All Maps","name_short":"atl-1","host":"atl-1.us.uncletopia.com","port":27015,"enabled":true,"region":"us-east","cc":"us","latitude":33.753746,"longitude":-84.38633,"reserved":0,"last_update":"0001-01-01T00:00:00Z","name_a2s":"Uncletopia | Atlanta | 1 | All Maps","protocol":17,"map":"cp_snakewater_final1","folder":"tf","game":"Team Fortress","app_id":440,"player_count":0,"max_players":24,"Bots":0,"server_type":"Dedicated","server_os":"Linux","password":false,"vac":true,"version":"7961495","steam_id":85568392924469982,"keywords":["cp","nocrits","nodmgspread","uncletopia"],"game_id":440,"stv_port":27016,"stv_name":"Uncletopia | Atlanta | 1 | All Maps | STV","players":null},{"server_id":104,"name":"Uncletopia | Atlanta | 2 | All Maps","name_short":"atl-2","host":"atl-1.us.uncletopia.com","port":27025,"enabled":true,"region":"us-east","cc":"us","latitude":33.753746,"longitude":-84.38633,"reserved":0,"last_update":"0001-01-01T00:00:00Z","name_a2s":"Uncletopia | Atlanta | 2 | All Maps","protocol":17,"map":"cp_mountainlab","folder":"tf","game":"Team Fortress","app_id":440,"player_count":0,"max_players":24,"Bots":0,"server_type":"Dedicated","server_os":"Linux","password":false,"vac":true,"version":"7961495","steam_id":85568392924469983,"keywords":["cp","nocrits","nodmgspread","uncletopia"],"game_id":440,"stv_port":27026,"stv_name":"Uncletopia | Atlanta | 2 | All Maps | STV","players":null},{"server_id":400,"name":"Uncletopia | Atlanta | 3 | All Maps","name_short":"atl-3","host":"atl-1.us.uncletopia.com","port":27035,"enabled":true,"region":"us-east","cc":"us","latitude":33.753746,"longitude":-84.38633,"reserved":0,"last_update":"0001-01-01T00:00:00Z","name_a2s":"Uncletopia | Atlanta | 3 | All Maps","protocol":17,"map":"cp_process_final","folder":"tf","game":"Team Fortress","app_id":440,"player_count":0,"max_players":24,"Bots":0,"server_type":"Dedicated","server_os":"Linux","password":false,"vac":true,"version":"7961495","steam_id":85568392924515187,"keywords":["cp","nocrits","nodmgspread","uncletopia"],"game_id":440,"stv_port":27036,"stv_name":"Uncletopia | Atlanta | 3 | All Maps | STV","players":null},{"server_id":401,"name":"Uncletopia | Atlanta | 4 | Community","name_short":"atl-4","host":"atl-1.us.uncletopia.com","port":27045,"enabled":true,"region":"us-east","cc":"us","latitude":33.753746,"longitude":-84.38633,"reserved":0,"last_update":"0001-01-01T00:00:00Z","name_a2s":"Uncletopia | Atlanta | 4 | Community","protocol":17,"map":"koth_lakeside_final","folder":"tf","game":"Team Fortress","app_id":440,"player_count":0,"max_players":24,"Bots":0,"server_type":"Dedicated","server_os":"Linux","password":false,"vac":true,"version":"7961495","steam_id":85568392924515188,"keywords":["cp","nocrits","nodmgspread","uncletopia"],"game_id":440,"stv_port":27046,"stv_name":"Uncletopia | Atlanta | 4 | Community | STV","players":null},{"server_id":2,"name":"Uncletopia | Chicago | 1 | All Maps","name_short":"chi-1","host":"chi-1.us.uncletopia.com","port":27015,"enabled":true,"region":"us-central","cc":"us","latitude":41.881832,"longitude":-87.62318,"reserved":0,"last_update":"0001-01-01T00:00:00Z","name_a2s":"Uncletopia | Chicago | 1 | All Maps","protocol":17,"map":"pl_badwater","folder":"tf","game":"Team Fortress","app_id":440,"player_count":24,"max_players":24,"Bots":0,"server_type":"Dedicated","server_os":"Linux","password":true,"vac":true,"version":"7961495","steam_id":85568392924469984,"keywords":["nocrits","nodmgspread","payload","uncletopia"],"game_id":440,"stv_port":27016,"stv_name":"Uncletopia | Chicago | 1 | All Maps | STV","players":[{"user_id":757,"name":"Dr Oshawott","steam_id":76561198042021629,"connected_time":889000000000,"state":"active","ping":68},{"user_id":752,"name":"Jaunty","steam_id":76561198074916706,"connected_time":1305000000000,"state":"active","ping":92},{"user_id":758,"name":"32cm","steam_id":76561198847749278,"connected_time":878000000000,"state":"active","ping":70},{"user_id":733,"name":"firulais","steam_id":76561198860460013,"connected_time":3028000000000,"state":"active","ping":97},{"user_id":717,"name":"Kero","steam_id":76561198343231436,"connected_time":3771000000000,"state":"active","ping":65},{"user_id":718,"name":"O_O","steam_id":76561198049258493,"connected_time":3761000000000,"state":"active","ping":116},{"user_id":748,"name":"Man Time","steam_id":76561198151147218,"connected_time":1938000000000,"state":"active","ping":83},{"user_id":743,"name":"Knight Minson","steam_id":76561198091567396,"connected_time":2173000000000,"state":"active","ping":52},{"user_id":744,"name":"swam","steam_id":76561198412916626,"connected_time":2144000000000,"state":"active","ping":74},{"user_id":734,"name":"Hawkborne","steam_id":76561198107249245,"connected_time":2932000000000,"state":"active","ping":82},{"user_id":741,"name":"Samsung Sam","steam_id":76561198949410536,"connected_time":2180000000000,"state":"active","ping":73},{"user_id":731,"name":"kite","steam_id":76561198346516392,"connected_time":3068000000000,"state":"active","ping":82},{"user_id":726,"name":"PKBEAST_7","steam_id":76561198177136537,"connected_time":3253000000000,"state":"active","ping":90},{"user_id":762,"name":"geo","steam_id":76561198048748626,"connected_time":218000000000,"state":"active","ping":86},{"user_id":746,"name":"void","steam_id":76561198107501413,"connected_time":2092000000000,"state":"active","ping":38},{"user_id":738,"name":"moonflower","steam_id":76561198277979851,"connected_time":2593000000000,"state":"active","ping":92},{"user_id":742,"name":"The Great Karizma!","steam_id":76561198346191193,"connected_time":2179000000000,"state":"active","ping":100},{"user_id":761,"name":"Useless Goddess","steam_id":76561198092063256,"connected_time":359000000000,"state":"active","ping":78},{"user_id":736,"name":"I.C.","steam_id":76561198049256017,"connected_time":2858000000000,"state":"active","ping":75},{"user_id":751,"name":"Joker","steam_id":76561198077583446,"connected_time":1522000000000,"state":"active","ping":56},{"user_id":760,"name":"Detective Pyro","steam_id":76561199039805435,"connected_time":680000000000,"state":"active","ping":89},{"user_id":695,"name":".JIFF","steam_id":76561198045181760,"connected_time":5927000000000,"state":"active","ping":60},{"user_id":755,"name":"Thatoneguybunchanumbers","steam_id":76561198028039160,"connected_time":1262000000000,"state":"active","ping":80},{"user_id":699,"name":"Tito","steam_id":76561198041702529,"connected_time":5471000000000,"state":"active","ping":92}]},{"server_id":106,"name":"Uncletopia | Chicago | 2 | All Maps","name_short":"chi-2","host":"chi-1.us.uncletopia.com","port":27025,"enabled":true,"region":"us-central","cc":"us","latitude":41.881832,"longitude":-87.62318,"reserved":0,"last_update":"0001-01-01T00:00:00Z","name_a2s":"Uncletopia | Chicago | 2 | All Maps","protocol":17,"map":"pl_swiftwater_final1","folder":"tf","game":"Team Fortress","app_id":440,"player_count":24,"max_players":24,"Bots":0,"server_type":"Dedicated","server_os":"Linux","password":true,"vac":true,"version":"7961495","steam_id":85568392924469985,"keywords":["nocrits","nodmgspread","payload","uncletopia"],"game_id":440,"stv_port":27026,"stv_name":"Uncletopia | Chicago | 2 | All Maps | STV","players":[{"user_id":676,"name":"Nephs","steam_id":76561198136763403,"connected_time":92000000000,"state":"active","ping":81},{"user_id":656,"name":"the saboteur","steam_id":76561198876853284,"connected_time":1685000000000,"state":"active","ping":45},{"user_id":666,"name":"Catsontrains","steam_id":76561198066686704,"connected_time":1444000000000,"state":"active","ping":60},{"user_id":590,"name":"Aaron","steam_id":76561198091157802,"connected_time":6384000000000,"state":"active","ping":70},{"user_id":653,"name":"x","steam_id":76561198013735714,"connected_time":2107000000000,"state":"active","ping":79},{"user_id":658,"name":"EvilMrPotoo ｡◕‿◕｡","steam_id":76561198012566870,"connected_time":1665000000000,"state":"active","ping":59},{"user_id":628,"name":"c64guy","steam_id":76561198023022744,"connected_time":4516000000000,"state":"active","ping":62},{"user_id":605,"name":"Mr. Goat","steam_id":76561198801616417,"connected_time":5257000000000,"state":"active","ping":70},{"user_id":629,"name":"Crim","steam_id":76561198301292105,"connected_time":4163000000000,"state":"active","ping":75},{"user_id":677,"name":"Reisen Udongein Inaba","steam_id":76561198051082314,"connected_time":73000000000,"state":"active","ping":108},{"user_id":661,"name":"RandomInternetUser","steam_id":76561199230027049,"connected_time":1642000000000,"state":"active","ping":63},{"user_id":650,"name":"0ff","steam_id":76561199115773908,"connected_time":2351000000000,"state":"active","ping":73},{"user_id":614,"name":"CrunchCisco","steam_id":76561199162724832,"connected_time":5215000000000,"state":"active","ping":83},{"user_id":672,"name":"Carson","steam_id":76561198076771071,"connected_time":504000000000,"state":"active","ping":45},{"user_id":675,"name":"Qwerty","steam_id":76561198023525894,"connected_time":249000000000,"state":"active","ping":173},{"user_id":641,"name":"gen","steam_id":76561199118569153,"connected_time":3153000000000,"state":"active","ping":57},{"user_id":660,"name":"Satchamo","steam_id":76561198012968239,"connected_time":1645000000000,"state":"active","ping":70},{"user_id":645,"name":"Morbid Pistachio","steam_id":76561198315852398,"connected_time":2964000000000,"state":"active","ping":84},{"user_id":670,"name":"loser","steam_id":76561198259380127,"connected_time":612000000000,"state":"active","ping":60},{"user_id":568,"name":"Skaboopy","steam_id":76561198121079438,"connected_time":9032000000000,"state":"active","ping":69},{"user_id":663,"name":"Soladach","steam_id":76561198091616441,"connected_time":1625000000000,"state":"active","ping":79},{"user_id":667,"name":"bozo","steam_id":76561198276743658,"connected_time":1395000000000,"state":"active","ping":75},{"user_id":665,"name":"Ka Xin Yu","steam_id":76561198057116531,"connected_time":1607000000000,"state":"active","ping":59},{"user_id":668,"name":"cп","steam_id":76561199001789574,"connected_time":959000000000,"state":"active","ping":72}]},{"server_id":402,"name":"Uncletopia | Chicago | 3 | All Maps","name_short":"chi-3","host":"chi-1.us.uncletopia.com","port":27035,"enabled":true,"region":"us-central","cc":"us","latitude":41.881832,"longitude":-87.62318,"reserved":0,"last_update":"0001-01-01T00:00:00Z","name_a2s":"Uncletopia | Chicago | 3 | All Maps","protocol":17,"map":"cp_process_final","folder":"tf","game":"Team Fortress","app_id":440,"player_count":24,"max_players":24,"Bots":0,"server_type":"Dedicated","server_os":"Linux","password":true,"vac":true,"version":"7961495","steam_id":85568392924515191,"keywords":["cp","nocrits","nodmgspread","uncletopia"],"game_id":440,"stv_port":27036,"stv_name":"Uncletopia | Chicago | 3 | All Maps | STV","players":[{"user_id":618,"name":"General Sherman","steam_id":76561198044769376,"connected_time":1820000000000,"state":"active","ping":73},{"user_id":632,"name":"You'reScouttaThere","steam_id":76561197989231996,"connected_time":601000000000,"state":"active","ping":114},{"user_id":598,"name":"averted","steam_id":76561198067784310,"connected_time":3706000000000,"state":"active","ping":60},{"user_id":630,"name":"Tarmac Tomato","steam_id":76561198025011044,"connected_time":643000000000,"state":"active","ping":76},{"user_id":642,"name":"Zanartan","steam_id":76561198050528902,"connected_time":232000000000,"state":"active","ping":176},{"user_id":637,"name":"Soldier","steam_id":76561199078537280,"connected_time":348000000000,"state":"active","ping":68},{"user_id":595,"name":"gary","steam_id":76561198140226890,"connected_time":3763000000000,"state":"active","ping":58},{"user_id":641,"name":"I shovel mayonnaise in mouth","steam_id":76561199123118241,"connected_time":284000000000,"state":"active","ping":106},{"user_id":629,"name":"triple_range_merge","steam_id":76561198991225026,"connected_time":947000000000,"state":"active","ping":77},{"user_id":636,"name":"TheRSO","steam_id":76561199060744298,"connected_time":489000000000,"state":"active","ping":63},{"user_id":583,"name":"I have no idea what I am doing?","steam_id":76561198093152207,"connected_time":4910000000000,"state":"active","ping":73},{"user_id":623,"name":"yeehaw","steam_id":76561198133984927,"connected_time":1654000000000,"state":"active","ping":56},{"user_id":639,"name":"FRANKIEonPCP","steam_id":76561198208451949,"connected_time":301000000000,"state":"active","ping":82},{"user_id":603,"name":"Röntgen","steam_id":76561197993492325,"connected_time":3411000000000,"state":"active","ping":95},{"user_id":625,"name":"Scrumpy Main","steam_id":76561198146302597,"connected_time":1388000000000,"state":"active","ping":41},{"user_id":624,"name":"JetZ","steam_id":76561199122488957,"connected_time":1570000000000,"state":"active","ping":64},{"user_id":643,"name":"The mook","steam_id":76561198963551905,"connected_time":102000000000,"state":"active","ping":61},{"user_id":635,"name":"Fat Kid In a Dragonball T-Shirt","steam_id":76561198182589975,"connected_time":517000000000,"state":"active","ping":84},{"user_id":628,"name":"jayytee","steam_id":76561198059575962,"connected_time":1109000000000,"state":"active","ping":50},{"user_id":621,"name":"bacon :D","steam_id":76561199121940464,"connected_time":1802000000000,"state":"active","ping":88},{"user_id":601,"name":"Juan Pablo Gonzalez 2023","steam_id":76561199197961413,"connected_time":3664000000000,"state":"active","ping":56},{"user_id":626,"name":"eish","steam_id":76561198089463603,"connected_time":1210000000000,"state":"active","ping":130},{"user_id":634,"name":"Puke Skyfucker","steam_id":76561198012846213,"connected_time":548000000000,"state":"active","ping":73},{"user_id":614,"name":"squaggles!","steam_id":76561197994995011,"connected_time":1959000000000,"state":"active","ping":57}]},{"server_id":403,"name":"Uncletopia | Chicago | 4 | All Maps","name_short":"chi-4","host":"chi-1.us.uncletopia.com","port":27045,"enabled":true,"region":"us-central","cc":"us","latitude":41.881832,"longitude":-87.62318,"reserved":0,"last_update":"0001-01-01T00:00:00Z","name_a2s":"Uncletopia | Chicago | 4 | All Maps","protocol":17,"map":"pl_frontier_final","folder":"tf","game":"Team Fortress","app_id":440,"player_count":24,"max_players":24,"Bots":0,"server_type":"Dedicated","server_os":"Linux","password":true,"vac":true,"version":"7961495","steam_id":85568392924515193,"keywords":["nocrits","nodmgspread","payload","uncletopia"],"game_id":440,"stv_port":27046,"stv_name":"Uncletopia | Chicago | 4 | All Maps | STV","players":[{"user_id":205,"name":"Mrs.Strange ⛧","steam_id":76561198047370602,"connected_time":3107000000000,"state":"active","ping":72},{"user_id":235,"name":"Adum","steam_id":76561198181162382,"connected_time":984000000000,"state":"active","ping":65},{"user_id":243,"name":"Sadayo Chan","steam_id":76561198094912807,"connected_time":109000000000,"state":"active","ping":82},{"user_id":230,"name":"Veles","steam_id":76561198255964493,"connected_time":1795000000000,"state":"active","ping":77},{"user_id":200,"name":"Crunchy Pancake","steam_id":76561198002555973,"connected_time":3300000000000,"state":"active","ping":69},{"user_id":102,"name":"lili","steam_id":76561199391478575,"connected_time":8893000000000,"state":"active","ping":114},{"user_id":226,"name":"Kirby Knight tf2","steam_id":76561199070864271,"connected_time":1980000000000,"state":"active","ping":58},{"user_id":188,"name":"Tripll-L","steam_id":76561197998077437,"connected_time":4095000000000,"state":"active","ping":77},{"user_id":244,"name":"sissy fuckdoll $","steam_id":76561199064932372,"connected_time":96000000000,"state":"active","ping":98},{"user_id":240,"name":"turnip","steam_id":76561197999375941,"connected_time":224000000000,"state":"active","ping":75},{"user_id":224,"name":"Jerphf","steam_id":76561198328825964,"connected_time":2088000000000,"state":"active","ping":59},{"user_id":239,"name":"Voodo133","steam_id":76561198042670351,"connected_time":237000000000,"state":"active","ping":89},{"user_id":208,"name":"blythe","steam_id":76561198254999149,"connected_time":3041000000000,"state":"active","ping":88},{"user_id":221,"name":"Fribas","steam_id":76561198138502813,"connected_time":2252000000000,"state":"active","ping":79},{"user_id":203,"name":"Dapper Armadillo","steam_id":76561199089424811,"connected_time":3114000000000,"state":"active","ping":52},{"user_id":209,"name":"kazoo2","steam_id":76561198260473504,"connected_time":3009000000000,"state":"active","ping":120},{"user_id":236,"name":"Strange Festive Femboy","steam_id":76561198050385093,"connected_time":960000000000,"state":"active","ping":84},{"user_id":222,"name":"Aeris","steam_id":76561198287271028,"connected_time":2241000000000,"state":"active","ping":61},{"user_id":238,"name":"Dzhoshua","steam_id":76561198071915251,"connected_time":289000000000,"state":"active","ping":70},{"user_id":204,"name":"Chin, Bruce Lee's Relative","steam_id":76561198240105522,"connected_time":3110000000000,"state":"active","ping":87},{"user_id":223,"name":"CherriKat","steam_id":76561198821297512,"connected_time":2234000000000,"state":"active","ping":104},{"user_id":241,"name":"John16Mark","steam_id":76561198119445407,"connected_time":224000000000,"state":"active","ping":89},{"user_id":217,"name":"thepokeyen","steam_id":76561198236847572,"connected_time":2530000000000,"state":"active","ping":64},{"user_id":233,"name":"George","steam_id":76561198047994501,"connected_time":1393000000000,"state":"active","ping":57}]},{"server_id":36,"name":"Uncletopia | Chicago | 5 | All Maps","name_short":"chi-5","host":"chi-2.us.uncletopia.com","port":27015,"enabled":true,"region":"us-central","cc":"us","latitude":41.881832,"longitude":-87.62318,"reserved":0,"last_update":"0001-01-01T00:00:00Z","name_a2s":"Uncletopia | Chicago | 5 | All Maps","protocol":17,"map":"cp_powerhouse","folder":"tf","game":"Team Fortress","app_id":440,"player_count":24,"max_players":24,"Bots":0,"server_type":"Dedicated","server_os":"Linux","password":true,"vac":true,"version":"7961495","steam_id":85568392924866362,"keywords":["cp","nocrits","nodmgspread","uncletopia"],"game_id":440,"stv_port":27016,"stv_name":"Uncletopia | Chicago | 5 | All Maps | STV","players":[{"user_id":151,"name":"ozemandea","steam_id":76561198019345003,"connected_time":1842000000000,"state":"active","ping":65},{"user_id":172,"name":"ShadowWasUhOh","steam_id":76561198400361935,"connected_time":164000000000,"state":"active","ping":79},{"user_id":167,"name":"thecal","steam_id":76561198307893384,"connected_time":186000000000,"state":"active","ping":52},{"user_id":164,"name":"Kazzdingo","steam_id":76561198033510497,"connected_time":237000000000,"state":"active","ping":51},{"user_id":124,"name":"Acuzik","steam_id":76561198045453400,"connected_time":3019000000000,"state":"active","ping":45},{"user_id":168,"name":"gay sex","steam_id":76561198138467891,"connected_time":184000000000,"state":"active","ping":107},{"user_id":169,"name":"Shagbark","steam_id":76561198173447342,"connected_time":182000000000,"state":"active","ping":79},{"user_id":146,"name":"The Speed Giver","steam_id":76561198211853257,"connected_time":2164000000000,"state":"active","ping":45},{"user_id":110,"name":"Jelqing Table","steam_id":76561198051373750,"connected_time":4864000000000,"state":"active","ping":74},{"user_id":162,"name":"Penis Chopper","steam_id":76561199016999537,"connected_time":253000000000,"state":"active","ping":112},{"user_id":165,"name":"Karabang","steam_id":76561198181143029,"connected_time":234000000000,"state":"active","ping":78},{"user_id":153,"name":"Incoming","steam_id":76561199020244051,"connected_time":1212000000000,"state":"active","ping":92},{"user_id":125,"name":"Rivulet","steam_id":76561198897122890,"connected_time":3017000000000,"state":"active","ping":62},{"user_id":126,"name":"Braingoo Hex","steam_id":76561198083094783,"connected_time":3016000000000,"state":"active","ping":100},{"user_id":137,"name":"brian damage","steam_id":76561198118455606,"connected_time":2660000000000,"state":"active","ping":50},{"user_id":156,"name":"No Maidens?","steam_id":76561198866418556,"connected_time":805000000000,"state":"active","ping":93},{"user_id":166,"name":"NewerCoke","steam_id":76561198042911847,"connected_time":233000000000,"state":"active","ping":80},{"user_id":158,"name":"Cassius Money","steam_id":76561197979696414,"connected_time":776000000000,"state":"active","ping":49},{"user_id":149,"name":"bagel cream cheese","steam_id":76561198017954785,"connected_time":1958000000000,"state":"active","ping":71},{"user_id":170,"name":"@realJohnLenn0nGaming","steam_id":76561198048779989,"connected_time":182000000000,"state":"active","ping":50},{"user_id":173,"name":"Garfield Expert","steam_id":76561198092452824,"connected_time":52000000000,"state":"active","ping":69},{"user_id":171,"name":"Shalom","steam_id":76561198410005222,"connected_time":170000000000,"state":"active","ping":67},{"user_id":157,"name":"BlasterPrime","steam_id":76561198084154062,"connected_time":794000000000,"state":"active","ping":69},{"user_id":160,"name":"dailyspesh","steam_id":76561197988072369,"connected_time":724000000000,"state":"active","ping":74}]},{"server_id":37,"name":"Uncletopia | Chicago | 6 | All Maps","name_short":"chi-6","host":"chi-2.us.uncletopia.com","port":27025,"enabled":true,"region":"us-central","cc":"us","latitude":41.881832,"longitude":-87.62318,"reserved":0,"last_update":"0001-01-01T00:00:00Z","name_a2s":"Uncletopia | Chicago | 6 | All Maps","protocol":17,"map":"cp_snakewater_final1","folder":"tf","game":"Team Fortress","app_id":440,"player_count":24,"max_players":24,"Bots":0,"server_type":"Dedicated","server_os":"Linux","password":true,"vac":true,"version":"7961495","steam_id":85568392924866363,"keywords":["cp","nocrits","nodmgspread","uncletopia"],"game_id":440,"stv_port":27026,"stv_name":"Uncletopia | Chicago | 6 | All Maps | STV","players":[{"user_id":375,"name":"prtokce","steam_id":76561198115275618,"connected_time":644000000000,"state":"active","ping":45},{"user_id":348,"name":"Nica's Dream","steam_id":76561198028617381,"connected_time":2372000000000,"state":"active","ping":71},{"user_id":370,"name":"Envidia","steam_id":76561198141640643,"connected_time":713000000000,"state":"active","ping":128},{"user_id":366,"name":"wendi","steam_id":76561199010582245,"connected_time":753000000000,"state":"active","ping":73},{"user_id":359,"name":"Mitchacho74","steam_id":76561198087986935,"connected_time":1647000000000,"state":"active","ping":60},{"user_id":367,"name":"FrostStorm","steam_id":76561198142685151,"connected_time":751000000000,"state":"active","ping":68},{"user_id":380,"name":"YeeBoiSmallz","steam_id":76561198854219018,"connected_time":119000000000,"state":"active","ping":85},{"user_id":379,"name":"Drilly22","steam_id":76561198068838338,"connected_time":418000000000,"state":"active","ping":93},{"user_id":343,"name":"darwin","steam_id":76561199081837220,"connected_time":2783000000000,"state":"active","ping":87},{"user_id":360,"name":"sc67","steam_id":76561199302471485,"connected_time":1623000000000,"state":"active","ping":39},{"user_id":334,"name":"Ahhpple","steam_id":76561197993322448,"connected_time":3781000000000,"state":"active","ping":70},{"user_id":351,"name":"eat Pant","steam_id":76561197974965536,"connected_time":2200000000000,"state":"active","ping":68},{"user_id":371,"name":"Walkiing","steam_id":76561198074473413,"connected_time":706000000000,"state":"active","ping":43},{"user_id":376,"name":"DSG","steam_id":76561198207574152,"connected_time":640000000000,"state":"active","ping":63},{"user_id":362,"name":"Cornman","steam_id":76561198320865504,"connected_time":1498000000000,"state":"active","ping":92},{"user_id":372,"name":"RetroWaffles","steam_id":76561198119780281,"connected_time":685000000000,"state":"active","ping":91},{"user_id":339,"name":"solstice","steam_id":76561198313364985,"connected_time":3292000000000,"state":"active","ping":76},{"user_id":373,"name":"goose","steam_id":76561198367551668,"connected_time":674000000000,"state":"active","ping":58},{"user_id":355,"name":"ATL1 | Krissy","steam_id":76561197960848174,"connected_time":2020000000000,"state":"active","ping":70},{"user_id":374,"name":"Dova","steam_id":76561198072623346,"connected_time":672000000000,"state":"active","ping":74},{"user_id":329,"name":"㋛ countblanc","steam_id":76561197993171771,"connected_time":4102000000000,"state":"active","ping":56},{"user_id":377,"name":"Dracodemus","steam_id":76561198079518597,"connected_time":636000000000,"state":"active","ping":62},{"user_id":347,"name":"Hoopy_White","steam_id":76561198152768069,"connected_time":2423000000000,"state":"active","ping":87},{"user_id":378,"name":"Edd","steam_id":76561198120329890,"connected_time":635000000000,"state":"active","ping":73}]},{"server_id":38,"name":"Uncletopia | Chicago | 7 | Stopwatch Beta","name_short":"chi-7","host":"chi-2.us.uncletopia.com","port":27035,"enabled":true,"region":"us-central","cc":"us","latitude":41.881832,"longitude":-87.62318,"reserved":0,"last_update":"0001-01-01T00:00:00Z","name_a2s":"Uncletopia | Chicago | 7 | Stopwatch Beta","protocol":17,"map":"pl_badwater","folder":"tf","game":"Team Fortress","app_id":440,"player_count":0,"max_players":24,"Bots":0,"server_type":"Dedicated","server_os":"Linux","password":true,"vac":true,"version":"7961495","steam_id":85568392924866364,"keywords":["nocrits","nodmgspread","payload","uncletopia"],"game_id":440,"stv_port":27036,"stv_name":"Uncletopia | Chicago | 7 | Stopwatch Beta | STV","players":null},{"server_id":39,"name":"Uncletopia | Chicago | 8 | Community","name_short":"chi-8","host":"chi-2.us.uncletopia.com","port":27045,"enabled":true,"region":"us-central","cc":"us","latitude":41.881832,"longitude":-87.62318,"reserved":0,"last_update":"0001-01-01T00:00:00Z","name_a2s":"Uncletopia | Chicago | 8 | Community","protocol":17,"map":"workshop/pl_barnblitz_pro7.ugc582280235","folder":"tf","game":"Team Fortress","app_id":440,"player_count":24,"max_players":24,"Bots":0,"server_type":"Dedicated","server_os":"Linux","password":true,"vac":true,"version":"7961495","steam_id":85568392924866365,"keywords":["nocrits","nodmgspread","payload","uncletopia"],"game_id":440,"stv_port":27046,"stv_name":"Uncletopia | Chicago | 8 | Community | STV","players":[{"user_id":325,"name":"bluebluepickles","steam_id":76561198119503953,"connected_time":3805000000000,"state":"active","ping":58},{"user_id":336,"name":"Minorati","steam_id":76561198085277993,"connected_time":2234000000000,"state":"active","ping":106},{"user_id":355,"name":"salmon","steam_id":76561198050061475,"connected_time":146000000000,"state":"active","ping":76},{"user_id":347,"name":"[ᎴᏋᏋᎮ] Danmar33","steam_id":76561198056453091,"connected_time":1213000000000,"state":"active","ping":49},{"user_id":316,"name":"MarauderOP","steam_id":76561199087316861,"connected_time":4111000000000,"state":"active","ping":74},{"user_id":343,"name":"ShmixyTheBishop","steam_id":76561199281919953,"connected_time":1783000000000,"state":"active","ping":93},{"user_id":350,"name":"Haxer","steam_id":76561198438402692,"connected_time":735000000000,"state":"active","ping":36},{"user_id":328,"name":"Raccoon.Of.Waffle.House","steam_id":76561199018770554,"connected_time":3539000000000,"state":"active","ping":77},{"user_id":288,"name":"the rizzler","steam_id":76561198012917426,"connected_time":6551000000000,"state":"active","ping":71},{"user_id":320,"name":"TwelvePackofSaltyBones","steam_id":76561198224764664,"connected_time":3975000000000,"state":"active","ping":56},{"user_id":335,"name":"Naffty","steam_id":76561198119734981,"connected_time":2485000000000,"state":"active","ping":105},{"user_id":309,"name":"stuffer as i have","steam_id":76561198060762287,"connected_time":4747000000000,"state":"active","ping":96},{"user_id":342,"name":"James","steam_id":76561198081313916,"connected_time":1869000000000,"state":"active","ping":69},{"user_id":344,"name":"Sir William Gaming","steam_id":76561198037676472,"connected_time":1749000000000,"state":"active","ping":161},{"user_id":356,"name":"Green Mario","steam_id":76561198094325997,"connected_time":144000000000,"state":"active","ping":78},{"user_id":349,"name":"Guccini","steam_id":76561198094391395,"connected_time":974000000000,"state":"active","ping":67},{"user_id":352,"name":"Charlie","steam_id":76561198798127908,"connected_time":203000000000,"state":"active","ping":75},{"user_id":317,"name":"Fio4","steam_id":76561199221171536,"connected_time":4042000000000,"state":"active","ping":78},{"user_id":353,"name":"Capt.Swag","steam_id":76561198088340994,"connected_time":191000000000,"state":"active","ping":81},{"user_id":348,"name":"Induce Salt","steam_id":76561198116645978,"connected_time":1121000000000,"state":"active","ping":56},{"user_id":358,"name":"★RIVI★","steam_id":76561198086635699,"connected_time":130000000000,"state":"active","ping":86},{"user_id":312,"name":"the rizzard","steam_id":76561198431594430,"connected_time":4372000000000,"state":"active","ping":47},{"user_id":143,"name":"[MRY] Sk-iLite","steam_id":76561198041797350,"connected_time":13473000000000,"state":"active","ping":73},{"user_id":319,"name":"Gubbington","steam_id":76561198959381302,"connected_time":4036000000000,"state":"active","ping":82}]},{"server_id":8,"name":"Uncletopia | Dallas | 1 | All Maps","name_short":"dal-1","host":"dal-1.us.uncletopia.com","port":27015,"enabled":true,"region":"us-central","cc":"us","latitude":32.779167,"longitude":-96.80889,"reserved":0,"last_update":"0001-01-01T00:00:00Z","name_a2s":"Uncletopia | Dallas | 1 | All Maps","protocol":17,"map":"pl_frontier_final","folder":"tf","game":"Team Fortress","app_id":440,"player_count":24,"max_players":24,"Bots":0,"server_type":"Dedicated","server_os":"Linux","password":true,"vac":true,"version":"7961495","steam_id":85568392924469986,"keywords":["nocrits","nodmgspread","payload","uncletopia"],"game_id":440,"stv_port":27016,"stv_name":"Uncletopia | Dallas | 1 | All Maps | STV","players":[{"user_id":621,"name":"Eurobeat too loud, can't hear :","steam_id":76561198330743199,"connected_time":3122000000000,"state":"active","ping":93},{"user_id":658,"name":"FanaticSalt","steam_id":76561199380123059,"connected_time":605000000000,"state":"active","ping":41},{"user_id":589,"name":"Ballista","steam_id":76561197983182562,"connected_time":5730000000000,"state":"active","ping":53},{"user_id":645,"name":"The Lawbster","steam_id":76561198871795266,"connected_time":1651000000000,"state":"active","ping":65},{"user_id":650,"name":"errant","steam_id":76561197961758410,"connected_time":1549000000000,"state":"active","ping":45},{"user_id":631,"name":"Phosu","steam_id":76561198180162801,"connected_time":2491000000000,"state":"active","ping":76},{"user_id":639,"name":"lmbrjackpat","steam_id":76561198047165310,"connected_time":1747000000000,"state":"active","ping":76},{"user_id":627,"name":"flippercurve","steam_id":76561199238295034,"connected_time":2913000000000,"state":"active","ping":75},{"user_id":651,"name":"Streetwise","steam_id":76561197971684268,"connected_time":1512000000000,"state":"active","ping":131},{"user_id":632,"name":"Fishstick","steam_id":76561199020196536,"connected_time":2391000000000,"state":"active","ping":73},{"user_id":636,"name":"Aydan","steam_id":76561198054591890,"connected_time":1993000000000,"state":"active","ping":41},{"user_id":643,"name":"waffles con leche","steam_id":76561198246934872,"connected_time":1702000000000,"state":"active","ping":96},{"user_id":600,"name":"Amoxicilina","steam_id":76561198168486429,"connected_time":5082000000000,"state":"active","ping":94},{"user_id":642,"name":"MICEBATH_NG","steam_id":76561199194844669,"connected_time":1711000000000,"state":"active","ping":106},{"user_id":659,"name":"Southern Pacific AC-9","steam_id":76561198126859977,"connected_time":477000000000,"state":"active","ping":69},{"user_id":646,"name":"Broken Cereal√","steam_id":76561198087489795,"connected_time":1649000000000,"state":"active","ping":83},{"user_id":583,"name":"SiltyStar85","steam_id":76561198309175923,"connected_time":6018000000000,"state":"active","ping":108},{"user_id":585,"name":"RusticCarp42989","steam_id":76561198361151865,"connected_time":5989000000000,"state":"active","ping":101},{"user_id":637,"name":"Mook-a-Matic 5000","steam_id":76561198000840947,"connected_time":1985000000000,"state":"active","ping":114},{"user_id":626,"name":"s71nk3y / Stinky / Apestoso","steam_id":76561198060954715,"connected_time":3000000000000,"state":"active","ping":79},{"user_id":647,"name":"AtomicSexMachine","steam_id":76561198886585159,"connected_time":1630000000000,"state":"active","ping":74},{"user_id":660,"name":"[DATS➡] Sugar Meowth","steam_id":76561197995251793,"connected_time":23000000000,"state":"active","ping":81},{"user_id":653,"name":"nogoodnameshere","steam_id":76561199065926375,"connected_time":1481000000000,"state":"active","ping":98},{"user_id":649,"name":"Building Level Detector","steam_id":76561198118821301,"connected_time":1609000000000,"state":"active","ping":86}]},{"server_id":108,"name":"Uncletopia | Dallas | 2 | All Maps","name_short":"dal-2","host":"dal-1.us.uncletopia.com","port":27025,"enabled":true,"region":"us-central","cc":"us","latitude":32.779167,"longitude":-96.80889,"reserved":0,"last_update":"0001-01-01T00:00:00Z","name_a2s":"Uncletopia | Dallas | 2 | All Maps","protocol":17,"map":"pl_upward","folder":"tf","game":"Team Fortress","app_id":440,"player_count":24,"max_players":24,"Bots":0,"server_type":"Dedicated","server_os":"Linux","password":true,"vac":true,"version":"7961495","steam_id":85568392924469988,"keywords":["nocrits","nodmgspread","payload","uncletopia"],"game_id":440,"stv_port":27026,"stv_name":"Uncletopia | Dallas | 2 | All Maps | STV","players":[{"user_id":483,"name":"joe mama","steam_id":76561198180696981,"connected_time":4101000000000,"state":"active","ping":90},{"user_id":456,"name":"Speejoink","steam_id":76561198076863045,"connected_time":7242000000000,"state":"active","ping":56},{"user_id":376,"name":"SOGGY DOGGY","steam_id":76561199158847498,"connected_time":13178000000000,"state":"active","ping":96},{"user_id":498,"name":"LampMan","steam_id":76561198079857527,"connected_time":1993000000000,"state":"active","ping":49},{"user_id":517,"name":"oph","steam_id":76561198130182991,"connected_time":596000000000,"state":"active","ping":97},{"user_id":511,"name":"marcie","steam_id":76561198170642407,"connected_time":649000000000,"state":"active","ping":95},{"user_id":496,"name":"Eye","steam_id":76561199013939545,"connected_time":2533000000000,"state":"active","ping":96},{"user_id":499,"name":"spot_the_cow","steam_id":76561198151135298,"connected_time":1748000000000,"state":"active","ping":69},{"user_id":500,"name":"danger","steam_id":76561198000459165,"connected_time":1745000000000,"state":"active","ping":86},{"user_id":501,"name":"Marc Antony","steam_id":76561198011366517,"connected_time":1723000000000,"state":"active","ping":74},{"user_id":510,"name":"schmuck","steam_id":76561198143789773,"connected_time":1048000000000,"state":"active","ping":55},{"user_id":509,"name":"MERCHANT","steam_id":76561198210010549,"connected_time":1328000000000,"state":"active","ping":81},{"user_id":512,"name":"MR MODE","steam_id":76561198046775352,"connected_time":630000000000,"state":"active","ping":86},{"user_id":513,"name":"gagobears","steam_id":76561198086008437,"connected_time":623000000000,"state":"active","ping":48},{"user_id":508,"name":"Levi","steam_id":76561198089832776,"connected_time":1477000000000,"state":"active","ping":56},{"user_id":514,"name":"meo ♥","steam_id":76561197992719272,"connected_time":615000000000,"state":"active","ping":80},{"user_id":518,"name":"rAnch","steam_id":76561198024562587,"connected_time":504000000000,"state":"active","ping":44},{"user_id":516,"name":"room temp IQ","steam_id":76561198018724712,"connected_time":610000000000,"state":"active","ping":45},{"user_id":428,"name":"Apetometrist","steam_id":76561198045391635,"connected_time":9693000000000,"state":"active","ping":89},{"user_id":504,"name":"JUCE","steam_id":76561198057835518,"connected_time":1691000000000,"state":"active","ping":68},{"user_id":519,"name":"lil parma","steam_id":76561198035922275,"connected_time":14000000000,"state":"active","ping":195},{"user_id":446,"name":"cypherzero","steam_id":76561199182960322,"connected_time":7934000000000,"state":"active","ping":57},{"user_id":497,"name":"Manic","steam_id":76561198128149670,"connected_time":2480000000000,"state":"active","ping":53},{"user_id":454,"name":"motherfucker 2.0","steam_id":76561198141189209,"connected_time":7465000000000,"state":"active","ping":39}]},{"server_id":404,"name":"Uncletopia | Dallas | 3 | All Maps","name_short":"dal-3","host":"dal-1.us.uncletopia.com","port":27035,"enabled":true,"region":"us-central","cc":"us","latitude":32.779167,"longitude":-96.80889,"reserved":0,"last_update":"0001-01-01T00:00:00Z","name_a2s":"Uncletopia | Dallas | 3 | All Maps","protocol":17,"map":"pl_borneo","folder":"tf","game":"Team Fortress","app_id":440,"player_count":25,"max_players":24,"Bots":0,"server_type":"Dedicated","server_os":"Linux","password":true,"vac":true,"version":"7961495","steam_id":85568392924515219,"keywords":["nocrits","nodmgspread","payload","uncletopia"],"game_id":440,"stv_port":27036,"stv_name":"Uncletopia | Dallas | 3 | All Maps | STV","players":[{"user_id":455,"name":"halfpint","steam_id":76561198148217618,"connected_time":586000000000,"state":"active","ping":69},{"user_id":441,"name":"SEGNO","steam_id":76561198102780113,"connected_time":2436000000000,"state":"active","ping":61},{"user_id":440,"name":"DonutThug","steam_id":76561198060790404,"connected_time":2523000000000,"state":"active","ping":85},{"user_id":463,"name":"tiny paul","steam_id":76561198073252805,"connected_time":185000000000,"state":"active","ping":102},{"user_id":450,"name":"Lefty [Gentlemen of Leisure]","steam_id":76561197980825914,"connected_time":1990000000000,"state":"active","ping":72},{"user_id":430,"name":"TerrorOfTheSeas","steam_id":76561198388385659,"connected_time":3135000000000,"state":"active","ping":58},{"user_id":464,"name":"jalapeno handjob","steam_id":76561198123298824,"connected_time":67000000000,"state":"active","ping":61},{"user_id":457,"name":"schlingo","steam_id":76561199087243980,"connected_time":520000000000,"state":"active","ping":79},{"user_id":434,"name":"WheelieChopper","steam_id":76561198070980426,"connected_time":2704000000000,"state":"active","ping":104},{"user_id":459,"name":"AAZARDO","steam_id":76561198849146009,"connected_time":328000000000,"state":"active","ping":68},{"user_id":465,"name":"JtsRes","steam_id":76561197994809241,"connected_time":57000000000,"state":"active","ping":60},{"user_id":442,"name":"[S]Mr. X [No Monitor]","steam_id":76561197963746035,"connected_time":2425000000000,"state":"active","ping":132},{"user_id":461,"name":"phrost","steam_id":76561198044293262,"connected_time":278000000000,"state":"active","ping":79},{"user_id":438,"name":"Cool Squirtle","steam_id":76561198055171861,"connected_time":2659000000000,"state":"active","ping":141},{"user_id":374,"name":"Evenaris","steam_id":76561198087544319,"connected_time":5800000000000,"state":"active","ping":77},{"user_id":419,"name":"Arnelcardis","steam_id":76561198018063858,"connected_time":3957000000000,"state":"active","ping":90},{"user_id":458,"name":"mae","steam_id":76561198085815757,"connected_time":399000000000,"state":"active","ping":94},{"user_id":355,"name":"ly","steam_id":76561198062922146,"connected_time":6931000000000,"state":"active","ping":53},{"user_id":439,"name":"Grilled Jizo","steam_id":76561199250875340,"connected_time":2659000000000,"state":"active","ping":110},{"user_id":415,"name":"Nick_Haley","steam_id":76561198287642250,"connected_time":4057000000000,"state":"active","ping":140},{"user_id":432,"name":"Tuvok Shakur","steam_id":76561198018875334,"connected_time":3054000000000,"state":"active","ping":65},{"user_id":456,"name":"MasterGeek.MX","steam_id":76561198063355220,"connected_time":578000000000,"state":"active","ping":94},{"user_id":453,"name":"Big McThankies From McSpankies","steam_id":76561198020516880,"connected_time":1527000000000,"state":"active","ping":76},{"user_id":401,"name":"Trashgaming","steam_id":76561199184268442,"connected_time":4390000000000,"state":"active","ping":119},{"user_id":466,"name":"Chili","steam_id":76561198042942046,"connected_time":8000000000,"state":"active","ping":184}]},{"server_id":405,"name":"Uncletopia | Dallas | 4 | Community","name_short":"dal-4","host":"dal-1.us.uncletopia.com","port":27045,"enabled":true,"region":"us-central","cc":"us","latitude":32.779167,"longitude":-96.80889,"reserved":0,"last_update":"0001-01-01T00:00:00Z","name_a2s":"Uncletopia | Dallas | 4 | Community","protocol":17,"map":"workshop/cp_bruhstbowl_b6.ugc2878604990","folder":"tf","game":"Team Fortress","app_id":440,"player_count":24,"max_players":24,"Bots":0,"server_type":"Dedicated","server_os":"Linux","password":true,"vac":true,"version":"7961495","steam_id":85568392924515220,"keywords":["cp","nocrits","nodmgspread","uncletopia"],"game_id":440,"stv_port":27046,"stv_name":"Uncletopia | Dallas | 4 | Community | STV","players":[{"user_id":145,"name":"Rick Astley Is A F2P?","steam_id":76561199258805660,"connected_time":2085000000000,"state":"active","ping":84},{"user_id":112,"name":"Monkey Mode","steam_id":76561197961267543,"connected_time":4736000000000,"state":"active","ping":75},{"user_id":102,"name":"Diamondclaws","steam_id":76561198998841063,"connected_time":5288000000000,"state":"active","ping":83},{"user_id":146,"name":"Untitled","steam_id":76561198994519513,"connected_time":2040000000000,"state":"active","ping":94},{"user_id":158,"name":"Fuzzy","steam_id":76561199100612353,"connected_time":741000000000,"state":"active","ping":77},{"user_id":131,"name":"Drip Skidmark","steam_id":76561198042444734,"connected_time":3349000000000,"state":"active","ping":132},{"user_id":137,"name":"crumbles","steam_id":76561198168707036,"connected_time":2707000000000,"state":"active","ping":86},{"user_id":58,"name":"Grimbo","steam_id":76561198826767537,"connected_time":7822000000000,"state":"active","ping":64},{"user_id":163,"name":"WOKEALOID Hatsugay Miku V4X","steam_id":76561198062263639,"connected_time":678000000000,"state":"active","ping":56},{"user_id":150,"name":"Tis_Me_Hacksoulslayer1","steam_id":76561198340064206,"connected_time":1548000000000,"state":"active","ping":60},{"user_id":122,"name":"Bottle","steam_id":76561199057108384,"connected_time":4051000000000,"state":"active","ping":71},{"user_id":117,"name":"Organ Harvester","steam_id":76561198069948353,"connected_time":4336000000000,"state":"active","ping":60},{"user_id":166,"name":"Lezabel","steam_id":76561198970753261,"connected_time":622000000000,"state":"active","ping":75},{"user_id":157,"name":"HanakoToast","steam_id":76561198045233131,"connected_time":991000000000,"state":"active","ping":85},{"user_id":164,"name":"a bee gaming","steam_id":76561198103194393,"connected_time":662000000000,"state":"active","ping":75},{"user_id":160,"name":"Hiser","steam_id":76561198308193624,"connected_time":718000000000,"state":"active","ping":65},{"user_id":162,"name":"Unwavering Flavor","steam_id":76561198053306065,"connected_time":712000000000,"state":"active","ping":60},{"user_id":128,"name":"zapphique","steam_id":76561198083575802,"connected_time":3862000000000,"state":"active","ping":62},{"user_id":144,"name":"automaticflight","steam_id":76561198099462784,"connected_time":2197000000000,"state":"active","ping":78},{"user_id":165,"name":"Diabolical Invincible Me","steam_id":76561199120703788,"connected_time":656000000000,"state":"active","ping":75},{"user_id":156,"name":"OwningTundra2","steam_id":76561198936893224,"connected_time":1080000000000,"state":"active","ping":50},{"user_id":100,"name":"Rin \"Hindwing\" Redtail","steam_id":76561199074865638,"connected_time":5674000000000,"state":"active","ping":65},{"user_id":167,"name":"deb","steam_id":76561198414336279,"connected_time":263000000000,"state":"active","ping":58},{"user_id":133,"name":"lanoc","steam_id":76561198055415367,"connected_time":3339000000000,"state":"active","ping":70}]},{"server_id":5,"name":"Uncletopia | Frankfurt | 1 | All Maps","name_short":"frk-1","host":"frk-1.de.uncletopia.com","port":27015,"enabled":true,"region":"eu","cc":"de","latitude":50.110924,"longitude":8.682127,"reserved":0,"last_update":"0001-01-01T00:00:00Z","name_a2s":"Uncletopia | Frankfurt | 1 | All Maps","protocol":17,"map":"koth_harvest_final","folder":"tf","game":"Team Fortress","app_id":440,"player_count":9,"max_players":24,"Bots":0,"server_type":"Dedicated","server_os":"Linux","password":true,"vac":true,"version":"7961495","steam_id":85568392924469989,"keywords":["cp","nocrits","nodmgspread","uncletopia"],"game_id":440,"stv_port":27016,"stv_name":"Uncletopia | Frankfurt | 1 | All Maps | STV","players":[{"user_id":355,"name":"yuno appreciator","steam_id":76561198083286511,"connected_time":6686000000000,"state":"active","ping":55},{"user_id":405,"name":"theflamesocker","steam_id":76561199113500743,"connected_time":2606000000000,"state":"active","ping":173},{"user_id":406,"name":"Dante","steam_id":76561198867107032,"connected_time":2504000000000,"state":"active","ping":145},{"user_id":409,"name":"jonbob","steam_id":76561197963506620,"connected_time":1946000000000,"state":"active","ping":69},{"user_id":378,"name":"sunny","steam_id":76561198194849578,"connected_time":5516000000000,"state":"active","ping":50},{"user_id":379,"name":"GrammyGrammyGram","steam_id":76561199158347565,"connected_time":5495000000000,"state":"active","ping":60},{"user_id":411,"name":"Biscuit","steam_id":76561198034318885,"connected_time":989000000000,"state":"active","ping":59},{"user_id":415,"name":"Commander DM","steam_id":76561198059236770,"connected_time":617000000000,"state":"active","ping":70},{"user_id":418,"name":"FoxyTheFish","steam_id":76561199074190919,"connected_time":419000000000,"state":"active","ping":65}]},{"server_id":110,"name":"Uncletopia | Frankfurt | 2 | All Maps","name_short":"frk-2","host":"frk-1.de.uncletopia.com","port":27025,"enabled":true,"region":"eu","cc":"de","latitude":50.110924,"longitude":8.682127,"reserved":0,"last_update":"0001-01-01T00:00:00Z","name_a2s":"Uncletopia | Frankfurt | 2 | All Maps","protocol":17,"map":"cp_snakewater_final1","folder":"tf","game":"Team Fortress","app_id":440,"player_count":0,"max_players":24,"Bots":0,"server_type":"Dedicated","server_os":"Linux","password":true,"vac":true,"version":"7961495","steam_id":85568392924469990,"keywords":["cp","nocrits","nodmgspread","uncletopia"],"game_id":440,"stv_port":27026,"stv_name":"Uncletopia | Frankfurt | 2 | All Maps | STV","players":null},{"server_id":308,"name":"Uncletopia | Frankfurt | 3 | All Maps","name_short":"frk-3","host":"frk-1.de.uncletopia.com","port":27035,"enabled":true,"region":"eu","cc":"de","latitude":50.110924,"longitude":8.682127,"reserved":0,"last_update":"0001-01-01T00:00:00Z","name_a2s":"Uncletopia | Frankfurt | 3 | All Maps","protocol":17,"map":"koth_highpass","folder":"tf","game":"Team Fortress","app_id":440,"player_count":0,"max_players":24,"Bots":0,"server_type":"Dedicated","server_os":"Linux","password":true,"vac":true,"version":"7961495","steam_id":85568392924504274,"keywords":["cp","nocrits","nodmgspread","uncletopia"],"game_id":440,"stv_port":27036,"stv_name":"Uncletopia | Frankfurt | 3 | All Maps | STV","players":null},{"server_id":309,"name":"Uncletopia | Frankfurt | 4 | All Maps","name_short":"frk-4","host":"frk-1.de.uncletopia.com","port":27045,"enabled":true,"region":"eu","cc":"de","latitude":50.110924,"longitude":8.682127,"reserved":0,"last_update":"0001-01-01T00:00:00Z","name_a2s":"Uncletopia | Frankfurt | 4 | All Maps","protocol":17,"map":"cp_altitude","folder":"tf","game":"Team Fortress","app_id":440,"player_count":0,"max_players":24,"Bots":0,"server_type":"Dedicated","server_os":"Linux","password":true,"vac":true,"version":"7961495","steam_id":85568392924504275,"keywords":["cp","nocrits","nodmgspread","uncletopia"],"game_id":440,"stv_port":27046,"stv_name":"Uncletopia | Frankfurt | 4 | All Maps | STV","players":null},{"server_id":310,"name":"Uncletopia | Frankfurt | 5 | All Maps","name_short":"frk-5","host":"frk-1.de.uncletopia.com","port":27055,"enabled":true,"region":"eu","cc":"de","latitude":50.110924,"longitude":8.682127,"reserved":0,"last_update":"0001-01-01T00:00:00Z","name_a2s":"Uncletopia | Frankfurt | 5 | All Maps","protocol":17,"map":"cp_process_final","folder":"tf","game":"Team Fortress","app_id":440,"player_count":0,"max_players":24,"Bots":0,"server_type":"Dedicated","server_os":"Linux","password":true,"vac":true,"version":"7961495","steam_id":85568392924504277,"keywords":["cp","nocrits","nodmgspread","uncletopia"],"game_id":440,"stv_port":27056,"stv_name":"Uncletopia | Frankfurt | 5 | All Maps | STV","players":null},{"server_id":311,"name":"Uncletopia | Frankfurt | 6 | All Maps","name_short":"frk-6","host":"frk-1.de.uncletopia.com","port":27065,"enabled":true,"region":"eu","cc":"de","latitude":50.110924,"longitude":8.682127,"reserved":0,"last_update":"0001-01-01T00:00:00Z","name_a2s":"Uncletopia | Frankfurt | 6 | All Maps","protocol":17,"map":"koth_harvest_final","folder":"tf","game":"Team Fortress","app_id":440,"player_count":11,"max_players":24,"Bots":0,"server_type":"Dedicated","server_os":"Linux","password":true,"vac":true,"version":"7961495","steam_id":85568392924504278,"keywords":["cp","nocrits","nodmgspread","uncletopia"],"game_id":440,"stv_port":27066,"stv_name":"Uncletopia | Frankfurt | 6 | All Maps | STV","players":[{"user_id":198,"name":"Kabachok Aeronavt","steam_id":76561198123659806,"connected_time":3000000000,"state":"spawning","ping":76},{"user_id":193,"name":"Sputnik","steam_id":76561198138660241,"connected_time":689000000000,"state":"active","ping":73},{"user_id":175,"name":"BAO BAO","steam_id":76561198083505031,"connected_time":2022000000000,"state":"active","ping":59},{"user_id":192,"name":"capitan jamacia aka jayden","steam_id":76561198071440081,"connected_time":694000000000,"state":"active","ping":88},{"user_id":186,"name":"shit gaming","steam_id":76561198153877395,"connected_time":1206000000000,"state":"active","ping":76},{"user_id":194,"name":"Peat","steam_id":76561197992168067,"connected_time":568000000000,"state":"active","ping":72},{"user_id":150,"name":"beebo","steam_id":76561199120277007,"connected_time":5470000000000,"state":"active","ping":63},{"user_id":135,"name":"khan","steam_id":76561198099245500,"connected_time":5943000000000,"state":"active","ping":70},{"user_id":191,"name":"men hot","steam_id":76561198043802421,"connected_time":785000000000,"state":"active","ping":79},{"user_id":170,"name":"Hamst123","steam_id":76561198957312452,"connected_time":2964000000000,"state":"active","ping":45},{"user_id":137,"name":"Kosmonaukt","steam_id":76561198168108777,"connected_time":5899000000000,"state":"active","ping":74}]},{"server_id":23,"name":"Uncletopia | Frankfurt | 7 | Stopwatch Beta","name_short":"frk-7","host":"frk-1.de.uncletopia.com","port":27075,"enabled":true,"region":"eu","cc":"de","latitude":50.110924,"longitude":8.682127,"reserved":0,"last_update":"0001-01-01T00:00:00Z","name_a2s":"Uncletopia | Frankfurt | 7 | Stopwatch Beta","protocol":17,"map":"workshop/pl_summercoast_rc8e.ugc1761528829","folder":"tf","game":"Team Fortress","app_id":440,"player_count":0,"max_players":24,"Bots":0,"server_type":"Dedicated","server_os":"Linux","password":true,"vac":true,"version":"7961495","steam_id":85568392924742827,"keywords":["nocrits","nodmgspread","payload","uncletopia"],"game_id":440,"stv_port":27076,"stv_name":"Uncletopia | Frankfurt | 7 | Stopwatch Beta | STV","players":null},{"server_id":24,"name":"Uncletopia | Frankfurt | 8 | Community","name_short":"frk-8","host":"frk-1.de.uncletopia.com","port":27085,"enabled":true,"region":"eu","cc":"de","latitude":50.110924,"longitude":8.682127,"reserved":0,"last_update":"0001-01-01T00:00:00Z","name_a2s":"Uncletopia | Frankfurt | 8 | Community","protocol":17,"map":"cp_dustbowl","folder":"tf","game":"Team Fortress","app_id":440,"player_count":0,"max_players":24,"Bots":0,"server_type":"Dedicated","server_os":"Linux","password":true,"vac":true,"version":"7961495","steam_id":85568392924742828,"keywords":["cp","nocrits","nodmgspread","uncletopia"],"game_id":440,"stv_port":27086,"stv_name":"Uncletopia | Frankfurt | 8 | Community | STV","players":null},{"server_id":202,"name":"Uncletopia | Hong Kong | 1 | All Maps","name_short":"hgk-1","host":"hgk-1.hk.uncletopia.com","port":27015,"enabled":true,"region":"asia","cc":"hk","latitude":22.302711,"longitude":114.177216,"reserved":0,"last_update":"0001-01-01T00:00:00Z","name_a2s":"Uncletopia | Hong Kong | 1 | All Maps","protocol":17,"map":"cp_mountainlab","folder":"tf","game":"Team Fortress","app_id":440,"player_count":0,"max_players":24,"Bots":0,"server_type":"Dedicated","server_os":"Linux","password":true,"vac":true,"version":"7961495","steam_id":85568392924494504,"keywords":["cp","nocrits","nodmgspread","uncletopia"],"game_id":440,"stv_port":27016,"stv_name":"Uncletopia | Hong Kong | 1 | All Maps | STV","players":null},{"server_id":1,"name":"Uncletopia | Los Angeles | 1 | All Maps","name_short":"lax-1","host":"lax-1.us.uncletopia.com","port":27015,"enabled":true,"region":"us-west","cc":"us","latitude":33.94279,"longitude":-118.41004,"reserved":0,"last_update":"0001-01-01T00:00:00Z","name_a2s":"Uncletopia | Los Angeles | 1 | All Maps","protocol":17,"map":"pl_borneo","folder":"tf","game":"Team Fortress","app_id":440,"player_count":23,"max_players":24,"Bots":0,"server_type":"Dedicated","server_os":"Linux","password":true,"vac":true,"version":"7961495","steam_id":85568392924469991,"keywords":["nocrits","nodmgspread","payload","uncletopia"],"game_id":440,"stv_port":27016,"stv_name":"Uncletopia | Los Angeles | 1 | All Maps | STV","players":[{"user_id":274,"name":"wayffles","steam_id":76561198044032876,"connected_time":3190000000000,"state":"active","ping":79},{"user_id":310,"name":"soup bowl","steam_id":76561198126134338,"connected_time":331000000000,"state":"active","ping":46},{"user_id":266,"name":"HYZA (enthusiastic and calming)","steam_id":76561199100342013,"connected_time":3660000000000,"state":"active","ping":47},{"user_id":279,"name":"silly jester","steam_id":76561198079609974,"connected_time":2550000000000,"state":"active","ping":61},{"user_id":312,"name":"queer latinx pmc soldier","steam_id":76561198058617608,"connected_time":270000000000,"state":"active","ping":59},{"user_id":290,"name":"Ramintash","steam_id":76561198860335271,"connected_time":1972000000000,"state":"active","ping":53},{"user_id":299,"name":"SmearierGold7","steam_id":76561198065689410,"connected_time":910000000000,"state":"active","ping":147},{"user_id":236,"name":"meme","steam_id":76561199170771700,"connected_time":4780000000000,"state":"active","ping":52},{"user_id":307,"name":"Keamy","steam_id":76561199471434875,"connected_time":682000000000,"state":"active","ping":73},{"user_id":291,"name":"WerdTheNerd","steam_id":76561198203344738,"connected_time":1954000000000,"state":"active","ping":46},{"user_id":273,"name":"xcinmo","steam_id":76561198167725105,"connected_time":3206000000000,"state":"active","ping":83},{"user_id":292,"name":"golia","steam_id":76561198000264266,"connected_time":1902000000000,"state":"active","ping":64},{"user_id":313,"name":"papi Chulo","steam_id":76561198126274984,"connected_time":264000000000,"state":"active","ping":74},{"user_id":300,"name":"OWEENIE","steam_id":76561198083135927,"connected_time":908000000000,"state":"active","ping":80},{"user_id":315,"name":"adios muchacho","steam_id":76561198068113347,"connected_time":230000000000,"state":"active","ping":50},{"user_id":303,"name":"small meth pouch","steam_id":76561198130412963,"connected_time":865000000000,"state":"active","ping":73},{"user_id":311,"name":"werolat","steam_id":76561197960544784,"connected_time":316000000000,"state":"active","ping":53},{"user_id":288,"name":"Schnitz","steam_id":76561198265484253,"connected_time":2001000000000,"state":"active","ping":59},{"user_id":295,"name":"Tom","steam_id":76561198139202942,"connected_time":1692000000000,"state":"active","ping":130},{"user_id":305,"name":"Rock005 Enjoyer","steam_id":76561198401455467,"connected_time":843000000000,"state":"active","ping":59},{"user_id":306,"name":"crab rangoon","steam_id":76561198332704108,"connected_time":839000000000,"state":"active","ping":105},{"user_id":296,"name":"『A Sentient Durian』","steam_id":76561198131212243,"connected_time":968000000000,"state":"active","ping":62},{"user_id":309,"name":":p","steam_id":76561198047786061,"connected_time":472000000000,"state":"active","ping":79}]},{"server_id":112,"name":"Uncletopia | Los Angeles | 2 | All Maps","name_short":"lax-2","host":"lax-1.us.uncletopia.com","port":27025,"enabled":true,"region":"us-west","cc":"us","latitude":33.94279,"longitude":-118.41004,"reserved":0,"last_update":"0001-01-01T00:00:00Z","name_a2s":"Uncletopia | Los Angeles | 2 | All Maps","protocol":17,"map":"cp_dustbowl","folder":"tf","game":"Team Fortress","app_id":440,"player_count":24,"max_players":24,"Bots":0,"server_type":"Dedicated","server_os":"Linux","password":true,"vac":true,"version":"7961495","steam_id":85568392924469992,"keywords":["cp","nocrits","nodmgspread","uncletopia"],"game_id":440,"stv_port":27026,"stv_name":"Uncletopia | Los Angeles | 2 | All Maps | STV","players":[{"user_id":371,"name":"Punished Shitster","steam_id":76561198150452857,"connected_time":1075000000000,"state":"active","ping":79},{"user_id":201,"name":"Silly Shark","steam_id":76561198130714378,"connected_time":13080000000000,"state":"active","ping":85},{"user_id":336,"name":"Petrichor","steam_id":76561198403521037,"connected_time":3064000000000,"state":"active","ping":56},{"user_id":341,"name":"diligent","steam_id":76561199140899423,"connected_time":2374000000000,"state":"active","ping":93},{"user_id":346,"name":"Rat5555546","steam_id":76561199350546592,"connected_time":2088000000000,"state":"active","ping":69},{"user_id":388,"name":"a_lilypup","steam_id":76561198163640324,"connected_time":695000000000,"state":"active","ping":48},{"user_id":391,"name":"atmBomb","steam_id":76561198055557988,"connected_time":588000000000,"state":"active","ping":74},{"user_id":379,"name":"Dullahan","steam_id":76561198119668908,"connected_time":974000000000,"state":"active","ping":59},{"user_id":382,"name":"GreenApples","steam_id":76561198120559543,"connected_time":881000000000,"state":"active","ping":60},{"user_id":383,"name":"Bing Soy","steam_id":76561199091381775,"connected_time":840000000000,"state":"active","ping":49},{"user_id":352,"name":"GlossyBat","steam_id":76561198929313869,"connected_time":1784000000000,"state":"active","ping":59},{"user_id":334,"name":"Irritated Duck","steam_id":76561198247792076,"connected_time":3089000000000,"state":"active","ping":104},{"user_id":353,"name":"SpeedingYeti873","steam_id":76561199229417377,"connected_time":1768000000000,"state":"active","ping":107},{"user_id":384,"name":"Jeanie","steam_id":76561198083812387,"connected_time":821000000000,"state":"active","ping":55},{"user_id":390,"name":"bowl of soup","steam_id":76561198319442494,"connected_time":629000000000,"state":"active","ping":55},{"user_id":392,"name":"Sponge","steam_id":76561198099024378,"connected_time":588000000000,"state":"active","ping":81},{"user_id":322,"name":"aunt pat","steam_id":76561198001488041,"connected_time":3437000000000,"state":"active","ping":98},{"user_id":363,"name":"BigGoose","steam_id":76561198833281392,"connected_time":1466000000000,"state":"active","ping":75},{"user_id":378,"name":"RailRunner66","steam_id":76561198053779091,"connected_time":991000000000,"state":"active","ping":97},{"user_id":374,"name":"Coffeemelon","steam_id":76561198285891257,"connected_time":1060000000000,"state":"active","ping":65},{"user_id":364,"name":"exx","steam_id":76561198090552145,"connected_time":1197000000000,"state":"active","ping":50},{"user_id":387,"name":"Stolid","steam_id":76561197998506423,"connected_time":788000000000,"state":"active","ping":59},{"user_id":377,"name":"Soda Popinski","steam_id":76561198045209288,"connected_time":1000000000000,"state":"active","ping":41},{"user_id":394,"name":"I am just a fish","steam_id":76561198062459671,"connected_time":169000000000,"state":"active","ping":52}]},{"server_id":324,"name":"Uncletopia | Los Angeles | 3 | All Maps","name_short":"lax-3","host":"lax-1.us.uncletopia.com","port":27035,"enabled":true,"region":"us-west","cc":"us","latitude":33.94279,"longitude":-118.41004,"reserved":0,"last_update":"0001-01-01T00:00:00Z","name_a2s":"Uncletopia | Los Angeles | 3 | All Maps","protocol":17,"map":"cp_dustbowl","folder":"tf","game":"Team Fortress","app_id":440,"player_count":0,"max_players":24,"Bots":0,"server_type":"Dedicated","server_os":"Linux","password":true,"vac":true,"version":"7961495","steam_id":85568392924510198,"keywords":["cp","nocrits","nodmgspread","uncletopia"],"game_id":440,"stv_port":27036,"stv_name":"Uncletopia | Los Angeles | 3 | All Maps | STV","players":null},{"server_id":25,"name":"Uncletopia | Los Angeles | 4 | Stopwatch Beta","name_short":"lax-4","host":"lax-1.us.uncletopia.com","port":27045,"enabled":true,"region":"us-west","cc":"us","latitude":33.94279,"longitude":-118.41004,"reserved":0,"last_update":"0001-01-01T00:00:00Z","name_a2s":"Uncletopia | Los Angeles | 4 | Stopwatch Beta","protocol":17,"map":"pl_upward","folder":"tf","game":"Team Fortress","app_id":440,"player_count":0,"max_players":24,"Bots":0,"server_type":"Dedicated","server_os":"Linux","password":true,"vac":true,"version":"7961495","steam_id":85568392924510199,"keywords":["nocrits","nodmgspread","payload","uncletopia"],"game_id":440,"stv_port":27046,"stv_name":"Uncletopia | Los Angeles | 4 | Stopwatch Beta | STV","players":null},{"server_id":11,"name":"Uncletopia | London | 1 | All Maps","name_short":"lon-1","host":"lon-1.uk.uncletopia.com","port":27015,"enabled":true,"region":"eu","cc":"gb","latitude":51.509865,"longitude":-0.118092,"reserved":0,"last_update":"0001-01-01T00:00:00Z","name_a2s":"Uncletopia | London | 1 | All Maps","protocol":17,"map":"pl_badwater","folder":"tf","game":"Team Fortress","app_id":440,"player_count":6,"max_players":24,"Bots":0,"server_type":"Dedicated","server_os":"Linux","password":true,"vac":true,"version":"7961495","steam_id":85568392924367362,"keywords":["nocrits","nodmgspread","payload","uncletopia"],"game_id":440,"stv_port":27016,"stv_name":"Uncletopia | London | 1 | All Maps | STV","players":[{"user_id":5,"name":"shooer!","steam_id":76561198110531281,"connected_time":2428000000000,"state":"active","ping":61},{"user_id":4,"name":"Kjat","steam_id":76561198839433592,"connected_time":2467000000000,"state":"active","ping":61},{"user_id":12,"name":"BHking0122","steam_id":76561198327734331,"connected_time":511000000000,"state":"active","ping":155},{"user_id":7,"name":"hmscole09","steam_id":76561198811362788,"connected_time":2314000000000,"state":"active","ping":52},{"user_id":9,"name":"fdsarewqqqqq","steam_id":76561199216983585,"connected_time":1229000000000,"state":"active","ping":159},{"user_id":11,"name":"Vin6ix","steam_id":76561198326859342,"connected_time":1003000000000,"state":"active","ping":68}]},{"server_id":114,"name":"Uncletopia | London | 2 | All Maps","name_short":"lon-2","host":"lon-1.uk.uncletopia.com","port":27025,"enabled":true,"region":"eu","cc":"gb","latitude":51.509865,"longitude":-0.118092,"reserved":0,"last_update":"0001-01-01T00:00:00Z","name_a2s":"Uncletopia | London | 2 | All Maps","protocol":17,"map":"cp_snakewater_final1","folder":"tf","game":"Team Fortress","app_id":440,"player_count":0,"max_players":24,"Bots":0,"server_type":"Dedicated","server_os":"Linux","password":true,"vac":true,"version":"7961495","steam_id":85568392924470941,"keywords":["cp","nocrits","nodmgspread","uncletopia"],"game_id":440,"stv_port":27026,"stv_name":"Uncletopia | London | 2 | All Maps | STV","players":null},{"server_id":320,"name":"Uncletopia | London | 3 | All Maps","name_short":"lon-3","host":"lon-1.uk.uncletopia.com","port":27035,"enabled":true,"region":"eu","cc":"gb","latitude":51.509865,"longitude":-0.118092,"reserved":0,"last_update":"0001-01-01T00:00:00Z","name_a2s":"Uncletopia | London | 3 | All Maps","protocol":17,"map":"pl_pier","folder":"tf","game":"Team Fortress","app_id":440,"player_count":0,"max_players":24,"Bots":0,"server_type":"Dedicated","server_os":"Linux","password":true,"vac":true,"version":"7961495","steam_id":85568392924510192,"keywords":["nocrits","nodmgspread","payload","uncletopia"],"game_id":440,"stv_port":27036,"stv_name":"Uncletopia | London | 3 | All Maps | STV","players":null},{"server_id":321,"name":"Uncletopia | London | 4 | All Maps","name_short":"lon-4","host":"lon-1.uk.uncletopia.com","port":27045,"enabled":true,"region":"eu","cc":"gb","latitude":51.509865,"longitude":-0.118092,"reserved":0,"last_update":"0001-01-01T00:00:00Z","name_a2s":"Uncletopia | London | 4 | All Maps","protocol":17,"map":"koth_viaduct","folder":"tf","game":"Team Fortress","app_id":440,"player_count":0,"max_players":24,"Bots":0,"server_type":"Dedicated","server_os":"Linux","password":true,"vac":true,"version":"7961495","steam_id":85568392924510193,"keywords":["cp","nocrits","nodmgspread","uncletopia"],"game_id":440,"stv_port":27046,"stv_name":"Uncletopia | London | 4 | All Maps | STV","players":null},{"server_id":21,"name":"Uncletopia | London | 5 | All Maps","name_short":"lon-5","host":"lon-1.uk.uncletopia.com","port":27055,"enabled":true,"region":"eu","cc":"gb","latitude":51.509865,"longitude":-0.118092,"reserved":0,"last_update":"0001-01-01T00:00:00Z","name_a2s":"Uncletopia | London | 5 | All Maps","protocol":17,"map":"pl_barnblitz","folder":"tf","game":"Team Fortress","app_id":440,"player_count":0,"max_players":24,"Bots":0,"server_type":"Dedicated","server_os":"Linux","password":true,"vac":true,"version":"7961495","steam_id":85568392924742829,"keywords":["nocrits","nodmgspread","payload","uncletopia"],"game_id":440,"stv_port":27056,"stv_name":"Uncletopia | London | 5 | All Maps | STV","players":null},{"server_id":22,"name":"Uncletopia | London | 6 | All Maps","name_short":"lon-6","host":"lon-1.uk.uncletopia.com","port":27065,"enabled":true,"region":"eu","cc":"gb","latitude":51.509865,"longitude":-0.118092,"reserved":0,"last_update":"0001-01-01T00:00:00Z","name_a2s":"Uncletopia | London | 6 | All Maps","protocol":17,"map":"pl_borneo","folder":"tf","game":"Team Fortress","app_id":440,"player_count":0,"max_players":24,"Bots":0,"server_type":"Dedicated","server_os":"Linux","password":true,"vac":true,"version":"7961495","steam_id":85568392924742830,"keywords":["nocrits","nodmgspread","payload","uncletopia"],"game_id":440,"stv_port":27066,"stv_name":"Uncletopia | London | 6 | All Maps | STV","players":null},{"server_id":40,"name":"Uncletopia | London | 7 | No Payload","name_short":"lon-7","host":"lon-1.uk.uncletopia.com","port":27075,"enabled":true,"region":"eu","cc":"gb","latitude":51.509865,"longitude":-0.118092,"reserved":0,"last_update":"0001-01-01T00:00:00Z","name_a2s":"Uncletopia | London | 7 | No Payload","protocol":17,"map":"pl_pier","folder":"tf","game":"Team Fortress","app_id":440,"player_count":0,"max_players":24,"Bots":0,"server_type":"Dedicated","server_os":"Linux","password":true,"vac":true,"version":"7961495","steam_id":85568392924964314,"keywords":["nocrits","nodmgspread","payload","uncletopia"],"game_id":440,"stv_port":27076,"stv_name":"Uncletopia | London | 7 | No Payload | STV","players":null},{"server_id":41,"name":"Uncletopia | London | 8 | Community","name_short":"lon-8","host":"lon-1.uk.uncletopia.com","port":27085,"enabled":true,"region":"eu","cc":"gb","latitude":51.509865,"longitude":-0.118092,"reserved":0,"last_update":"0001-01-01T00:00:00Z","name_a2s":"Uncletopia | London | 8 | Community","protocol":17,"map":"pl_borneo","folder":"tf","game":"Team Fortress","app_id":440,"player_count":0,"max_players":24,"Bots":0,"server_type":"Dedicated","server_os":"Linux","password":true,"vac":true,"version":"7961495","steam_id":85568392924964315,"keywords":["nocrits","nodmgspread","payload","uncletopia"],"game_id":440,"stv_port":27086,"stv_name":"Uncletopia | London | 8 | Community | STV","players":null},{"server_id":300,"name":"Uncletopia | Montréal | 1 | All Maps","name_short":"mtl-1","host":"mtl-1.ca.uncletopia.com","port":27015,"enabled":true,"region":"us-east","cc":"ca","latitude":45.50889,"longitude":-73.56167,"reserved":0,"last_update":"0001-01-01T00:00:00Z","name_a2s":"Uncletopia | Montréal | 1 | All Maps","protocol":17,"map":"cp_dustbowl","folder":"tf","game":"Team Fortress","app_id":440,"player_count":24,"max_players":24,"Bots":0,"server_type":"Dedicated","server_os":"Linux","password":true,"vac":true,"version":"7961495","steam_id":85568392924500087,"keywords":["cp","nocrits","nodmgspread","uncletopia"],"game_id":440,"stv_port":27016,"stv_name":"Uncletopia | Montréal | 1 | All Maps | STV","players":[{"user_id":135,"name":"Saggy Haggis Balls","steam_id":76561198047845399,"connected_time":1832000000000,"state":"active","ping":81},{"user_id":132,"name":"popular loner","steam_id":76561198353975792,"connected_time":2172000000000,"state":"active","ping":91},{"user_id":136,"name":"lance armstrong fan","steam_id":76561198350747953,"connected_time":1481000000000,"state":"active","ping":42},{"user_id":108,"name":"Alkahest","steam_id":76561199112346658,"connected_time":2722000000000,"state":"active","ping":58},{"user_id":137,"name":"Sploof","steam_id":76561198078577114,"connected_time":1456000000000,"state":"active","ping":77},{"user_id":149,"name":"fred durst (real)","steam_id":76561198202436474,"connected_time":243000000000,"state":"active","ping":68},{"user_id":74,"name":"TimeWarper","steam_id":76561198307258839,"connected_time":4896000000000,"state":"active","ping":59},{"user_id":134,"name":"DededeMain | trade.tf","steam_id":76561198310951632,"connected_time":1907000000000,"state":"active","ping":68},{"user_id":139,"name":"Spastic Gremlin","steam_id":76561198129059206,"connected_time":1450000000000,"state":"active","ping":64},{"user_id":125,"name":"Dog Goggles","steam_id":76561197995233692,"connected_time":2425000000000,"state":"active","ping":85},{"user_id":143,"name":"SC|Formuoli","steam_id":76561198254354595,"connected_time":1176000000000,"state":"active","ping":62},{"user_id":109,"name":"caber","steam_id":76561199114461848,"connected_time":2662000000000,"state":"active","ping":92},{"user_id":140,"name":"JeweyDecimals","steam_id":76561198124001480,"connected_time":1439000000000,"state":"active","ping":93},{"user_id":111,"name":"TheGhostThatWas","steam_id":76561198055836483,"connected_time":2618000000000,"state":"active","ping":55},{"user_id":145,"name":"emseaeye","steam_id":76561198161499803,"connected_time":490000000000,"state":"active","ping":52},{"user_id":151,"name":"Rhutebeer","steam_id":76561198018302761,"connected_time":94000000000,"state":"active","ping":120},{"user_id":147,"name":"[DEEP] Roz257 #NCFINALSGRIND","steam_id":76561198842844532,"connected_time":459000000000,"state":"active","ping":54},{"user_id":150,"name":"VOGPogs69","steam_id":76561198375101195,"connected_time":162000000000,"state":"active","ping":96},{"user_id":127,"name":"Bee_Pirate","steam_id":76561199000599111,"connected_time":2346000000000,"state":"active","ping":98},{"user_id":117,"name":"LiteralFraud","steam_id":76561198009686755,"connected_time":2561000000000,"state":"active","ping":61},{"user_id":118,"name":"Kiro","steam_id":76561198398155430,"connected_time":2549000000000,"state":"active","ping":47},{"user_id":148,"name":"Vaudeville Villain","steam_id":76561199212093339,"connected_time":414000000000,"state":"active","ping":81},{"user_id":126,"name":"warp","steam_id":76561198190417719,"connected_time":2411000000000,"state":"active","ping":56},{"user_id":144,"name":"Vladimir Chirgin","steam_id":76561198170035235,"connected_time":1122000000000,"state":"active","ping":60}]},{"server_id":301,"name":"Uncletopia | Montréal | 2 | All Maps","name_short":"mtl-2","host":"mtl-1.ca.uncletopia.com","port":27025,"enabled":true,"region":"us-east","cc":"ca","latitude":45.50889,"longitude":-73.56167,"reserved":0,"last_update":"0001-01-01T00:00:00Z","name_a2s":"Uncletopia | Montréal | 2 | All Maps","protocol":17,"map":"pl_swiftwater_final1","folder":"tf","game":"Team Fortress","app_id":440,"player_count":0,"max_players":24,"Bots":0,"server_type":"Dedicated","server_os":"Linux","password":true,"vac":true,"version":"7961495","steam_id":85568392924500088,"keywords":["nocrits","nodmgspread","payload","uncletopia"],"game_id":440,"stv_port":27026,"stv_name":"Uncletopia | Montréal | 2 | All Maps | STV","players":null},{"server_id":302,"name":"Uncletopia | Montréal | 3 | All Maps","name_short":"mtl-3","host":"mtl-1.ca.uncletopia.com","port":27035,"enabled":true,"region":"us-east","cc":"ca","latitude":45.50889,"longitude":-73.56167,"reserved":0,"last_update":"0001-01-01T00:00:00Z","name_a2s":"Uncletopia | Montréal | 3 | All Maps","protocol":17,"map":"koth_cascade","folder":"tf","game":"Team Fortress","app_id":440,"player_count":0,"max_players":24,"Bots":0,"server_type":"Dedicated","server_os":"Linux","password":true,"vac":true,"version":"7961495","steam_id":85568392924500089,"keywords":["cp","nocrits","nodmgspread","uncletopia"],"game_id":440,"stv_port":27036,"stv_name":"Uncletopia | Montréal | 3 | All Maps | STV","players":null},{"server_id":303,"name":"Uncletopia | Montréal | 4 | No Payload","name_short":"mtl-4","host":"mtl-1.ca.uncletopia.com","port":27045,"enabled":true,"region":"us-east","cc":"ca","latitude":45.50889,"longitude":-73.56167,"reserved":0,"last_update":"0001-01-01T00:00:00Z","name_a2s":"Uncletopia | Montréal | 4 | No Payload","protocol":17,"map":"koth_lakeside_final","folder":"tf","game":"Team Fortress","app_id":440,"player_count":0,"max_players":24,"Bots":0,"server_type":"Dedicated","server_os":"Linux","password":true,"vac":true,"version":"7961495","steam_id":85568392924500090,"keywords":["cp","nocrits","nodmgspread","uncletopia"],"game_id":440,"stv_port":27046,"stv_name":"Uncletopia | Montréal | 4 | No Payload | STV","players":null},{"server_id":13,"name":"Uncletopia | New York City | 1 | All Maps","name_short":"nyc-1","host":"nyc-1.us.uncletopia.com","port":27015,"enabled":true,"region":"us-east","cc":"us","latitude":40.73061,"longitude":-73.93524,"reserved":0,"last_update":"0001-01-01T00:00:00Z","name_a2s":"Uncletopia | New York City | 1 | All Maps","protocol":17,"map":"cp_mossrock","folder":"tf","game":"Team Fortress","app_id":440,"player_count":24,"max_players":24,"Bots":0,"server_type":"Dedicated","server_os":"Linux","password":true,"vac":true,"version":"7961495","steam_id":85568392924469993,"keywords":["cp","nocrits","nodmgspread","uncletopia"],"game_id":440,"stv_port":27016,"stv_name":"Uncletopia | New York City | 1 | All Maps | STV","players":[{"user_id":555,"name":"Baron von Whoopsie","steam_id":76561197996691013,"connected_time":2911000000000,"state":"active","ping":61},{"user_id":584,"name":"GummybearKillr","steam_id":76561198031235750,"connected_time":694000000000,"state":"active","ping":53},{"user_id":531,"name":"Piss God","steam_id":76561198090504334,"connected_time":4375000000000,"state":"active","ping":53},{"user_id":528,"name":"Queso2469","steam_id":76561197993024580,"connected_time":4795000000000,"state":"active","ping":46},{"user_id":596,"name":"Spandi","steam_id":76561198121023118,"connected_time":89000000000,"state":"active","ping":154},{"user_id":576,"name":"Very Small Giant","steam_id":76561199187337967,"connected_time":1572000000000,"state":"active","ping":74},{"user_id":578,"name":"Snoogs","steam_id":76561198444880931,"connected_time":1399000000000,"state":"active","ping":64},{"user_id":573,"name":"E-why","steam_id":76561198063270899,"connected_time":1634000000000,"state":"active","ping":114},{"user_id":595,"name":"Electric Camel","steam_id":76561198065589663,"connected_time":108000000000,"state":"active","ping":62},{"user_id":546,"name":"Raisincineroar","steam_id":76561198116295334,"connected_time":3457000000000,"state":"active","ping":52},{"user_id":550,"name":"Soulidity","steam_id":76561198429603550,"connected_time":3135000000000,"state":"active","ping":67},{"user_id":566,"name":"Stubu Dubu","steam_id":76561198111846314,"connected_time":1972000000000,"state":"active","ping":70},{"user_id":580,"name":"Classy","steam_id":76561198128415840,"connected_time":1182000000000,"state":"active","ping":57},{"user_id":575,"name":"corncakecoolcat","steam_id":76561198090716968,"connected_time":1592000000000,"state":"active","ping":55},{"user_id":558,"name":"Luther_51","steam_id":76561198042994473,"connected_time":2364000000000,"state":"active","ping":69},{"user_id":592,"name":"Butters495","steam_id":76561197998689042,"connected_time":334000000000,"state":"active","ping":72},{"user_id":559,"name":"ColdTooth","steam_id":76561197994963901,"connected_time":2353000000000,"state":"active","ping":64},{"user_id":593,"name":"Urbanzpinapple","steam_id":76561198115426938,"connected_time":216000000000,"state":"active","ping":111},{"user_id":587,"name":"Chicken Burger","steam_id":76561198358529311,"connected_time":682000000000,"state":"active","ping":95},{"user_id":448,"name":"Voracious Puma","steam_id":76561197963621649,"connected_time":11269000000000,"state":"active","ping":80},{"user_id":547,"name":"ATL1 | cola","steam_id":76561198374390458,"connected_time":3376000000000,"state":"active","ping":71},{"user_id":520,"name":"Raine","steam_id":76561198055761141,"connected_time":5565000000000,"state":"active","ping":82},{"user_id":567,"name":"Flyp","steam_id":76561198066104509,"connected_time":1957000000000,"state":"active","ping":57},{"user_id":594,"name":"Jango","steam_id":76561198121922413,"connected_time":123000000000,"state":"active","ping":107}]},{"server_id":14,"name":"Uncletopia | New York City | 2 | All Maps","name_short":"nyc-2","host":"nyc-1.us.uncletopia.com","port":27025,"enabled":true,"region":"us-east","cc":"us","latitude":40.73061,"longitude":-73.93524,"reserved":0,"last_update":"0001-01-01T00:00:00Z","name_a2s":"Uncletopia | New York City | 2 | All Maps","protocol":17,"map":"cp_yukon_final","folder":"tf","game":"Team Fortress","app_id":440,"player_count":24,"max_players":24,"Bots":0,"server_type":"Dedicated","server_os":"Linux","password":true,"vac":true,"version":"7961495","steam_id":85568392924469994,"keywords":["cp","nocrits","nodmgspread","uncletopia"],"game_id":440,"stv_port":27026,"stv_name":"Uncletopia | New York City | 2 | All Maps | STV","players":[{"user_id":389,"name":"Slummer","steam_id":76561198133150634,"connected_time":2838000000000,"state":"active","ping":74},{"user_id":334,"name":"InchMan","steam_id":76561198272658825,"connected_time":5725000000000,"state":"active","ping":86},{"user_id":422,"name":"StrudelB","steam_id":76561198000768061,"connected_time":316000000000,"state":"active","ping":66},{"user_id":401,"name":"MR DADDY","steam_id":76561198350794663,"connected_time":1416000000000,"state":"active","ping":49},{"user_id":418,"name":"Antwan","steam_id":76561198246200638,"connected_time":513000000000,"state":"active","ping":90},{"user_id":352,"name":"Park","steam_id":76561198057222814,"connected_time":4555000000000,"state":"active","ping":46},{"user_id":408,"name":"Le Meilleur","steam_id":76561198054581325,"connected_time":1251000000000,"state":"active","ping":72},{"user_id":415,"name":"Sh3ba Spaniel","steam_id":76561198047412394,"connected_time":564000000000,"state":"active","ping":77},{"user_id":421,"name":"Soulsted","steam_id":76561198048889257,"connected_time":369000000000,"state":"active","ping":53},{"user_id":399,"name":"Summer ♥","steam_id":76561198047723907,"connected_time":2065000000000,"state":"active","ping":105},{"user_id":424,"name":"TheChickenChuck","steam_id":76561199192686708,"connected_time":101000000000,"state":"active","ping":114},{"user_id":403,"name":"tonybaloney","steam_id":76561199434233117,"connected_time":1393000000000,"state":"active","ping":86},{"user_id":396,"name":"basilberry","steam_id":76561198145275937,"connected_time":2372000000000,"state":"active","ping":118},{"user_id":411,"name":"Ripping Heads","steam_id":76561198006146062,"connected_time":1049000000000,"state":"active","ping":64},{"user_id":409,"name":"chicken coup d'état","steam_id":76561198069586736,"connected_time":1210000000000,"state":"active","ping":56},{"user_id":328,"name":"themouseofchaos","steam_id":76561198256777743,"connected_time":5825000000000,"state":"active","ping":67},{"user_id":412,"name":"acid","steam_id":76561198055855408,"connected_time":893000000000,"state":"active","ping":58},{"user_id":425,"name":"StmyD","steam_id":76561198002041609,"connected_time":39000000000,"state":"active","ping":63},{"user_id":395,"name":"yes daddy","steam_id":76561198166100997,"connected_time":2540000000000,"state":"active","ping":64},{"user_id":423,"name":"Jeremy","steam_id":76561198283977979,"connected_time":300000000000,"state":"active","ping":64},{"user_id":405,"name":"PlagueDocX","steam_id":76561199198719140,"connected_time":1371000000000,"state":"active","ping":51},{"user_id":407,"name":"olleh","steam_id":76561198329407965,"connected_time":1281000000000,"state":"active","ping":58},{"user_id":383,"name":"Losre","steam_id":76561198071393125,"connected_time":3341000000000,"state":"active","ping":142},{"user_id":388,"name":"Bi Panic","steam_id":76561198426306122,"connected_time":2853000000000,"state":"active","ping":63}]},{"server_id":15,"name":"Uncletopia | New York City | 3 | Stopwatch Beta","name_short":"nyc-3","host":"nyc-1.us.uncletopia.com","port":27035,"enabled":true,"region":"us-east","cc":"us","latitude":40.73061,"longitude":-73.93524,"reserved":0,"last_update":"0001-01-01T00:00:00Z","name_a2s":"Uncletopia | New York City | 3 | Stopwatch Beta","protocol":17,"map":"workshop/koth_ramjam_rc1.ugc459778887","folder":"tf","game":"Team Fortress","app_id":440,"player_count":0,"max_players":24,"Bots":0,"server_type":"Dedicated","server_os":"Linux","password":true,"vac":true,"version":"7961495","steam_id":85568392924742820,"keywords":["cp","nocrits","nodmgspread","uncletopia"],"game_id":440,"stv_port":27036,"stv_name":"Uncletopia | New York City | 3 | Stopwatch Beta | STV","players":null},{"server_id":16,"name":"Uncletopia | New York City | 4 | Community","name_short":"nyc-4","host":"nyc-1.us.uncletopia.com","port":27045,"enabled":true,"region":"us-east","cc":"us","latitude":40.73061,"longitude":-73.93524,"reserved":0,"last_update":"0001-01-01T00:00:00Z","name_a2s":"Uncletopia | New York City | 4 | Community","protocol":17,"map":"workshop/cp_indulge.ugc528106646","folder":"tf","game":"Team Fortress","app_id":440,"player_count":0,"max_players":24,"Bots":0,"server_type":"Dedicated","server_os":"Linux","password":true,"vac":true,"version":"7961495","steam_id":85568392924742821,"keywords":["cp","nocrits","nodmgspread","uncletopia"],"game_id":440,"stv_port":27046,"stv_name":"Uncletopia | New York City | 4 | Community | STV","players":null},{"server_id":142,"name":"Uncletopia | São Paulo | 1 | All Maps","name_short":"sao-1","host":"sao-1.br.uncletopia.com","port":27015,"enabled":true,"region":"sa","cc":"br","latitude":-23.533773,"longitude":-46.62529,"reserved":0,"last_update":"0001-01-01T00:00:00Z","name_a2s":"Uncletopia | São Paulo | 1 | All Maps","protocol":17,"map":"pl_borneo","folder":"tf","game":"Team Fortress","app_id":440,"player_count":0,"max_players":24,"Bots":0,"server_type":"Dedicated","server_os":"Linux","password":true,"vac":true,"version":"7961495","steam_id":85568392924469996,"keywords":["nocrits","nodmgspread","payload","uncletopia"],"game_id":440,"stv_port":27016,"stv_name":"Uncletopia | São Paulo | 1 | All Maps | STV","players":null},{"server_id":143,"name":"Uncletopia | São Paulo | 2 | Community","name_short":"sao-2","host":"sao-2.br.uncletopia.com","port":27015,"enabled":true,"region":"sa","cc":"br","latitude":-23.533773,"longitude":-46.62529,"reserved":0,"last_update":"0001-01-01T00:00:00Z","name_a2s":"Uncletopia | São Paulo | 2 | Community","protocol":17,"map":"workshop/koth_kemptown_rc1.ugc767410655","folder":"tf","game":"Team Fortress","app_id":440,"player_count":1,"max_players":24,"Bots":0,"server_type":"Dedicated","server_os":"Linux","password":true,"vac":true,"version":"7961495","steam_id":85568392924485349,"keywords":["cp","nocrits","nodmgspread","uncletopia"],"game_id":440,"stv_port":27016,"stv_name":"Uncletopia | São Paulo | 2 | Community | STV","players":[{"user_id":38,"name":"BANANA_GAMING","steam_id":76561199396543110,"connected_time":657000000000,"state":"active","ping":75}]},{"server_id":7,"name":"Uncletopia | Seattle | 1 | All Maps","name_short":"sea-1","host":"sea-1.us.uncletopia.com","port":27015,"enabled":true,"region":"us-west","cc":"us","latitude":47.608013,"longitude":-122.33517,"reserved":0,"last_update":"0001-01-01T00:00:00Z","name_a2s":"Uncletopia | Seattle | 1 | All Maps","protocol":17,"map":"pl_snowycoast","folder":"tf","game":"Team Fortress","app_id":440,"player_count":24,"max_players":24,"Bots":0,"server_type":"Dedicated","server_os":"Linux","password":true,"vac":true,"version":"7961495","steam_id":85568392924469997,"keywords":["nocrits","nodmgspread","payload","uncletopia"],"game_id":440,"stv_port":27016,"stv_name":"Uncletopia | Seattle | 1 | All Maps | STV","players":[{"user_id":487,"name":"Ayayayayayahuasca","steam_id":76561199002906056,"connected_time":492000000000,"state":"active","ping":46},{"user_id":489,"name":"ismellgood","steam_id":76561199005142939,"connected_time":425000000000,"state":"active","ping":61},{"user_id":448,"name":"Why does glass taste like blood","steam_id":76561198253922494,"connected_time":4291000000000,"state":"active","ping":85},{"user_id":438,"name":"35 years without a footjob...","steam_id":76561198799299193,"connected_time":4753000000000,"state":"active","ping":48},{"user_id":392,"name":"Luca","steam_id":76561198125087140,"connected_time":8805000000000,"state":"active","ping":46},{"user_id":500,"name":"slushy :))","steam_id":76561198135281802,"connected_time":1000000000,"state":"spawning","ping":51},{"user_id":413,"name":"RainboomCrash","steam_id":76561198065612273,"connected_time":7008000000000,"state":"active","ping":51},{"user_id":491,"name":"Ryshy02","steam_id":76561198055425447,"connected_time":365000000000,"state":"active","ping":100},{"user_id":494,"name":"Pink Tooth Bob","steam_id":76561198142122915,"connected_time":333000000000,"state":"active","ping":66},{"user_id":449,"name":"OPKILLER99 (g.e.w.p)","steam_id":76561198213385439,"connected_time":4210000000000,"state":"active","ping":105},{"user_id":486,"name":"Zen56","steam_id":76561198074554894,"connected_time":925000000000,"state":"active","ping":91},{"user_id":488,"name":"MonteJT","steam_id":76561198055409360,"connected_time":439000000000,"state":"active","ping":34},{"user_id":496,"name":"bobby wasabi","steam_id":76561198380018244,"connected_time":326000000000,"state":"active","ping":62},{"user_id":473,"name":"Doofenshmirtz Evil Inc.","steam_id":76561198439793697,"connected_time":2096000000000,"state":"active","ping":124},{"user_id":492,"name":"whittecar","steam_id":76561198169715643,"connected_time":356000000000,"state":"active","ping":55},{"user_id":467,"name":"NOT FRIENDLY","steam_id":76561198041327231,"connected_time":2295000000000,"state":"active","ping":58},{"user_id":497,"name":"oomper","steam_id":76561199189982701,"connected_time":323000000000,"state":"active","ping":100},{"user_id":499,"name":"Strikerbolt","steam_id":76561199095622897,"connected_time":39000000000,"state":"active","ping":81},{"user_id":498,"name":"Raine","steam_id":76561199081937889,"connected_time":312000000000,"state":"active","ping":116},{"user_id":461,"name":"ORANGE","steam_id":76561198000401769,"connected_time":3443000000000,"state":"active","ping":49},{"user_id":478,"name":"Lorberry","steam_id":76561198023706058,"connected_time":1921000000000,"state":"active","ping":86},{"user_id":484,"name":"FlamingManiac","steam_id":76561198361996837,"connected_time":1014000000000,"state":"active","ping":122},{"user_id":483,"name":"Lentil Soup","steam_id":76561198051834684,"connected_time":1175000000000,"state":"active","ping":61},{"user_id":485,"name":"Pristine Pistachio Parfait","steam_id":76561198092494136,"connected_time":960000000000,"state":"active","ping":107}]},{"server_id":119,"name":"Uncletopia | Seattle | 2 | All Maps","name_short":"sea-2","host":"sea-1.us.uncletopia.com","port":27025,"enabled":true,"region":"us-west","cc":"us","latitude":47.608013,"longitude":-122.33517,"reserved":0,"last_update":"0001-01-01T00:00:00Z","name_a2s":"Uncletopia | Seattle | 2 | All Maps","protocol":17,"map":"koth_harvest_final","folder":"tf","game":"Team Fortress","app_id":440,"player_count":24,"max_players":24,"Bots":0,"server_type":"Dedicated","server_os":"Linux","password":true,"vac":true,"version":"7961495","steam_id":85568392924469998,"keywords":["cp","nocrits","nodmgspread","uncletopia"],"game_id":440,"stv_port":27026,"stv_name":"Uncletopia | Seattle | 2 | All Maps | STV","players":[{"user_id":585,"name":"dust | she/it","steam_id":76561198045218909,"connected_time":9915000000000,"state":"active","ping":37},{"user_id":634,"name":"louise sneeze","steam_id":76561198062451648,"connected_time":5296000000000,"state":"active","ping":89},{"user_id":676,"name":"Trueno","steam_id":76561199080515661,"connected_time":2043000000000,"state":"active","ping":52},{"user_id":627,"name":"a cat plushie","steam_id":76561198080046542,"connected_time":5913000000000,"state":"active","ping":48},{"user_id":688,"name":"1000 Ping","steam_id":76561198098330939,"connected_time":1032000000000,"state":"active","ping":99},{"user_id":600,"name":"Gerbias","steam_id":76561198001002427,"connected_time":8686000000000,"state":"active","ping":72},{"user_id":693,"name":"chilis baby back ribs","steam_id":76561198813516435,"connected_time":966000000000,"state":"active","ping":72},{"user_id":670,"name":"★Fredrick Fazbearington The 3","steam_id":76561198093729163,"connected_time":2726000000000,"state":"active","ping":49},{"user_id":681,"name":"Vibrantword3732","steam_id":76561198916638641,"connected_time":1684000000000,"state":"active","ping":59},{"user_id":692,"name":"gloobern","steam_id":76561198341190679,"connected_time":973000000000,"state":"active","ping":85},{"user_id":698,"name":"Big Cat","steam_id":76561198115695203,"connected_time":34000000000,"state":"active","ping":90},{"user_id":641,"name":"Miro","steam_id":76561198936412406,"connected_time":4946000000000,"state":"active","ping":132},{"user_id":648,"name":"CashGordon","steam_id":76561197975594096,"connected_time":4137000000000,"state":"active","ping":40},{"user_id":687,"name":"rat gets the cheese","steam_id":76561198031234032,"connected_time":1109000000000,"state":"active","ping":96},{"user_id":691,"name":"ms. anthrope","steam_id":76561198063533082,"connected_time":992000000000,"state":"active","ping":43},{"user_id":679,"name":"purple™ | they/she","steam_id":76561198057459725,"connected_time":1815000000000,"state":"active","ping":54},{"user_id":694,"name":"Erectangles","steam_id":76561198030325786,"connected_time":500000000000,"state":"active","ping":38},{"user_id":629,"name":"ilun","steam_id":76561198042913843,"connected_time":5578000000000,"state":"active","ping":60},{"user_id":678,"name":"thebeast","steam_id":76561198255963049,"connected_time":1961000000000,"state":"active","ping":89},{"user_id":696,"name":"Bingleton","steam_id":76561197998930473,"connected_time":326000000000,"state":"active","ping":44},{"user_id":669,"name":"the \"crab\"","steam_id":76561198027422512,"connected_time":2746000000000,"state":"active","ping":75},{"user_id":643,"name":"Tibetan Pop Star","steam_id":76561198844903984,"connected_time":4893000000000,"state":"active","ping":85},{"user_id":656,"name":"Terror","steam_id":76561198188685728,"connected_time":3881000000000,"state":"active","ping":92},{"user_id":685,"name":"Speg","steam_id":76561198101312573,"connected_time":1265000000000,"state":"active","ping":60}]},{"server_id":406,"name":"Uncletopia | Seattle | 3 | Stopwatch Beta","name_short":"sea-3","host":"sea-1.us.uncletopia.com","port":27035,"enabled":true,"region":"us-west","cc":"us","latitude":47.608013,"longitude":-122.33517,"reserved":0,"last_update":"0001-01-01T00:00:00Z","name_a2s":"Uncletopia | Seattle | 3 | Stopwatch Beta","protocol":17,"map":"workshop/koth_bagel_rc6.ugc2514036946","folder":"tf","game":"Team Fortress","app_id":440,"player_count":3,"max_players":24,"Bots":0,"server_type":"Dedicated","server_os":"Linux","password":true,"vac":true,"version":"7961495","steam_id":85568392924515217,"keywords":["cp","nocrits","nodmgspread","uncletopia"],"game_id":440,"stv_port":27036,"stv_name":"Uncletopia | Seattle | 3 | Stopwatch Beta | STV","players":[{"user_id":16,"name":"kdhbuilder","steam_id":76561199058095193,"connected_time":2210000000000,"state":"active","ping":142},{"user_id":17,"name":"Owl Of Delos","steam_id":76561198437116566,"connected_time":2164000000000,"state":"active","ping":56},{"user_id":23,"name":"Mom","steam_id":76561198207936000,"connected_time":267000000000,"state":"active","ping":46}]},{"server_id":17,"name":"Uncletopia | San Francisco | 1 | All Maps","name_short":"sfo-1","host":"sfo-1.us.uncletopia.com","port":27015,"enabled":true,"region":"us-west","cc":"us","latitude":37.77397,"longitude":-122.4313,"reserved":0,"last_update":"0001-01-01T00:00:00Z","name_a2s":"Uncletopia | San Francisco | 1 | All Maps","protocol":17,"map":"pl_upward","folder":"tf","game":"Team Fortress","app_id":440,"player_count":24,"max_players":24,"Bots":0,"server_type":"Dedicated","server_os":"Linux","password":true,"vac":true,"version":"7961495","steam_id":85568392924469999,"keywords":["nocrits","nodmgspread","payload","uncletopia"],"game_id":440,"stv_port":27016,"stv_name":"Uncletopia | San Francisco | 1 | All Maps | STV","players":[{"user_id":93,"name":"I gambled my wife away..","steam_id":76561198274180010,"connected_time":2990000000000,"state":"active","ping":43},{"user_id":124,"name":"Wilhelmktx","steam_id":76561198158102295,"connected_time":986000000000,"state":"active","ping":103},{"user_id":95,"name":"CatLike Pigeon","steam_id":76561198171716030,"connected_time":2878000000000,"state":"active","ping":94},{"user_id":122,"name":"Mr. Poi","steam_id":76561198967112222,"connected_time":993000000000,"state":"active","ping":53},{"user_id":138,"name":"drevott74","steam_id":76561199262592779,"connected_time":101000000000,"state":"active","ping":93},{"user_id":132,"name":"Menlymen","steam_id":76561198046508051,"connected_time":521000000000,"state":"active","ping":130},{"user_id":114,"name":"GlizzLord","steam_id":76561198321010427,"connected_time":1690000000000,"state":"active","ping":63},{"user_id":131,"name":"Dr. Fast M.D.","steam_id":76561198871298539,"connected_time":792000000000,"state":"active","ping":70},{"user_id":133,"name":"Gluestick","steam_id":76561199013430308,"connected_time":294000000000,"state":"active","ping":100},{"user_id":129,"name":"Ice cream sandwich","steam_id":76561198172748357,"connected_time":921000000000,"state":"active","ping":47},{"user_id":116,"name":"Eugene Thaddeus Hinkle V","steam_id":76561198821535846,"connected_time":1560000000000,"state":"active","ping":116},{"user_id":110,"name":"nachodonut8","steam_id":76561198422167399,"connected_time":2262000000000,"state":"active","ping":74},{"user_id":120,"name":"ang","steam_id":76561198435151254,"connected_time":1085000000000,"state":"active","ping":67},{"user_id":118,"name":"Doomeister","steam_id":76561198070277587,"connected_time":1422000000000,"state":"active","ping":73},{"user_id":76,"name":"VooDoo","steam_id":76561198133163191,"connected_time":4197000000000,"state":"active","ping":98},{"user_id":78,"name":"|KPF|r0cks","steam_id":76561198023597573,"connected_time":4157000000000,"state":"active","ping":141},{"user_id":30,"name":"LEE","steam_id":76561199127408846,"connected_time":6034000000000,"state":"active","ping":65},{"user_id":109,"name":"spacey_","steam_id":76561197970406614,"connected_time":2286000000000,"state":"active","ping":64},{"user_id":137,"name":"beheeyem","steam_id":76561198042867745,"connected_time":220000000000,"state":"active","ping":65},{"user_id":134,"name":"Catherine","steam_id":76561198125233120,"connected_time":291000000000,"state":"active","ping":51},{"user_id":111,"name":"Birdman743","steam_id":76561198799636748,"connected_time":2239000000000,"state":"active","ping":80},{"user_id":130,"name":"Eugene Krabs","steam_id":76561198999695398,"connected_time":854000000000,"state":"active","ping":103},{"user_id":82,"name":"Chevlanae","steam_id":76561198038180603,"connected_time":4041000000000,"state":"active","ping":97},{"user_id":135,"name":"TerminalDan","steam_id":76561198944078815,"connected_time":287000000000,"state":"active","ping":73}]},{"server_id":18,"name":"Uncletopia | San Francisco | 2 | All Maps","name_short":"sfo-2","host":"sfo-1.us.uncletopia.com","port":27025,"enabled":true,"region":"us-west","cc":"us","latitude":37.77397,"longitude":-122.4313,"reserved":0,"last_update":"0001-01-01T00:00:00Z","name_a2s":"Uncletopia | San Francisco | 2 | All Maps","protocol":17,"map":"cp_mountainlab","folder":"tf","game":"Team Fortress","app_id":440,"player_count":21,"max_players":24,"Bots":0,"server_type":"Dedicated","server_os":"Linux","password":true,"vac":true,"version":"7961495","steam_id":85568392924470000,"keywords":["cp","nocrits","nodmgspread","uncletopia"],"game_id":440,"stv_port":27026,"stv_name":"Uncletopia | San Francisco | 2 | All Maps | STV","players":[{"user_id":114,"name":"BENDY","steam_id":76561199438390713,"connected_time":267000000000,"state":"active","ping":70},{"user_id":119,"name":"RECLAIMDAB","steam_id":76561198039460204,"connected_time":102000000000,"state":"active","ping":84},{"user_id":120,"name":"Sturt","steam_id":76561198418100672,"connected_time":43000000000,"state":"active","ping":96},{"user_id":117,"name":"squash","steam_id":76561198150281353,"connected_time":153000000000,"state":"active","ping":77},{"user_id":83,"name":"basil du bois","steam_id":76561198119590214,"connected_time":2425000000000,"state":"active","ping":97},{"user_id":118,"name":"bottom pride burger","steam_id":76561198322247602,"connected_time":132000000000,"state":"active","ping":55},{"user_id":101,"name":"stickman488","steam_id":76561198190598823,"connected_time":1657000000000,"state":"active","ping":116},{"user_id":85,"name":"Snoopy","steam_id":76561198273735974,"connected_time":2247000000000,"state":"active","ping":111},{"user_id":121,"name":"ezb8oven","steam_id":76561198070549859,"connected_time":14000000000,"state":"active","ping":214},{"user_id":122,"name":"Grok","steam_id":76561198410665043,"connected_time":9000000000,"state":"active","ping":212},{"user_id":123,"name":"Justario","steam_id":76561198016095410,"connected_time":3000000000,"state":"spawning","ping":105},{"user_id":105,"name":"Coup de Grass","steam_id":76561198011643226,"connected_time":1145000000000,"state":"active","ping":113},{"user_id":90,"name":"Sam","steam_id":76561197991129901,"connected_time":2088000000000,"state":"active","ping":113},{"user_id":88,"name":"Super Saiyan Bear","steam_id":76561198063118280,"connected_time":2203000000000,"state":"active","ping":66},{"user_id":96,"name":"owie","steam_id":76561198858474714,"connected_time":1892000000000,"state":"active","ping":68},{"user_id":76,"name":"Three(3)SlicesOfBread","steam_id":76561199386210740,"connected_time":3140000000000,"state":"active","ping":75},{"user_id":104,"name":"Nukeboy","steam_id":76561198147058560,"connected_time":1188000000000,"state":"active","ping":75},{"user_id":97,"name":"Opium","steam_id":76561198396340174,"connected_time":1886000000000,"state":"active","ping":109},{"user_id":89,"name":"Versuski","steam_id":76561198085193084,"connected_time":2178000000000,"state":"active","ping":123},{"user_id":107,"name":"Tuffy","steam_id":76561198044179049,"connected_time":974000000000,"state":"active","ping":106},{"user_id":111,"name":"Red","steam_id":76561198001939529,"connected_time":431000000000,"state":"active","ping":127}]},{"server_id":19,"name":"Uncletopia | San Francisco | 3 | Stopwatch Beta","name_short":"sfo-3","host":"sfo-1.us.uncletopia.com","port":27035,"enabled":true,"region":"us-west","cc":"us","latitude":37.77397,"longitude":-122.4313,"reserved":0,"last_update":"0001-01-01T00:00:00Z","name_a2s":"Uncletopia | San Francisco | 3 | Stopwatch Beta","protocol":17,"map":"pl_borneo","folder":"tf","game":"Team Fortress","app_id":440,"player_count":0,"max_players":24,"Bots":0,"server_type":"Dedicated","server_os":"Linux","password":true,"vac":true,"version":"7961495","steam_id":85568392924742824,"keywords":["nocrits","nodmgspread","payload","uncletopia"],"game_id":440,"stv_port":27036,"stv_name":"Uncletopia | San Francisco | 3 | Stopwatch Beta | STV","players":null},{"server_id":20,"name":"Uncletopia | San Francisco | 4 | Community","name_short":"sfo-4","host":"sfo-1.us.uncletopia.com","port":27045,"enabled":true,"region":"us-west","cc":"us","latitude":37.77397,"longitude":-122.4313,"reserved":0,"last_update":"0001-01-01T00:00:00Z","name_a2s":"Uncletopia | San Francisco | 4 | Community","protocol":17,"map":"workshop/pl_barnblitz_pro7.ugc582280235","folder":"tf","game":"Team Fortress","app_id":440,"player_count":24,"max_players":24,"Bots":0,"server_type":"Dedicated","server_os":"Linux","password":true,"vac":true,"version":"7961495","steam_id":85568392924742826,"keywords":["nocrits","nodmgspread","payload","uncletopia"],"game_id":440,"stv_port":27046,"stv_name":"Uncletopia | San Francisco | 4 | Community | STV","players":[{"user_id":207,"name":"dudememe666","steam_id":76561199208963540,"connected_time":2630000000000,"state":"active","ping":78},{"user_id":228,"name":"goünch","steam_id":76561198045622778,"connected_time":794000000000,"state":"active","ping":93},{"user_id":237,"name":"nickname 123","steam_id":76561198080234033,"connected_time":389000000000,"state":"active","ping":108},{"user_id":230,"name":"ThePrinceApollo","steam_id":76561198974111032,"connected_time":640000000000,"state":"active","ping":119},{"user_id":208,"name":"Lope","steam_id":76561198169381232,"connected_time":2585000000000,"state":"active","ping":108},{"user_id":231,"name":"Kaiser Scoopy","steam_id":76561199122649727,"connected_time":576000000000,"state":"active","ping":87},{"user_id":243,"name":"green bean","steam_id":76561198113099204,"connected_time":48000000000,"state":"active","ping":33},{"user_id":233,"name":"Sticky Ethan","steam_id":76561198277211625,"connected_time":448000000000,"state":"active","ping":94},{"user_id":217,"name":"DJ Absolute Garbage","steam_id":76561198068000747,"connected_time":1495000000000,"state":"active","ping":108},{"user_id":234,"name":"mealy apple gaming","steam_id":76561199057644725,"connected_time":413000000000,"state":"active","ping":66},{"user_id":218,"name":"Tosh","steam_id":76561198026948976,"connected_time":1477000000000,"state":"active","ping":53},{"user_id":235,"name":"Walrus","steam_id":76561198001799905,"connected_time":410000000000,"state":"active","ping":57},{"user_id":224,"name":"Edgar Dill","steam_id":76561198106429468,"connected_time":1171000000000,"state":"active","ping":68},{"user_id":236,"name":"uzr","steam_id":76561198799343084,"connected_time":409000000000,"state":"active","ping":63},{"user_id":238,"name":"Topfix","steam_id":76561198038899333,"connected_time":376000000000,"state":"active","ping":115},{"user_id":239,"name":"d1NeRo","steam_id":76561198295578318,"connected_time":370000000000,"state":"active","ping":45},{"user_id":240,"name":"Grand Piano Tuna","steam_id":76561198135137213,"connected_time":366000000000,"state":"active","ping":82},{"user_id":204,"name":"Thewaffleman141","steam_id":76561198083068694,"connected_time":3239000000000,"state":"active","ping":90},{"user_id":241,"name":"✵knifepartylyrcs ♜","steam_id":76561198404914442,"connected_time":355000000000,"state":"active","ping":72},{"user_id":222,"name":"Fish","steam_id":76561199016308078,"connected_time":1338000000000,"state":"active","ping":49},{"user_id":193,"name":"mothsprings","steam_id":76561198928604937,"connected_time":4251000000000,"state":"active","ping":120},{"user_id":242,"name":"the verminator","steam_id":76561198828246148,"connected_time":353000000000,"state":"active","ping":108},{"user_id":214,"name":"periwonkle","steam_id":76561198136198600,"connected_time":2472000000000,"state":"active","ping":103},{"user_id":203,"name":"PippinRope","steam_id":76561198196670873,"connected_time":3454000000000,"state":"active","ping":72}]},{"server_id":141,"name":"Uncletopia | Sydney | 1 | All Maps","name_short":"syd-1","host":"syd-1.au.uncletopia.com","port":27015,"enabled":true,"region":"au","cc":"au","latitude":-33.865143,"longitude":151.2099,"reserved":0,"last_update":"0001-01-01T00:00:00Z","name_a2s":"Uncletopia | Sydney | 1 | All Maps","protocol":17,"map":"cp_process_final","folder":"tf","game":"Team Fortress","app_id":440,"player_count":0,"max_players":24,"Bots":0,"server_type":"Dedicated","server_os":"Linux","password":true,"vac":true,"version":"7961495","steam_id":85568392924470001,"keywords":["cp","nocrits","nodmgspread","uncletopia"],"game_id":440,"stv_port":27016,"stv_name":"Uncletopia | Sydney | 1 | All Maps | STV","players":null},{"server_id":123,"name":"Uncletopia | Sydney | 2 | All Maps","name_short":"syd-2","host":"syd-1.au.uncletopia.com","port":27025,"enabled":true,"region":"au","cc":"au","latitude":-33.865143,"longitude":151.2099,"reserved":0,"last_update":"0001-01-01T00:00:00Z","name_a2s":"Uncletopia | Sydney | 2 | All Maps","protocol":17,"map":"cp_mountainlab","folder":"tf","game":"Team Fortress","app_id":440,"player_count":3,"max_players":24,"Bots":0,"server_type":"Dedicated","server_os":"Linux","password":true,"vac":true,"version":"7961495","steam_id":85568392924470002,"keywords":["cp","nocrits","nodmgspread","uncletopia"],"game_id":440,"stv_port":27026,"stv_name":"Uncletopia | Sydney | 2 | All Maps | STV","players":[{"user_id":7,"name":"Cris.p bacon","steam_id":76561199230423491,"connected_time":668000000000,"state":"active","ping":97},{"user_id":10,"name":"Golfing with Joel","steam_id":76561199161637215,"connected_time":241000000000,"state":"active","ping":95},{"user_id":11,"name":"doris","steam_id":76561198985688207,"connected_time":232000000000,"state":"active","ping":38}]},{"server_id":395,"name":"Uncletopia | Sydney | 3 | All Maps","name_short":"syd-3","host":"syd-1.au.uncletopia.com","port":27035,"enabled":true,"region":"au","cc":"au","latitude":-33.865143,"longitude":151.2099,"reserved":0,"last_update":"0001-01-01T00:00:00Z","name_a2s":"Uncletopia | Sydney | 3 | All Maps","protocol":17,"map":"cp_dustbowl","folder":"tf","game":"Team Fortress","app_id":440,"player_count":0,"max_players":24,"Bots":0,"server_type":"Dedicated","server_os":"Linux","password":true,"vac":true,"version":"7961495","steam_id":85568392925194467,"keywords":["cp","nocrits","nodmgspread","uncletopia"],"game_id":440,"stv_port":27036,"stv_name":"Uncletopia | Sydney | 3 | All Maps | STV","players":null},{"server_id":396,"name":"Uncletopia | Sydney | 4 | All Maps","name_short":"syd-4","host":"syd-1.au.uncletopia.com","port":27045,"enabled":true,"region":"au","cc":"au","latitude":-33.865143,"longitude":151.2099,"reserved":0,"last_update":"0001-01-01T00:00:00Z","name_a2s":"Uncletopia | Sydney | 4 | All Maps","protocol":17,"map":"cp_dustbowl","folder":"tf","game":"Team Fortress","app_id":440,"player_count":0,"max_players":24,"Bots":0,"server_type":"Dedicated","server_os":"Linux","password":true,"vac":true,"version":"7961495","steam_id":85568392925397958,"keywords":["cp","nocrits","nodmgspread","uncletopia"],"game_id":440,"stv_port":27046,"stv_name":"Uncletopia | Sydney | 4 | All Maps | STV","players":null},{"server_id":58,"name":"Uncletopia | Sydney | 5 | Stopwatch Beta","name_short":"syd-5","host":"syd-1.au.uncletopia.com","port":27055,"enabled":true,"region":"au","cc":"au","latitude":-33.865143,"longitude":151.2099,"reserved":0,"last_update":"0001-01-01T00:00:00Z","name_a2s":"Uncletopia | Sydney | 5 | Stopwatch Beta","protocol":17,"map":"cp_granary","folder":"tf","game":"Team Fortress","app_id":440,"player_count":0,"max_players":24,"Bots":0,"server_type":"Dedicated","server_os":"Linux","password":true,"vac":true,"version":"7961495","steam_id":85568392925397959,"keywords":["cp","nocrits","nodmgspread","uncletopia"],"game_id":440,"stv_port":27056,"stv_name":"Uncletopia | Sydney | 5 | Stopwatch Beta | STV","players":null},{"server_id":59,"name":"Uncletopia | Sydney | 6 | Community","name_short":"syd-6","host":"syd-1.au.uncletopia.com","port":27065,"enabled":true,"region":"au","cc":"au","latitude":-33.865143,"longitude":151.2099,"reserved":0,"last_update":"0001-01-01T00:00:00Z","name_a2s":"Uncletopia | Sydney | 6 | Community","protocol":17,"map":"koth_cascade","folder":"tf","game":"Team Fortress","app_id":440,"player_count":2,"max_players":24,"Bots":0,"server_type":"Dedicated","server_os":"Linux","password":true,"vac":true,"version":"7961495","steam_id":85568392925397960,"keywords":["cp","nocrits","nodmgspread","uncletopia"],"game_id":440,"stv_port":27066,"stv_name":"Uncletopia | Sydney | 6 | Community | STV","players":[{"user_id":7,"name":"Shienn__","steam_id":76561199174019837,"connected_time":151000000000,"state":"active","ping":157},{"user_id":6,"name":"lowicmsteam","steam_id":76561199489336368,"connected_time":390000000000,"state":"active","ping":174}]},{"server_id":49,"name":"Uncletopia | Warsaw | 1 | All Maps","name_short":"waw-1","host":"waw-1.pl.uncletopia.com","port":27015,"enabled":true,"region":"eu","cc":"pl","latitude":52.2297,"longitude":21.017532,"reserved":0,"last_update":"0001-01-01T00:00:00Z","name_a2s":"Uncletopia | Warsaw | 1 | All Maps","protocol":17,"map":"koth_cascade","folder":"tf","game":"Team Fortress","app_id":440,"player_count":0,"max_players":24,"Bots":0,"server_type":"Dedicated","server_os":"Linux","password":true,"vac":true,"version":"7961495","steam_id":85568392925397850,"keywords":["cp","nocrits","nodmgspread","uncletopia"],"game_id":440,"stv_port":27016,"stv_name":"Uncletopia | Warsaw | 1 | All Maps | STV","players":null},{"server_id":50,"name":"Uncletopia | Warsaw | 2 | All Maps","name_short":"waw-2","host":"waw-1.pl.uncletopia.com","port":27025,"enabled":true,"region":"eu","cc":"pl","latitude":52.2297,"longitude":21.017532,"reserved":0,"last_update":"0001-01-01T00:00:00Z","name_a2s":"Uncletopia | Warsaw | 2 | All Maps","protocol":17,"map":"koth_lakeside_final","folder":"tf","game":"Team Fortress","app_id":440,"player_count":0,"max_players":24,"Bots":0,"server_type":"Dedicated","server_os":"Linux","password":true,"vac":true,"version":"7961495","steam_id":85568392925397851,"keywords":["cp","nocrits","nodmgspread","uncletopia"],"game_id":440,"stv_port":27026,"stv_name":"Uncletopia | Warsaw | 2 | All Maps | STV","players":null},{"server_id":51,"name":"Uncletopia | Warsaw | 3 | All Maps","name_short":"waw-3","host":"waw-1.pl.uncletopia.com","port":27035,"enabled":true,"region":"eu","cc":"pl","latitude":52.2297,"longitude":21.017532,"reserved":0,"last_update":"0001-01-01T00:00:00Z","name_a2s":"Uncletopia | Warsaw | 3 | All Maps","protocol":17,"map":"koth_highpass","folder":"tf","game":"Team Fortress","app_id":440,"player_count":0,"max_players":24,"Bots":0,"server_type":"Dedicated","server_os":"Linux","password":true,"vac":true,"version":"7961495","steam_id":85568392925397852,"keywords":["cp","nocrits","nodmgspread","uncletopia"],"game_id":440,"stv_port":27036,"stv_name":"Uncletopia | Warsaw | 3 | All Maps | STV","players":null},{"server_id":52,"name":"Uncletopia | Warsaw | 4 | All Maps","name_short":"waw-4","host":"waw-1.pl.uncletopia.com","port":27045,"enabled":true,"region":"eu","cc":"pl","latitude":52.2297,"longitude":21.017532,"reserved":0,"last_update":"0001-01-01T00:00:00Z","name_a2s":"Uncletopia | Warsaw | 4 | All Maps","protocol":17,"map":"koth_viaduct","folder":"tf","game":"Team Fortress","app_id":440,"player_count":0,"max_players":24,"Bots":0,"server_type":"Dedicated","server_os":"Linux","password":true,"vac":true,"version":"7961495","steam_id":85568392925397853,"keywords":["cp","nocrits","nodmgspread","uncletopia"],"game_id":440,"stv_port":27046,"stv_name":"Uncletopia | Warsaw | 4 | All Maps | STV","players":null},{"server_id":53,"name":"Uncletopia | Warsaw | 5 | Stopwatch Beta","name_short":"waw-5","host":"waw-1.pl.uncletopia.com","port":27055,"enabled":true,"region":"eu","cc":"pl","latitude":52.2297,"longitude":21.017532,"reserved":0,"last_update":"0001-01-01T00:00:00Z","name_a2s":"Uncletopia | Warsaw | 5 | Stopwatch Beta","protocol":17,"map":"pl_swiftwater_final1","folder":"tf","game":"Team Fortress","app_id":440,"player_count":0,"max_players":24,"Bots":0,"server_type":"Dedicated","server_os":"Linux","password":true,"vac":true,"version":"7961495","steam_id":85568392925397854,"keywords":["nocrits","nodmgspread","payload","uncletopia"],"game_id":440,"stv_port":27056,"stv_name":"Uncletopia | Warsaw | 5 | Stopwatch Beta | STV","players":null},{"server_id":54,"name":"Uncletopia | Warsaw | 6 | Community","name_short":"waw-6","host":"waw-1.pl.uncletopia.com","port":27065,"enabled":true,"region":"eu","cc":"pl","latitude":52.2297,"longitude":21.017532,"reserved":0,"last_update":"0001-01-01T00:00:00Z","name_a2s":"Uncletopia | Warsaw | 6 | Community","protocol":17,"map":"workshop/rd_asteroid_redux_b1.ugc2154902912","folder":"tf","game":"Team Fortress","app_id":440,"player_count":0,"max_players":24,"Bots":0,"server_type":"Dedicated","server_os":"Linux","password":true,"vac":true,"version":"7961495","steam_id":85568392925397856,"keywords":["beta","nocrits","nodmgspread","rd","uncletopia"],"game_id":440,"stv_port":27066,"stv_name":"Uncletopia | Warsaw | 6 | Community | STV","players":null}]}