{"status":true,"message":"","result":[{"server_id":9,"name":"Uncletopia | Atlanta | 1 | All Maps","name_short":"atl-1","host":"atl-1.us.uncletopia.com","port":27015,"enabled":true,"region":"us-east","cc":"us","latitude":33.753746,"longitude":-84.38633,"reserved":0,"last_update":"0001-01-01T00:00:00Z","name_a2s":"Uncletopia | Atlanta | 1 | All Maps","protocol":17,"map":"pl_upward","folder":"tf","game":"Team Fortress","app_id":440,"player_count":24,"max_players":24,"Bots":0,"server_type":"Dedicated","server_os":"Linux","password":true,"vac":true,"version":"7961495","steam_id":85568392924469982,"keywords":["nocrits","nodmgspread","payload","uncletopia"],"game_id":440,"stv_port":27016,"stv_name":"Uncletopia | Atlanta | 1 | All Maps | STV","players":null},{"server_id":104,"name":"Uncletopia | Atlanta | 2 | All Maps","name_short":"atl-2","host":"atl-1.us.uncletopia.com","port":27025,"enabled":true,"region":"us-east","cc":"us","latitude":33.753746,"longitude":-84.38633,"reserved":0,"last_update":"0001-01-01T00:00:00Z","name_a2s":"Uncletopia | Atlanta | 2 | All Maps","protocol":17,"map":"pl_barnblitz","folder":"tf","game":"Team Fortress","app_id":440,"player_count":0,"max_players":24,"Bots":0,"server_type":"Dedicated","server_os":"Linux","password":true,"vac":true,"version":"7961495","steam_id":85568392924469983,"keywords":["nocrits","nodmgspread","payload","uncletopia"],"game_id":440,"stv_port":27026,"stv_name":"Uncletopia | Atlanta | 2 | All Maps | STV","players":null},{"server_id":400,"name":"Uncletopia | Atlanta | 3 | Stopwatch","name_short":"atl-3","host":"atl-1.us.uncletopia.com","port":27035,"enabled":true,"region":"us-east","cc":"us","latitude":33.753746,"longitude":-84.38633,"reserved":0,"last_update":"0001-01-01T00:00:00Z","name_a2s":"Uncletopia | Atlanta | 3 | Stopwatch","protocol":17,"map":"pl_vigil_rc10","folder":"tf","game":"Team Fortress","app_id":440,"player_count":0,"max_players":24,"Bots":0,"server_type":"Dedicated","server_os":"Linux","password":true,"vac":true,"version":"7961495","steam_id":85568392924515187,"keywords":["nocrits","nodmgspread","payload","uncletopia"],"game_id":440,"stv_port":27036,"stv_name":"Uncletopia | Atlanta | 3 | Stopwatch | STV","players":null},{"server_id":401,"name":"Uncletopia | Atlanta | 4 | Community","name_short":"atl-4","host":"atl-1.us.uncletopia.com","port":27045,"enabled":true,"region":"us-east","cc":"us","latitude":33.753746,"longitude":-84.38633,"reserved":0,"last_update":"0001-01-01T00:00:00Z","name_a2s":"Uncletopia | Atlanta | 4 | Community","protocol":17,"map":"pl_eruption_b9a","folder":"tf","game":"Team Fortress","app_id":440,"player_count":0,"max_players":24,"Bots":0,"server_type":"Dedicated","server_os":"Linux","password":true,"vac":true,"version":"7961495","steam_id":85568392924515188,"keywords":["nocrits","nodmgspread","payload","uncletopia"],"game_id":440,"stv_port":27046,"stv_name":"Uncletopia | Atlanta | 4 | Community | STV","players":null},{"server_id":2,"name":"Uncletopia | Chicago | 1 | All Maps","name_short":"chi-1","host":"chi-1.us.uncletopia.com","port":27015,"enabled":true,"region":"us-central","cc":"us","latitude":41.881832,"longitude":-87.62318,"reserved":0,"last_update":"0001-01-01T00:00:00Z","name_a2s":"Uncletopia | Chicago | 1 | All Maps","protocol":17,"map":"cp_process_final","folder":"tf","game":"Team Fortress","app_id":440,"player_count":0,"max_players":24,"Bots":0,"server_type":"Dedicated","server_os":"Linux","password":true,"vac":true,"version":"7961495","steam_id":85568392924469984,"keywords":["cp","nocrits","nodmgspread","uncletopia"],"game_id":440,"stv_port":27016,"stv_name":"Uncletopia | Chicago | 1 | All Maps | STV","players":null},{"server_id":106,"name":"Uncletopia | Chicago | 2 | All Maps","name_short":"chi-2","host":"chi-1.us.uncletopia.com","port":27025,"enabled":true,"region":"us-central","cc":"us","latitude":41.881832,"longitude":-87.62318,"reserved":0,"last_update":"0001-01-01T00:00:00Z","name_a2s":"Uncletopia | Chicago | 2 | All Maps","protocol":17,"map":"pl_pier","folder":"tf","game":"Team Fortress","app_id":440,"player_count":0,"max_players":24,"Bots":0,"server_type":"Dedicated","server_os":"Linux","password":true,"vac":true,"version":"7961495","steam_id":85568392924469985,"keywords":["nocrits","nodmgspread","payload","uncletopia"],"game_id":440,"stv_port":27026,"stv_name":"Uncletopia | Chicago | 2 | All Maps | STV","players":null},{"server_id":402,"name":"Uncletopia | Chicago | 3 | All Maps","name_short":"chi-3","host":"chi-1.us.uncletopia.com","port":27035,"enabled":true,"region":"us-central","cc":"us","latitude":41.881832,"longitude":-87.62318,"reserved":0,"last_update":"0001-01-01T00:00:00Z","name_a2s":"Uncletopia | Chicago | 3 | All Maps","protocol":17,"map":"pl_swiftwater_final1","folder":"tf","game":"Team Fortress","app_id":440,"player_count":23,"max_players":24,"Bots":0,"server_type":"Dedicated","server_os":"Linux","password":true,"vac":true,"version":"7961495","steam_id":85568392924515191,"keywords":["nocrits","nodmgspread","payload","uncletopia"],"game_id":440,"stv_port":27036,"stv_name":"Uncletopia | Chicago | 3 | All Maps | STV","players":[{"user_id":539,"name":"Danmar33","steam_id":76561198056453091,"connected_time":2129000000000,"state":"active","ping":45},{"user_id":535,"name":"Mak","steam_id":76561198089197922,"connected_time":2835000000000,"state":"active","ping":104},{"user_id":540,"name":"Rez LeRoux","steam_id":76561198451503538,"connected_time":2122000000000,"state":"active","ping":76},{"user_id":555,"name":"Model CHP-3Y","steam_id":76561198107806145,"connected_time":1524000000000,"state":"active","ping":75},{"user_id":560,"name":"„ÄéDagon„Äè","steam_id":76561199036464302,"connected_time":1226000000000,"state":"active","ping":67},{"user_id":522,"name":"Slippin' Jimmy","steam_id":76561198324749126,"connected_time":4116000000000,"state":"active","ping":76},{"user_id":574,"name":"Chap","steam_id":76561198294226443,"connected_time":29000000000,"state":"spawning","ping":93},{"user_id":563,"name":"Nobody","steam_id":76561198286486517,"connected_time":1114000000000,"state":"active","ping":58},{"user_id":464,"name":"Vega","steam_id":76561198141126883,"connected_time":8904000000000,"state":"active","ping":92},{"user_id":544,"name":"DannyGamerXD","steam_id":76561198799224408,"connected_time":1920000000000,"state":"active","ping":68},{"user_id":545,"name":"Hatfam","steam_id":76561199192629036,"connected_time":1914000000000,"state":"active","ping":103},{"user_id":533,"name":"ZDoX","steam_id":76561198273012221,"connected_time":3028000000000,"state":"active","ping":130},{"user_id":564,"name":"CHIKN","steam_id":76561198277792665,"connected_time":798000000000,"state":"active","ping":105},{"user_id":509,"name":"Chimi","steam_id":76561198067800540,"connected_time":4550000000000,"state":"active","ping":74},{"user_id":565,"name":"sex denier","steam_id":76561198069407799,"connected_time":725000000000,"state":"active","ping":77},{"user_id":463,"name":"Red Metal","steam_id":76561198362722560,"connected_time":8981000000000,"state":"active","ping":92},{"user_id":548,"name":"Sariff","steam_id":76561198136446352,"connected_time":1775000000000,"state":"active","ping":50},{"user_id":465,"name":"HundchenTanque","steam_id":76561198122692754,"connected_time":8881000000000,"state":"active","ping":58},{"user_id":570,"name":"rudy","steam_id":76561198088712799,"connected_time":549000000000,"state":"active","ping":92},{"user_id":571,"name":"werecat","steam_id":76561198005091213,"connected_time":473000000000,"state":"active","ping":57},{"user_id":572,"name":"A tree","steam_id":76561198309065247,"connected_time":371000000000,"state":"active","ping":83},{"user_id":551,"name":"weeb_whacker","steam_id":76561198187098041,"connected_time":1696000000000,"state":"active","ping":59},{"user_id":573,"name":"‚Ñã‚Ñá·ºÇ·πº‡¥¥","steam_id":76561199062259389,"connected_time":208000000000,"state":"active","ping":96}]},{"server_id":403,"name":"Uncletopia | Chicago | 4 | All Maps","name_short":"chi-4","host":"chi-1.us.uncletopia.com","port":27045,"enabled":true,"region":"us-central","cc":"us","latitude":41.881832,"longitude":-87.62318,"reserved":0,"last_update":"0001-01-01T00:00:00Z","name_a2s":"Uncletopia | Chicago | 4 | All Maps","protocol":17,"map":"cp_process_final","folder":"tf","game":"Team Fortress","app_id":440,"player_count":23,"max_players":24,"Bots":0,"server_type":"Dedicated","server_os":"Linux","password":true,"vac":true,"version":"7961495","steam_id":85568392924515193,"keywords":["cp","nocrits","nodmgspread","uncletopia"],"game_id":440,"stv_port":27046,"stv_name":"Uncletopia | Chicago | 4 | All Maps | STV","players":[{"user_id":348,"name":"oppenheimer style","steam_id":76561198026664629,"connected_time":3942000000000,"state":"active","ping":50},{"user_id":383,"name":"womthedom","steam_id":76561198088768287,"connected_time":852000000000,"state":"active","ping":31},{"user_id":386,"name":"Scorcho","steam_id":76561198071413833,"connected_time":698000000000,"state":"active","ping":98},{"user_id":382,"name":"day","steam_id":76561198194939617,"connected_time":890000000000,"state":"active","ping":51},{"user_id":381,"name":"üÖúüÖîüÖîüÖöüÖ¢üÖ£üÖî\ufffd\ufffd\ufffd","steam_id":76561197999748343,"connected_time":935000000000,"state":"active","ping":60},{"user_id":372,"name":"Whatsapp Spy","steam_id":76561198085410969,"connected_time":2327000000000,"state":"active","ping":104},{"user_id":364,"name":"koh ‚úß","steam_id":76561198831996918,"connected_time":2841000000000,"state":"active","ping":58},{"user_id":375,"name":"HOW2TAKEASHIT@ABITCHCRIB","steam_id":76561198144766439,"connected_time":1951000000000,"state":"active","ping":45},{"user_id":358,"name":"Big Man Lard","steam_id":76561198069074737,"connected_time":3251000000000,"state":"active","ping":72},{"user_id":394,"name":"Raccoon Wizard","steam_id":76561198072562591,"connected_time":276000000000,"state":"active","ping":91},{"user_id":384,"name":"ultralisk52","steam_id":76561198051666604,"connected_time":813000000000,"state":"active","ping":59},{"user_id":359,"name":"funny weed dot com","steam_id":76561198843967834,"connected_time":3230000000000,"state":"active","ping":47},{"user_id":360,"name":"Swaglodyte","steam_id":76561198060994080,"connected_time":3202000000000,"state":"active","ping":90},{"user_id":393,"name":"skate","steam_id":76561198322312114,"connected_time":333000000000,"state":"active","ping":67},{"user_id":400,"name":"goopgrabber","steam_id":76561199029951083,"connected_time":4000000000,"state":"spawning","ping":90},{"user_id":391,"name":"LVL","steam_id":76561198334403617,"connected_time":441000000000,"state":"active","ping":52},{"user_id":342,"name":"Trixie Lulamoon","steam_id":76561198149206391,"connected_time":4479000000000,"state":"active","ping":57},{"user_id":396,"name":"Trubuckifan","steam_id":76561197990991360,"connected_time":237000000000,"state":"active","ping":84},{"user_id":371,"name":"RoFl","steam_id":76561199056355865,"connected_time":2641000000000,"state":"active","ping":117},{"user_id":343,"name":"Dravenation","steam_id":76561198012411483,"connected_time":4459000000000,"state":"active","ping":84},{"user_id":398,"name":"Manila Folders","steam_id":76561198212083128,"connected_time":205000000000,"state":"active","ping":71},{"user_id":397,"name":"lightduck","steam_id":76561197987768292,"connected_time":226000000000,"state":"active","ping":152},{"user_id":377,"name":"badboy6996","steam_id":76561197969386201,"connected_time":1692000000000,"state":"active","ping":47}]},{"server_id":36,"name":"Uncletopia | Chicago | 5 | All Maps","name_short":"chi-5","host":"chi-2.us.uncletopia.com","port":27015,"enabled":true,"region":"us-central","cc":"us","latitude":41.881832,"longitude":-87.62318,"reserved":0,"last_update":"0001-01-01T00:00:00Z","name_a2s":"Uncletopia | Chicago | 5 | All Maps","protocol":17,"map":"pl_upward","folder":"tf","game":"Team Fortress","app_id":440,"player_count":0,"max_players":24,"Bots":0,"server_type":"Dedicated","server_os":"Linux","password":true,"vac":true,"version":"7961495","steam_id":85568392924866362,"keywords":["nocrits","nodmgspread","payload","uncletopia"],"game_id":440,"stv_port":27016,"stv_name":"Uncletopia | Chicago | 5 | All Maps | STV","players":null},{"server_id":37,"name":"Uncletopia | Chicago | 6 | All Maps","name_short":"chi-6","host":"chi-2.us.uncletopia.com","port":27025,"enabled":true,"region":"us-central","cc":"us","latitude":41.881832,"longitude":-87.62318,"reserved":0,"last_update":"0001-01-01T00:00:00Z","name_a2s":"Uncletopia | Chicago | 6 | All Maps","protocol":17,"map":"pl_barnblitz","folder":"tf","game":"Team Fortress","app_id":440,"player_count":23,"max_players":24,"Bots":0,"server_type":"Dedicated","server_os":"Linux","password":true,"vac":true,"version":"7961495","steam_id":85568392924866363,"keywords":["nocrits","nodmgspread","payload","uncletopia"],"game_id":440,"stv_port":27026,"stv_name":"Uncletopia | Chicago | 6 | All Maps | STV","players":[{"user_id":436,"name":"ratatouille jones","steam_id":76561198056210812,"connected_time":112000000000,"state":"active","ping":60},{"user_id":411,"name":"Disco Stink","steam_id":76561198090562293,"connected_time":1600000000000,"state":"active","ping":86},{"user_id":412,"name":"Nopaho","steam_id":76561198087571953,"connected_time":1572000000000,"state":"active","ping":101},{"user_id":426,"name":"Dog Athletic Association","steam_id":76561198002964332,"connected_time":695000000000,"state":"active","ping":64},{"user_id":413,"name":"LILGI4THAW","steam_id":76561198403803842,"connected_time":1553000000000,"state":"active","ping":109},{"user_id":414,"name":"Iron_Dave_Qc","steam_id":76561198159325213,"connected_time":1450000000000,"state":"active","ping":71},{"user_id":416,"name":"313","steam_id":76561198152773225,"connected_time":1186000000000,"state":"active","ping":91},{"user_id":400,"name":"sandwich","steam_id":76561199112000229,"connected_time":2395000000000,"state":"active","ping":78},{"user_id":438,"name":"frank","steam_id":76561198137777483,"connected_time":43000000000,"state":"active","ping":72},{"user_id":369,"name":"Marble Eating Contest","steam_id":76561198037072888,"connected_time":4791000000000,"state":"active","ping":46},{"user_id":435,"name":"aqua","steam_id":76561199407709552,"connected_time":156000000000,"state":"active","ping":50},{"user_id":402,"name":"Infinitytacos","steam_id":76561198884260211,"connected_time":2131000000000,"state":"active","ping":44},{"user_id":434,"name":"KrylonHeretic","steam_id":76561198139811459,"connected_time":166000000000,"state":"active","ping":119},{"user_id":424,"name":"FlammenwerferPanzer","steam_id":76561199096682977,"connected_time":965000000000,"state":"active","ping":148},{"user_id":397,"name":"Ping","steam_id":76561198072947773,"connected_time":2594000000000,"state":"active","ping":60},{"user_id":432,"name":"God","steam_id":76561198131089513,"connected_time":362000000000,"state":"active","ping":58},{"user_id":425,"name":"Dual Elites","steam_id":76561198041225086,"connected_time":828000000000,"state":"active","ping":66},{"user_id":439,"name":"Kuchio","steam_id":76561198161218914,"connected_time":20000000000,"state":"active","ping":94},{"user_id":427,"name":"Muelton","steam_id":76561198095573866,"connected_time":692000000000,"state":"active","ping":46},{"user_id":440,"name":"Ôº≤Ôº•Ôº§","steam_id":76561198030282308,"connected_time":1000000000,"state":"spawning","ping":98},{"user_id":405,"name":"female twink","steam_id":76561198057884377,"connected_time":2088000000000,"state":"active","ping":59},{"user_id":430,"name":"IHateThisMap","steam_id":76561197980597646,"connected_time":514000000000,"state":"active","ping":64}]},{"server_id":38,"name":"Uncletopia | Chicago | 7 | Stopwatch","name_short":"chi-7","host":"chi-2.us.uncletopia.com","port":27035,"enabled":true,"region":"us-central","cc":"us","latitude":41.881832,"longitude":-87.62318,"reserved":0,"last_update":"0001-01-01T00:00:00Z","name_a2s":"Uncletopia | Chicago | 7 | Stopwatch","protocol":17,"map":"cp_process_final","folder":"tf","game":"Team Fortress","app_id":440,"player_count":0,"max_players":24,"Bots":0,"server_type":"Dedicated","server_os":"Linux","password":true,"vac":true,"version":"7961495","steam_id":85568392924866364,"keywords":["cp","nocrits","nodmgspread","uncletopia"],"game_id":440,"stv_port":27036,"stv_name":"Uncletopia | Chicago | 7 | Stopwatch | STV","players":null},{"server_id":39,"name":"Uncletopia | Chicago | 8 | Community","name_short":"chi-8","host":"chi-2.us.uncletopia.com","port":27045,"enabled":true,"region":"us-central","cc":"us","latitude":41.881832,"longitude":-87.62318,"reserved":0,"last_update":"0001-01-01T00:00:00Z","name_a2s":"Uncletopia | Chicago | 8 | Community","protocol":17,"map":"workshop/koth_trenchfoot_b1a.ugc731436616","folder":"tf","game":"Team Fortress","app_id":440,"player_count":0,"max_players":24,"Bots":0,"server_type":"Dedicated","server_os":"Linux","password":true,"vac":true,"version":"7961495","steam_id":85568392924866365,"keywords":["cp","nocrits","nodmgspread","uncletopia"],"game_id":440,"stv_port":27046,"stv_name":"Uncletopia | Chicago | 8 | Community | STV","players":null},{"server_id":8,"name":"Uncletopia | Dallas | 1 | All Maps","name_short":"dal-1","host":"dal-1.us.uncletopia.com","port":27015,"enabled":true,"region":"us-central","cc":"us","latitude":32.779167,"longitude":-96.80889,"reserved":0,"last_update":"0001-01-01T00:00:00Z","name_a2s":"Uncletopia | Dallas | 1 | All Maps","protocol":17,"map":"pl_badwater","folder":"tf","game":"Team Fortress","app_id":440,"player_count":5,"max_players":24,"Bots":0,"server_type":"Dedicated","server_os":"Linux","password":true,"vac":true,"version":"7961495","steam_id":85568392924469986,"keywords":["nocrits","nodmgspread","payload","uncletopia"],"game_id":440,"stv_port":27016,"stv_name":"Uncletopia | Dallas | 1 | All Maps | STV","players":[{"user_id":622,"name":"Etherhel","steam_id":76561198838449544,"connected_time":744000000000,"state":"active","ping":202},{"user_id":623,"name":"BoyKisser","steam_id":76561199200969139,"connected_time":682000000000,"state":"active","ping":98},{"user_id":567,"name":"Imrgrim","steam_id":76561198135866481,"connected_time":4481000000000,"state":"active","ping":60},{"user_id":601,"name":"Vitreus","steam_id":76561198091059218,"connected_time":2223000000000,"state":"active","ping":98},{"user_id":597,"name":"Trish \u003c3","steam_id":76561198200553470,"connected_time":2752000000000,"state":"active","ping":79}]},{"server_id":108,"name":"Uncletopia | Dallas | 2 | All Maps","name_short":"dal-2","host":"dal-1.us.uncletopia.com","port":27025,"enabled":true,"region":"us-central","cc":"us","latitude":32.779167,"longitude":-96.80889,"reserved":0,"last_update":"0001-01-01T00:00:00Z","name_a2s":"Uncletopia | Dallas | 2 | All Maps","protocol":17,"map":"cp_process_final","folder":"tf","game":"Team Fortress","app_id":440,"player_count":23,"max_players":24,"Bots":0,"server_type":"Dedicated","server_os":"Linux","password":true,"vac":true,"version":"7961495","steam_id":85568392924469988,"keywords":["cp","nocrits","nodmgspread","uncletopia"],"game_id":440,"stv_port":27026,"stv_name":"Uncletopia | Dallas | 2 | All Maps | STV","players":[{"user_id":855,"name":"ryancozy","steam_id":76561198074536192,"connected_time":141000000000,"state":"active","ping":55},{"user_id":839,"name":"salty like Lot's wife","steam_id":76561197998619845,"connected_time":1599000000000,"state":"active","ping":84},{"user_id":841,"name":"Fyish","steam_id":76561198127303751,"connected_time":1531000000000,"state":"active","ping":35},{"user_id":856,"name":"TheArachnidGamer","steam_id":76561198304986752,"connected_time":82000000000,"state":"active","ping":60},{"user_id":747,"name":"Ozzyhalen","steam_id":76561198025207814,"connected_time":9345000000000,"state":"active","ping":63},{"user_id":820,"name":"euphoricfilth","steam_id":76561198100160865,"connected_time":3354000000000,"state":"active","ping":75},{"user_id":845,"name":"‚í∑‚ì™‚ì™‚ì£‚ì®‚ìí‚ìê‚ìö‚ìî‚ì¢","steam_id":76561198088776421,"connected_time":1197000000000,"state":"active","ping":77},{"user_id":807,"name":"leaving lunar orbit","steam_id":76561199085974120,"connected_time":4677000000000,"state":"active","ping":89},{"user_id":857,"name":"Velvety","steam_id":76561198081922813,"connected_time":71000000000,"state":"spawning","ping":92},{"user_id":858,"name":"shittybub","steam_id":76561198868370675,"connected_time":43000000000,"state":"active","ping":84},{"user_id":850,"name":"some strange angel","steam_id":76561198010702536,"connected_time":383000000000,"state":"active","ping":62},{"user_id":817,"name":"O.G. C.E.O","steam_id":76561198063928325,"connected_time":3601000000000,"state":"active","ping":70},{"user_id":859,"name":"Camohno","steam_id":76561198283519918,"connected_time":36000000000,"state":"active","ping":94},{"user_id":831,"name":"askuwd","steam_id":76561198087637901,"connected_time":2486000000000,"state":"active","ping":50},{"user_id":832,"name":"toxic mental instability","steam_id":76561198161760556,"connected_time":2480000000000,"state":"active","ping":112},{"user_id":852,"name":"Child Devourer","steam_id":76561198218558897,"connected_time":238000000000,"state":"active","ping":146},{"user_id":745,"name":"[√òWQJ√ò]chubacaalatake","steam_id":76561198136201697,"connected_time":9439000000000,"state":"active","ping":125},{"user_id":833,"name":"logos","steam_id":76561198038080028,"connected_time":2403000000000,"state":"active","ping":83},{"user_id":849,"name":"PROFILE NAME","steam_id":76561199438851854,"connected_time":842000000000,"state":"active","ping":115},{"user_id":860,"name":"Panda Loser","steam_id":76561198828745176,"connected_time":28000000000,"state":"spawning","ping":76},{"user_id":861,"name":"WheelieChopper","steam_id":76561198070980426,"connected_time":1000000000,"state":"spawning","ping":97},{"user_id":854,"name":"flaccid","steam_id":76561198299241777,"connected_time":176000000000,"state":"active","ping":95},{"user_id":584,"name":"Anon","steam_id":76561198109740776,"connected_time":21665000000000,"state":"active","ping":100}]},{"server_id":404,"name":"Uncletopia | Dallas | 3 | All Maps","name_short":"dal-3","host":"dal-1.us.uncletopia.com","port":27035,"enabled":true,"region":"us-central","cc":"us","latitude":32.779167,"longitude":-96.80889,"reserved":0,"last_update":"0001-01-01T00:00:00Z","name_a2s":"Uncletopia | Dallas | 3 | All Maps","protocol":17,"map":"cp_metalworks","folder":"tf","game":"Team Fortress","app_id":440,"player_count":22,"max_players":24,"Bots":0,"server_type":"Dedicated","server_os":"Linux","password":true,"vac":true,"version":"7961495","steam_id":85568392924515219,"keywords":["cp","nocrits","nodmgspread","uncletopia"],"game_id":440,"stv_port":27036,"stv_name":"Uncletopia | Dallas | 3 | All Maps | STV","players":[{"user_id":385,"name":"Holiday Fartcruise","steam_id":76561198043851584,"connected_time":1151000000000,"state":"active","ping":132},{"user_id":383,"name":"Gay Cake","steam_id":76561198004388831,"connected_time":1180000000000,"state":"active","ping":90},{"user_id":386,"name":"OP","steam_id":76561198905981906,"connected_time":1138000000000,"state":"active","ping":95},{"user_id":376,"name":"xFactr","steam_id":76561198129007422,"connected_time":1583000000000,"state":"active","ping":78},{"user_id":391,"name":"0.9 kg of Tannerite (Official)","steam_id":76561198079470136,"connected_time":574000000000,"state":"active","ping":82},{"user_id":379,"name":"stench wench","steam_id":76561198153889425,"connected_time":1379000000000,"state":"active","ping":85},{"user_id":323,"name":"for eel? on cod? no carp?","steam_id":76561198095121758,"connected_time":6741000000000,"state":"active","ping":80},{"user_id":368,"name":"Matches_","steam_id":76561198048925904,"connected_time":2372000000000,"state":"active","ping":89},{"user_id":388,"name":"little_neb","steam_id":76561198117396733,"connected_time":961000000000,"state":"active","ping":57},{"user_id":392,"name":"BoX_hEaD101","steam_id":76561198200875467,"connected_time":484000000000,"state":"active","ping":101},{"user_id":389,"name":"PurplePanda","steam_id":76561198076484653,"connected_time":953000000000,"state":"active","ping":35},{"user_id":390,"name":"ropesnek","steam_id":76561198140591498,"connected_time":939000000000,"state":"active","ping":55},{"user_id":394,"name":"Pitviper","steam_id":76561198002378904,"connected_time":354000000000,"state":"active","ping":85},{"user_id":395,"name":"Mitchell","steam_id":76561198072641336,"connected_time":341000000000,"state":"active","ping":90},{"user_id":396,"name":"gung6n","steam_id":76561198099843841,"connected_time":339000000000,"state":"active","ping":66},{"user_id":397,"name":"I3atty","steam_id":76561198324774777,"connected_time":281000000000,"state":"active","ping":98},{"user_id":399,"name":"kezia","steam_id":76561198059815894,"connected_time":243000000000,"state":"active","ping":74},{"user_id":361,"name":"doro","steam_id":76561198099041747,"connected_time":3424000000000,"state":"active","ping":86},{"user_id":400,"name":"ScoutBox","steam_id":76561198111539895,"connected_time":189000000000,"state":"active","ping":75},{"user_id":360,"name":"shitass (Reaping and Sowing)","steam_id":76561198210572481,"connected_time":3514000000000,"state":"active","ping":60},{"user_id":347,"name":"Garth","steam_id":76561198170173453,"connected_time":4283000000000,"state":"active","ping":75},{"user_id":401,"name":"[FaZe] MLGadult44","steam_id":76561198067232540,"connected_time":182000000000,"state":"active","ping":89}]},{"server_id":405,"name":"Uncletopia | Dallas | 4 | Community","name_short":"dal-4","host":"dal-1.us.uncletopia.com","port":27045,"enabled":true,"region":"us-central","cc":"us","latitude":32.779167,"longitude":-96.80889,"reserved":0,"last_update":"0001-01-01T00:00:00Z","name_a2s":"Uncletopia | Dallas | 4 | Community","protocol":17,"map":"workshop/koth_trenchfoot_b1a.ugc731436616","folder":"tf","game":"Team Fortress","app_id":440,"player_count":0,"max_players":24,"Bots":0,"server_type":"Dedicated","server_os":"Linux","password":true,"vac":true,"version":"7961495","steam_id":85568392924515220,"keywords":["cp","nocrits","nodmgspread","uncletopia"],"game_id":440,"stv_port":27046,"stv_name":"Uncletopia | Dallas | 4 | Community | STV","players":null},{"server_id":5,"name":"Uncletopia | Frankfurt | 1 | All Maps","name_short":"frk-1","host":"frk-1.de.uncletopia.com","port":27015,"enabled":true,"region":"eu","cc":"de","latitude":50.110924,"longitude":8.682127,"reserved":0,"last_update":"0001-01-01T00:00:00Z","name_a2s":"Uncletopia | Frankfurt | 1 | All Maps","protocol":17,"map":"koth_highpass","folder":"tf","game":"Team Fortress","app_id":440,"player_count":0,"max_players":24,"Bots":0,"server_type":"Dedicated","server_os":"Linux","password":true,"vac":true,"version":"7961495","steam_id":85568392924469989,"keywords":["cp","nocrits","nodmgspread","uncletopia"],"game_id":440,"stv_port":27016,"stv_name":"Uncletopia | Frankfurt | 1 | All Maps | STV","players":null},{"server_id":110,"name":"Uncletopia | Frankfurt | 2 | All Maps","name_short":"frk-2","host":"frk-1.de.uncletopia.com","port":27025,"enabled":true,"region":"eu","cc":"de","latitude":50.110924,"longitude":8.682127,"reserved":0,"last_update":"0001-01-01T00:00:00Z","name_a2s":"Uncletopia | Frankfurt | 2 | All Maps","protocol":17,"map":"cp_dustbowl","folder":"tf","game":"Team Fortress","app_id":440,"player_count":0,"max_players":24,"Bots":0,"server_type":"Dedicated","server_os":"Linux","password":true,"vac":true,"version":"7961495","steam_id":85568392924469990,"keywords":["cp","nocrits","nodmgspread","uncletopia"],"game_id":440,"stv_port":27026,"stv_name":"Uncletopia | Frankfurt | 2 | All Maps | STV","players":null},{"server_id":308,"name":"Uncletopia | Frankfurt | 3 | All Maps","name_short":"frk-3","host":"frk-1.de.uncletopia.com","port":27035,"enabled":true,"region":"eu","cc":"de","latitude":50.110924,"longitude":8.682127,"reserved":0,"last_update":"0001-01-01T00:00:00Z","name_a2s":"Uncletopia | Frankfurt | 3 | All Maps","protocol":17,"map":"pl_barnblitz","folder":"tf","game":"Team Fortress","app_id":440,"player_count":0,"max_players":24,"Bots":0,"server_type":"Dedicated","server_os":"Linux","password":true,"vac":true,"version":"7961495","steam_id":85568392924504274,"keywords":["nocrits","nodmgspread","payload","uncletopia"],"game_id":440,"stv_port":27036,"stv_name":"Uncletopia | Frankfurt | 3 | All Maps | STV","players":null},{"server_id":309,"name":"Uncletopia | Frankfurt | 4 | All Maps","name_short":"frk-4","host":"frk-1.de.uncletopia.com","port":27045,"enabled":true,"region":"eu","cc":"de","latitude":50.110924,"longitude":8.682127,"reserved":0,"last_update":"0001-01-01T00:00:00Z","name_a2s":"Uncletopia | Frankfurt | 4 | All Maps","protocol":17,"map":"koth_highpass","folder":"tf","game":"Team Fortress","app_id":440,"player_count":0,"max_players":24,"Bots":0,"server_type":"Dedicated","server_os":"Linux","password":true,"vac":true,"version":"7961495","steam_id":85568392924504275,"keywords":["cp","nocrits","nodmgspread","uncletopia"],"game_id":440,"stv_port":27046,"stv_name":"Uncletopia | Frankfurt | 4 | All Maps | STV","players":null},{"server_id":310,"name":"Uncletopia | Frankfurt | 5 | All Maps","name_short":"frk-5","host":"frk-1.de.uncletopia.com","port":27055,"enabled":true,"region":"eu","cc":"de","latitude":50.110924,"longitude":8.682127,"reserved":0,"last_update":"0001-01-01T00:00:00Z","name_a2s":"Uncletopia | Frankfurt | 5 | All Maps","protocol":17,"map":"pl_badwater","folder":"tf","game":"Team Fortress","app_id":440,"player_count":0,"max_players":24,"Bots":0,"server_type":"Dedicated","server_os":"Linux","password":true,"vac":true,"version":"7961495","steam_id":85568392924504277,"keywords":["nocrits","nodmgspread","payload","uncletopia"],"game_id":440,"stv_port":27056,"stv_name":"Uncletopia | Frankfurt | 5 | All Maps | STV","players":null},{"server_id":311,"name":"Uncletopia | Frankfurt | 6 | All Maps","name_short":"frk-6","host":"frk-1.de.uncletopia.com","port":27065,"enabled":true,"region":"eu","cc":"de","latitude":50.110924,"longitude":8.682127,"reserved":0,"last_update":"0001-01-01T00:00:00Z","name_a2s":"Uncletopia | Frankfurt | 6 | All Maps","protocol":17,"map":"cp_altitude","folder":"tf","game":"Team Fortress","app_id":440,"player_count":0,"max_players":24,"Bots":0,"server_type":"Dedicated","server_os":"Linux","password":true,"vac":true,"version":"7961495","steam_id":85568392924504278,"keywords":["cp","nocrits","nodmgspread","uncletopia"],"game_id":440,"stv_port":27066,"stv_name":"Uncletopia | Frankfurt | 6 | All Maps | STV","players":null},{"server_id":23,"name":"Uncletopia | Frankfurt | 7 | Stopwatch","name_short":"frk-7","host":"frk-1.de.uncletopia.com","port":27075,"enabled":true,"region":"eu","cc":"de","latitude":50.110924,"longitude":8.682127,"reserved":0,"last_update":"0001-01-01T00:00:00Z","name_a2s":"Uncletopia | Frankfurt | 7 | Stopwatch","protocol":17,"map":"pl_frontier_final","folder":"tf","game":"Team Fortress","app_id":440,"player_count":0,"max_players":24,"Bots":0,"server_type":"Dedicated","server_os":"Linux","password":true,"vac":true,"version":"7961495","steam_id":85568392924742827,"keywords":["nocrits","nodmgspread","payload","uncletopia"],"game_id":440,"stv_port":27076,"stv_name":"Uncletopia | Frankfurt | 7 | Stopwatch | STV","players":null},{"server_id":24,"name":"Uncletopia | Frankfurt | 8 | Community","name_short":"frk-8","host":"frk-1.de.uncletopia.com","port":27085,"enabled":true,"region":"eu","cc":"de","latitude":50.110924,"longitude":8.682127,"reserved":0,"last_update":"0001-01-01T00:00:00Z","name_a2s":"Uncletopia | Frankfurt | 8 | Community","protocol":17,"map":"cp_mountainlab","folder":"tf","game":"Team Fortress","app_id":440,"player_count":0,"max_players":24,"Bots":0,"server_type":"Dedicated","server_os":"Linux","password":true,"vac":true,"version":"7961495","steam_id":85568392924742828,"keywords":["cp","nocrits","nodmgspread","uncletopia"],"game_id":440,"stv_port":27086,"stv_name":"Uncletopia | Frankfurt | 8 | Community | STV","players":null},{"server_id":202,"name":"Uncletopia | Hong Kong | 1 | All Maps","name_short":"hgk-1","host":"hgk-1.hk.uncletopia.com","port":27015,"enabled":true,"region":"asia","cc":"hk","latitude":22.302711,"longitude":114.177216,"reserved":0,"last_update":"0001-01-01T00:00:00Z","name_a2s":"Uncletopia | Hong Kong | 1 | All Maps","protocol":17,"map":"cp_snakewater_final1","folder":"tf","game":"Team Fortress","app_id":440,"player_count":0,"max_players":24,"Bots":0,"server_type":"Dedicated","server_os":"Linux","password":true,"vac":true,"version":"7961495","steam_id":85568392924494504,"keywords":["cp","nocrits","nodmgspread","uncletopia"],"game_id":440,"stv_port":27016,"stv_name":"Uncletopia | Hong Kong | 1 | All Maps | STV","players":null},{"server_id":1,"name":"Uncletopia | Los Angeles | 1 | All Maps","name_short":"lax-1","host":"lax-1.us.uncletopia.com","port":27015,"enabled":true,"region":"us-west","cc":"us","latitude":33.94279,"longitude":-118.41004,"reserved":0,"last_update":"0001-01-01T00:00:00Z","name_a2s":"Uncletopia | Los Angeles | 1 | All Maps","protocol":17,"map":"pl_badwater","folder":"tf","game":"Team Fortress","app_id":440,"player_count":4,"max_players":24,"Bots":0,"server_type":"Dedicated","server_os":"Linux","password":true,"vac":true,"version":"7961495","steam_id":85568392924469991,"keywords":["nocrits","nodmgspread","payload","uncletopia"],"game_id":440,"stv_port":27016,"stv_name":"Uncletopia | Los Angeles | 1 | All Maps | STV","players":[{"user_id":408,"name":"KlassicLoL","steam_id":76561198081815303,"connected_time":29000000000,"state":"active","ping":46},{"user_id":407,"name":"Phoenix","steam_id":76561199465534945,"connected_time":258000000000,"state":"active","ping":71},{"user_id":400,"name":"cofferhead","steam_id":76561199191108449,"connected_time":1392000000000,"state":"active","ping":61},{"user_id":406,"name":"Thequirka","steam_id":76561198968058652,"connected_time":425000000000,"state":"active","ping":63}]},{"server_id":112,"name":"Uncletopia | Los Angeles | 2 | All Maps","name_short":"lax-2","host":"lax-1.us.uncletopia.com","port":27025,"enabled":true,"region":"us-west","cc":"us","latitude":33.94279,"longitude":-118.41004,"reserved":0,"last_update":"0001-01-01T00:00:00Z","name_a2s":"Uncletopia | Los Angeles | 2 | All Maps","protocol":17,"map":"pl_badwater","folder":"tf","game":"Team Fortress","app_id":440,"player_count":24,"max_players":24,"Bots":0,"server_type":"Dedicated","server_os":"Linux","password":true,"vac":true,"version":"7961495","steam_id":85568392924469992,"keywords":["nocrits","nodmgspread","payload","uncletopia"],"game_id":440,"stv_port":27026,"stv_name":"Uncletopia | Los Angeles | 2 | All Maps | STV","players":[{"user_id":561,"name":"T√ºCold","steam_id":76561198111278197,"connected_time":8330000000000,"state":"active","ping":65},{"user_id":567,"name":"Your Favorite Fearless Hero","steam_id":76561199127590316,"connected_time":7685000000000,"state":"active","ping":57},{"user_id":639,"name":"DrMonkey","steam_id":76561198939543244,"connected_time":223000000000,"state":"active","ping":88},{"user_id":611,"name":"Whisper!","steam_id":76561198119609795,"connected_time":1192000000000,"state":"active","ping":54},{"user_id":636,"name":"ed","steam_id":76561198080475712,"connected_time":371000000000,"state":"active","ping":59},{"user_id":610,"name":"jovial","steam_id":76561198297130941,"connected_time":1222000000000,"state":"active","ping":46},{"user_id":613,"name":"Chaptain","steam_id":76561198452725739,"connected_time":1160000000000,"state":"active","ping":70},{"user_id":603,"name":"Suspio","steam_id":76561198121830855,"connected_time":2802000000000,"state":"active","ping":64},{"user_id":612,"name":"Justtophat","steam_id":76561198308787175,"connected_time":1174000000000,"state":"active","ping":60},{"user_id":635,"name":"Five","steam_id":76561198026640473,"connected_time":432000000000,"state":"active","ping":60},{"user_id":629,"name":"A Shiny Meat Bicycle","steam_id":76561198358757709,"connected_time":577000000000,"state":"active","ping":122},{"user_id":640,"name":"CheeseCake488","steam_id":76561199407617942,"connected_time":220000000000,"state":"active","ping":95},{"user_id":592,"name":"Natsuki-Gaming","steam_id":76561199015171972,"connected_time":4360000000000,"state":"active","ping":52},{"user_id":615,"name":"Who","steam_id":76561198013049671,"connected_time":1130000000000,"state":"active","ping":56},{"user_id":616,"name":"Ghwhaine","steam_id":76561199045414702,"connected_time":1112000000000,"state":"active","ping":116},{"user_id":630,"name":"Terraria Hardcore Girlfail","steam_id":76561198140531755,"connected_time":574000000000,"state":"active","ping":81},{"user_id":569,"name":"Big Jack","steam_id":76561198132755619,"connected_time":6941000000000,"state":"active","ping":44},{"user_id":524,"name":"Ralph Kramden (Slim Charles)","steam_id":76561197981687895,"connected_time":10906000000000,"state":"active","ping":62},{"user_id":624,"name":"KellyKapoor","steam_id":76561198040828123,"connected_time":906000000000,"state":"active","ping":63},{"user_id":638,"name":"sciencenerd42","steam_id":76561198274563320,"connected_time":264000000000,"state":"active","ping":98},{"user_id":637,"name":"Its me your Teeth","steam_id":76561198240523882,"connected_time":356000000000,"state":"active","ping":46},{"user_id":622,"name":"RaixaR","steam_id":76561198025289430,"connected_time":969000000000,"state":"active","ping":66},{"user_id":627,"name":"Neil deGrasse Tyson","steam_id":76561198018306331,"connected_time":789000000000,"state":"active","ping":57},{"user_id":599,"name":"Banzai","steam_id":76561198006518981,"connected_time":4025000000000,"state":"active","ping":76}]},{"server_id":324,"name":"Uncletopia | Los Angeles | 3 | All Maps","name_short":"lax-3","host":"lax-1.us.uncletopia.com","port":27035,"enabled":true,"region":"us-west","cc":"us","latitude":33.94279,"longitude":-118.41004,"reserved":0,"last_update":"0001-01-01T00:00:00Z","name_a2s":"Uncletopia | Los Angeles | 3 | All Maps","protocol":17,"map":"koth_cascade","folder":"tf","game":"Team Fortress","app_id":440,"player_count":24,"max_players":24,"Bots":0,"server_type":"Dedicated","server_os":"Linux","password":true,"vac":true,"version":"7961495","steam_id":85568392924510198,"keywords":["cp","nocrits","nodmgspread","uncletopia"],"game_id":440,"stv_port":27036,"stv_name":"Uncletopia | Los Angeles | 3 | All Maps | STV","players":[{"user_id":92,"name":"EduardoLopez2005","steam_id":76561198188481309,"connected_time":755000000000,"state":"active","ping":59},{"user_id":96,"name":"mollusk_obliteration","steam_id":76561198085388962,"connected_time":398000000000,"state":"active","ping":97},{"user_id":83,"name":"Pemalon","steam_id":76561198389661782,"connected_time":1939000000000,"state":"active","ping":57},{"user_id":95,"name":"SadChicken Œª","steam_id":76561198082458968,"connected_time":441000000000,"state":"active","ping":70},{"user_id":101,"name":"has not touched grass in 6 year","steam_id":76561198007867721,"connected_time":239000000000,"state":"active","ping":52},{"user_id":90,"name":"Jodi (She/Her)","steam_id":76561198131833567,"connected_time":1052000000000,"state":"active","ping":72},{"user_id":85,"name":"Zonn","steam_id":76561198018306101,"connected_time":1551000000000,"state":"active","ping":61},{"user_id":80,"name":"Qwefti","steam_id":76561198123261072,"connected_time":2085000000000,"state":"active","ping":110},{"user_id":103,"name":"B R O W N","steam_id":76561198047340813,"connected_time":68000000000,"state":"active","ping":88},{"user_id":102,"name":"Feet","steam_id":76561198047302528,"connected_time":153000000000,"state":"active","ping":70},{"user_id":86,"name":"IMM0RTAL","steam_id":76561198013747901,"connected_time":1524000000000,"state":"active","ping":93},{"user_id":98,"name":"Beepleton The 3rd","steam_id":76561198081466207,"connected_time":341000000000,"state":"active","ping":84},{"user_id":93,"name":"allahsdroptop","steam_id":76561198133195238,"connected_time":748000000000,"state":"active","ping":84},{"user_id":46,"name":"riSygneD","steam_id":76561198331618687,"connected_time":3969000000000,"state":"active","ping":39},{"user_id":99,"name":"dead elf wagon","steam_id":76561198122303574,"connected_time":330000000000,"state":"active","ping":68},{"user_id":77,"name":"MR. BEEEEEEEEEEEEEAAAAAAAAAAST","steam_id":76561198205346760,"connected_time":2320000000000,"state":"active","ping":103},{"user_id":51,"name":"bite this onions","steam_id":76561198068113347,"connected_time":3630000000000,"state":"active","ping":45},{"user_id":52,"name":"Junebouvier","steam_id":76561198154395780,"connected_time":3599000000000,"state":"active","ping":103},{"user_id":94,"name":"1000 Ping","steam_id":76561198098330939,"connected_time":725000000000,"state":"active","ping":67},{"user_id":61,"name":"MungJR","steam_id":76561198078316612,"connected_time":3344000000000,"state":"active","ping":131},{"user_id":88,"name":"Varlinety","steam_id":76561198112033142,"connected_time":1473000000000,"state":"active","ping":71},{"user_id":81,"name":"GUDKNIGHT","steam_id":76561198047070962,"connected_time":2015000000000,"state":"active","ping":92},{"user_id":64,"name":"Bingo","steam_id":76561198021841976,"connected_time":3267000000000,"state":"active","ping":106},{"user_id":100,"name":"FI LO","steam_id":76561198976530881,"connected_time":259000000000,"state":"active","ping":30}]},{"server_id":25,"name":"Uncletopia | Los Angeles | 4 | Stopwatch","name_short":"lax-4","host":"lax-1.us.uncletopia.com","port":27045,"enabled":true,"region":"us-west","cc":"us","latitude":33.94279,"longitude":-118.41004,"reserved":0,"last_update":"0001-01-01T00:00:00Z","name_a2s":"Uncletopia | Los Angeles | 4 | Stopwatch","protocol":17,"map":"workshop/pl_badwater_pro_v12.ugc2142942074","folder":"tf","game":"Team Fortress","app_id":440,"player_count":0,"max_players":24,"Bots":0,"server_type":"Dedicated","server_os":"Linux","password":true,"vac":true,"version":"7961495","steam_id":85568392924510199,"keywords":["nocrits","nodmgspread","payload","uncletopia"],"game_id":440,"stv_port":27046,"stv_name":"Uncletopia | Los Angeles | 4 | Stopwatch | STV","players":null},{"server_id":11,"name":"Uncletopia | London | 1 | All Maps","name_short":"lon-1","host":"lon-1.uk.uncletopia.com","port":27015,"enabled":true,"region":"eu","cc":"gb","latitude":51.509865,"longitude":-0.118092,"reserved":0,"last_update":"0001-01-01T00:00:00Z","name_a2s":"Uncletopia | London | 1 | All Maps","protocol":17,"map":"pl_borneo","folder":"tf","game":"Team Fortress","app_id":440,"player_count":21,"max_players":24,"Bots":0,"server_type":"Dedicated","server_os":"Linux","password":true,"vac":true,"version":"7961495","steam_id":85568392924367362,"keywords":["nocrits","nodmgspread","payload","uncletopia"],"game_id":440,"stv_port":27016,"stv_name":"Uncletopia | London | 1 | All Maps | STV","players":[{"user_id":3,"name":"yuno appreciator","steam_id":76561198083286511,"connected_time":4166000000000,"state":"active","ping":33},{"user_id":43,"name":"utheresuckit","steam_id":76561199217440123,"connected_time":15000000000,"state":"spawning","ping":236},{"user_id":26,"name":"FilipeLuk","steam_id":76561198150675438,"connected_time":1738000000000,"state":"active","ping":60},{"user_id":7,"name":"Íí∞ À∂‚Ä¢ ‡ºù ‚Ä¢À∂Íí±","steam_id":76561198054474684,"connected_time":3084000000000,"state":"active","ping":82},{"user_id":38,"name":"RegrexitHexit","steam_id":76561198069603316,"connected_time":503000000000,"state":"active","ping":145},{"user_id":9,"name":"Morbeus","steam_id":76561198057717808,"connected_time":2959000000000,"state":"active","ping":98},{"user_id":10,"name":"lemon pene","steam_id":76561198206954985,"connected_time":2794000000000,"state":"active","ping":117},{"user_id":11,"name":"unpronounceable","steam_id":76561198271860748,"connected_time":2351000000000,"state":"active","ping":41},{"user_id":12,"name":"m909","steam_id":76561198279621400,"connected_time":2312000000000,"state":"active","ping":84},{"user_id":25,"name":"Keke","steam_id":76561198042032908,"connected_time":1772000000000,"state":"active","ping":111},{"user_id":14,"name":"collin","steam_id":76561198067030681,"connected_time":2229000000000,"state":"active","ping":45},{"user_id":15,"name":"Shimass","steam_id":76561198867546842,"connected_time":2221000000000,"state":"active","ping":64},{"user_id":16,"name":"Virgil","steam_id":76561198248786778,"connected_time":2071000000000,"state":"active","ping":112},{"user_id":17,"name":"spxcy","steam_id":76561198080296853,"connected_time":2053000000000,"state":"active","ping":89},{"user_id":29,"name":"kluri","steam_id":76561198084518962,"connected_time":1335000000000,"state":"active","ping":70},{"user_id":37,"name":"bird ideas","steam_id":76561199480942903,"connected_time":686000000000,"state":"active","ping":74},{"user_id":20,"name":"goofy achiever","steam_id":76561199325274331,"connected_time":1960000000000,"state":"active","ping":87},{"user_id":40,"name":"nemo","steam_id":76561199488507139,"connected_time":289000000000,"state":"active","ping":112},{"user_id":41,"name":"beggle","steam_id":76561198038671894,"connected_time":267000000000,"state":"active","ping":49},{"user_id":33,"name":"Twiggu","steam_id":76561198070853128,"connected_time":1034000000000,"state":"active","ping":85},{"user_id":35,"name":"God¬¥s Cock","steam_id":76561198058947923,"connected_time":1005000000000,"state":"active","ping":60}]},{"server_id":114,"name":"Uncletopia | London | 2 | All Maps","name_short":"lon-2","host":"lon-1.uk.uncletopia.com","port":27025,"enabled":true,"region":"eu","cc":"gb","latitude":51.509865,"longitude":-0.118092,"reserved":0,"last_update":"0001-01-01T00:00:00Z","name_a2s":"Uncletopia | London | 2 | All Maps","protocol":17,"map":"koth_lakeside_final","folder":"tf","game":"Team Fortress","app_id":440,"player_count":0,"max_players":24,"Bots":0,"server_type":"Dedicated","server_os":"Linux","password":true,"vac":true,"version":"7961495","steam_id":85568392924470941,"keywords":["cp","nocrits","nodmgspread","uncletopia"],"game_id":440,"stv_port":27026,"stv_name":"Uncletopia | London | 2 | All Maps | STV","players":null},{"server_id":320,"name":"Uncletopia | London | 3 | All Maps","name_short":"lon-3","host":"lon-1.uk.uncletopia.com","port":27035,"enabled":true,"region":"eu","cc":"gb","latitude":51.509865,"longitude":-0.118092,"reserved":0,"last_update":"0001-01-01T00:00:00Z","name_a2s":"Uncletopia | London | 3 | All Maps","protocol":17,"map":"cp_process_final","folder":"tf","game":"Team Fortress","app_id":440,"player_count":0,"max_players":24,"Bots":0,"server_type":"Dedicated","server_os":"Linux","password":true,"vac":true,"version":"7961495","steam_id":85568392924510192,"keywords":["cp","nocrits","nodmgspread","uncletopia"],"game_id":440,"stv_port":27036,"stv_name":"Uncletopia | London | 3 | All Maps | STV","players":null},{"server_id":321,"name":"Uncletopia | London | 4 | All Maps","name_short":"lon-4","host":"lon-1.uk.uncletopia.com","port":27045,"enabled":true,"region":"eu","cc":"gb","latitude":51.509865,"longitude":-0.118092,"reserved":0,"last_update":"0001-01-01T00:00:00Z","name_a2s":"Uncletopia | London | 4 | All Maps","protocol":17,"map":"koth_cascade","folder":"tf","game":"Team Fortress","app_id":440,"player_count":0,"max_players":24,"Bots":0,"server_type":"Dedicated","server_os":"Linux","password":true,"vac":true,"version":"7961495","steam_id":85568392924510193,"keywords":["cp","nocrits","nodmgspread","uncletopia"],"game_id":440,"stv_port":27046,"stv_name":"Uncletopia | London | 4 | All Maps | STV","players":null},{"server_id":21,"name":"Uncletopia | London | 5 | All Maps","name_short":"lon-5","host":"lon-1.uk.uncletopia.com","port":27055,"enabled":true,"region":"eu","cc":"gb","latitude":51.509865,"longitude":-0.118092,"reserved":0,"last_update":"0001-01-01T00:00:00Z","name_a2s":"Uncletopia | London | 5 | All Maps","protocol":17,"map":"koth_lakeside_final","folder":"tf","game":"Team Fortress","app_id":440,"player_count":0,"max_players":24,"Bots":0,"server_type":"Dedicated","server_os":"Linux","password":true,"vac":true,"version":"7961495","steam_id":85568392924742829,"keywords":["cp","nocrits","nodmgspread","uncletopia"],"game_id":440,"stv_port":27056,"stv_name":"Uncletopia | London | 5 | All Maps | STV","players":null},{"server_id":22,"name":"Uncletopia | London | 6 | All Maps","name_short":"lon-6","host":"lon-1.uk.uncletopia.com","port":27065,"enabled":true,"region":"eu","cc":"gb","latitude":51.509865,"longitude":-0.118092,"reserved":0,"last_update":"0001-01-01T00:00:00Z","name_a2s":"Uncletopia | London | 6 | All Maps","protocol":17,"map":"cp_dustbowl","folder":"tf","game":"Team Fortress","app_id":440,"player_count":0,"max_players":24,"Bots":0,"server_type":"Dedicated","server_os":"Linux","password":true,"vac":true,"version":"7961495","steam_id":85568392924742830,"keywords":["cp","nocrits","nodmgspread","uncletopia"],"game_id":440,"stv_port":27066,"stv_name":"Uncletopia | London | 6 | All Maps | STV","players":null},{"server_id":40,"name":"Uncletopia | London | 7 | Stopwatch","name_short":"lon-7","host":"lon-1.uk.uncletopia.com","port":27075,"enabled":true,"region":"eu","cc":"gb","latitude":51.509865,"longitude":-0.118092,"reserved":0,"last_update":"0001-01-01T00:00:00Z","name_a2s":"Uncletopia | London | 7 | Stopwatch","protocol":17,"map":"koth_lakeside_final","folder":"tf","game":"Team Fortress","app_id":440,"player_count":0,"max_players":24,"Bots":0,"server_type":"Dedicated","server_os":"Linux","password":true,"vac":true,"version":"7961495","steam_id":85568392924964314,"keywords":["cp","nocrits","nodmgspread","uncletopia"],"game_id":440,"stv_port":27076,"stv_name":"Uncletopia | London | 7 | Stopwatch | STV","players":null},{"server_id":41,"name":"Uncletopia | London | 8 | Community","name_short":"lon-8","host":"lon-1.uk.uncletopia.com","port":27085,"enabled":true,"region":"eu","cc":"gb","latitude":51.509865,"longitude":-0.118092,"reserved":0,"last_update":"0001-01-01T00:00:00Z","name_a2s":"Uncletopia | London | 8 | Community","protocol":17,"map":"cp_snakewater_final1","folder":"tf","game":"Team Fortress","app_id":440,"player_count":0,"max_players":24,"Bots":0,"server_type":"Dedicated","server_os":"Linux","password":true,"vac":true,"version":"7961495","steam_id":85568392924964315,"keywords":["cp","nocrits","nodmgspread","uncletopia"],"game_id":440,"stv_port":27086,"stv_name":"Uncletopia | London | 8 | Community | STV","players":null},{"server_id":300,"name":"Uncletopia | Montr√©al | 1 | All Maps","name_short":"mtl-1","host":"mtl-1.ca.uncletopia.com","port":27015,"enabled":true,"region":"us-east","cc":"ca","latitude":45.50889,"longitude":-73.56167,"reserved":0,"last_update":"0001-01-01T00:00:00Z","name_a2s":"","protocol":0,"map":"","folder":"","game":"","app_id":0,"player_count":0,"max_players":0,"Bots":0,"server_type":"","server_os":"","password":false,"vac":false,"version":"","steam_id":0,"keywords":null,"game_id":0,"stv_port":0,"stv_name":"","players":null},{"server_id":301,"name":"Uncletopia | Montr√©al | 2 | All Maps","name_short":"mtl-2","host":"mtl-1.ca.uncletopia.com","port":27025,"enabled":true,"region":"us-east","cc":"ca","latitude":45.50889,"longitude":-73.56167,"reserved":0,"last_update":"0001-01-01T00:00:00Z","name_a2s":"","protocol":0,"map":"","folder":"","game":"","app_id":0,"player_count":0,"max_players":0,"Bots":0,"server_type":"","server_os":"","password":false,"vac":false,"version":"","steam_id":0,"keywords":null,"game_id":0,"stv_port":0,"stv_name":"","players":null},{"server_id":302,"name":"Uncletopia | Montr√©al | 3 | All Maps","name_short":"mtl-3","host":"mtl-1.ca.uncletopia.com","port":27035,"enabled":true,"region":"us-east","cc":"ca","latitude":45.50889,"longitude":-73.56167,"reserved":0,"last_update":"0001-01-01T00:00:00Z","name_a2s":"","protocol":0,"map":"","folder":"","game":"","app_id":0,"player_count":0,"max_players":0,"Bots":0,"server_type":"","server_os":"","password":false,"vac":false,"version":"","steam_id":0,"keywords":null,"game_id":0,"stv_port":0,"stv_name":"","players":null},{"server_id":303,"name":"Uncletopia | Montr√©al | 4 | No Payload","name_short":"mtl-4","host":"mtl-1.ca.uncletopia.com","port":27045,"enabled":true,"region":"us-east","cc":"ca","latitude":45.50889,"longitude":-73.56167,"reserved":0,"last_update":"0001-01-01T00:00:00Z","name_a2s":"","protocol":0,"map":"","folder":"","game":"","app_id":0,"player_count":0,"max_players":0,"Bots":0,"server_type":"","server_os":"","password":false,"vac":false,"version":"","steam_id":0,"keywords":null,"game_id":0,"stv_port":0,"stv_name":"","players":null},{"server_id":13,"name":"Uncletopia | New York City | 1 | All Maps","name_short":"nyc-1","host":"nyc-1.us.uncletopia.com","port":27015,"enabled":true,"region":"us-east","cc":"us","latitude":40.73061,"longitude":-73.93524,"reserved":0,"last_update":"0001-01-01T00:00:00Z","name_a2s":"Uncletopia | New York City | 1 | All Maps","protocol":17,"map":"cp_gravelpit","folder":"tf","game":"Team Fortress","app_id":440,"player_count":0,"max_players":24,"Bots":0,"server_type":"Dedicated","server_os":"Linux","password":true,"vac":true,"version":"7961495","steam_id":85568392924469993,"keywords":["cp","nocrits","nodmgspread","uncletopia"],"game_id":440,"stv_port":27016,"stv_name":"Uncletopia | New York City | 1 | All Maps | STV","players":null},{"server_id":14,"name":"Uncletopia | New York City | 2 | All Maps","name_short":"nyc-2","host":"nyc-1.us.uncletopia.com","port":27025,"enabled":true,"region":"us-east","cc":"us","latitude":40.73061,"longitude":-73.93524,"reserved":0,"last_update":"0001-01-01T00:00:00Z","name_a2s":"Uncletopia | New York City | 2 | All Maps","protocol":17,"map":"pl_snowycoast","folder":"tf","game":"Team Fortress","app_id":440,"player_count":0,"max_players":24,"Bots":0,"server_type":"Dedicated","server_os":"Linux","password":true,"vac":true,"version":"7961495","steam_id":85568392924469994,"keywords":["nocrits","nodmgspread","payload","uncletopia"],"game_id":440,"stv_port":27026,"stv_name":"Uncletopia | New York City | 2 | All Maps | STV","players":null},{"server_id":15,"name":"Uncletopia | New York City | 3 | Stopwatch","name_short":"nyc-3","host":"nyc-1.us.uncletopia.com","port":27035,"enabled":true,"region":"us-east","cc":"us","latitude":40.73061,"longitude":-73.93524,"reserved":0,"last_update":"0001-01-01T00:00:00Z","name_a2s":"Uncletopia | New York City | 3 | Stopwatch","protocol":17,"map":"cp_granary","folder":"tf","game":"Team Fortress","app_id":440,"player_count":0,"max_players":24,"Bots":0,"server_type":"Dedicated","server_os":"Linux","password":true,"vac":true,"version":"7961495","steam_id":85568392924742820,"keywords":["cp","nocrits","nodmgspread","uncletopia"],"game_id":440,"stv_port":27036,"stv_name":"Uncletopia | New York City | 3 | Stopwatch | STV","players":null},{"server_id":16,"name":"Uncletopia | New York City | 4 | Community","name_short":"nyc-4","host":"nyc-1.us.uncletopia.com","port":27045,"enabled":true,"region":"us-east","cc":"us","latitude":40.73061,"longitude":-73.93524,"reserved":0,"last_update":"0001-01-01T00:00:00Z","name_a2s":"Uncletopia | New York City | 4 | Community","protocol":17,"map":"workshop/cp_croissant_final.ugc458840209","folder":"tf","game":"Team Fortress","app_id":440,"player_count":0,"max_players":24,"Bots":0,"server_type":"Dedicated","server_os":"Linux","password":true,"vac":true,"version":"7961495","steam_id":85568392924742821,"keywords":["cp","nocrits","nodmgspread","uncletopia"],"game_id":440,"stv_port":27046,"stv_name":"Uncletopia | New York City | 4 | Community | STV","players":null},{"server_id":142,"name":"Uncletopia | S√£o Paulo | 1 | All Maps","name_short":"sao-1","host":"sao-1.br.uncletopia.com","port":27015,"enabled":true,"region":"sa","cc":"br","latitude":-23.533773,"longitude":-46.62529,"reserved":0,"last_update":"0001-01-01T00:00:00Z","name_a2s":"Uncletopia | S√£o Paulo | 1 | All Maps","protocol":17,"map":"koth_cascade","folder":"tf","game":"Team Fortress","app_id":440,"player_count":0,"max_players":24,"Bots":0,"server_type":"Dedicated","server_os":"Linux","password":true,"vac":true,"version":"7961495","steam_id":85568392924469996,"keywords":["cp","nocrits","nodmgspread","uncletopia"],"game_id":440,"stv_port":27016,"stv_name":"Uncletopia | S√£o Paulo | 1 | All Maps | STV","players":null},{"server_id":143,"name":"Uncletopia | S√£o Paulo | 2 | Community","name_short":"sao-2","host":"sao-2.br.uncletopia.com","port":27015,"enabled":true,"region":"sa","cc":"br","latitude":-23.533773,"longitude":-46.62529,"reserved":0,"last_update":"0001-01-01T00:00:00Z","name_a2s":"Uncletopia | S√£o Paulo | 2 | Community","protocol":17,"map":"workshop/koth_ramjam_rc1.ugc459778887","folder":"tf","game":"Team Fortress","app_id":440,"player_count":0,"max_players":24,"Bots":0,"server_type":"Dedicated","server_os":"Linux","password":true,"vac":true,"version":"7961495","steam_id":85568392924485349,"keywords":["cp","nocrits","nodmgspread","uncletopia"],"game_id":440,"stv_port":27016,"stv_name":"Uncletopia | S√£o Paulo | 2 | Community | STV","players":null},{"server_id":7,"name":"Uncletopia | Seattle | 1 | All Maps","name_short":"sea-1","host":"sea-1.us.uncletopia.com","port":27015,"enabled":true,"region":"us-west","cc":"us","latitude":47.608013,"longitude":-122.33517,"reserved":0,"last_update":"0001-01-01T00:00:00Z","name_a2s":"Uncletopia | Seattle | 1 | All Maps","protocol":17,"map":"pl_upward","folder":"tf","game":"Team Fortress","app_id":440,"player_count":24,"max_players":24,"Bots":0,"server_type":"Dedicated","server_os":"Linux","password":true,"vac":true,"version":"7961495","steam_id":85568392924469997,"keywords":["nocrits","nodmgspread","payload","uncletopia"],"game_id":440,"stv_port":27016,"stv_name":"Uncletopia | Seattle | 1 | All Maps | STV","players":[{"user_id":806,"name":"black mold farmer","steam_id":76561198169755734,"connected_time":4516000000000,"state":"active","ping":121},{"user_id":830,"name":"2 Point Tom","steam_id":76561198087617008,"connected_time":1900000000000,"state":"active","ping":49},{"user_id":791,"name":"swarm of bee","steam_id":76561198059604047,"connected_time":5269000000000,"state":"active","ping":31},{"user_id":836,"name":"rat gets the cheese","steam_id":76561198031234032,"connected_time":1276000000000,"state":"active","ping":105},{"user_id":824,"name":"squash","steam_id":76561198150281353,"connected_time":2486000000000,"state":"active","ping":58},{"user_id":831,"name":"pepe warlord","steam_id":76561198080819197,"connected_time":1856000000000,"state":"active","ping":81},{"user_id":774,"name":"mega","steam_id":76561198089520959,"connected_time":5944000000000,"state":"active","ping":96},{"user_id":839,"name":"Arsonist Goose","steam_id":76561198147441830,"connected_time":1234000000000,"state":"active","ping":68},{"user_id":841,"name":"oil","steam_id":76561198099980149,"connected_time":1119000000000,"state":"active","ping":78},{"user_id":825,"name":"MxProf","steam_id":76561198044519572,"connected_time":2479000000000,"state":"active","ping":58},{"user_id":837,"name":"Grill Skills","steam_id":76561198053575147,"connected_time":1262000000000,"state":"active","ping":61},{"user_id":838,"name":"Truffles","steam_id":76561198095868800,"connected_time":1261000000000,"state":"active","ping":130},{"user_id":803,"name":"Translucent‡´Æ‚Çç ‚Ä¢ ·¥• ‚Ä¢","steam_id":76561199212057076,"connected_time":4905000000000,"state":"active","ping":67},{"user_id":840,"name":"slushy :))","steam_id":76561198135281802,"connected_time":1138000000000,"state":"active","ping":32},{"user_id":797,"name":"NEBULA","steam_id":76561198086878595,"connected_time":5262000000000,"state":"active","ping":71},{"user_id":804,"name":"lavender","steam_id":76561199069518286,"connected_time":4698000000000,"state":"active","ping":73},{"user_id":822,"name":"fragadelphia","steam_id":76561198066116363,"connected_time":2886000000000,"state":"active","ping":46},{"user_id":770,"name":"John Calibur","steam_id":76561197999986606,"connected_time":6770000000000,"state":"active","ping":71},{"user_id":771,"name":"soup","steam_id":76561198043209046,"connected_time":6708000000000,"state":"active","ping":83},{"user_id":809,"name":"Peakt","steam_id":76561198096328768,"connected_time":4372000000000,"state":"active","ping":52},{"user_id":640,"name":"Level 99 Mudcrab","steam_id":76561198077452771,"connected_time":16045000000000,"state":"active","ping":87},{"user_id":843,"name":"rawry ‡∏Ö^‚Ä¢Ôªå‚Ä¢^‡∏Ö","steam_id":76561198065825165,"connected_time":1028000000000,"state":"active","ping":78},{"user_id":847,"name":"delight","steam_id":76561197980280272,"connected_time":412000000000,"state":"active","ping":45},{"user_id":835,"name":"Username","steam_id":76561199033122306,"connected_time":1295000000000,"state":"active","ping":169}]},{"server_id":119,"name":"Uncletopia | Seattle | 2 | All Maps","name_short":"sea-2","host":"sea-1.us.uncletopia.com","port":27025,"enabled":true,"region":"us-west","cc":"us","latitude":47.608013,"longitude":-122.33517,"reserved":0,"last_update":"0001-01-01T00:00:00Z","name_a2s":"Uncletopia | Seattle | 2 | All Maps","protocol":17,"map":"pl_borneo","folder":"tf","game":"Team Fortress","app_id":440,"player_count":0,"max_players":24,"Bots":0,"server_type":"Dedicated","server_os":"Linux","password":true,"vac":true,"version":"7961495","steam_id":85568392924469998,"keywords":["nocrits","nodmgspread","payload","uncletopia"],"game_id":440,"stv_port":27026,"stv_name":"Uncletopia | Seattle | 2 | All Maps | STV","players":null},{"server_id":406,"name":"Uncletopia | Seattle | 3 | Stopwatch","name_short":"sea-3","host":"sea-1.us.uncletopia.com","port":27035,"enabled":true,"region":"us-west","cc":"us","latitude":47.608013,"longitude":-122.33517,"reserved":0,"last_update":"0001-01-01T00:00:00Z","name_a2s":"Uncletopia | Seattle | 3 | Stopwatch","protocol":17,"map":"workshop/koth_ashville_final.ugc2130459942","folder":"tf","game":"Team Fortress","app_id":440,"player_count":0,"max_players":24,"Bots":0,"server_type":"Dedicated","server_os":"Linux","password":true,"vac":true,"version":"7961495","steam_id":85568392924515217,"keywords":["cp","nocrits","nodmgspread","uncletopia"],"game_id":440,"stv_port":27036,"stv_name":"Uncletopia | Seattle | 3 | Stopwatch | STV","players":null},{"server_id":17,"name":"Uncletopia | San Francisco | 1 | All Maps","name_short":"sfo-1","host":"sfo-1.us.uncletopia.com","port":27015,"enabled":true,"region":"us-west","cc":"us","latitude":37.77397,"longitude":-122.4313,"reserved":0,"last_update":"0001-01-01T00:00:00Z","name_a2s":"Uncletopia | San Francisco | 1 | All Maps","protocol":17,"map":"koth_lakeside_final","folder":"tf","game":"Team Fortress","app_id":440,"player_count":4,"max_players":24,"Bots":0,"server_type":"Dedicated","server_os":"Linux","password":true,"vac":true,"version":"7961495","steam_id":85568392924469999,"keywords":["cp","nocrits","nodmgspread","uncletopia"],"game_id":440,"stv_port":27016,"stv_name":"Uncletopia | San Francisco | 1 | All Maps | STV","players":[{"user_id":442,"name":"nivek","steam_id":76561198056288107,"connected_time":93000000000,"state":"active","ping":65},{"user_id":438,"name":"Mortimer","steam_id":76561198366435277,"connected_time":820000000000,"state":"active","ping":96},{"user_id":439,"name":"nacho","steam_id":76561198001602759,"connected_time":810000000000,"state":"active","ping":46},{"user_id":410,"name":"Don Beans","steam_id":76561198806199020,"connected_time":4432000000000,"state":"active","ping":103}]},{"server_id":18,"name":"Uncletopia | San Francisco | 2 | All Maps","name_short":"sfo-2","host":"sfo-1.us.uncletopia.com","port":27025,"enabled":true,"region":"us-west","cc":"us","latitude":37.77397,"longitude":-122.4313,"reserved":0,"last_update":"0001-01-01T00:00:00Z","name_a2s":"Uncletopia | San Francisco | 2 | All Maps","protocol":17,"map":"cp_snakewater_final1","folder":"tf","game":"Team Fortress","app_id":440,"player_count":12,"max_players":24,"Bots":0,"server_type":"Dedicated","server_os":"Linux","password":true,"vac":true,"version":"7961495","steam_id":85568392924470000,"keywords":["cp","nocrits","nodmgspread","uncletopia"],"game_id":440,"stv_port":27026,"stv_name":"Uncletopia | San Francisco | 2 | All Maps | STV","players":[{"user_id":752,"name":"Eris","steam_id":76561198120775038,"connected_time":77000000000,"state":"active","ping":58},{"user_id":753,"name":"Monarch of Glass","steam_id":76561198165638237,"connected_time":58000000000,"state":"active","ping":46},{"user_id":725,"name":"NotAWeeb","steam_id":76561198165530739,"connected_time":2354000000000,"state":"active","ping":38},{"user_id":700,"name":"KooK0nut","steam_id":76561198025339756,"connected_time":3461000000000,"state":"active","ping":54},{"user_id":730,"name":"geno","steam_id":76561198152328823,"connected_time":2133000000000,"state":"active","ping":70},{"user_id":726,"name":"Jezzus","steam_id":76561199289676387,"connected_time":2328000000000,"state":"active","ping":105},{"user_id":737,"name":"KonJac","steam_id":76561198027812652,"connected_time":1796000000000,"state":"active","ping":52},{"user_id":733,"name":"The VVitchfinder General","steam_id":76561199059733640,"connected_time":2001000000000,"state":"active","ping":45},{"user_id":699,"name":"Amogous Supreme","steam_id":76561198025476774,"connected_time":3488000000000,"state":"active","ping":55},{"user_id":745,"name":"DALKurumiTokisaki","steam_id":76561198872867732,"connected_time":1420000000000,"state":"active","ping":57},{"user_id":689,"name":"Mr. DeLarge","steam_id":76561198336820066,"connected_time":4128000000000,"state":"active","ping":74},{"user_id":727,"name":"ratthew","steam_id":76561198418172095,"connected_time":2321000000000,"state":"active","ping":82}]},{"server_id":19,"name":"Uncletopia | San Francisco | 3 | Stopwatch","name_short":"sfo-3","host":"sfo-1.us.uncletopia.com","port":27035,"enabled":true,"region":"us-west","cc":"us","latitude":37.77397,"longitude":-122.4313,"reserved":0,"last_update":"0001-01-01T00:00:00Z","name_a2s":"Uncletopia | San Francisco | 3 | Stopwatch","protocol":17,"map":"cp_sunshine","folder":"tf","game":"Team Fortress","app_id":440,"player_count":0,"max_players":24,"Bots":0,"server_type":"Dedicated","server_os":"Linux","password":true,"vac":true,"version":"7961495","steam_id":85568392924742824,"keywords":["cp","nocrits","nodmgspread","uncletopia"],"game_id":440,"stv_port":27036,"stv_name":"Uncletopia | San Francisco | 3 | Stopwatch | STV","players":null},{"server_id":20,"name":"Uncletopia | San Francisco | 4 | Community","name_short":"sfo-4","host":"sfo-1.us.uncletopia.com","port":27045,"enabled":true,"region":"us-west","cc":"us","latitude":37.77397,"longitude":-122.4313,"reserved":0,"last_update":"0001-01-01T00:00:00Z","name_a2s":"Uncletopia | San Francisco | 4 | Community","protocol":17,"map":"workshop/pl_barnblitz_pro7.ugc582280235","folder":"tf","game":"Team Fortress","app_id":440,"player_count":0,"max_players":24,"Bots":0,"server_type":"Dedicated","server_os":"Linux","password":true,"vac":true,"version":"7961495","steam_id":85568392924742826,"keywords":["nocrits","nodmgspread","payload","uncletopia"],"game_id":440,"stv_port":27046,"stv_name":"Uncletopia | San Francisco | 4 | Community | STV","players":null},{"server_id":141,"name":"Uncletopia | Sydney | 1 | All Maps","name_short":"syd-1","host":"syd-1.au.uncletopia.com","port":27015,"enabled":true,"region":"au","cc":"au","latitude":-33.865143,"longitude":151.2099,"reserved":0,"last_update":"0001-01-01T00:00:00Z","name_a2s":"Uncletopia | Sydney | 1 | All Maps","protocol":17,"map":"pl_barnblitz","folder":"tf","game":"Team Fortress","app_id":440,"player_count":24,"max_players":24,"Bots":0,"server_type":"Dedicated","server_os":"Linux","password":true,"vac":true,"version":"7961495","steam_id":85568392924470001,"keywords":["nocrits","nodmgspread","payload","uncletopia"],"game_id":440,"stv_port":27016,"stv_name":"Uncletopia | Sydney | 1 | All Maps | STV","players":[{"user_id":221,"name":"krandlez` (Any/All)","steam_id":76561198044839726,"connected_time":812000000000,"state":"active","ping":45},{"user_id":208,"name":"AmethystDragon10","steam_id":76561198412979983,"connected_time":2111000000000,"state":"active","ping":84},{"user_id":223,"name":"Maxakai","steam_id":76561199089156154,"connected_time":74000000000,"state":"active","ping":98},{"user_id":172,"name":"Crispy","steam_id":76561198081760160,"connected_time":4442000000000,"state":"active","ping":92},{"user_id":234,"name":"Cleisthenes","steam_id":76561198142861283,"connected_time":1000000000,"state":"spawning","ping":52},{"user_id":230,"name":"Foxivan","steam_id":76561198428775175,"connected_time":57000000000,"state":"active","ping":61},{"user_id":204,"name":"ManofWonder1","steam_id":76561198904788550,"connected_time":2159000000000,"state":"active","ping":69},{"user_id":228,"name":"Egg","steam_id":76561198067095618,"connected_time":65000000000,"state":"active","ping":46},{"user_id":196,"name":"Pompadouraus","steam_id":76561198327530525,"connected_time":2266000000000,"state":"active","ping":75},{"user_id":177,"name":"Chez","steam_id":76561198089925051,"connected_time":4324000000000,"state":"active","ping":122},{"user_id":229,"name":"lofty","steam_id":76561198380588357,"connected_time":59000000000,"state":"active","ping":60},{"user_id":231,"name":"lemur","steam_id":76561198278239170,"connected_time":57000000000,"state":"active","ping":89},{"user_id":199,"name":"soupy","steam_id":76561198073734936,"connected_time":2235000000000,"state":"active","ping":92},{"user_id":232,"name":"saturation","steam_id":76561199457046392,"connected_time":56000000000,"state":"active","ping":75},{"user_id":207,"name":"whiteshaq","steam_id":76561198131988811,"connected_time":2135000000000,"state":"active","ping":80},{"user_id":224,"name":"Maestro[FmJ]","steam_id":76561197996842734,"connected_time":73000000000,"state":"active","ping":63},{"user_id":212,"name":"Noid","steam_id":76561198045934965,"connected_time":1853000000000,"state":"active","ping":86},{"user_id":183,"name":"Sinister80s","steam_id":76561198343540472,"connected_time":3817000000000,"state":"active","ping":62},{"user_id":211,"name":"Brody","steam_id":76561199167209717,"connected_time":1895000000000,"state":"active","ping":65},{"user_id":220,"name":"Tbnee","steam_id":76561199189016529,"connected_time":915000000000,"state":"active","ping":72},{"user_id":200,"name":"ThunderMoutaingame2011","steam_id":76561199187380315,"connected_time":2235000000000,"state":"active","ping":165},{"user_id":226,"name":"Tiblyat","steam_id":76561198093077688,"connected_time":72000000000,"state":"active","ping":73},{"user_id":195,"name":"lavanderpumpernickle(Del Davis)","steam_id":76561199093611800,"connected_time":2718000000000,"state":"active","ping":62}]},{"server_id":123,"name":"Uncletopia | Sydney | 2 | All Maps","name_short":"syd-2","host":"syd-1.au.uncletopia.com","port":27025,"enabled":true,"region":"au","cc":"au","latitude":-33.865143,"longitude":151.2099,"reserved":0,"last_update":"0001-01-01T00:00:00Z","name_a2s":"Uncletopia | Sydney | 2 | All Maps","protocol":17,"map":"koth_lakeside_final","folder":"tf","game":"Team Fortress","app_id":440,"player_count":0,"max_players":24,"Bots":0,"server_type":"Dedicated","server_os":"Linux","password":true,"vac":true,"version":"7961495","steam_id":85568392924470002,"keywords":["cp","nocrits","nodmgspread","uncletopia"],"game_id":440,"stv_port":27026,"stv_name":"Uncletopia | Sydney | 2 | All Maps | STV","players":null},{"server_id":395,"name":"Uncletopia | Sydney | 3 | All Maps","name_short":"syd-3","host":"syd-1.au.uncletopia.com","port":27035,"enabled":true,"region":"au","cc":"au","latitude":-33.865143,"longitude":151.2099,"reserved":0,"last_update":"0001-01-01T00:00:00Z","name_a2s":"Uncletopia | Sydney | 3 | All Maps","protocol":17,"map":"koth_lakeside_final","folder":"tf","game":"Team Fortress","app_id":440,"player_count":0,"max_players":24,"Bots":0,"server_type":"Dedicated","server_os":"Linux","password":true,"vac":true,"version":"7961495","steam_id":85568392925194467,"keywords":["cp","nocrits","nodmgspread","uncletopia"],"game_id":440,"stv_port":27036,"stv_name":"Uncletopia | Sydney | 3 | All Maps | STV","players":null},{"server_id":396,"name":"Uncletopia | Sydney | 4 | All Maps","name_short":"syd-4","host":"syd-1.au.uncletopia.com","port":27045,"enabled":true,"region":"au","cc":"au","latitude":-33.865143,"longitude":151.2099,"reserved":0,"last_update":"0001-01-01T00:00:00Z","name_a2s":"Uncletopia | Sydney | 4 | All Maps","protocol":17,"map":"koth_lakeside_final","folder":"tf","game":"Team Fortress","app_id":440,"player_count":0,"max_players":24,"Bots":0,"server_type":"Dedicated","server_os":"Linux","password":true,"vac":true,"version":"7961495","steam_id":85568392925397958,"keywords":["cp","nocrits","nodmgspread","uncletopia"],"game_id":440,"stv_port":27046,"stv_name":"Uncletopia | Sydney | 4 | All Maps | STV","players":null},{"server_id":58,"name":"Uncletopia | Sydney | 5 | Stopwatch","name_short":"syd-5","host":"syd-1.au.uncletopia.com","port":27055,"enabled":true,"region":"au","cc":"au","latitude":-33.865143,"longitude":151.2099,"reserved":0,"last_update":"0001-01-01T00:00:00Z","name_a2s":"Uncletopia | Sydney | 5 | Stopwatch","protocol":17,"map":"workshop/koth_ramjam_rc1.ugc459778887","folder":"tf","game":"Team Fortress","app_id":440,"player_count":0,"max_players":24,"Bots":0,"server_type":"Dedicated","server_os":"Linux","password":true,"vac":true,"version":"7961495","steam_id":85568392925397959,"keywords":["cp","nocrits","nodmgspread","uncletopia"],"game_id":440,"stv_port":27056,"stv_name":"Uncletopia | Sydney | 5 | Stopwatch | STV","players":null},{"server_id":59,"name":"Uncletopia | Sydney | 6 | Community","name_short":"syd-6","host":"syd-1.au.uncletopia.com","port":27065,"enabled":true,"region":"au","cc":"au","latitude":-33.865143,"longitude":151.2099,"reserved":0,"last_update":"0001-01-01T00:00:00Z","name_a2s":"Uncletopia | Sydney | 6 | Community","protocol":17,"map":"workshop/rd_asteroid_redux_b1.ugc2154902912","folder":"tf","game":"Team Fortress","app_id":440,"player_count":0,"max_players":24,"Bots":0,"server_type":"Dedicated","server_os":"Linux","password":true,"vac":true,"version":"7961495","steam_id":85568392925397960,"keywords":["beta","nocrits","nodmgspread","rd","uncletopia"],"game_id":440,"stv_port":27066,"stv_name":"Uncletopia | Sydney | 6 | Community | STV","players":null},{"server_id":49,"name":"Uncletopia | Warsaw | 1 | All Maps","name_short":"waw-1","host":"waw-1.pl.uncletopia.com","port":27015,"enabled":true,"region":"eu","cc":"pl","latitude":52.2297,"longitude":21.017532,"reserved":0,"last_update":"0001-01-01T00:00:00Z","name_a2s":"Uncletopia | Warsaw | 1 | All Maps","protocol":17,"map":"koth_lakeside_final","folder":"tf","game":"Team Fortress","app_id":440,"player_count":0,"max_players":24,"Bots":0,"server_type":"Dedicated","server_os":"Linux","password":true,"vac":true,"version":"7961495","steam_id":85568392925397850,"keywords":["cp","nocrits","nodmgspread","uncletopia"],"game_id":440,"stv_port":27016,"stv_name":"Uncletopia | Warsaw | 1 | All Maps | STV","players":null},{"server_id":50,"name":"Uncletopia | Warsaw | 2 | All Maps","name_short":"waw-2","host":"waw-1.pl.uncletopia.com","port":27025,"enabled":true,"region":"eu","cc":"pl","latitude":52.2297,"longitude":21.017532,"reserved":0,"last_update":"0001-01-01T00:00:00Z","name_a2s":"Uncletopia | Warsaw | 2 | All Maps","protocol":17,"map":"pl_borneo","folder":"tf","game":"Team Fortress","app_id":440,"player_count":0,"max_players":24,"Bots":0,"server_type":"Dedicated","server_os":"Linux","password":true,"vac":true,"version":"7961495","steam_id":85568392925397851,"keywords":["nocrits","nodmgspread","payload","uncletopia"],"game_id":440,"stv_port":27026,"stv_name":"Uncletopia | Warsaw | 2 | All Maps | STV","players":null},{"server_id":51,"name":"Uncletopia | Warsaw | 3 | All Maps","name_short":"waw-3","host":"waw-1.pl.uncletopia.com","port":27035,"enabled":true,"region":"eu","cc":"pl","latitude":52.2297,"longitude":21.017532,"reserved":0,"last_update":"0001-01-01T00:00:00Z","name_a2s":"Uncletopia | Warsaw | 3 | All Maps","protocol":17,"map":"pl_barnblitz","folder":"tf","game":"Team Fortress","app_id":440,"player_count":0,"max_players":24,"Bots":0,"server_type":"Dedicated","server_os":"Linux","password":true,"vac":true,"version":"7961495","steam_id":85568392925397852,"keywords":["nocrits","nodmgspread","payload","uncletopia"],"game_id":440,"stv_port":27036,"stv_name":"Uncletopia | Warsaw | 3 | All Maps | STV","players":null},{"server_id":52,"name":"Uncletopia | Warsaw | 4 | All Maps","name_short":"waw-4","host":"waw-1.pl.uncletopia.com","port":27045,"enabled":true,"region":"eu","cc":"pl","latitude":52.2297,"longitude":21.017532,"reserved":0,"last_update":"0001-01-01T00:00:00Z","name_a2s":"Uncletopia | Warsaw | 4 | All Maps","protocol":17,"map":"pl_borneo","folder":"tf","game":"Team Fortress","app_id":440,"player_count":0,"max_players":24,"Bots":0,"server_type":"Dedicated","server_os":"Linux","password":true,"vac":true,"version":"7961495","steam_id":85568392925397853,"keywords":["nocrits","nodmgspread","payload","uncletopia"],"game_id":440,"stv_port":27046,"stv_name":"Uncletopia | Warsaw | 4 | All Maps | STV","players":null},{"server_id":53,"name":"Uncletopia | Warsaw | 5 | Stopwatch","name_short":"waw-5","host":"waw-1.pl.uncletopia.com","port":27055,"enabled":true,"region":"eu","cc":"pl","latitude":52.2297,"longitude":21.017532,"reserved":0,"last_update":"0001-01-01T00:00:00Z","name_a2s":"Uncletopia | Warsaw | 5 | Stopwatch","protocol":17,"map":"pl_barnblitz","folder":"tf","game":"Team Fortress","app_id":440,"player_count":0,"max_players":24,"Bots":0,"server_type":"Dedicated","server_os":"Linux","password":true,"vac":true,"version":"7961495","steam_id":85568392925397854,"keywords":["nocrits","nodmgspread","payload","uncletopia"],"game_id":440,"stv_port":27056,"stv_name":"Uncletopia | Warsaw | 5 | Stopwatch | STV","players":null},{"server_id":54,"name":"Uncletopia | Warsaw | 6 | Community","name_short":"waw-6","host":"waw-1.pl.uncletopia.com","port":27065,"enabled":true,"region":"eu","cc":"pl","latitude":52.2297,"longitude":21.017532,"reserved":0,"last_update":"0001-01-01T00:00:00Z","name_a2s":"Uncletopia | Warsaw | 6 | Community","protocol":17,"map":"cp_altitude","folder":"tf","game":"Team Fortress","app_id":440,"player_count":0,"max_players":24,"Bots":0,"server_type":"Dedicated","server_os":"Linux","password":true,"vac":true,"version":"7961495","steam_id":85568392925397856,"keywords":["cp","nocrits","nodmgspread","uncletopia"],"game_id":440,"stv_port":27066,"stv_name":"Uncletopia | Warsaw | 6 | Community | STV","players":null}]}