{"status":true,"message":"","result":[{"server_id":2,"name":"Uncletopia | Chicago | 1 | All Maps","name_short":"chi-1","host":"chi-1.us.uncletopia.com","port":27015,"enabled":true,"region":"us-central","cc":"us","latitude":41.881832,"longitude":-87.62318,"reserved":0,"last_update":"0001-01-01T00:00:00Z","name_a2s":"Uncletopia | Chicago | 1 | All Maps","protocol":17,"map":"pl_swiftwater_final1","folder":"tf","game":"Team Fortress","app_id":440,"player_count":17,"max_players":24,"Bots":0,"server_type":"Dedicated","server_os":"Linux","password":true,"vac":true,"version":"7961495","steam_id":85568392924469984,"keywords":["nocrits","nodmgspread","payload","uncletopia"],"game_id":440,"stv_port":27016,"stv_name":"Uncletopia | Chicago | 1 | All Maps | STV","players":[{"user_id":424,"name":"Osteo-Oligarch","steam_id":76561198164731896,"connected_time":757000000000,"state":"active","ping":70},{"user_id":438,"name":"squidpunk1312","steam_id":76561198202274248,"connected_time":308000000000,"state":"active","ping":78},{"user_id":437,"name":"Argo","steam_id":76561198353725622,"connected_time":358000000000,"state":"active","ping":74},{"user_id":435,"name":"LinkStorm","steam_id":76561198202772455,"connected_time":517000000000,"state":"active","ping":69},{"user_id":427,"name":"Dragoon","steam_id":76561198211973253,"connected_time":680000000000,"state":"active","ping":85},{"user_id":428,"name":"Nassu","steam_id":76561198147367577,"connected_time":679000000000,"state":"active","ping":66},{"user_id":419,"name":"Hindmost","steam_id":76561199081837220,"connected_time":1178000000000,"state":"active","ping":82},{"user_id":439,"name":"ZombieDog[N8]","steam_id":76561198056076918,"connected_time":292000000000,"state":"active","ping":73},{"user_id":431,"name":"KingSteve42","steam_id":76561198409455888,"connected_time":627000000000,"state":"active","ping":101},{"user_id":432,"name":"Max","steam_id":76561199033599445,"connected_time":618000000000,"state":"active","ping":90},{"user_id":416,"name":"Venk","steam_id":76561198251131422,"connected_time":1571000000000,"state":"active","ping":69},{"user_id":436,"name":"HundchenTanque","steam_id":76561198122692754,"connected_time":508000000000,"state":"active","ping":46},{"user_id":434,"name":"Reisen Udongein Inaba","steam_id":76561198051082314,"connected_time":535000000000,"state":"active","ping":99},{"user_id":440,"name":"fasty","steam_id":76561199243229769,"connected_time":287000000000,"state":"active","ping":43},{"user_id":442,"name":"Cleric","steam_id":76561198001855922,"connected_time":249000000000,"state":"active","ping":99},{"user_id":443,"name":"Jizz Pintsworth III Esq.","steam_id":76561199009379862,"connected_time":225000000000,"state":"active","ping":86},{"user_id":294,"name":"Terror","steam_id":76561198188685728,"connected_time":7827000000000,"state":"active","ping":43}]},{"server_id":106,"name":"Uncletopia | Chicago | 2 | All Maps","name_short":"chi-2","host":"chi-1.us.uncletopia.com","port":27025,"enabled":true,"region":"us-central","cc":"us","latitude":41.881832,"longitude":-87.62318,"reserved":0,"last_update":"0001-01-01T00:00:00Z","name_a2s":"Uncletopia | Chicago | 2 | All Maps","protocol":17,"map":"koth_highpass","folder":"tf","game":"Team Fortress","app_id":440,"player_count":0,"max_players":24,"Bots":0,"server_type":"Dedicated","server_os":"Linux","password":true,"vac":true,"version":"7961495","steam_id":85568392924469985,"keywords":["cp","nocrits","nodmgspread","uncletopia"],"game_id":440,"stv_port":27026,"stv_name":"Uncletopia | Chicago | 2 | All Maps | STV","players":null},{"server_id":402,"name":"Uncletopia | Chicago | 3 | All Maps","name_short":"chi-3","host":"chi-1.us.uncletopia.com","port":27035,"enabled":true,"region":"us-central","cc":"us","latitude":41.881832,"longitude":-87.62318,"reserved":0,"last_update":"0001-01-01T00:00:00Z","name_a2s":"Uncletopia | Chicago | 3 | All Maps","protocol":17,"map":"pl_upward","folder":"tf","game":"Team Fortress","app_id":440,"player_count":24,"max_players":24,"Bots":0,"server_type":"Dedicated","server_os":"Linux","password":true,"vac":true,"version":"7961495","steam_id":85568392924515191,"keywords":["nocrits","nodmgspread","payload","uncletopia"],"game_id":440,"stv_port":27036,"stv_name":"Uncletopia | Chicago | 3 | All Maps | STV","players":[{"user_id":302,"name":"Pneumo.","steam_id":76561197987911883,"connected_time":1693000000000,"state":"active","ping":153},{"user_id":303,"name":"[S]Mr. X [No Monitor]","steam_id":76561197963746035,"connected_time":1654000000000,"state":"active","ping":132},{"user_id":263,"name":"ozbulu|troutsupply.net","steam_id":76561198067176829,"connected_time":4530000000000,"state":"active","ping":106},{"user_id":301,"name":"pudl","steam_id":76561198043726592,"connected_time":1779000000000,"state":"active","ping":63},{"user_id":311,"name":"dog","steam_id":76561198263873491,"connected_time":1108000000000,"state":"active","ping":38},{"user_id":321,"name":"Seshagrantch","steam_id":76561198112033660,"connected_time":93000000000,"state":"active","ping":75},{"user_id":313,"name":"Mitchu The Bidness Man","steam_id":76561198102494381,"connected_time":999000000000,"state":"active","ping":64},{"user_id":310,"name":"ReDiculous22","steam_id":76561198038391383,"connected_time":1178000000000,"state":"active","ping":60},{"user_id":319,"name":"cheese burger","steam_id":76561198999217575,"connected_time":364000000000,"state":"active","ping":64},{"user_id":300,"name":"dryjack","steam_id":76561198102314418,"connected_time":1842000000000,"state":"active","ping":72},{"user_id":282,"name":"Danmar33","steam_id":76561198056453091,"connected_time":2384000000000,"state":"active","ping":58},{"user_id":305,"name":"Spicy Chicken","steam_id":76561198074209737,"connected_time":1513000000000,"state":"active","ping":60},{"user_id":320,"name":"Renota","steam_id":76561198058224488,"connected_time":311000000000,"state":"active","ping":86},{"user_id":285,"name":"Belloq","steam_id":76561198060279052,"connected_time":2263000000000,"state":"active","ping":46},{"user_id":318,"name":"Man Time","steam_id":76561198151147218,"connected_time":415000000000,"state":"active","ping":77},{"user_id":287,"name":"ChozoChorizo","steam_id":76561198272609196,"connected_time":2211000000000,"state":"active","ping":71},{"user_id":317,"name":"tiredfisherman69","steam_id":76561199228963816,"connected_time":425000000000,"state":"active","ping":110},{"user_id":289,"name":"YeshieSirYesSir","steam_id":76561198080214214,"connected_time":2163000000000,"state":"active","ping":41},{"user_id":227,"name":"Juno","steam_id":76561198042417277,"connected_time":7063000000000,"state":"active","ping":70},{"user_id":312,"name":"reis","steam_id":76561199232952016,"connected_time":1032000000000,"state":"active","ping":179},{"user_id":264,"name":"JoJoJo","steam_id":76561198067153390,"connected_time":3854000000000,"state":"active","ping":54},{"user_id":298,"name":"WaveSmash","steam_id":76561198208785485,"connected_time":1929000000000,"state":"active","ping":88},{"user_id":291,"name":"Fantastic","steam_id":76561198079088978,"connected_time":2139000000000,"state":"active","ping":45},{"user_id":293,"name":"123","steam_id":76561198106308056,"connected_time":2062000000000,"state":"active","ping":135}]},{"server_id":403,"name":"Uncletopia | Chicago | 4 | All Maps","name_short":"chi-4","host":"chi-1.us.uncletopia.com","port":27045,"enabled":true,"region":"us-central","cc":"us","latitude":41.881832,"longitude":-87.62318,"reserved":0,"last_update":"0001-01-01T00:00:00Z","name_a2s":"Uncletopia | Chicago | 4 | All Maps","protocol":17,"map":"pl_snowycoast","folder":"tf","game":"Team Fortress","app_id":440,"player_count":23,"max_players":24,"Bots":0,"server_type":"Dedicated","server_os":"Linux","password":true,"vac":true,"version":"7961495","steam_id":85568392924515193,"keywords":["nocrits","nodmgspread","payload","uncletopia"],"game_id":440,"stv_port":27046,"stv_name":"Uncletopia | Chicago | 4 | All Maps | STV","players":[{"user_id":294,"name":"I THINK COOLSVILLE SUCKS","steam_id":76561198066855998,"connected_time":141000000000,"state":"active","ping":105},{"user_id":275,"name":"YASAI JUICE","steam_id":76561198131971992,"connected_time":2075000000000,"state":"active","ping":39},{"user_id":271,"name":"C Papi","steam_id":76561198027779564,"connected_time":2322000000000,"state":"active","ping":59},{"user_id":281,"name":"Dr. Blair Chao","steam_id":76561198146027518,"connected_time":995000000000,"state":"active","ping":65},{"user_id":293,"name":"PTR","steam_id":76561198237253772,"connected_time":256000000000,"state":"active","ping":122},{"user_id":295,"name":"raduski","steam_id":76561198795699119,"connected_time":136000000000,"state":"active","ping":86},{"user_id":266,"name":"cat","steam_id":76561198096347625,"connected_time":2630000000000,"state":"active","ping":78},{"user_id":210,"name":"Jeremy","steam_id":76561198286240347,"connected_time":6827000000000,"state":"active","ping":62},{"user_id":18,"name":"daemon","steam_id":76561198001541433,"connected_time":20451000000000,"state":"active","ping":55},{"user_id":214,"name":"sephy ‚ô°","steam_id":76561198029320773,"connected_time":6672000000000,"state":"active","ping":93},{"user_id":284,"name":"Epifiny","steam_id":76561198027958086,"connected_time":989000000000,"state":"active","ping":68},{"user_id":296,"name":"honk","steam_id":76561198050398028,"connected_time":90000000000,"state":"active","ping":47},{"user_id":291,"name":"book","steam_id":76561198019876811,"connected_time":501000000000,"state":"active","ping":91},{"user_id":285,"name":"puke","steam_id":76561197999279693,"connected_time":979000000000,"state":"active","ping":79},{"user_id":286,"name":"my forebrain is highly develope","steam_id":76561198016826181,"connected_time":979000000000,"state":"active","ping":70},{"user_id":290,"name":"Smooth, Refreshing Bleach‚Ñ¢","steam_id":76561197981060504,"connected_time":839000000000,"state":"active","ping":47},{"user_id":292,"name":"anaesthesia","steam_id":76561198258774080,"connected_time":326000000000,"state":"active","ping":59},{"user_id":268,"name":"Weiserbot","steam_id":76561198882389970,"connected_time":2614000000000,"state":"active","ping":88},{"user_id":288,"name":"Solivisor","steam_id":76561198846866721,"connected_time":952000000000,"state":"active","ping":97},{"user_id":218,"name":"jerma but crying and lesbian","steam_id":76561198110661425,"connected_time":6588000000000,"state":"active","ping":48},{"user_id":269,"name":"i¬¥m actually naked","steam_id":76561198100768221,"connected_time":2604000000000,"state":"active","ping":90},{"user_id":298,"name":"water and water and water water","steam_id":76561198257848207,"connected_time":52000000000,"state":"active","ping":80},{"user_id":261,"name":"Xraverz","steam_id":76561198008891628,"connected_time":2750000000000,"state":"active","ping":86}]},{"server_id":36,"name":"Uncletopia | Chicago | 5 | All Maps","name_short":"chi-5","host":"chi-2.us.uncletopia.com","port":27015,"enabled":true,"region":"us-central","cc":"us","latitude":41.881832,"longitude":-87.62318,"reserved":0,"last_update":"0001-01-01T00:00:00Z","name_a2s":"Uncletopia | Chicago | 5 | All Maps","protocol":17,"map":"pl_badwater","folder":"tf","game":"Team Fortress","app_id":440,"player_count":24,"max_players":24,"Bots":0,"server_type":"Dedicated","server_os":"Linux","password":true,"vac":true,"version":"7961495","steam_id":85568392924866362,"keywords":["nocrits","nodmgspread","payload","uncletopia"],"game_id":440,"stv_port":27016,"stv_name":"Uncletopia | Chicago | 5 | All Maps | STV","players":[{"user_id":309,"name":"totoro","steam_id":76561198210420871,"connected_time":92000000000,"state":"active","ping":44},{"user_id":265,"name":"if i miss I WILL KILL MYSELF!!!","steam_id":76561198253747839,"connected_time":3309000000000,"state":"active","ping":45},{"user_id":294,"name":"Dr Sex","steam_id":76561199115766913,"connected_time":1559000000000,"state":"active","ping":109},{"user_id":302,"name":"minecraft","steam_id":76561198104345201,"connected_time":1110000000000,"state":"active","ping":73},{"user_id":305,"name":"Sarbanes-Oxley","steam_id":76561197975898479,"connected_time":971000000000,"state":"active","ping":75},{"user_id":306,"name":"Limitless","steam_id":76561198057139998,"connected_time":342000000000,"state":"active","ping":77},{"user_id":304,"name":"Guile (Not A Tree?)","steam_id":76561197995840607,"connected_time":1083000000000,"state":"active","ping":77},{"user_id":171,"name":"Wet Deer","steam_id":76561198145045927,"connected_time":9435000000000,"state":"active","ping":70},{"user_id":303,"name":"Wang of Wall St","steam_id":76561198047460598,"connected_time":1090000000000,"state":"active","ping":73},{"user_id":308,"name":"xp","steam_id":76561199207991492,"connected_time":245000000000,"state":"active","ping":59},{"user_id":307,"name":"HeatedArtist","steam_id":76561198961937603,"connected_time":333000000000,"state":"active","ping":101},{"user_id":296,"name":"HyperBluuJay","steam_id":76561198165709523,"connected_time":1534000000000,"state":"active","ping":75},{"user_id":292,"name":"sailaser","steam_id":76561198035752229,"connected_time":1582000000000,"state":"active","ping":68},{"user_id":245,"name":"Purchase #JohnnyMaxxing","steam_id":76561198821991700,"connected_time":4876000000000,"state":"active","ping":64},{"user_id":247,"name":"Sporp","steam_id":76561197987957133,"connected_time":4846000000000,"state":"active","ping":83},{"user_id":293,"name":"Phantom Boss","steam_id":76561198119329027,"connected_time":1569000000000,"state":"active","ping":52},{"user_id":290,"name":"Flimbo","steam_id":76561198815361515,"connected_time":2500000000000,"state":"active","ping":115},{"user_id":297,"name":"Viren","steam_id":76561198012636897,"connected_time":1533000000000,"state":"active","ping":75},{"user_id":234,"name":"roto","steam_id":76561198138735860,"connected_time":5414000000000,"state":"active","ping":71},{"user_id":279,"name":"ApertureCity","steam_id":76561198004153607,"connected_time":2948000000000,"state":"active","ping":84},{"user_id":272,"name":"MasterGeek.MX","steam_id":76561198063355220,"connected_time":3104000000000,"state":"active","ping":112},{"user_id":289,"name":"Marc G","steam_id":76561198062650363,"connected_time":2557000000000,"state":"active","ping":74},{"user_id":298,"name":"OptimusFett","steam_id":76561198367717344,"connected_time":1526000000000,"state":"active","ping":101},{"user_id":275,"name":"SilverLife25","steam_id":76561198392015722,"connected_time":3096000000000,"state":"active","ping":82}]},{"server_id":37,"name":"Uncletopia | Chicago | 6 | All Maps","name_short":"chi-6","host":"chi-2.us.uncletopia.com","port":27025,"enabled":true,"region":"us-central","cc":"us","latitude":41.881832,"longitude":-87.62318,"reserved":0,"last_update":"0001-01-01T00:00:00Z","name_a2s":"Uncletopia | Chicago | 6 | All Maps","protocol":17,"map":"cp_granary","folder":"tf","game":"Team Fortress","app_id":440,"player_count":21,"max_players":24,"Bots":0,"server_type":"Dedicated","server_os":"Linux","password":true,"vac":true,"version":"7961495","steam_id":85568392924866363,"keywords":["cp","nocrits","nodmgspread","uncletopia"],"game_id":440,"stv_port":27026,"stv_name":"Uncletopia | Chicago | 6 | All Maps | STV","players":[{"user_id":215,"name":"bobbymcbobington","steam_id":76561199089411172,"connected_time":592000000000,"state":"active","ping":119},{"user_id":188,"name":"Koishi","steam_id":76561198054541054,"connected_time":2160000000000,"state":"active","ping":53},{"user_id":210,"name":"SadVeggie","steam_id":76561198163430099,"connected_time":1244000000000,"state":"active","ping":116},{"user_id":189,"name":"Ditto","steam_id":76561198130690686,"connected_time":2094000000000,"state":"active","ping":103},{"user_id":190,"name":"femmescout","steam_id":76561198250928638,"connected_time":2040000000000,"state":"active","ping":102},{"user_id":173,"name":"BurningKev","steam_id":76561198057688837,"connected_time":4019000000000,"state":"active","ping":75},{"user_id":213,"name":"Fumpo","steam_id":76561198206873365,"connected_time":819000000000,"state":"active","ping":70},{"user_id":61,"name":"unc havin a fent battle","steam_id":76561198144766439,"connected_time":12893000000000,"state":"active","ping":47},{"user_id":60,"name":"kentrell jr.","steam_id":76561198136642793,"connected_time":13144000000000,"state":"active","ping":75},{"user_id":214,"name":"a fuddruckers","steam_id":76561198092656099,"connected_time":757000000000,"state":"active","ping":41},{"user_id":194,"name":"Just Jasmine, Please","steam_id":76561198332003121,"connected_time":1941000000000,"state":"active","ping":65},{"user_id":196,"name":"The Lord Of The Gooses","steam_id":76561198195702923,"connected_time":1932000000000,"state":"active","ping":68},{"user_id":197,"name":"Aero","steam_id":76561199159006123,"connected_time":1919000000000,"state":"active","ping":75},{"user_id":219,"name":"mogwaihudson","steam_id":76561199486770715,"connected_time":155000000000,"state":"active","ping":133},{"user_id":198,"name":"professor chaos","steam_id":76561198426739788,"connected_time":1892000000000,"state":"active","ping":62},{"user_id":199,"name":"hestalus","steam_id":76561198420130869,"connected_time":1887000000000,"state":"active","ping":64},{"user_id":205,"name":"The Coon","steam_id":76561199015533703,"connected_time":1641000000000,"state":"active","ping":71},{"user_id":208,"name":"Always Here for You","steam_id":76561198219252313,"connected_time":1407000000000,"state":"active","ping":58},{"user_id":184,"name":"Burningbot","steam_id":76561198858154667,"connected_time":2373000000000,"state":"active","ping":105},{"user_id":202,"name":"giggles","steam_id":76561198020322241,"connected_time":1831000000000,"state":"active","ping":71},{"user_id":204,"name":"normal rockwell","steam_id":76561197967761806,"connected_time":1749000000000,"state":"active","ping":165}]},{"server_id":38,"name":"Uncletopia | Chicago | 7 | Stopwatch Beta","name_short":"chi-7","host":"chi-2.us.uncletopia.com","port":27035,"enabled":true,"region":"us-central","cc":"us","latitude":41.881832,"longitude":-87.62318,"reserved":0,"last_update":"0001-01-01T00:00:00Z","name_a2s":"Uncletopia | Chicago | 7 | Stopwatch Beta","protocol":17,"map":"pl_borneo","folder":"tf","game":"Team Fortress","app_id":440,"player_count":0,"max_players":24,"Bots":0,"server_type":"Dedicated","server_os":"Linux","password":true,"vac":true,"version":"7961495","steam_id":85568392924866364,"keywords":["nocrits","nodmgspread","payload","uncletopia"],"game_id":440,"stv_port":27036,"stv_name":"Uncletopia | Chicago | 7 | Stopwatch Beta | STV","players":null},{"server_id":39,"name":"Uncletopia | Chicago | 8 | Community","name_short":"chi-8","host":"chi-2.us.uncletopia.com","port":27045,"enabled":true,"region":"us-central","cc":"us","latitude":41.881832,"longitude":-87.62318,"reserved":0,"last_update":"0001-01-01T00:00:00Z","name_a2s":"Uncletopia | Chicago | 8 | Community","protocol":17,"map":"workshop/cp_snowbase_b18.ugc2081770490","folder":"tf","game":"Team Fortress","app_id":440,"player_count":12,"max_players":24,"Bots":0,"server_type":"Dedicated","server_os":"Linux","password":true,"vac":true,"version":"7961495","steam_id":85568392924866365,"keywords":["cp","nocrits","nodmgspread","uncletopia"],"game_id":440,"stv_port":27046,"stv_name":"Uncletopia | Chicago | 8 | Community | STV","players":[{"user_id":142,"name":"OctraSource","steam_id":76561198193630455,"connected_time":1603000000000,"state":"active","ping":101},{"user_id":135,"name":"Spike","steam_id":76561198141356571,"connected_time":2404000000000,"state":"active","ping":56},{"user_id":21,"name":"whimsical little creature","steam_id":76561198271710504,"connected_time":10276000000000,"state":"active","ping":46},{"user_id":123,"name":"H. P. Corbcraft","steam_id":76561198119470355,"connected_time":3678000000000,"state":"active","ping":68},{"user_id":150,"name":"evolutionary sleeper","steam_id":76561198125328737,"connected_time":922000000000,"state":"active","ping":60},{"user_id":154,"name":"shadovillia","steam_id":76561198167411287,"connected_time":239000000000,"state":"active","ping":45},{"user_id":155,"name":"CLEAN COAL","steam_id":76561198019079798,"connected_time":218000000000,"state":"active","ping":70},{"user_id":118,"name":"Rustys_Revenge","steam_id":76561198269414024,"connected_time":3900000000000,"state":"active","ping":92},{"user_id":156,"name":"NewGuy","steam_id":76561198968058652,"connected_time":177000000000,"state":"active","ping":100},{"user_id":157,"name":"CloudVic","steam_id":76561198118868716,"connected_time":25000000000,"state":"active","ping":73},{"user_id":145,"name":"Lex","steam_id":76561198069948353,"connected_time":1383000000000,"state":"active","ping":78},{"user_id":151,"name":"Titar Industries","steam_id":76561198143078476,"connected_time":732000000000,"state":"active","ping":65}]},{"server_id":8,"name":"Uncletopia | Dallas | 1 | All Maps","name_short":"dal-1","host":"dal-1.us.uncletopia.com","port":27015,"enabled":true,"region":"us-central","cc":"us","latitude":32.779167,"longitude":-96.80889,"reserved":0,"last_update":"0001-01-01T00:00:00Z","name_a2s":"Uncletopia | Dallas | 1 | All Maps","protocol":17,"map":"cp_fastlane","folder":"tf","game":"Team Fortress","app_id":440,"player_count":22,"max_players":24,"Bots":0,"server_type":"Dedicated","server_os":"Linux","password":true,"vac":true,"version":"7961495","steam_id":85568392924469986,"keywords":["cp","nocrits","nodmgspread","uncletopia"],"game_id":440,"stv_port":27016,"stv_name":"Uncletopia | Dallas | 1 | All Maps | STV","players":[{"user_id":285,"name":"Antifa Supersoldier","steam_id":76561198141816516,"connected_time":2302000000000,"state":"active","ping":37},{"user_id":264,"name":"gliZZY_G0bliN","steam_id":76561198088764516,"connected_time":2892000000000,"state":"active","ping":71},{"user_id":303,"name":"Wix","steam_id":76561199169459826,"connected_time":848000000000,"state":"active","ping":84},{"user_id":304,"name":"Lucky","steam_id":76561198418262145,"connected_time":670000000000,"state":"active","ping":124},{"user_id":305,"name":"Kalir","steam_id":76561197996125658,"connected_time":659000000000,"state":"active","ping":85},{"user_id":312,"name":"Niicciiss","steam_id":76561198823039857,"connected_time":38000000000,"state":"active","ping":176},{"user_id":306,"name":"Deadline","steam_id":76561199079078845,"connected_time":610000000000,"state":"active","ping":106},{"user_id":296,"name":"Hoogy","steam_id":76561199275554778,"connected_time":1704000000000,"state":"active","ping":60},{"user_id":298,"name":"Smoke Stacks","steam_id":76561197999478769,"connected_time":1679000000000,"state":"active","ping":63},{"user_id":297,"name":"Bamboo","steam_id":76561198043139553,"connected_time":1698000000000,"state":"active","ping":89},{"user_id":289,"name":"Kung fu Mungus","steam_id":76561198069281556,"connected_time":1942000000000,"state":"active","ping":73},{"user_id":259,"name":"WesyUWU (The mini crit pig)","steam_id":76561198069188177,"connected_time":2959000000000,"state":"active","ping":75},{"user_id":313,"name":"Bird","steam_id":76561198231624620,"connected_time":25000000000,"state":"active","ping":60},{"user_id":310,"name":"Still Alive","steam_id":76561198042523000,"connected_time":308000000000,"state":"active","ping":70},{"user_id":294,"name":"exten-z","steam_id":76561198004359190,"connected_time":1859000000000,"state":"active","ping":61},{"user_id":218,"name":"Fujiwara no Mokou","steam_id":76561198063315650,"connected_time":5917000000000,"state":"active","ping":78},{"user_id":311,"name":"margaret","steam_id":76561198038291026,"connected_time":203000000000,"state":"active","ping":30},{"user_id":308,"name":"The janitor","steam_id":76561198414300607,"connected_time":445000000000,"state":"active","ping":84},{"user_id":314,"name":"Milk T34","steam_id":76561198116115227,"connected_time":12000000000,"state":"spawning","ping":62},{"user_id":255,"name":"An Unhappy Clown","steam_id":76561198175516514,"connected_time":3252000000000,"state":"active","ping":45},{"user_id":268,"name":"HUMBY","steam_id":76561198065045867,"connected_time":2746000000000,"state":"active","ping":76},{"user_id":206,"name":"!! NOT A FLYING TOY !!","steam_id":76561198069735882,"connected_time":6507000000000,"state":"active","ping":81}]},{"server_id":108,"name":"Uncletopia | Dallas | 2 | All Maps","name_short":"dal-2","host":"dal-1.us.uncletopia.com","port":27025,"enabled":true,"region":"us-central","cc":"us","latitude":32.779167,"longitude":-96.80889,"reserved":0,"last_update":"0001-01-01T00:00:00Z","name_a2s":"Uncletopia | Dallas | 2 | All Maps","protocol":17,"map":"pl_barnblitz","folder":"tf","game":"Team Fortress","app_id":440,"player_count":18,"max_players":24,"Bots":0,"server_type":"Dedicated","server_os":"Linux","password":true,"vac":true,"version":"7961495","steam_id":85568392924469988,"keywords":["nocrits","nodmgspread","payload","uncletopia"],"game_id":440,"stv_port":27026,"stv_name":"Uncletopia | Dallas | 2 | All Maps | STV","players":[{"user_id":118,"name":"Phosu","steam_id":76561198180162801,"connected_time":12194000000000,"state":"active","ping":106},{"user_id":292,"name":"‡∏∏","steam_id":76561198404271005,"connected_time":882000000000,"state":"active","ping":66},{"user_id":269,"name":"Œ© Das Gebeine Œî","steam_id":76561198063665024,"connected_time":1771000000000,"state":"active","ping":52},{"user_id":307,"name":"Soocke","steam_id":76561199145607759,"connected_time":31000000000,"state":"active","ping":110},{"user_id":298,"name":"Ren","steam_id":76561198982088135,"connected_time":409000000000,"state":"active","ping":73},{"user_id":306,"name":"Neon_Silver27","steam_id":76561198819794723,"connected_time":100000000000,"state":"active","ping":79},{"user_id":268,"name":"FiddyFoMike","steam_id":76561198057072581,"connected_time":2102000000000,"state":"active","ping":85},{"user_id":270,"name":"dave","steam_id":76561198135961731,"connected_time":1669000000000,"state":"active","ping":64},{"user_id":305,"name":"One Horned Bitch Destroyer","steam_id":76561198045810191,"connected_time":102000000000,"state":"active","ping":100},{"user_id":290,"name":"tsz","steam_id":76561199246231090,"connected_time":1018000000000,"state":"active","ping":78},{"user_id":272,"name":"Brigadier Brownie","steam_id":76561198040852898,"connected_time":1532000000000,"state":"active","ping":86},{"user_id":297,"name":"loser","steam_id":76561198259380127,"connected_time":595000000000,"state":"active","ping":81},{"user_id":301,"name":"CrazyCow","steam_id":76561198097431272,"connected_time":291000000000,"state":"active","ping":94},{"user_id":293,"name":"Rose","steam_id":76561198955581861,"connected_time":854000000000,"state":"active","ping":75},{"user_id":243,"name":"skegeton","steam_id":76561198095581099,"connected_time":3707000000000,"state":"active","ping":50},{"user_id":284,"name":"GoonyLad","steam_id":76561199229548370,"connected_time":1214000000000,"state":"active","ping":86},{"user_id":294,"name":"üê∫-Iwky-ü¶ä","steam_id":76561198185616311,"connected_time":802000000000,"state":"active","ping":74},{"user_id":302,"name":"dailydiamond","steam_id":76561199123582502,"connected_time":179000000000,"state":"active","ping":105}]},{"server_id":5,"name":"Uncletopia | Frankfurt | 1 | All Maps","name_short":"frk-1","host":"frk-1.de.uncletopia.com","port":27015,"enabled":true,"region":"eu","cc":"de","latitude":50.110924,"longitude":8.682127,"reserved":0,"last_update":"0001-01-01T00:00:00Z","name_a2s":"Uncletopia | Frankfurt | 1 | All Maps","protocol":17,"map":"cp_altitude","folder":"tf","game":"Team Fortress","app_id":440,"player_count":0,"max_players":24,"Bots":0,"server_type":"Dedicated","server_os":"Linux","password":true,"vac":true,"version":"7961495","steam_id":85568392924469989,"keywords":["cp","nocrits","nodmgspread","uncletopia"],"game_id":440,"stv_port":27016,"stv_name":"Uncletopia | Frankfurt | 1 | All Maps | STV","players":null},{"server_id":110,"name":"Uncletopia | Frankfurt | 2 | All Maps","name_short":"frk-2","host":"frk-1.de.uncletopia.com","port":27025,"enabled":true,"region":"eu","cc":"de","latitude":50.110924,"longitude":8.682127,"reserved":0,"last_update":"0001-01-01T00:00:00Z","name_a2s":"Uncletopia | Frankfurt | 2 | All Maps","protocol":17,"map":"cp_sunshine","folder":"tf","game":"Team Fortress","app_id":440,"player_count":0,"max_players":24,"Bots":0,"server_type":"Dedicated","server_os":"Linux","password":true,"vac":true,"version":"7961495","steam_id":85568392924469990,"keywords":["cp","nocrits","nodmgspread","uncletopia"],"game_id":440,"stv_port":27026,"stv_name":"Uncletopia | Frankfurt | 2 | All Maps | STV","players":null},{"server_id":308,"name":"Uncletopia | Frankfurt | 3 | All Maps","name_short":"frk-3","host":"frk-1.de.uncletopia.com","port":27035,"enabled":true,"region":"eu","cc":"de","latitude":50.110924,"longitude":8.682127,"reserved":0,"last_update":"0001-01-01T00:00:00Z","name_a2s":"Uncletopia | Frankfurt | 3 | All Maps","protocol":17,"map":"cp_mountainlab","folder":"tf","game":"Team Fortress","app_id":440,"player_count":0,"max_players":24,"Bots":0,"server_type":"Dedicated","server_os":"Linux","password":true,"vac":true,"version":"7961495","steam_id":85568392924504274,"keywords":["cp","nocrits","nodmgspread","uncletopia"],"game_id":440,"stv_port":27036,"stv_name":"Uncletopia | Frankfurt | 3 | All Maps | STV","players":null},{"server_id":309,"name":"Uncletopia | Frankfurt | 4 | All Maps","name_short":"frk-4","host":"frk-1.de.uncletopia.com","port":27045,"enabled":true,"region":"eu","cc":"de","latitude":50.110924,"longitude":8.682127,"reserved":0,"last_update":"0001-01-01T00:00:00Z","name_a2s":"Uncletopia | Frankfurt | 4 | All Maps","protocol":17,"map":"cp_process_final","folder":"tf","game":"Team Fortress","app_id":440,"player_count":0,"max_players":24,"Bots":0,"server_type":"Dedicated","server_os":"Linux","password":true,"vac":true,"version":"7961495","steam_id":85568392924504275,"keywords":["cp","nocrits","nodmgspread","uncletopia"],"game_id":440,"stv_port":27046,"stv_name":"Uncletopia | Frankfurt | 4 | All Maps | STV","players":null},{"server_id":310,"name":"Uncletopia | Frankfurt | 5 | All Maps","name_short":"frk-5","host":"frk-1.de.uncletopia.com","port":27055,"enabled":true,"region":"eu","cc":"de","latitude":50.110924,"longitude":8.682127,"reserved":0,"last_update":"0001-01-01T00:00:00Z","name_a2s":"Uncletopia | Frankfurt | 5 | All Maps","protocol":17,"map":"koth_viaduct","folder":"tf","game":"Team Fortress","app_id":440,"player_count":0,"max_players":24,"Bots":0,"server_type":"Dedicated","server_os":"Linux","password":true,"vac":true,"version":"7961495","steam_id":85568392924504277,"keywords":["cp","nocrits","nodmgspread","uncletopia"],"game_id":440,"stv_port":27056,"stv_name":"Uncletopia | Frankfurt | 5 | All Maps | STV","players":null},{"server_id":311,"name":"Uncletopia | Frankfurt | 6 | All Maps","name_short":"frk-6","host":"frk-1.de.uncletopia.com","port":27065,"enabled":true,"region":"eu","cc":"de","latitude":50.110924,"longitude":8.682127,"reserved":0,"last_update":"0001-01-01T00:00:00Z","name_a2s":"Uncletopia | Frankfurt | 6 | All Maps","protocol":17,"map":"pl_pier","folder":"tf","game":"Team Fortress","app_id":440,"player_count":0,"max_players":24,"Bots":0,"server_type":"Dedicated","server_os":"Linux","password":true,"vac":true,"version":"7961495","steam_id":85568392924504278,"keywords":["nocrits","nodmgspread","payload","uncletopia"],"game_id":440,"stv_port":27066,"stv_name":"Uncletopia | Frankfurt | 6 | All Maps | STV","players":null},{"server_id":23,"name":"Uncletopia | Frankfurt | 7 | Stopwatch Beta","name_short":"frk-7","host":"frk-1.de.uncletopia.com","port":27075,"enabled":true,"region":"eu","cc":"de","latitude":50.110924,"longitude":8.682127,"reserved":0,"last_update":"0001-01-01T00:00:00Z","name_a2s":"Uncletopia | Frankfurt | 7 | Stopwatch Beta","protocol":17,"map":"koth_cascade","folder":"tf","game":"Team Fortress","app_id":440,"player_count":0,"max_players":24,"Bots":0,"server_type":"Dedicated","server_os":"Linux","password":true,"vac":true,"version":"7961495","steam_id":85568392924742827,"keywords":["cp","nocrits","nodmgspread","uncletopia"],"game_id":440,"stv_port":27076,"stv_name":"Uncletopia | Frankfurt | 7 | Stopwatch Beta | STV","players":null},{"server_id":24,"name":"Uncletopia | Frankfurt | 8 | Community","name_short":"frk-8","host":"frk-1.de.uncletopia.com","port":27085,"enabled":true,"region":"eu","cc":"de","latitude":50.110924,"longitude":8.682127,"reserved":0,"last_update":"0001-01-01T00:00:00Z","name_a2s":"Uncletopia | Frankfurt | 8 | Community","protocol":17,"map":"cp_process_final","folder":"tf","game":"Team Fortress","app_id":440,"player_count":0,"max_players":24,"Bots":0,"server_type":"Dedicated","server_os":"Linux","password":true,"vac":true,"version":"7961495","steam_id":85568392924742828,"keywords":["cp","nocrits","nodmgspread","uncletopia"],"game_id":440,"stv_port":27086,"stv_name":"Uncletopia | Frankfurt | 8 | Community | STV","players":null},{"server_id":202,"name":"Uncletopia | Hong Kong | 1 | All Maps","name_short":"hgk-1","host":"hgk-1.hk.uncletopia.com","port":27015,"enabled":true,"region":"asia","cc":"hk","latitude":22.302711,"longitude":114.177216,"reserved":0,"last_update":"0001-01-01T00:00:00Z","name_a2s":"Uncletopia | Hong Kong | 1 | All Maps","protocol":17,"map":"koth_lakeside_final","folder":"tf","game":"Team Fortress","app_id":440,"player_count":0,"max_players":24,"Bots":0,"server_type":"Dedicated","server_os":"Linux","password":true,"vac":true,"version":"7961495","steam_id":85568392924494504,"keywords":["cp","nocrits","nodmgspread","uncletopia"],"game_id":440,"stv_port":27016,"stv_name":"Uncletopia | Hong Kong | 1 | All Maps | STV","players":null},{"server_id":1,"name":"Uncletopia | Los Angeles | 1 | All Maps","name_short":"lax-1","host":"lax-1.us.uncletopia.com","port":27015,"enabled":true,"region":"us-west","cc":"us","latitude":33.94279,"longitude":-118.41004,"reserved":0,"last_update":"0001-01-01T00:00:00Z","name_a2s":"Uncletopia | Los Angeles | 1 | All Maps","protocol":17,"map":"pl_thundermountain","folder":"tf","game":"Team Fortress","app_id":440,"player_count":24,"max_players":24,"Bots":0,"server_type":"Dedicated","server_os":"Linux","password":true,"vac":true,"version":"7961495","steam_id":85568392924469991,"keywords":["nocrits","nodmgspread","payload","uncletopia"],"game_id":440,"stv_port":27016,"stv_name":"Uncletopia | Los Angeles | 1 | All Maps | STV","players":[{"user_id":252,"name":"Rommel2007","steam_id":76561198041744631,"connected_time":338000000000,"state":"active","ping":57},{"user_id":222,"name":"Mothership","steam_id":76561198044029501,"connected_time":2111000000000,"state":"active","ping":96},{"user_id":242,"name":"Sexhater9000","steam_id":76561198048795755,"connected_time":929000000000,"state":"active","ping":62},{"user_id":231,"name":"Wavelengths","steam_id":76561197997621320,"connected_time":1372000000000,"state":"active","ping":78},{"user_id":246,"name":"Ink","steam_id":76561198328781175,"connected_time":852000000000,"state":"active","ping":59},{"user_id":254,"name":"Goose-8","steam_id":76561198795950093,"connected_time":294000000000,"state":"active","ping":115},{"user_id":209,"name":"Mr. Pockets","steam_id":76561198053657771,"connected_time":3088000000000,"state":"active","ping":62},{"user_id":217,"name":"Gruncle PUXXY's Bangers 'n Gash","steam_id":76561197995465137,"connected_time":2727000000000,"state":"active","ping":72},{"user_id":255,"name":"vee the fenn","steam_id":76561198049510832,"connected_time":291000000000,"state":"active","ping":56},{"user_id":256,"name":"HUGE beef | youtube.com/@idiots","steam_id":76561199021242941,"connected_time":290000000000,"state":"active","ping":68},{"user_id":245,"name":"Walrus","steam_id":76561198001799905,"connected_time":874000000000,"state":"active","ping":47},{"user_id":257,"name":"Higuma","steam_id":76561198375229012,"connected_time":216000000000,"state":"active","ping":67},{"user_id":125,"name":"riSygneD","steam_id":76561198331618687,"connected_time":9728000000000,"state":"active","ping":36},{"user_id":258,"name":"UnusualTofu","steam_id":76561198060103750,"connected_time":167000000000,"state":"active","ping":59},{"user_id":247,"name":"FortniteJimmy2008","steam_id":76561198821567852,"connected_time":798000000000,"state":"active","ping":56},{"user_id":238,"name":"GrACE n' TrUth","steam_id":76561198042919056,"connected_time":1194000000000,"state":"active","ping":60},{"user_id":259,"name":"Elfy","steam_id":76561199166448617,"connected_time":148000000000,"state":"active","ping":84},{"user_id":233,"name":"FRANKY!!!","steam_id":76561199211305343,"connected_time":1343000000000,"state":"active","ping":69},{"user_id":213,"name":"greentop_","steam_id":76561198209650964,"connected_time":2976000000000,"state":"active","ping":61},{"user_id":244,"name":"Keamy","steam_id":76561199471434875,"connected_time":893000000000,"state":"active","ping":71},{"user_id":235,"name":"Sterling Nano","steam_id":76561198048580088,"connected_time":1330000000000,"state":"active","ping":71},{"user_id":249,"name":"Kozaky","steam_id":76561198047144993,"connected_time":561000000000,"state":"active","ping":67},{"user_id":262,"name":"Antwan","steam_id":76561198246200638,"connected_time":24000000000,"state":"active","ping":72},{"user_id":261,"name":"the rat","steam_id":76561198442468979,"connected_time":139000000000,"state":"active","ping":63}]},{"server_id":112,"name":"Uncletopia | Los Angeles | 2 | All Maps","name_short":"lax-2","host":"lax-1.us.uncletopia.com","port":27025,"enabled":true,"region":"us-west","cc":"us","latitude":33.94279,"longitude":-118.41004,"reserved":0,"last_update":"0001-01-01T00:00:00Z","name_a2s":"Uncletopia | Los Angeles | 2 | All Maps","protocol":17,"map":"pl_upward","folder":"tf","game":"Team Fortress","app_id":440,"player_count":24,"max_players":24,"Bots":0,"server_type":"Dedicated","server_os":"Linux","password":true,"vac":true,"version":"7961495","steam_id":85568392924469992,"keywords":["nocrits","nodmgspread","payload","uncletopia"],"game_id":440,"stv_port":27026,"stv_name":"Uncletopia | Los Angeles | 2 | All Maps | STV","players":[{"user_id":140,"name":"A UsedNom","steam_id":76561198402832756,"connected_time":7432000000000,"state":"active","ping":43},{"user_id":198,"name":"flip","steam_id":76561198362928297,"connected_time":1563000000000,"state":"active","ping":55},{"user_id":201,"name":"ang","steam_id":76561198435151254,"connected_time":1155000000000,"state":"active","ping":57},{"user_id":207,"name":"Moonman327","steam_id":76561197992616059,"connected_time":356000000000,"state":"active","ping":89},{"user_id":195,"name":"AT‚ú™MIC","steam_id":76561198100385184,"connected_time":2290000000000,"state":"active","ping":49},{"user_id":208,"name":"SQbuilder","steam_id":76561198076473375,"connected_time":223000000000,"state":"active","ping":39},{"user_id":203,"name":"DrippyNachoz","steam_id":76561198296038375,"connected_time":1079000000000,"state":"active","ping":61},{"user_id":115,"name":"Ian","steam_id":76561198159334435,"connected_time":8762000000000,"state":"active","ping":165},{"user_id":141,"name":"Truffles","steam_id":76561198095868800,"connected_time":7307000000000,"state":"active","ping":97},{"user_id":168,"name":"crunchy obama","steam_id":76561198044485217,"connected_time":4725000000000,"state":"active","ping":71},{"user_id":199,"name":"stick","steam_id":76561198134334367,"connected_time":1194000000000,"state":"active","ping":72},{"user_id":163,"name":"AimB√ºtter","steam_id":76561198060108739,"connected_time":5427000000000,"state":"active","ping":47},{"user_id":204,"name":"Vriska","steam_id":76561198942104681,"connected_time":1074000000000,"state":"active","ping":66},{"user_id":122,"name":"LEE","steam_id":76561199127408846,"connected_time":8475000000000,"state":"active","ping":60},{"user_id":202,"name":"Faerun_F","steam_id":76561198443906094,"connected_time":1152000000000,"state":"active","ping":92},{"user_id":191,"name":"noellehound (she/her)","steam_id":76561198108844158,"connected_time":2809000000000,"state":"active","ping":62},{"user_id":178,"name":"selvhat","steam_id":76561198114225509,"connected_time":4186000000000,"state":"active","ping":48},{"user_id":209,"name":"beblonski","steam_id":76561198067053408,"connected_time":46000000000,"state":"active","ping":45},{"user_id":179,"name":"Gabe","steam_id":76561198081153719,"connected_time":3975000000000,"state":"active","ping":80},{"user_id":188,"name":"Bunny of Epicness","steam_id":76561198003897012,"connected_time":3147000000000,"state":"active","ping":81},{"user_id":138,"name":"Grand","steam_id":76561198290143399,"connected_time":7507000000000,"state":"active","ping":86},{"user_id":197,"name":"lemonjack","steam_id":76561198277380277,"connected_time":2049000000000,"state":"active","ping":61},{"user_id":196,"name":"Merekitten","steam_id":76561198066307477,"connected_time":2082000000000,"state":"active","ping":63},{"user_id":194,"name":"DarkMewMew","steam_id":76561199471715552,"connected_time":2305000000000,"state":"active","ping":76}]},{"server_id":324,"name":"Uncletopia | Los Angeles | 3 | All Maps","name_short":"lax-3","host":"lax-1.us.uncletopia.com","port":27035,"enabled":true,"region":"us-west","cc":"us","latitude":33.94279,"longitude":-118.41004,"reserved":0,"last_update":"0001-01-01T00:00:00Z","name_a2s":"Uncletopia | Los Angeles | 3 | All Maps","protocol":17,"map":"koth_nucleus","folder":"tf","game":"Team Fortress","app_id":440,"player_count":22,"max_players":24,"Bots":0,"server_type":"Dedicated","server_os":"Linux","password":true,"vac":true,"version":"7961495","steam_id":85568392924510198,"keywords":["cp","nocrits","nodmgspread","uncletopia"],"game_id":440,"stv_port":27036,"stv_name":"Uncletopia | Los Angeles | 3 | All Maps | STV","players":[{"user_id":177,"name":"Si1entSn1pa","steam_id":76561198170095479,"connected_time":3441000000000,"state":"active","ping":115},{"user_id":161,"name":"Deflated Horse","steam_id":76561199260931005,"connected_time":4391000000000,"state":"active","ping":83},{"user_id":200,"name":"donutdagger","steam_id":76561199203048300,"connected_time":1702000000000,"state":"active","ping":67},{"user_id":204,"name":"Mocha Josie","steam_id":76561198066452726,"connected_time":694000000000,"state":"active","ping":50},{"user_id":215,"name":"Pez","steam_id":76561199197778137,"connected_time":25000000000,"state":"active","ping":68},{"user_id":216,"name":"Tosh","steam_id":76561198026948976,"connected_time":21000000000,"state":"active","ping":95},{"user_id":194,"name":"Ice cream sandwich","steam_id":76561198172748357,"connected_time":1791000000000,"state":"active","ping":56},{"user_id":199,"name":"eryn üó∫","steam_id":76561198004433070,"connected_time":1722000000000,"state":"active","ping":90},{"user_id":76,"name":"Subderhenge","steam_id":76561198090955892,"connected_time":10682000000000,"state":"active","ping":100},{"user_id":212,"name":"Chalupa Jones","steam_id":76561198335855588,"connected_time":196000000000,"state":"active","ping":51},{"user_id":166,"name":"abramo","steam_id":76561198416013000,"connected_time":4121000000000,"state":"active","ping":44},{"user_id":209,"name":"APOTATO","steam_id":76561198118199858,"connected_time":360000000000,"state":"active","ping":45},{"user_id":188,"name":"Yoozer","steam_id":76561198420257694,"connected_time":2388000000000,"state":"active","ping":47},{"user_id":195,"name":"wtfxid","steam_id":76561198377797212,"connected_time":1770000000000,"state":"active","ping":32},{"user_id":196,"name":"Fractured_Mango","steam_id":76561199013113268,"connected_time":1769000000000,"state":"active","ping":63},{"user_id":210,"name":"net worth of -5000","steam_id":76561198206922028,"connected_time":346000000000,"state":"active","ping":46},{"user_id":206,"name":"RisottoRandy","steam_id":76561198068672882,"connected_time":599000000000,"state":"active","ping":53},{"user_id":198,"name":"AVeryTInyKitty","steam_id":76561198072311475,"connected_time":1762000000000,"state":"active","ping":80},{"user_id":189,"name":"Schnitz","steam_id":76561198265484253,"connected_time":2386000000000,"state":"active","ping":51},{"user_id":203,"name":"ball scratcher","steam_id":76561198133963493,"connected_time":1334000000000,"state":"active","ping":54},{"user_id":157,"name":"Orca?","steam_id":76561198164341099,"connected_time":4817000000000,"state":"active","ping":98},{"user_id":207,"name":"yeah","steam_id":76561198070553195,"connected_time":526000000000,"state":"active","ping":59}]},{"server_id":25,"name":"Uncletopia | Los Angeles | 4 | Stopwatch Beta","name_short":"lax-4","host":"lax-1.us.uncletopia.com","port":27045,"enabled":true,"region":"us-west","cc":"us","latitude":33.94279,"longitude":-118.41004,"reserved":0,"last_update":"0001-01-01T00:00:00Z","name_a2s":"Uncletopia | Los Angeles | 4 | Stopwatch Beta","protocol":17,"map":"pl_frontier_final","folder":"tf","game":"Team Fortress","app_id":440,"player_count":0,"max_players":24,"Bots":0,"server_type":"Dedicated","server_os":"Linux","password":true,"vac":true,"version":"7961495","steam_id":85568392924510199,"keywords":["nocrits","nodmgspread","payload","uncletopia"],"game_id":440,"stv_port":27046,"stv_name":"Uncletopia | Los Angeles | 4 | Stopwatch Beta | STV","players":null},{"server_id":11,"name":"Uncletopia | London | 1 | All Maps","name_short":"lon-1","host":"lon-1.uk.uncletopia.com","port":27015,"enabled":true,"region":"eu","cc":"gb","latitude":51.509865,"longitude":-0.118092,"reserved":0,"last_update":"0001-01-01T00:00:00Z","name_a2s":"Uncletopia | London | 1 | All Maps","protocol":17,"map":"pl_snowycoast","folder":"tf","game":"Team Fortress","app_id":440,"player_count":12,"max_players":24,"Bots":0,"server_type":"Dedicated","server_os":"Linux","password":true,"vac":true,"version":"7961495","steam_id":85568392924367362,"keywords":["nocrits","nodmgspread","payload","uncletopia"],"game_id":440,"stv_port":27016,"stv_name":"Uncletopia | London | 1 | All Maps | STV","players":[{"user_id":4,"name":"costco-pilled individual","steam_id":76561198818037965,"connected_time":819000000000,"state":"active","ping":104},{"user_id":5,"name":"Ejeb","steam_id":76561198257334233,"connected_time":816000000000,"state":"active","ping":30},{"user_id":7,"name":"Simon","steam_id":76561199362109830,"connected_time":796000000000,"state":"active","ping":53},{"user_id":8,"name":"BONVH","steam_id":76561199080666656,"connected_time":792000000000,"state":"active","ping":136},{"user_id":9,"name":"bebeda blacked out","steam_id":76561198277943630,"connected_time":789000000000,"state":"active","ping":68},{"user_id":10,"name":"Coca162","steam_id":76561198230656540,"connected_time":772000000000,"state":"active","ping":44},{"user_id":11,"name":"Cosmetic brain","steam_id":76561198055936410,"connected_time":737000000000,"state":"active","ping":81},{"user_id":12,"name":"beebo","steam_id":76561199120277007,"connected_time":721000000000,"state":"active","ping":46},{"user_id":13,"name":"mommyüñ§x_x","steam_id":76561199204257697,"connected_time":712000000000,"state":"active","ping":45},{"user_id":15,"name":"Joe","steam_id":76561198061717026,"connected_time":509000000000,"state":"active","ping":41},{"user_id":16,"name":"Qdarks","steam_id":76561198013391340,"connected_time":320000000000,"state":"active","ping":135},{"user_id":17,"name":"Yuzu","steam_id":76561198121694613,"connected_time":161000000000,"state":"active","ping":46}]},{"server_id":114,"name":"Uncletopia | London | 2 | All Maps","name_short":"lon-2","host":"lon-1.uk.uncletopia.com","port":27025,"enabled":true,"region":"eu","cc":"gb","latitude":51.509865,"longitude":-0.118092,"reserved":0,"last_update":"0001-01-01T00:00:00Z","name_a2s":"Uncletopia | London | 2 | All Maps","protocol":17,"map":"pl_badwater","folder":"tf","game":"Team Fortress","app_id":440,"player_count":0,"max_players":24,"Bots":0,"server_type":"Dedicated","server_os":"Linux","password":true,"vac":true,"version":"7961495","steam_id":85568392924470941,"keywords":["nocrits","nodmgspread","payload","uncletopia"],"game_id":440,"stv_port":27026,"stv_name":"Uncletopia | London | 2 | All Maps | STV","players":null},{"server_id":320,"name":"Uncletopia | London | 3 | All Maps","name_short":"lon-3","host":"lon-1.uk.uncletopia.com","port":27035,"enabled":true,"region":"eu","cc":"gb","latitude":51.509865,"longitude":-0.118092,"reserved":0,"last_update":"0001-01-01T00:00:00Z","name_a2s":"Uncletopia | London | 3 | All Maps","protocol":17,"map":"pl_barnblitz","folder":"tf","game":"Team Fortress","app_id":440,"player_count":0,"max_players":24,"Bots":0,"server_type":"Dedicated","server_os":"Linux","password":true,"vac":true,"version":"7961495","steam_id":85568392924510192,"keywords":["nocrits","nodmgspread","payload","uncletopia"],"game_id":440,"stv_port":27036,"stv_name":"Uncletopia | London | 3 | All Maps | STV","players":null},{"server_id":321,"name":"Uncletopia | London | 4 | All Maps","name_short":"lon-4","host":"lon-1.uk.uncletopia.com","port":27045,"enabled":true,"region":"eu","cc":"gb","latitude":51.509865,"longitude":-0.118092,"reserved":0,"last_update":"0001-01-01T00:00:00Z","name_a2s":"Uncletopia | London | 4 | All Maps","protocol":17,"map":"koth_cascade","folder":"tf","game":"Team Fortress","app_id":440,"player_count":0,"max_players":24,"Bots":0,"server_type":"Dedicated","server_os":"Linux","password":true,"vac":true,"version":"7961495","steam_id":85568392924510193,"keywords":["cp","nocrits","nodmgspread","uncletopia"],"game_id":440,"stv_port":27046,"stv_name":"Uncletopia | London | 4 | All Maps | STV","players":null},{"server_id":21,"name":"Uncletopia | London | 5 | All Maps","name_short":"lon-5","host":"lon-1.uk.uncletopia.com","port":27055,"enabled":true,"region":"eu","cc":"gb","latitude":51.509865,"longitude":-0.118092,"reserved":0,"last_update":"0001-01-01T00:00:00Z","name_a2s":"Uncletopia | London | 5 | All Maps","protocol":17,"map":"pl_snowycoast","folder":"tf","game":"Team Fortress","app_id":440,"player_count":0,"max_players":24,"Bots":0,"server_type":"Dedicated","server_os":"Linux","password":true,"vac":true,"version":"7961495","steam_id":85568392924742829,"keywords":["nocrits","nodmgspread","payload","uncletopia"],"game_id":440,"stv_port":27056,"stv_name":"Uncletopia | London | 5 | All Maps | STV","players":null},{"server_id":22,"name":"Uncletopia | London | 6 | All Maps","name_short":"lon-6","host":"lon-1.uk.uncletopia.com","port":27065,"enabled":true,"region":"eu","cc":"gb","latitude":51.509865,"longitude":-0.118092,"reserved":0,"last_update":"0001-01-01T00:00:00Z","name_a2s":"Uncletopia | London | 6 | All Maps","protocol":17,"map":"koth_lakeside_final","folder":"tf","game":"Team Fortress","app_id":440,"player_count":0,"max_players":24,"Bots":0,"server_type":"Dedicated","server_os":"Linux","password":true,"vac":true,"version":"7961495","steam_id":85568392924742830,"keywords":["cp","nocrits","nodmgspread","uncletopia"],"game_id":440,"stv_port":27066,"stv_name":"Uncletopia | London | 6 | All Maps | STV","players":null},{"server_id":40,"name":"Uncletopia | London | 7 | No Payload","name_short":"lon-7","host":"lon-1.uk.uncletopia.com","port":27075,"enabled":true,"region":"eu","cc":"gb","latitude":51.509865,"longitude":-0.118092,"reserved":0,"last_update":"0001-01-01T00:00:00Z","name_a2s":"Uncletopia | London | 7 | No Payload","protocol":17,"map":"pl_snowycoast","folder":"tf","game":"Team Fortress","app_id":440,"player_count":0,"max_players":24,"Bots":0,"server_type":"Dedicated","server_os":"Linux","password":true,"vac":true,"version":"7961495","steam_id":85568392924964314,"keywords":["nocrits","nodmgspread","payload","uncletopia"],"game_id":440,"stv_port":27076,"stv_name":"Uncletopia | London | 7 | No Payload | STV","players":null},{"server_id":41,"name":"Uncletopia | London | 8 | Community","name_short":"lon-8","host":"lon-1.uk.uncletopia.com","port":27085,"enabled":true,"region":"eu","cc":"gb","latitude":51.509865,"longitude":-0.118092,"reserved":0,"last_update":"0001-01-01T00:00:00Z","name_a2s":"Uncletopia | London | 8 | Community","protocol":17,"map":"koth_viaduct","folder":"tf","game":"Team Fortress","app_id":440,"player_count":0,"max_players":24,"Bots":0,"server_type":"Dedicated","server_os":"Linux","password":true,"vac":true,"version":"7961495","steam_id":85568392924964315,"keywords":["cp","nocrits","nodmgspread","uncletopia"],"game_id":440,"stv_port":27086,"stv_name":"Uncletopia | London | 8 | Community | STV","players":null},{"server_id":300,"name":"Uncletopia | Montr√©al | 1 | All Maps","name_short":"mtl-1","host":"mtl-1.ca.uncletopia.com","port":27015,"enabled":true,"region":"us-east","cc":"ca","latitude":45.50889,"longitude":-73.56167,"reserved":0,"last_update":"0001-01-01T00:00:00Z","name_a2s":"Uncletopia | Montr√©al | 1 | All Maps","protocol":17,"map":"koth_cascade","folder":"tf","game":"Team Fortress","app_id":440,"player_count":0,"max_players":24,"Bots":0,"server_type":"Dedicated","server_os":"Linux","password":true,"vac":true,"version":"7961495","steam_id":85568392924500087,"keywords":["cp","nocrits","nodmgspread","uncletopia"],"game_id":440,"stv_port":27016,"stv_name":"Uncletopia | Montr√©al | 1 | All Maps | STV","players":null},{"server_id":301,"name":"Uncletopia | Montr√©al | 2 | All Maps","name_short":"mtl-2","host":"mtl-1.ca.uncletopia.com","port":27025,"enabled":true,"region":"us-east","cc":"ca","latitude":45.50889,"longitude":-73.56167,"reserved":0,"last_update":"0001-01-01T00:00:00Z","name_a2s":"Uncletopia | Montr√©al | 2 | All Maps","protocol":17,"map":"pl_frontier_final","folder":"tf","game":"Team Fortress","app_id":440,"player_count":0,"max_players":24,"Bots":0,"server_type":"Dedicated","server_os":"Linux","password":true,"vac":true,"version":"7961495","steam_id":85568392924500088,"keywords":["nocrits","nodmgspread","payload","uncletopia"],"game_id":440,"stv_port":27026,"stv_name":"Uncletopia | Montr√©al | 2 | All Maps | STV","players":null},{"server_id":302,"name":"Uncletopia | Montr√©al | 3 | All Maps","name_short":"mtl-3","host":"mtl-1.ca.uncletopia.com","port":27035,"enabled":true,"region":"us-east","cc":"ca","latitude":45.50889,"longitude":-73.56167,"reserved":0,"last_update":"0001-01-01T00:00:00Z","name_a2s":"Uncletopia | Montr√©al | 3 | All Maps","protocol":17,"map":"koth_viaduct","folder":"tf","game":"Team Fortress","app_id":440,"player_count":0,"max_players":24,"Bots":0,"server_type":"Dedicated","server_os":"Linux","password":true,"vac":true,"version":"7961495","steam_id":85568392924500089,"keywords":["cp","nocrits","nodmgspread","uncletopia"],"game_id":440,"stv_port":27036,"stv_name":"Uncletopia | Montr√©al | 3 | All Maps | STV","players":null},{"server_id":303,"name":"Uncletopia | Montr√©al | 4 | No Payload","name_short":"mtl-4","host":"mtl-1.ca.uncletopia.com","port":27045,"enabled":true,"region":"us-east","cc":"ca","latitude":45.50889,"longitude":-73.56167,"reserved":0,"last_update":"0001-01-01T00:00:00Z","name_a2s":"Uncletopia | Montr√©al | 4 | No Payload","protocol":17,"map":"cp_mountainlab","folder":"tf","game":"Team Fortress","app_id":440,"player_count":0,"max_players":24,"Bots":0,"server_type":"Dedicated","server_os":"Linux","password":true,"vac":true,"version":"7961495","steam_id":85568392924500090,"keywords":["cp","nocrits","nodmgspread","uncletopia"],"game_id":440,"stv_port":27046,"stv_name":"Uncletopia | Montr√©al | 4 | No Payload | STV","players":null},{"server_id":13,"name":"Uncletopia | New York City | 1 | All Maps","name_short":"nyc-1","host":"nyc-1.us.uncletopia.com","port":27015,"enabled":true,"region":"us-east","cc":"us","latitude":40.73061,"longitude":-73.93524,"reserved":0,"last_update":"0001-01-01T00:00:00Z","name_a2s":"Uncletopia | New York City | 1 | All Maps","protocol":17,"map":"koth_nucleus","folder":"tf","game":"Team Fortress","app_id":440,"player_count":19,"max_players":24,"Bots":0,"server_type":"Dedicated","server_os":"Linux","password":true,"vac":true,"version":"7961495","steam_id":85568392924469993,"keywords":["cp","nocrits","nodmgspread","uncletopia"],"game_id":440,"stv_port":27016,"stv_name":"Uncletopia | New York City | 1 | All Maps | STV","players":[{"user_id":215,"name":"Two-Teste Tommy","steam_id":76561198064308936,"connected_time":8524000000000,"state":"active","ping":48},{"user_id":304,"name":"Fog Champ","steam_id":76561198120777991,"connected_time":610000000000,"state":"active","ping":45},{"user_id":182,"name":"Spiral Mountain","steam_id":76561198058683715,"connected_time":11739000000000,"state":"active","ping":75},{"user_id":246,"name":"Constellar Nova","steam_id":76561198868215392,"connected_time":5572000000000,"state":"active","ping":59},{"user_id":303,"name":"Luiz","steam_id":76561198225493116,"connected_time":635000000000,"state":"active","ping":174},{"user_id":251,"name":"B.E.L.C.","steam_id":76561198162815864,"connected_time":5369000000000,"state":"active","ping":96},{"user_id":298,"name":"Pixel","steam_id":76561198129243055,"connected_time":1019000000000,"state":"active","ping":65},{"user_id":292,"name":"Doofenshmirtz Evil Inc.","steam_id":76561198439793697,"connected_time":1505000000000,"state":"active","ping":86},{"user_id":305,"name":"Dumpster Fire Fortress 2","steam_id":76561197984325644,"connected_time":225000000000,"state":"active","ping":68},{"user_id":306,"name":"IanFishooks","steam_id":76561199403427527,"connected_time":120000000000,"state":"active","ping":74},{"user_id":268,"name":"Josh Odyssey","steam_id":76561198416576291,"connected_time":4101000000000,"state":"active","ping":98},{"user_id":252,"name":"Dorito","steam_id":76561198086609717,"connected_time":5341000000000,"state":"active","ping":85},{"user_id":275,"name":"DistantJragon","steam_id":76561198117563641,"connected_time":3604000000000,"state":"active","ping":71},{"user_id":294,"name":"CORGI.EXE","steam_id":76561198077093432,"connected_time":1374000000000,"state":"active","ping":48},{"user_id":296,"name":"Zero","steam_id":76561198033384990,"connected_time":1266000000000,"state":"active","ping":59},{"user_id":297,"name":"Plan \"E=mc^2\"","steam_id":76561198170688507,"connected_time":1104000000000,"state":"active","ping":70},{"user_id":278,"name":"nori_420","steam_id":76561199117134203,"connected_time":3136000000000,"state":"active","ping":129},{"user_id":281,"name":"Violent Cheesestring","steam_id":76561198381005105,"connected_time":2751000000000,"state":"active","ping":98},{"user_id":259,"name":"monkeycake","steam_id":76561198272061915,"connected_time":5145000000000,"state":"active","ping":65}]},{"server_id":14,"name":"Uncletopia | New York City | 2 | All Maps","name_short":"nyc-2","host":"nyc-1.us.uncletopia.com","port":27025,"enabled":true,"region":"us-east","cc":"us","latitude":40.73061,"longitude":-73.93524,"reserved":0,"last_update":"0001-01-01T00:00:00Z","name_a2s":"Uncletopia | New York City | 2 | All Maps","protocol":17,"map":"pl_snowycoast","folder":"tf","game":"Team Fortress","app_id":440,"player_count":24,"max_players":24,"Bots":0,"server_type":"Dedicated","server_os":"Linux","password":true,"vac":true,"version":"7961495","steam_id":85568392924469994,"keywords":["nocrits","nodmgspread","payload","uncletopia"],"game_id":440,"stv_port":27026,"stv_name":"Uncletopia | New York City | 2 | All Maps | STV","players":[{"user_id":266,"name":"Terror-Billy #SaveTF2","steam_id":76561198328141870,"connected_time":3978000000000,"state":"active","ping":64},{"user_id":307,"name":"meowfang","steam_id":76561198123056791,"connected_time":1136000000000,"state":"active","ping":46},{"user_id":301,"name":"OldManHenderson1976","steam_id":76561198148713751,"connected_time":1434000000000,"state":"active","ping":92},{"user_id":293,"name":"zuna","steam_id":76561199038981515,"connected_time":2142000000000,"state":"active","ping":106},{"user_id":302,"name":"GaydsIdit","steam_id":76561198827963575,"connected_time":1418000000000,"state":"active","ping":46},{"user_id":285,"name":"Tri_Hunter","steam_id":76561198108176706,"connected_time":2487000000000,"state":"active","ping":56},{"user_id":251,"name":"keffers","steam_id":76561198202338796,"connected_time":5440000000000,"state":"active","ping":92},{"user_id":304,"name":"Shadoe","steam_id":76561198218577281,"connected_time":1249000000000,"state":"active","ping":61},{"user_id":305,"name":"bluefoxx118","steam_id":76561198182884975,"connected_time":1244000000000,"state":"active","ping":72},{"user_id":313,"name":"popcorncr007","steam_id":76561199142921327,"connected_time":765000000000,"state":"active","ping":120},{"user_id":306,"name":"Cmoon99999","steam_id":76561198928412604,"connected_time":1231000000000,"state":"active","ping":82},{"user_id":308,"name":"BigNugs","steam_id":76561198056402610,"connected_time":1120000000000,"state":"active","ping":85},{"user_id":300,"name":"gIBBY","steam_id":76561198080099598,"connected_time":1562000000000,"state":"active","ping":37},{"user_id":277,"name":"Chaffy2125","steam_id":76561198232839260,"connected_time":3330000000000,"state":"active","ping":125},{"user_id":318,"name":"Maxxycat","steam_id":76561198194062681,"connected_time":310000000000,"state":"active","ping":72},{"user_id":314,"name":"raw.dotdotdot","steam_id":76561198033033884,"connected_time":738000000000,"state":"active","ping":56},{"user_id":287,"name":"King of Ping","steam_id":76561198278737470,"connected_time":2418000000000,"state":"active","ping":54},{"user_id":309,"name":"Â¶ÇÈ°ò","steam_id":76561198038486613,"connected_time":1086000000000,"state":"active","ping":46},{"user_id":317,"name":"Tots","steam_id":76561198027485007,"connected_time":381000000000,"state":"active","ping":75},{"user_id":257,"name":"A Puppy","steam_id":76561198828184456,"connected_time":4794000000000,"state":"active","ping":47},{"user_id":294,"name":"DogMan223","steam_id":76561198258561365,"connected_time":2021000000000,"state":"active","ping":56},{"user_id":315,"name":"Sprinklingmydoughnut","steam_id":76561198168009092,"connected_time":677000000000,"state":"active","ping":86},{"user_id":256,"name":"Teepawt","steam_id":76561198383835469,"connected_time":4797000000000,"state":"active","ping":81},{"user_id":295,"name":"Tay1Qr","steam_id":76561198082809935,"connected_time":1953000000000,"state":"active","ping":62}]},{"server_id":15,"name":"Uncletopia | New York City | 3 | Stopwatch Beta","name_short":"nyc-3","host":"nyc-1.us.uncletopia.com","port":27035,"enabled":true,"region":"us-east","cc":"us","latitude":40.73061,"longitude":-73.93524,"reserved":0,"last_update":"0001-01-01T00:00:00Z","name_a2s":"Uncletopia | New York City | 3 | Stopwatch Beta","protocol":17,"map":"workshop/pl_badwater_pro_v12.ugc2142942074","folder":"tf","game":"Team Fortress","app_id":440,"player_count":0,"max_players":24,"Bots":0,"server_type":"Dedicated","server_os":"Linux","password":true,"vac":true,"version":"7961495","steam_id":85568392924742820,"keywords":["nocrits","nodmgspread","payload","uncletopia"],"game_id":440,"stv_port":27036,"stv_name":"Uncletopia | New York City | 3 | Stopwatch Beta | STV","players":null},{"server_id":16,"name":"Uncletopia | New York City | 4 | Community","name_short":"nyc-4","host":"nyc-1.us.uncletopia.com","port":27045,"enabled":true,"region":"us-east","cc":"us","latitude":40.73061,"longitude":-73.93524,"reserved":0,"last_update":"0001-01-01T00:00:00Z","name_a2s":"Uncletopia | New York City | 4 | Community","protocol":17,"map":"workshop/pl_corrode_rc2.ugc546577989","folder":"tf","game":"Team Fortress","app_id":440,"player_count":0,"max_players":24,"Bots":0,"server_type":"Dedicated","server_os":"Linux","password":true,"vac":true,"version":"7961495","steam_id":85568392924742821,"keywords":["nocrits","nodmgspread","payload","uncletopia"],"game_id":440,"stv_port":27046,"stv_name":"Uncletopia | New York City | 4 | Community | STV","players":null},{"server_id":142,"name":"Uncletopia | S√£o Paulo | 1 | All Maps","name_short":"sao-1","host":"sao-1.br.uncletopia.com","port":27015,"enabled":true,"region":"sa","cc":"br","latitude":-23.533773,"longitude":-46.62529,"reserved":0,"last_update":"0001-01-01T00:00:00Z","name_a2s":"Uncletopia | S√£o Paulo | 1 | All Maps","protocol":17,"map":"cp_process_final","folder":"tf","game":"Team Fortress","app_id":440,"player_count":0,"max_players":24,"Bots":0,"server_type":"Dedicated","server_os":"Linux","password":true,"vac":true,"version":"7961495","steam_id":85568392924469996,"keywords":["cp","nocrits","nodmgspread","uncletopia"],"game_id":440,"stv_port":27016,"stv_name":"Uncletopia | S√£o Paulo | 1 | All Maps | STV","players":null},{"server_id":143,"name":"Uncletopia | S√£o Paulo | 2 | All Maps","name_short":"sao-2","host":"sao-2.br.uncletopia.com","port":27015,"enabled":true,"region":"sa","cc":"br","latitude":-23.533773,"longitude":-46.62529,"reserved":0,"last_update":"0001-01-01T00:00:00Z","name_a2s":"Uncletopia | S√£o Paulo | 2 | All Maps","protocol":17,"map":"koth_lakeside_final","folder":"tf","game":"Team Fortress","app_id":440,"player_count":0,"max_players":24,"Bots":0,"server_type":"Dedicated","server_os":"Linux","password":true,"vac":true,"version":"7961495","steam_id":85568392924485349,"keywords":["cp","nocrits","nodmgspread","uncletopia"],"game_id":440,"stv_port":27016,"stv_name":"Uncletopia | S√£o Paulo | 2 | All Maps | STV","players":null},{"server_id":7,"name":"Uncletopia | Seattle | 1 | All Maps","name_short":"sea-1","host":"sea-1.us.uncletopia.com","port":27015,"enabled":true,"region":"us-west","cc":"us","latitude":47.608013,"longitude":-122.33517,"reserved":0,"last_update":"0001-01-01T00:00:00Z","name_a2s":"Uncletopia | Seattle | 1 | All Maps","protocol":17,"map":"pl_borneo","folder":"tf","game":"Team Fortress","app_id":440,"player_count":24,"max_players":24,"Bots":0,"server_type":"Dedicated","server_os":"Linux","password":true,"vac":true,"version":"7961495","steam_id":85568392924469997,"keywords":["nocrits","nodmgspread","payload","uncletopia"],"game_id":440,"stv_port":27016,"stv_name":"Uncletopia | Seattle | 1 | All Maps | STV","players":[{"user_id":285,"name":"Escher","steam_id":76561198045058061,"connected_time":2620000000000,"state":"active","ping":33},{"user_id":306,"name":"thunderous prophet","steam_id":76561198131166135,"connected_time":1043000000000,"state":"active","ping":38},{"user_id":295,"name":"Luca","steam_id":76561198125087140,"connected_time":2349000000000,"state":"active","ping":46},{"user_id":300,"name":"Lily Thorn","steam_id":76561198305488625,"connected_time":1586000000000,"state":"active","ping":71},{"user_id":307,"name":"Teddy","steam_id":76561198048106221,"connected_time":614000000000,"state":"active","ping":92},{"user_id":286,"name":"RagingRoosevelt","steam_id":76561197985483153,"connected_time":2591000000000,"state":"active","ping":47},{"user_id":215,"name":"Mr. Carfox","steam_id":76561198041664428,"connected_time":5411000000000,"state":"active","ping":90},{"user_id":304,"name":"MyMonkeyBaby","steam_id":76561198046896670,"connected_time":1187000000000,"state":"active","ping":59},{"user_id":305,"name":"Breadman","steam_id":76561198097979919,"connected_time":1047000000000,"state":"active","ping":76},{"user_id":287,"name":"rusofdog","steam_id":76561198411224235,"connected_time":2589000000000,"state":"active","ping":107},{"user_id":288,"name":"Major_Pippy","steam_id":76561198004482878,"connected_time":2579000000000,"state":"active","ping":54},{"user_id":289,"name":"el muchacho","steam_id":76561198282632562,"connected_time":2579000000000,"state":"active","ping":115},{"user_id":290,"name":"Za Zombie","steam_id":76561198055545262,"connected_time":2574000000000,"state":"active","ping":90},{"user_id":231,"name":"Ayayayayayahuasca","steam_id":76561199002906056,"connected_time":4289000000000,"state":"active","ping":50},{"user_id":299,"name":"tehp","steam_id":76561198056411914,"connected_time":1658000000000,"state":"active","ping":56},{"user_id":292,"name":"lukamine","steam_id":76561198166827208,"connected_time":2506000000000,"state":"active","ping":57},{"user_id":293,"name":"rat gets the cheese","steam_id":76561198031234032,"connected_time":2505000000000,"state":"active","ping":132},{"user_id":213,"name":"Dental Fixation","steam_id":76561198103189993,"connected_time":5515000000000,"state":"active","ping":77},{"user_id":249,"name":"Grungus Mode","steam_id":76561198271939793,"connected_time":3226000000000,"state":"active","ping":53},{"user_id":303,"name":"Res Ipsa","steam_id":76561198041349210,"connected_time":1240000000000,"state":"active","ping":74},{"user_id":234,"name":"smeasly","steam_id":76561198028718812,"connected_time":4215000000000,"state":"active","ping":43},{"user_id":159,"name":"BolognaWithOlives","steam_id":76561198101262668,"connected_time":12318000000000,"state":"active","ping":84},{"user_id":208,"name":"lusty","steam_id":76561198138478947,"connected_time":6312000000000,"state":"active","ping":43},{"user_id":297,"name":"level 7 firemancer","steam_id":76561198209571677,"connected_time":2184000000000,"state":"active","ping":123}]},{"server_id":119,"name":"Uncletopia | Seattle | 2 | All Maps","name_short":"sea-2","host":"sea-1.us.uncletopia.com","port":27025,"enabled":true,"region":"us-west","cc":"us","latitude":47.608013,"longitude":-122.33517,"reserved":0,"last_update":"0001-01-01T00:00:00Z","name_a2s":"Uncletopia | Seattle | 2 | All Maps","protocol":17,"map":"plr_hightower","folder":"tf","game":"Team Fortress","app_id":440,"player_count":24,"max_players":24,"Bots":0,"server_type":"Dedicated","server_os":"Linux","password":true,"vac":true,"version":"7961495","steam_id":85568392924469998,"keywords":["nocrits","nodmgspread","payload","uncletopia"],"game_id":440,"stv_port":27026,"stv_name":"Uncletopia | Seattle | 2 | All Maps | STV","players":[{"user_id":275,"name":"simcye","steam_id":76561198010991761,"connected_time":1232000000000,"state":"active","ping":45},{"user_id":289,"name":"WaveJumper","steam_id":76561197972509380,"connected_time":320000000000,"state":"active","ping":40},{"user_id":290,"name":"delight","steam_id":76561197980280272,"connected_time":30000000000,"state":"active","ping":45},{"user_id":278,"name":"Mint Widget","steam_id":76561198036875245,"connected_time":1157000000000,"state":"active","ping":65},{"user_id":277,"name":"Lemon Luke","steam_id":76561199141696546,"connected_time":1172000000000,"state":"active","ping":120},{"user_id":251,"name":"‡πá","steam_id":76561198067666595,"connected_time":3732000000000,"state":"active","ping":45},{"user_id":283,"name":"M4li365","steam_id":76561198387796435,"connected_time":596000000000,"state":"active","ping":80},{"user_id":241,"name":"InterplanetaryGentlemann","steam_id":76561198146559390,"connected_time":4449000000000,"state":"active","ping":51},{"user_id":237,"name":"poggerchamp","steam_id":76561199145124973,"connected_time":4658000000000,"state":"active","ping":117},{"user_id":259,"name":"mmmBoyo","steam_id":76561198821360261,"connected_time":2429000000000,"state":"active","ping":51},{"user_id":282,"name":"OHMYGODRONNY","steam_id":76561198148749332,"connected_time":617000000000,"state":"active","ping":94},{"user_id":272,"name":"Billllll","steam_id":76561198890977970,"connected_time":1658000000000,"state":"active","ping":71},{"user_id":279,"name":"jsmith70","steam_id":76561197989298003,"connected_time":1149000000000,"state":"active","ping":76},{"user_id":286,"name":"Omega4D2","steam_id":76561198044097128,"connected_time":513000000000,"state":"active","ping":115},{"user_id":192,"name":"2Fort Cactus","steam_id":76561199273395913,"connected_time":7787000000000,"state":"active","ping":55},{"user_id":280,"name":"Fire_box41238","steam_id":76561199185673650,"connected_time":1139000000000,"state":"active","ping":55},{"user_id":256,"name":"crumblejon","steam_id":76561198111273302,"connected_time":2882000000000,"state":"active","ping":69},{"user_id":262,"name":"benji","steam_id":76561198084417967,"connected_time":2369000000000,"state":"active","ping":73},{"user_id":257,"name":"Diablo 4 Memory Leak","steam_id":76561198041329791,"connected_time":2863000000000,"state":"active","ping":70},{"user_id":274,"name":"Phantz","steam_id":76561198157816594,"connected_time":1393000000000,"state":"active","ping":59},{"user_id":285,"name":"mub","steam_id":76561197961943948,"connected_time":537000000000,"state":"active","ping":49},{"user_id":266,"name":"Day Man","steam_id":76561198067154807,"connected_time":2028000000000,"state":"active","ping":50},{"user_id":287,"name":"LipLya","steam_id":76561198078386761,"connected_time":502000000000,"state":"active","ping":42},{"user_id":288,"name":"reiidaya","steam_id":76561198325306660,"connected_time":392000000000,"state":"active","ping":58}]},{"server_id":406,"name":"Uncletopia | Seattle | 3 | Stopwatch Beta","name_short":"sea-3","host":"sea-1.us.uncletopia.com","port":27035,"enabled":true,"region":"us-west","cc":"us","latitude":47.608013,"longitude":-122.33517,"reserved":0,"last_update":"0001-01-01T00:00:00Z","name_a2s":"Uncletopia | Seattle | 3 | Stopwatch Beta","protocol":17,"map":"pl_swiftwater_final1","folder":"tf","game":"Team Fortress","app_id":440,"player_count":0,"max_players":24,"Bots":0,"server_type":"Dedicated","server_os":"Linux","password":true,"vac":true,"version":"7961495","steam_id":85568392924515217,"keywords":["nocrits","nodmgspread","payload","uncletopia"],"game_id":440,"stv_port":27036,"stv_name":"Uncletopia | Seattle | 3 | Stopwatch Beta | STV","players":null},{"server_id":17,"name":"Uncletopia | San Francisco | 1 | All Maps","name_short":"sfo-1","host":"sfo-1.us.uncletopia.com","port":27015,"enabled":true,"region":"us-west","cc":"us","latitude":37.77397,"longitude":-122.4313,"reserved":0,"last_update":"0001-01-01T00:00:00Z","name_a2s":"Uncletopia | San Francisco | 1 | All Maps","protocol":17,"map":"pl_frontier_final","folder":"tf","game":"Team Fortress","app_id":440,"player_count":0,"max_players":24,"Bots":0,"server_type":"Dedicated","server_os":"Linux","password":true,"vac":true,"version":"7932396","steam_id":85568392924469999,"keywords":["nocrits","nodmgspread","payload","uncletopia"],"game_id":440,"stv_port":27016,"stv_name":"Uncletopia | San Francisco | 1 | All Maps | STV","players":null},{"server_id":18,"name":"Uncletopia | San Francisco | 2 | All Maps","name_short":"sfo-2","host":"sfo-1.us.uncletopia.com","port":27025,"enabled":true,"region":"us-west","cc":"us","latitude":37.77397,"longitude":-122.4313,"reserved":0,"last_update":"0001-01-01T00:00:00Z","name_a2s":"Uncletopia | San Francisco | 2 | All Maps","protocol":17,"map":"cp_snakewater_final1","folder":"tf","game":"Team Fortress","app_id":440,"player_count":0,"max_players":24,"Bots":0,"server_type":"Dedicated","server_os":"Linux","password":true,"vac":true,"version":"7932396","steam_id":85568392924470000,"keywords":["cp","nocrits","nodmgspread","uncletopia"],"game_id":440,"stv_port":27026,"stv_name":"Uncletopia | San Francisco | 2 | All Maps | STV","players":null},{"server_id":19,"name":"Uncletopia | San Francisco | 3 | Stopwatch Beta","name_short":"sfo-3","host":"sfo-1.us.uncletopia.com","port":27035,"enabled":true,"region":"us-west","cc":"us","latitude":37.77397,"longitude":-122.4313,"reserved":0,"last_update":"0001-01-01T00:00:00Z","name_a2s":"Uncletopia | San Francisco | 3 | Stopwatch Beta","protocol":17,"map":"koth_lakeside_final","folder":"tf","game":"Team Fortress","app_id":440,"player_count":0,"max_players":24,"Bots":0,"server_type":"Dedicated","server_os":"Linux","password":true,"vac":true,"version":"7932396","steam_id":85568392924742824,"keywords":["cp","nocrits","nodmgspread","uncletopia"],"game_id":440,"stv_port":27036,"stv_name":"Uncletopia | San Francisco | 3 | Stopwatch Beta | STV","players":null},{"server_id":20,"name":"Uncletopia | San Francisco | 4 | Community","name_short":"sfo-4","host":"sfo-1.us.uncletopia.com","port":27045,"enabled":true,"region":"us-west","cc":"us","latitude":37.77397,"longitude":-122.4313,"reserved":0,"last_update":"0001-01-01T00:00:00Z","name_a2s":"Uncletopia | San Francisco | 4 | Community","protocol":17,"map":"pl_borneo","folder":"tf","game":"Team Fortress","app_id":440,"player_count":0,"max_players":24,"Bots":0,"server_type":"Dedicated","server_os":"Linux","password":true,"vac":true,"version":"7932396","steam_id":85568392924742826,"keywords":["nocrits","nodmgspread","payload","uncletopia"],"game_id":440,"stv_port":27046,"stv_name":"Uncletopia | San Francisco | 4 | Community | STV","players":null},{"server_id":141,"name":"Uncletopia | Sydney | 1 | All Maps","name_short":"syd-1","host":"syd-1.au.uncletopia.com","port":27015,"enabled":true,"region":"au","cc":"au","latitude":-33.865143,"longitude":151.2099,"reserved":0,"last_update":"0001-01-01T00:00:00Z","name_a2s":"Uncletopia | Sydney | 1 | All Maps","protocol":17,"map":"pl_upward","folder":"tf","game":"Team Fortress","app_id":440,"player_count":24,"max_players":24,"Bots":0,"server_type":"Dedicated","server_os":"Linux","password":true,"vac":true,"version":"7961495","steam_id":85568392924470001,"keywords":["nocrits","nodmgspread","payload","uncletopia"],"game_id":440,"stv_port":27016,"stv_name":"Uncletopia | Sydney | 1 | All Maps | STV","players":[{"user_id":59,"name":"dreamydoggy","steam_id":76561198448243169,"connected_time":946000000000,"state":"active","ping":62},{"user_id":41,"name":"ÊÑõ H O L  L O W ÊÑõ","steam_id":76561199171553707,"connected_time":1780000000000,"state":"active","ping":71},{"user_id":62,"name":"RAINY","steam_id":76561198009848533,"connected_time":91000000000,"state":"active","ping":51},{"user_id":60,"name":"Original Glazed (Krispy/Kreme)","steam_id":76561197997362731,"connected_time":649000000000,"state":"active","ping":45},{"user_id":25,"name":"‚ô™.jv","steam_id":76561198267475132,"connected_time":2409000000000,"state":"active","ping":54},{"user_id":14,"name":"Edgar's can't be choosers","steam_id":76561198301282416,"connected_time":3065000000000,"state":"active","ping":54},{"user_id":15,"name":"modus","steam_id":76561198025099660,"connected_time":3056000000000,"state":"active","ping":34},{"user_id":34,"name":"qeuvl","steam_id":76561198170727659,"connected_time":1936000000000,"state":"active","ping":75},{"user_id":31,"name":"Sentry Gun (EpicGuy4227)","steam_id":76561198094132328,"connected_time":2194000000000,"state":"active","ping":55},{"user_id":18,"name":"anti-fun activist","steam_id":76561198048064049,"connected_time":2942000000000,"state":"active","ping":88},{"user_id":26,"name":"Frog Friend","steam_id":76561198054505772,"connected_time":2337000000000,"state":"active","ping":62},{"user_id":61,"name":"Didgereedank","steam_id":76561198043068128,"connected_time":102000000000,"state":"active","ping":29},{"user_id":24,"name":"Nintendo wii","steam_id":76561199387777495,"connected_time":2715000000000,"state":"active","ping":64},{"user_id":27,"name":"canned tuna","steam_id":76561198420727269,"connected_time":2305000000000,"state":"active","ping":44},{"user_id":29,"name":"Chez","steam_id":76561198089925051,"connected_time":2263000000000,"state":"active","ping":95},{"user_id":30,"name":"pigeon","steam_id":76561198135180841,"connected_time":2260000000000,"state":"active","ping":45},{"user_id":63,"name":"Esiotrot101","steam_id":76561199017575950,"connected_time":62000000000,"state":"active","ping":59},{"user_id":37,"name":"wrenched creature","steam_id":76561198055239632,"connected_time":1894000000000,"state":"active","ping":90},{"user_id":36,"name":"Gay Ass Cat","steam_id":76561198360222919,"connected_time":1904000000000,"state":"active","ping":64},{"user_id":38,"name":"monkeyman536","steam_id":76561197997717737,"connected_time":1888000000000,"state":"active","ping":171},{"user_id":43,"name":"HazDaddySlim","steam_id":76561198140262325,"connected_time":1719000000000,"state":"active","ping":59},{"user_id":46,"name":"tenten","steam_id":76561198402822072,"connected_time":1485000000000,"state":"active","ping":92},{"user_id":52,"name":"Atlas","steam_id":76561198069332870,"connected_time":1324000000000,"state":"active","ping":46},{"user_id":56,"name":"Walter Hartwell White","steam_id":76561199349413029,"connected_time":1037000000000,"state":"active","ping":61}]},{"server_id":123,"name":"Uncletopia | Sydney | 2 | All Maps","name_short":"syd-2","host":"syd-1.au.uncletopia.com","port":27025,"enabled":true,"region":"au","cc":"au","latitude":-33.865143,"longitude":151.2099,"reserved":0,"last_update":"0001-01-01T00:00:00Z","name_a2s":"Uncletopia | Sydney | 2 | All Maps","protocol":17,"map":"koth_viaduct","folder":"tf","game":"Team Fortress","app_id":440,"player_count":0,"max_players":24,"Bots":0,"server_type":"Dedicated","server_os":"Linux","password":true,"vac":true,"version":"7961495","steam_id":85568392924470002,"keywords":["cp","nocrits","nodmgspread","uncletopia"],"game_id":440,"stv_port":27026,"stv_name":"Uncletopia | Sydney | 2 | All Maps | STV","players":null},{"server_id":395,"name":"Uncletopia | Sydney | 3 | All Maps","name_short":"syd-3","host":"syd-1.au.uncletopia.com","port":27035,"enabled":true,"region":"au","cc":"au","latitude":-33.865143,"longitude":151.2099,"reserved":0,"last_update":"0001-01-01T00:00:00Z","name_a2s":"Uncletopia | Sydney | 3 | All Maps","protocol":17,"map":"cp_dustbowl","folder":"tf","game":"Team Fortress","app_id":440,"player_count":0,"max_players":24,"Bots":0,"server_type":"Dedicated","server_os":"Linux","password":true,"vac":true,"version":"7961495","steam_id":85568392925194467,"keywords":["cp","nocrits","nodmgspread","uncletopia"],"game_id":440,"stv_port":27036,"stv_name":"Uncletopia | Sydney | 3 | All Maps | STV","players":null},{"server_id":396,"name":"Uncletopia | Sydney | 4 | All Maps","name_short":"syd-4","host":"syd-1.au.uncletopia.com","port":27045,"enabled":true,"region":"au","cc":"au","latitude":-33.865143,"longitude":151.2099,"reserved":0,"last_update":"0001-01-01T00:00:00Z","name_a2s":"Uncletopia | Sydney | 4 | All Maps","protocol":17,"map":"koth_cascade","folder":"tf","game":"Team Fortress","app_id":440,"player_count":0,"max_players":24,"Bots":0,"server_type":"Dedicated","server_os":"Linux","password":true,"vac":true,"version":"7961495","steam_id":85568392925397958,"keywords":["cp","nocrits","nodmgspread","uncletopia"],"game_id":440,"stv_port":27046,"stv_name":"Uncletopia | Sydney | 4 | All Maps | STV","players":null},{"server_id":58,"name":"Uncletopia | Sydney | 5 | Stopwatch Beta","name_short":"syd-5","host":"syd-1.au.uncletopia.com","port":27055,"enabled":true,"region":"au","cc":"au","latitude":-33.865143,"longitude":151.2099,"reserved":0,"last_update":"0001-01-01T00:00:00Z","name_a2s":"Uncletopia | Sydney | 5 | Stopwatch Beta","protocol":17,"map":"koth_viaduct","folder":"tf","game":"Team Fortress","app_id":440,"player_count":0,"max_players":24,"Bots":0,"server_type":"Dedicated","server_os":"Linux","password":true,"vac":true,"version":"7961495","steam_id":85568392925397959,"keywords":["cp","nocrits","nodmgspread","uncletopia"],"game_id":440,"stv_port":27056,"stv_name":"Uncletopia | Sydney | 5 | Stopwatch Beta | STV","players":null},{"server_id":59,"name":"Uncletopia | Sydney | 6 | Community","name_short":"syd-6","host":"syd-1.au.uncletopia.com","port":27065,"enabled":true,"region":"au","cc":"au","latitude":-33.865143,"longitude":151.2099,"reserved":0,"last_update":"0001-01-01T00:00:00Z","name_a2s":"Uncletopia | Sydney | 6 | Community","protocol":17,"map":"pl_barnblitz","folder":"tf","game":"Team Fortress","app_id":440,"player_count":0,"max_players":24,"Bots":0,"server_type":"Dedicated","server_os":"Linux","password":true,"vac":true,"version":"7961495","steam_id":85568392925397960,"keywords":["nocrits","nodmgspread","payload","uncletopia"],"game_id":440,"stv_port":27066,"stv_name":"Uncletopia | Sydney | 6 | Community | STV","players":null},{"server_id":49,"name":"Uncletopia | Warsaw | 1 | All Maps","name_short":"waw-1","host":"waw-1.pl.uncletopia.com","port":27015,"enabled":true,"region":"eu","cc":"pl","latitude":52.2297,"longitude":21.017532,"reserved":0,"last_update":"0001-01-01T00:00:00Z","name_a2s":"","protocol":0,"map":"","folder":"","game":"","app_id":0,"player_count":0,"max_players":0,"Bots":0,"server_type":"","server_os":"","password":false,"vac":false,"version":"","steam_id":0,"keywords":null,"game_id":0,"stv_port":0,"stv_name":"","players":null},{"server_id":50,"name":"Uncletopia | Warsaw | 2 | All Maps","name_short":"waw-2","host":"waw-1.pl.uncletopia.com","port":27025,"enabled":true,"region":"eu","cc":"pl","latitude":52.2297,"longitude":21.017532,"reserved":0,"last_update":"0001-01-01T00:00:00Z","name_a2s":"Uncletopia | Warsaw | 2 | All Maps","protocol":17,"map":"cp_mountainlab","folder":"tf","game":"Team Fortress","app_id":440,"player_count":0,"max_players":24,"Bots":0,"server_type":"Dedicated","server_os":"Linux","password":true,"vac":true,"version":"7961495","steam_id":85568392925397851,"keywords":["cp","nocrits","nodmgspread","uncletopia"],"game_id":440,"stv_port":27026,"stv_name":"Uncletopia | Warsaw | 2 | All Maps | STV","players":null},{"server_id":51,"name":"Uncletopia | Warsaw | 3 | All Maps","name_short":"waw-3","host":"waw-1.pl.uncletopia.com","port":27035,"enabled":true,"region":"eu","cc":"pl","latitude":52.2297,"longitude":21.017532,"reserved":0,"last_update":"0001-01-01T00:00:00Z","name_a2s":"Uncletopia | Warsaw | 3 | All Maps","protocol":17,"map":"pl_barnblitz","folder":"tf","game":"Team Fortress","app_id":440,"player_count":0,"max_players":24,"Bots":0,"server_type":"Dedicated","server_os":"Linux","password":true,"vac":true,"version":"7961495","steam_id":85568392925397852,"keywords":["nocrits","nodmgspread","payload","uncletopia"],"game_id":440,"stv_port":27036,"stv_name":"Uncletopia | Warsaw | 3 | All Maps | STV","players":null},{"server_id":52,"name":"Uncletopia | Warsaw | 4 | All Maps","name_short":"waw-4","host":"waw-1.pl.uncletopia.com","port":27045,"enabled":true,"region":"eu","cc":"pl","latitude":52.2297,"longitude":21.017532,"reserved":0,"last_update":"0001-01-01T00:00:00Z","name_a2s":"Uncletopia | Warsaw | 4 | All Maps","protocol":17,"map":"cp_dustbowl","folder":"tf","game":"Team Fortress","app_id":440,"player_count":0,"max_players":24,"Bots":0,"server_type":"Dedicated","server_os":"Linux","password":true,"vac":true,"version":"7961495","steam_id":85568392925397853,"keywords":["cp","nocrits","nodmgspread","uncletopia"],"game_id":440,"stv_port":27046,"stv_name":"Uncletopia | Warsaw | 4 | All Maps | STV","players":null},{"server_id":53,"name":"Uncletopia | Warsaw | 5 | Stopwatch Beta","name_short":"waw-5","host":"waw-1.pl.uncletopia.com","port":27055,"enabled":true,"region":"eu","cc":"pl","latitude":52.2297,"longitude":21.017532,"reserved":0,"last_update":"0001-01-01T00:00:00Z","name_a2s":"Uncletopia | Warsaw | 5 | Stopwatch Beta","protocol":17,"map":"pl_snowycoast","folder":"tf","game":"Team Fortress","app_id":440,"player_count":0,"max_players":24,"Bots":0,"server_type":"Dedicated","server_os":"Linux","password":true,"vac":true,"version":"7961495","steam_id":85568392925397854,"keywords":["nocrits","nodmgspread","payload","uncletopia"],"game_id":440,"stv_port":27056,"stv_name":"Uncletopia | Warsaw | 5 | Stopwatch Beta | STV","players":null},{"server_id":54,"name":"Uncletopia | Warsaw | 6 | Community","name_short":"waw-6","host":"waw-1.pl.uncletopia.com","port":27065,"enabled":true,"region":"eu","cc":"pl","latitude":52.2297,"longitude":21.017532,"reserved":0,"last_update":"0001-01-01T00:00:00Z","name_a2s":"Uncletopia | Warsaw | 6 | Community","protocol":17,"map":"pl_borneo","folder":"tf","game":"Team Fortress","app_id":440,"player_count":0,"max_players":24,"Bots":0,"server_type":"Dedicated","server_os":"Linux","password":true,"vac":true,"version":"7961495","steam_id":85568392925397856,"keywords":["nocrits","nodmgspread","payload","uncletopia"],"game_id":440,"stv_port":27066,"stv_name":"Uncletopia | Warsaw | 6 | Community | STV","players":null}]}