{"status":true,"message":"","result":[{"server_id":9,"name":"Uncletopia | Atlanta | 1 | All Maps","name_short":"atl-1","host":"atl-1.us.uncletopia.com","port":27015,"enabled":true,"region":"us-east","cc":"us","latitude":33.753746,"longitude":-84.38633,"reserved":0,"last_update":"0001-01-01T00:00:00Z","name_a2s":"Uncletopia | Atlanta | 1 | All Maps","protocol":17,"map":"pl_barnblitz","folder":"tf","game":"Team Fortress","app_id":440,"player_count":24,"max_players":24,"Bots":0,"server_type":"Dedicated","server_os":"Linux","password":true,"vac":true,"version":"7757534","steam_id":85568392924469982,"keywords":["nocrits","nodmgspread","payload","uncletopia"],"game_id":440,"stv_port":27016,"stv_name":"Uncletopia | Atlanta | 1 | All Maps | STV","players":[{"user_id":236,"name":"FemboyNate","steam_id":76561198146636410,"connected_time":1678000000000,"state":"active","ping":61},{"user_id":223,"name":"cass","steam_id":76561198074502046,"connected_time":2440000000000,"state":"active","ping":57},{"user_id":245,"name":"bingle","steam_id":76561198359413453,"connected_time":1184000000000,"state":"active","ping":75},{"user_id":233,"name":"Rockhead","steam_id":76561197995196535,"connected_time":1956000000000,"state":"active","ping":70},{"user_id":244,"name":"fortnite.jimmy.2014","steam_id":76561199177672325,"connected_time":1273000000000,"state":"active","ping":61},{"user_id":218,"name":"King Baldski","steam_id":76561198359568400,"connected_time":2647000000000,"state":"active","ping":135},{"user_id":254,"name":"Ashes!","steam_id":76561197998475441,"connected_time":812000000000,"state":"active","ping":90},{"user_id":259,"name":"the man of coom bob","steam_id":76561199082474364,"connected_time":174000000000,"state":"active","ping":69},{"user_id":219,"name":"tandemaus","steam_id":76561198364713633,"connected_time":2647000000000,"state":"active","ping":76},{"user_id":247,"name":"Yeagle","steam_id":76561199086620299,"connected_time":1169000000000,"state":"active","ping":69},{"user_id":242,"name":".TutorWade","steam_id":76561199036099287,"connected_time":1297000000000,"state":"active","ping":55},{"user_id":248,"name":"Jolly","steam_id":76561198381749192,"connected_time":1161000000000,"state":"active","ping":91},{"user_id":249,"name":"Spha","steam_id":76561198796297800,"connected_time":1160000000000,"state":"active","ping":90},{"user_id":239,"name":"ferretgamer","steam_id":76561198880523320,"connected_time":1397000000000,"state":"active","ping":83},{"user_id":260,"name":"Topper","steam_id":76561198033547563,"connected_time":96000000000,"state":"active","ping":80},{"user_id":243,"name":"Malice.","steam_id":76561198970099904,"connected_time":1285000000000,"state":"active","ping":75},{"user_id":190,"name":"Black Hole Sus (Amongus)","steam_id":76561198006261751,"connected_time":4816000000000,"state":"active","ping":62},{"user_id":261,"name":"Lorelius Hogglefart","steam_id":76561198449527009,"connected_time":21000000000,"state":"active","ping":80},{"user_id":237,"name":"AwakeShark","steam_id":76561198271059544,"connected_time":1564000000000,"state":"active","ping":68},{"user_id":255,"name":"ATL1| icyy","steam_id":76561198968001329,"connected_time":757000000000,"state":"active","ping":47},{"user_id":192,"name":"shephield","steam_id":76561197965111567,"connected_time":4808000000000,"state":"active","ping":60},{"user_id":258,"name":"O'Keearns","steam_id":76561198042213797,"connected_time":226000000000,"state":"active","ping":47},{"user_id":257,"name":"lil hog","steam_id":76561199230929836,"connected_time":664000000000,"state":"active","ping":77},{"user_id":152,"name":"Soul Garg Plushy","steam_id":76561198044480181,"connected_time":8428000000000,"state":"active","ping":72}]},{"server_id":400,"name":"Uncletopia | Atlanta | 3 | Community","name_short":"atl-3","host":"atl-1.us.uncletopia.com","port":27035,"enabled":true,"region":"us-east","cc":"us","latitude":33.753746,"longitude":-84.38633,"reserved":0,"last_update":"0001-01-01T00:00:00Z","name_a2s":"Uncletopia | Atlanta | 3 | Community","protocol":17,"map":"workshop/cp_reckoner_rc6.ugc674719999","folder":"tf","game":"Team Fortress","app_id":440,"player_count":0,"max_players":32,"Bots":0,"server_type":"Dedicated","server_os":"Linux","password":true,"vac":true,"version":"7757534","steam_id":85568392924515187,"keywords":["cp","increased_maxplayers","nocrits","nodmgspread","uncletopia"],"game_id":440,"stv_port":27036,"stv_name":"Uncletopia | Atlanta | 3 | Community | STV","players":null},{"server_id":401,"name":"Uncletopia | Atlanta | 4 | No Payload","name_short":"atl-4","host":"atl-1.us.uncletopia.com","port":27045,"enabled":true,"region":"us-east","cc":"us","latitude":33.753746,"longitude":-84.38633,"reserved":0,"last_update":"0001-01-01T00:00:00Z","name_a2s":"","protocol":0,"map":"","folder":"","game":"","app_id":0,"player_count":0,"max_players":0,"Bots":0,"server_type":"","server_os":"","password":false,"vac":false,"version":"","steam_id":0,"keywords":null,"game_id":0,"stv_port":0,"stv_name":"","players":null},{"server_id":2,"name":"Uncletopia | Chicago | 1 | All Maps","name_short":"chi-1","host":"chi-1.us.uncletopia.com","port":27015,"enabled":true,"region":"us-central","cc":"us","latitude":41.881832,"longitude":-87.62318,"reserved":0,"last_update":"0001-01-01T00:00:00Z","name_a2s":"Uncletopia | Chicago | 1 | All Maps","protocol":17,"map":"koth_highpass","folder":"tf","game":"Team Fortress","app_id":440,"player_count":4,"max_players":24,"Bots":0,"server_type":"Dedicated","server_os":"Linux","password":true,"vac":true,"version":"7757534","steam_id":85568392924469984,"keywords":["cp","nocrits","nodmgspread","uncletopia"],"game_id":440,"stv_port":27016,"stv_name":"Uncletopia | Chicago | 1 | All Maps | STV","players":[{"user_id":34,"name":"volta","steam_id":76561199214283884,"connected_time":311000000000,"state":"active","ping":93},{"user_id":36,"name":"magickxanadu","steam_id":76561199117360103,"connected_time":136000000000,"state":"active","ping":74},{"user_id":32,"name":"Fattyman1222","steam_id":76561198103732490,"connected_time":457000000000,"state":"active","ping":118},{"user_id":37,"name":"Kat","steam_id":76561199039256180,"connected_time":130000000000,"state":"active","ping":79}]},{"server_id":106,"name":"Uncletopia | Chicago | 2 | All Maps","name_short":"chi-2","host":"chi-1.us.uncletopia.com","port":27025,"enabled":true,"region":"us-central","cc":"us","latitude":41.881832,"longitude":-87.62318,"reserved":0,"last_update":"0001-01-01T00:00:00Z","name_a2s":"Uncletopia | Chicago | 2 | All Maps","protocol":17,"map":"koth_viaduct","folder":"tf","game":"Team Fortress","app_id":440,"player_count":2,"max_players":24,"Bots":0,"server_type":"Dedicated","server_os":"Linux","password":true,"vac":true,"version":"7757534","steam_id":85568392924469985,"keywords":["cp","nocrits","nodmgspread","uncletopia"],"game_id":440,"stv_port":27026,"stv_name":"Uncletopia | Chicago | 2 | All Maps | STV","players":[{"user_id":14,"name":"MossMann","steam_id":76561198204404845,"connected_time":678000000000,"state":"active","ping":79},{"user_id":15,"name":"dale #SaveTF2","steam_id":76561198171828759,"connected_time":661000000000,"state":"active","ping":58}]},{"server_id":402,"name":"Uncletopia | Chicago | 3 | All Maps","name_short":"chi-3","host":"chi-1.us.uncletopia.com","port":27035,"enabled":true,"region":"us-central","cc":"us","latitude":41.881832,"longitude":-87.62318,"reserved":0,"last_update":"0001-01-01T00:00:00Z","name_a2s":"Uncletopia | Chicago | 3 | All Maps","protocol":17,"map":"pl_thundermountain","folder":"tf","game":"Team Fortress","app_id":440,"player_count":24,"max_players":24,"Bots":0,"server_type":"Dedicated","server_os":"Linux","password":true,"vac":true,"version":"7757534","steam_id":85568392924515191,"keywords":["nocrits","nodmgspread","payload","uncletopia"],"game_id":440,"stv_port":27036,"stv_name":"Uncletopia | Chicago | 3 | All Maps | STV","players":[{"user_id":347,"name":"Quark","steam_id":76561198328155605,"connected_time":21000000000,"state":"spawning","ping":46},{"user_id":310,"name":"trans rights","steam_id":76561198066270313,"connected_time":2713000000000,"state":"active","ping":94},{"user_id":335,"name":"AdorableMew","steam_id":76561198186706405,"connected_time":1144000000000,"state":"active","ping":71},{"user_id":333,"name":"6t26j","steam_id":76561198278282836,"connected_time":1308000000000,"state":"active","ping":52},{"user_id":336,"name":"Bargain Brand Cereal","steam_id":76561198440470058,"connected_time":1100000000000,"state":"active","ping":74},{"user_id":334,"name":"Dr. Dick","steam_id":76561198138011922,"connected_time":1150000000000,"state":"active","ping":76},{"user_id":343,"name":"Benky","steam_id":76561198062469194,"connected_time":371000000000,"state":"active","ping":57},{"user_id":340,"name":"‚ù§Blunt.Babe420‚ù§","steam_id":76561199014055970,"connected_time":975000000000,"state":"active","ping":69},{"user_id":337,"name":"laszlo","steam_id":76561198141198352,"connected_time":1092000000000,"state":"active","ping":48},{"user_id":329,"name":"Paolo","steam_id":76561198048134549,"connected_time":1502000000000,"state":"active","ping":77},{"user_id":324,"name":"Soap Man","steam_id":76561198000490235,"connected_time":2235000000000,"state":"active","ping":117},{"user_id":338,"name":"Boyos","steam_id":76561197995225368,"connected_time":1089000000000,"state":"active","ping":45},{"user_id":317,"name":"kvn","steam_id":76561198012796388,"connected_time":2524000000000,"state":"active","ping":55},{"user_id":339,"name":"so low my halo","steam_id":76561198034141393,"connected_time":1084000000000,"state":"active","ping":64},{"user_id":300,"name":"KingToaster","steam_id":76561198007903802,"connected_time":3998000000000,"state":"active","ping":82},{"user_id":293,"name":"RiverEgg","steam_id":76561198888913405,"connected_time":4537000000000,"state":"active","ping":55},{"user_id":327,"name":"David De Bergerac","steam_id":76561198010306294,"connected_time":2118000000000,"state":"active","ping":84},{"user_id":323,"name":"DazzlingMaggot","steam_id":76561197972716928,"connected_time":2328000000000,"state":"active","ping":82},{"user_id":288,"name":"Bozanimal","steam_id":76561198044096897,"connected_time":4670000000000,"state":"active","ping":60},{"user_id":342,"name":"ButterScotch","steam_id":76561199389314894,"connected_time":394000000000,"state":"active","ping":79},{"user_id":320,"name":"IMPACT!","steam_id":76561198131458027,"connected_time":2477000000000,"state":"active","ping":72},{"user_id":344,"name":"c00kie","steam_id":76561198418178297,"connected_time":206000000000,"state":"active","ping":45},{"user_id":328,"name":"·≤º·≤º·≤º·≤º·≤º·≤º·≤º·≤º·≤ºjao","steam_id":76561198408082822,"connected_time":1655000000000,"state":"active","ping":180},{"user_id":346,"name":"Pah-Wraith Gul Dukat","steam_id":76561198033918106,"connected_time":153000000000,"state":"active","ping":105}]},{"server_id":403,"name":"Uncletopia | Chicago | 4 | All Maps","name_short":"chi-4","host":"chi-1.us.uncletopia.com","port":27045,"enabled":true,"region":"us-central","cc":"us","latitude":41.881832,"longitude":-87.62318,"reserved":0,"last_update":"0001-01-01T00:00:00Z","name_a2s":"Uncletopia | Chicago | 4 | All Maps","protocol":17,"map":"pl_frontier_final","folder":"tf","game":"Team Fortress","app_id":440,"player_count":25,"max_players":24,"Bots":0,"server_type":"Dedicated","server_os":"Linux","password":true,"vac":true,"version":"7757534","steam_id":85568392924515193,"keywords":["nocrits","nodmgspread","payload","uncletopia"],"game_id":440,"stv_port":27046,"stv_name":"Uncletopia | Chicago | 4 | All Maps | STV","players":[{"user_id":360,"name":"Blobulonn","steam_id":76561198247949502,"connected_time":1122000000000,"state":"active","ping":51},{"user_id":368,"name":"primordialheath","steam_id":76561199386942638,"connected_time":880000000000,"state":"active","ping":66},{"user_id":341,"name":"Kalaner","steam_id":76561198041088708,"connected_time":2948000000000,"state":"active","ping":47},{"user_id":338,"name":"Cousin Corn on the Cob","steam_id":76561198049837377,"connected_time":3336000000000,"state":"active","ping":47},{"user_id":318,"name":"Kritzburgh","steam_id":76561198149466938,"connected_time":4544000000000,"state":"active","ping":67},{"user_id":410,"name":"steakfarmasian","steam_id":76561198212754036,"connected_time":91000000000,"state":"active","ping":44},{"user_id":336,"name":"Chachi","steam_id":76561199045511890,"connected_time":3378000000000,"state":"active","ping":78},{"user_id":363,"name":"Positronic‚ô•June (they/she)","steam_id":76561198042556857,"connected_time":902000000000,"state":"active","ping":49},{"user_id":359,"name":"9:33gang Celyan","steam_id":76561198254424101,"connected_time":1201000000000,"state":"active","ping":172},{"user_id":323,"name":"SwingDickerson","steam_id":76561198045542926,"connected_time":4496000000000,"state":"active","ping":42},{"user_id":371,"name":"Hameas","steam_id":76561198195620918,"connected_time":799000000000,"state":"active","ping":115},{"user_id":367,"name":"Meownsterhunter","steam_id":76561198319992602,"connected_time":886000000000,"state":"active","ping":78},{"user_id":415,"name":"Rhutebeer","steam_id":76561198018302761,"connected_time":0,"state":"spawning","ping":22},{"user_id":354,"name":"FreonAddict9x19","steam_id":76561198060010824,"connected_time":1577000000000,"state":"active","ping":68},{"user_id":345,"name":"Sentry Gun (American)","steam_id":76561198313770809,"connected_time":2846000000000,"state":"active","ping":67},{"user_id":299,"name":"Fudgely","steam_id":76561198039425862,"connected_time":6178000000000,"state":"active","ping":72},{"user_id":346,"name":"Fallbourn","steam_id":76561197994851732,"connected_time":2844000000000,"state":"active","ping":68},{"user_id":334,"name":"Hugo","steam_id":76561198045581609,"connected_time":3433000000000,"state":"active","ping":65},{"user_id":350,"name":"salted potato","steam_id":76561199068161199,"connected_time":1897000000000,"state":"active","ping":71},{"user_id":365,"name":"Chill man","steam_id":76561198088637877,"connected_time":897000000000,"state":"active","ping":59},{"user_id":355,"name":"Vulcan","steam_id":76561198399735208,"connected_time":1577000000000,"state":"active","ping":67},{"user_id":408,"name":"crs22","steam_id":76561198120149196,"connected_time":109000000000,"state":"active","ping":62},{"user_id":327,"name":"Slippery","steam_id":76561199469441947,"connected_time":4280000000000,"state":"active","ping":54},{"user_id":409,"name":"Penrose42","steam_id":76561198288577396,"connected_time":99000000000,"state":"active","ping":85},{"user_id":369,"name":"Kapitan Bomba","steam_id":76561199102087660,"connected_time":876000000000,"state":"active","ping":63}]},{"server_id":36,"name":"Uncletopia | Chicago | 5 | All Maps","name_short":"chi-5","host":"chi-2.us.uncletopia.com","port":27015,"enabled":true,"region":"us-central","cc":"us","latitude":41.881832,"longitude":-87.62318,"reserved":0,"last_update":"0001-01-01T00:00:00Z","name_a2s":"Uncletopia | Chicago | 5 | All Maps","protocol":17,"map":"koth_cascade","folder":"tf","game":"Team Fortress","app_id":440,"player_count":0,"max_players":24,"Bots":0,"server_type":"Dedicated","server_os":"Linux","password":true,"vac":true,"version":"7757534","steam_id":85568392924866362,"keywords":["cp","nocrits","nodmgspread","uncletopia"],"game_id":440,"stv_port":27016,"stv_name":"Uncletopia | Chicago | 5 | All Maps | STV","players":null},{"server_id":37,"name":"Uncletopia | Chicago | 6 | All Maps","name_short":"chi-6","host":"chi-2.us.uncletopia.com","port":27025,"enabled":true,"region":"us-central","cc":"us","latitude":41.881832,"longitude":-87.62318,"reserved":0,"last_update":"0001-01-01T00:00:00Z","name_a2s":"Uncletopia | Chicago | 6 | All Maps","protocol":17,"map":"cp_mountainlab","folder":"tf","game":"Team Fortress","app_id":440,"player_count":24,"max_players":24,"Bots":0,"server_type":"Dedicated","server_os":"Linux","password":true,"vac":true,"version":"7757534","steam_id":85568392924866363,"keywords":["cp","nocrits","nodmgspread","uncletopia"],"game_id":440,"stv_port":27026,"stv_name":"Uncletopia | Chicago | 6 | All Maps | STV","players":[{"user_id":32,"name":"AmazingSloth23","steam_id":76561198370397476,"connected_time":2692000000000,"state":"active","ping":73},{"user_id":63,"name":"viscodolante","steam_id":76561198013650292,"connected_time":813000000000,"state":"active","ping":110},{"user_id":76,"name":"ChebJeb","steam_id":76561198981377081,"connected_time":167000000000,"state":"active","ping":85},{"user_id":81,"name":"Spreadsheet Samuel","steam_id":76561198132068284,"connected_time":59000000000,"state":"active","ping":70},{"user_id":82,"name":"jorjor wells","steam_id":76561199073429082,"connected_time":52000000000,"state":"active","ping":60},{"user_id":16,"name":"Breaded","steam_id":76561199006008898,"connected_time":3879000000000,"state":"active","ping":60},{"user_id":70,"name":"Crystallixed","steam_id":76561198072263515,"connected_time":360000000000,"state":"active","ping":75},{"user_id":73,"name":"e","steam_id":76561198131245396,"connected_time":255000000000,"state":"active","ping":51},{"user_id":57,"name":"My dad owns Club Penguin.","steam_id":76561198032864436,"connected_time":1588000000000,"state":"active","ping":72},{"user_id":77,"name":"npc energy","steam_id":76561198035342207,"connected_time":167000000000,"state":"active","ping":44},{"user_id":36,"name":"Niterux","steam_id":76561198101291574,"connected_time":2384000000000,"state":"active","ping":85},{"user_id":23,"name":"Redrock442","steam_id":76561198178085142,"connected_time":3146000000000,"state":"active","ping":103},{"user_id":84,"name":"Chasubi","steam_id":76561197971618983,"connected_time":41000000000,"state":"spawning","ping":51},{"user_id":86,"name":"Stock Medic","steam_id":76561198065479730,"connected_time":17000000000,"state":"active","ping":44},{"user_id":74,"name":"NUt","steam_id":76561198031007966,"connected_time":245000000000,"state":"active","ping":68},{"user_id":65,"name":"Buswolley","steam_id":76561197995205571,"connected_time":722000000000,"state":"active","ping":91},{"user_id":60,"name":"an inebriated newt fancier","steam_id":76561197985428155,"connected_time":947000000000,"state":"active","ping":60},{"user_id":75,"name":"I am God","steam_id":76561198011675372,"connected_time":234000000000,"state":"active","ping":113},{"user_id":83,"name":"bojack from the show bojack hor","steam_id":76561198053006712,"connected_time":48000000000,"state":"active","ping":60},{"user_id":49,"name":"Candy Sparkles","steam_id":76561198126871264,"connected_time":2019000000000,"state":"active","ping":85},{"user_id":50,"name":"han YOLO","steam_id":76561198337719478,"connected_time":2016000000000,"state":"active","ping":50},{"user_id":87,"name":"Recursive Gamer","steam_id":76561198042102952,"connected_time":6000000000,"state":"spawning","ping":60},{"user_id":80,"name":"2 bit catgirl","steam_id":76561198399936004,"connected_time":151000000000,"state":"active","ping":60},{"user_id":88,"name":"bananalover5","steam_id":76561199143854578,"connected_time":4000000000,"state":"spawning","ping":67}]},{"server_id":38,"name":"Uncletopia | Chicago | 7 | Stopwatch Beta","name_short":"chi-7","host":"chi-2.us.uncletopia.com","port":27035,"enabled":true,"region":"us-central","cc":"us","latitude":41.881832,"longitude":-87.62318,"reserved":0,"last_update":"0001-01-01T00:00:00Z","name_a2s":"Uncletopia | Chicago | 7 | Stopwatch Beta","protocol":17,"map":"pl_upward","folder":"tf","game":"Team Fortress","app_id":440,"player_count":0,"max_players":24,"Bots":0,"server_type":"Dedicated","server_os":"Linux","password":true,"vac":true,"version":"7757534","steam_id":85568392924866364,"keywords":["nocrits","nodmgspread","payload","uncletopia"],"game_id":440,"stv_port":27036,"stv_name":"Uncletopia | Chicago | 7 | Stopwatch Beta | STV","players":null},{"server_id":39,"name":"Uncletopia | Chicago | 8 | Community","name_short":"chi-8","host":"chi-2.us.uncletopia.com","port":27045,"enabled":true,"region":"us-central","cc":"us","latitude":41.881832,"longitude":-87.62318,"reserved":0,"last_update":"0001-01-01T00:00:00Z","name_a2s":"Uncletopia | Chicago | 8 | Community","protocol":17,"map":"workshop/pl_eruption_b9a.ugc2807898013","folder":"tf","game":"Team Fortress","app_id":440,"player_count":0,"max_players":24,"Bots":0,"server_type":"Dedicated","server_os":"Linux","password":true,"vac":true,"version":"7757534","steam_id":85568392924866365,"keywords":["nocrits","nodmgspread","payload","uncletopia"],"game_id":440,"stv_port":27046,"stv_name":"Uncletopia | Chicago | 8 | Community | STV","players":null},{"server_id":8,"name":"Uncletopia | Dallas | 1 | All Maps","name_short":"dal-1","host":"dal-1.us.uncletopia.com","port":27015,"enabled":true,"region":"us-central","cc":"us","latitude":32.779167,"longitude":-96.80889,"reserved":0,"last_update":"0001-01-01T00:00:00Z","name_a2s":"Uncletopia | Dallas | 1 | All Maps","protocol":17,"map":"pl_borneo","folder":"tf","game":"Team Fortress","app_id":440,"player_count":19,"max_players":24,"Bots":0,"server_type":"Dedicated","server_os":"Linux","password":true,"vac":true,"version":"7757534","steam_id":85568392924469986,"keywords":["nocrits","nodmgspread","payload","uncletopia"],"game_id":440,"stv_port":27016,"stv_name":"Uncletopia | Dallas | 1 | All Maps | STV","players":[{"user_id":487,"name":"Yesterday's Grouse's Son","steam_id":76561198259873083,"connected_time":1516000000000,"state":"connecting","ping":116},{"user_id":489,"name":"DISPENSER GOING UP","steam_id":76561198265035553,"connected_time":1459000000000,"state":"connecting","ping":61},{"user_id":476,"name":"Dudettenone","steam_id":76561198843916367,"connected_time":2651000000000,"state":"connecting","ping":140},{"user_id":491,"name":"soapboxracer360","steam_id":76561198316394688,"connected_time":1359000000000,"state":"connecting","ping":96},{"user_id":519,"name":"THRILLHO","steam_id":76561198371663047,"connected_time":358000000000,"state":"connecting","ping":98},{"user_id":523,"name":"META.exe","steam_id":76561199067098696,"connected_time":232000000000,"state":"connecting","ping":97},{"user_id":517,"name":"zBoofa","steam_id":76561198298007990,"connected_time":423000000000,"state":"connecting","ping":77},{"user_id":499,"name":"Arachna.cadabra","steam_id":76561198039437427,"connected_time":1056000000000,"state":"connecting","ping":106},{"user_id":496,"name":"Chimpish","steam_id":76561199263493270,"connected_time":1098000000000,"state":"connecting","ping":104},{"user_id":497,"name":"TransWomanGaming","steam_id":76561198809645656,"connected_time":1085000000000,"state":"connecting","ping":77},{"user_id":505,"name":"Schizophrenic with explosives","steam_id":76561198002964332,"connected_time":913000000000,"state":"connecting","ping":94},{"user_id":521,"name":"Captain MLG","steam_id":76561199183321645,"connected_time":321000000000,"state":"connecting","ping":56},{"user_id":506,"name":"Stranger","steam_id":76561198062459671,"connected_time":909000000000,"state":"connecting","ping":106},{"user_id":507,"name":"swertz","steam_id":76561198112942781,"connected_time":897000000000,"state":"connecting","ping":99},{"user_id":518,"name":"Largelad","steam_id":76561198024042970,"connected_time":361000000000,"state":"connecting","ping":61},{"user_id":511,"name":"evan_is_sauce","steam_id":76561199086802383,"connected_time":744000000000,"state":"connecting","ping":85},{"user_id":515,"name":"Mads Mikkelsen","steam_id":76561198083482001,"connected_time":573000000000,"state":"connecting","ping":189},{"user_id":522,"name":"purply-ghost","steam_id":76561199204779865,"connected_time":297000000000,"state":"connecting","ping":63}]},{"server_id":108,"name":"Uncletopia | Dallas | 2 | All Maps","name_short":"dal-2","host":"dal-1.us.uncletopia.com","port":27025,"enabled":true,"region":"us-central","cc":"us","latitude":32.779167,"longitude":-96.80889,"reserved":0,"last_update":"0001-01-01T00:00:00Z","name_a2s":"Uncletopia | Dallas | 2 | All Maps","protocol":17,"map":"cp_dustbowl","folder":"tf","game":"Team Fortress","app_id":440,"player_count":24,"max_players":24,"Bots":0,"server_type":"Dedicated","server_os":"Linux","password":true,"vac":true,"version":"7757534","steam_id":85568392924469988,"keywords":["cp","nocrits","nodmgspread","uncletopia"],"game_id":440,"stv_port":27026,"stv_name":"Uncletopia | Dallas | 2 | All Maps | STV","players":[{"user_id":208,"name":"AAGooseman","steam_id":76561198378941369,"connected_time":1162000000000,"state":"active","ping":83},{"user_id":168,"name":"dicksnip","steam_id":76561198356515396,"connected_time":3416000000000,"state":"active","ping":57},{"user_id":227,"name":"Hydnhof","steam_id":76561198120989805,"connected_time":672000000000,"state":"active","ping":173},{"user_id":231,"name":"Blip","steam_id":76561198004384743,"connected_time":374000000000,"state":"active","ping":100},{"user_id":192,"name":"‡ºò ‚ãÜÀöüéßCaffeine‚òï*Àñ¬∞","steam_id":76561199259309294,"connected_time":1996000000000,"state":"active","ping":92},{"user_id":224,"name":"Dr.Doc","steam_id":76561198981911429,"connected_time":705000000000,"state":"active","ping":80},{"user_id":212,"name":"koompa_stomp","steam_id":76561198073081735,"connected_time":1085000000000,"state":"active","ping":78},{"user_id":213,"name":"brolnareff","steam_id":76561198050000610,"connected_time":1075000000000,"state":"active","ping":55},{"user_id":232,"name":"boomerangutang","steam_id":76561198151407214,"connected_time":86000000000,"state":"active","ping":72},{"user_id":226,"name":"M√©xico","steam_id":76561198238059280,"connected_time":694000000000,"state":"active","ping":86},{"user_id":193,"name":"Belmore","steam_id":76561198009355231,"connected_time":1994000000000,"state":"active","ping":77},{"user_id":222,"name":"gasparmx","steam_id":76561197998611994,"connected_time":911000000000,"state":"active","ping":79},{"user_id":221,"name":"cam","steam_id":76561198030171717,"connected_time":931000000000,"state":"active","ping":84},{"user_id":228,"name":"sexyvillain","steam_id":76561198083127707,"connected_time":556000000000,"state":"active","ping":58},{"user_id":209,"name":"Chad the Sex Haver","steam_id":76561198058236528,"connected_time":1121000000000,"state":"active","ping":65},{"user_id":195,"name":"DonnaJello","steam_id":76561198407401570,"connected_time":1936000000000,"state":"active","ping":89},{"user_id":214,"name":"Jag_Samurott","steam_id":76561198262036126,"connected_time":1063000000000,"state":"active","ping":75},{"user_id":217,"name":"kaimann_25","steam_id":76561198867926098,"connected_time":1025000000000,"state":"active","ping":68},{"user_id":229,"name":"HOGRIDER GAMING","steam_id":76561199015941904,"connected_time":549000000000,"state":"active","ping":83},{"user_id":215,"name":"Din√∂bro","steam_id":76561198065597770,"connected_time":1052000000000,"state":"active","ping":61},{"user_id":216,"name":"T√ñZI","steam_id":76561198045268695,"connected_time":1038000000000,"state":"active","ping":81},{"user_id":218,"name":"CraigHawksbill","steam_id":76561199000670185,"connected_time":1018000000000,"state":"active","ping":92},{"user_id":219,"name":"Spangbab","steam_id":76561199006526991,"connected_time":1008000000000,"state":"active","ping":75},{"user_id":220,"name":"Mr. Hero","steam_id":76561198089961646,"connected_time":1006000000000,"state":"active","ping":106}]},{"server_id":5,"name":"Uncletopia | Frankfurt | 1 | All Maps","name_short":"frk-1","host":"frk-1.de.uncletopia.com","port":27015,"enabled":true,"region":"eu","cc":"de","latitude":50.110924,"longitude":8.682127,"reserved":0,"last_update":"0001-01-01T00:00:00Z","name_a2s":"Uncletopia | Frankfurt | 1 | All Maps","protocol":17,"map":"pl_snowycoast","folder":"tf","game":"Team Fortress","app_id":440,"player_count":3,"max_players":24,"Bots":0,"server_type":"Dedicated","server_os":"Linux","password":true,"vac":true,"version":"7757534","steam_id":85568392924469989,"keywords":["nocrits","nodmgspread","payload","uncletopia"],"game_id":440,"stv_port":27016,"stv_name":"Uncletopia | Frankfurt | 1 | All Maps | STV","players":[{"user_id":369,"name":"nakedpee","steam_id":76561198064345980,"connected_time":1343000000000,"state":"active","ping":61},{"user_id":367,"name":"ikeaworst","steam_id":76561198936990378,"connected_time":2579000000000,"state":"active","ping":58},{"user_id":358,"name":"0ccasional_j03","steam_id":76561199129460812,"connected_time":3360000000000,"state":"active","ping":74}]},{"server_id":110,"name":"Uncletopia | Frankfurt | 2 | All Maps","name_short":"frk-2","host":"frk-1.de.uncletopia.com","port":27025,"enabled":true,"region":"eu","cc":"de","latitude":50.110924,"longitude":8.682127,"reserved":0,"last_update":"0001-01-01T00:00:00Z","name_a2s":"Uncletopia | Frankfurt | 2 | All Maps","protocol":17,"map":"pl_pier","folder":"tf","game":"Team Fortress","app_id":440,"player_count":24,"max_players":24,"Bots":0,"server_type":"Dedicated","server_os":"Linux","password":true,"vac":true,"version":"7757534","steam_id":85568392924469990,"keywords":["nocrits","nodmgspread","payload","uncletopia"],"game_id":440,"stv_port":27026,"stv_name":"Uncletopia | Frankfurt | 2 | All Maps | STV","players":[{"user_id":296,"name":"Mach |=|20BB|)","steam_id":76561198952487564,"connected_time":2285000000000,"state":"active","ping":93},{"user_id":317,"name":"Harri Lalies","steam_id":76561198194420078,"connected_time":344000000000,"state":"active","ping":61},{"user_id":306,"name":"shr1mple","steam_id":76561198173537027,"connected_time":1173000000000,"state":"active","ping":44},{"user_id":291,"name":"‚ô• ‚ô°Sheeeeeep‚ô• ‚ô°","steam_id":76561199244675657,"connected_time":2474000000000,"state":"active","ping":142},{"user_id":219,"name":"Mrbluuub","steam_id":76561199273847084,"connected_time":8068000000000,"state":"active","ping":81},{"user_id":201,"name":"nedilya","steam_id":76561198039692077,"connected_time":9329000000000,"state":"active","ping":55},{"user_id":312,"name":"Jojocandy YT","steam_id":76561198079984884,"connected_time":520000000000,"state":"active","ping":73},{"user_id":313,"name":"Frank","steam_id":76561198086672774,"connected_time":513000000000,"state":"active","ping":67},{"user_id":308,"name":"Ar|es","steam_id":76561198819160313,"connected_time":1077000000000,"state":"active","ping":85},{"user_id":320,"name":"Dr. Le Quack","steam_id":76561197995711176,"connected_time":285000000000,"state":"active","ping":90},{"user_id":280,"name":"TidB","steam_id":76561198055342304,"connected_time":3056000000000,"state":"active","ping":53},{"user_id":315,"name":"Pepperonipizza","steam_id":76561198044471610,"connected_time":448000000000,"state":"active","ping":71},{"user_id":284,"name":"–∏–≤–∞–Ω","steam_id":76561198072730591,"connected_time":2894000000000,"state":"active","ping":61},{"user_id":316,"name":"player","steam_id":76561198054474684,"connected_time":373000000000,"state":"active","ping":75},{"user_id":260,"name":"yup it's gamer time","steam_id":76561198064463244,"connected_time":4309000000000,"state":"active","ping":146},{"user_id":261,"name":"Spotify Premium","steam_id":76561198358029722,"connected_time":4299000000000,"state":"active","ping":74},{"user_id":206,"name":"i hate the lil bro meme","steam_id":76561198047359132,"connected_time":8953000000000,"state":"active","ping":61},{"user_id":297,"name":"LarsInABox","steam_id":76561198028329262,"connected_time":2191000000000,"state":"active","ping":78},{"user_id":283,"name":"Lyra","steam_id":76561198043601838,"connected_time":2951000000000,"state":"active","ping":60},{"user_id":309,"name":"Louki","steam_id":76561198150080041,"connected_time":1070000000000,"state":"active","ping":62},{"user_id":301,"name":"nicki minaj","steam_id":76561199184831395,"connected_time":1601000000000,"state":"active","ping":56},{"user_id":214,"name":"cat","steam_id":76561199045736884,"connected_time":8437000000000,"state":"active","ping":63},{"user_id":294,"name":"Crayfry","steam_id":76561198146525237,"connected_time":2360000000000,"state":"active","ping":149},{"user_id":319,"name":"lacurio","steam_id":76561198059701776,"connected_time":330000000000,"state":"active","ping":59}]},{"server_id":308,"name":"Uncletopia | Frankfurt | 3 | All Maps","name_short":"frk-3","host":"frk-1.de.uncletopia.com","port":27035,"enabled":true,"region":"eu","cc":"de","latitude":50.110924,"longitude":8.682127,"reserved":0,"last_update":"0001-01-01T00:00:00Z","name_a2s":"Uncletopia | Frankfurt | 3 | All Maps","protocol":17,"map":"pl_snowycoast","folder":"tf","game":"Team Fortress","app_id":440,"player_count":0,"max_players":24,"Bots":0,"server_type":"Dedicated","server_os":"Linux","password":true,"vac":true,"version":"7757534","steam_id":85568392924504274,"keywords":["nocrits","nodmgspread","payload","uncletopia"],"game_id":440,"stv_port":27036,"stv_name":"Uncletopia | Frankfurt | 3 | All Maps | STV","players":null},{"server_id":309,"name":"Uncletopia | Frankfurt | 4 | All Maps","name_short":"frk-4","host":"frk-1.de.uncletopia.com","port":27045,"enabled":true,"region":"eu","cc":"de","latitude":50.110924,"longitude":8.682127,"reserved":0,"last_update":"0001-01-01T00:00:00Z","name_a2s":"Uncletopia | Frankfurt | 4 | All Maps","protocol":17,"map":"pl_upward","folder":"tf","game":"Team Fortress","app_id":440,"player_count":24,"max_players":24,"Bots":0,"server_type":"Dedicated","server_os":"Linux","password":true,"vac":true,"version":"7757534","steam_id":85568392924504275,"keywords":["nocrits","nodmgspread","payload","uncletopia"],"game_id":440,"stv_port":27046,"stv_name":"Uncletopia | Frankfurt | 4 | All Maps | STV","players":[{"user_id":631,"name":"S0LDaTo","steam_id":76561198269413360,"connected_time":488000000000,"state":"active","ping":64},{"user_id":628,"name":"Curlew","steam_id":76561198075884540,"connected_time":621000000000,"state":"active","ping":75},{"user_id":618,"name":"Cosmic Gamer","steam_id":76561198027357981,"connected_time":872000000000,"state":"active","ping":96},{"user_id":619,"name":"SunFive","steam_id":76561198080517626,"connected_time":844000000000,"state":"active","ping":70},{"user_id":629,"name":"aeiou.","steam_id":76561198207929768,"connected_time":560000000000,"state":"active","ping":70},{"user_id":537,"name":"maxharmony","steam_id":76561198233819688,"connected_time":7520000000000,"state":"active","ping":82},{"user_id":634,"name":"quaddmg","steam_id":76561198119449463,"connected_time":280000000000,"state":"active","ping":75},{"user_id":622,"name":"Operation Bin Coup Hammer","steam_id":76561198449537647,"connected_time":772000000000,"state":"active","ping":62},{"user_id":603,"name":"poy","steam_id":76561198114063534,"connected_time":2796000000000,"state":"active","ping":43},{"user_id":569,"name":"burnt out","steam_id":76561199042470246,"connected_time":4955000000000,"state":"active","ping":45},{"user_id":630,"name":"paguro","steam_id":76561198119560871,"connected_time":559000000000,"state":"active","ping":67},{"user_id":632,"name":"kloada","steam_id":76561198082113271,"connected_time":480000000000,"state":"active","ping":73},{"user_id":633,"name":"Fran","steam_id":76561199070516960,"connected_time":469000000000,"state":"active","ping":66},{"user_id":641,"name":"Jappy","steam_id":76561198112444032,"connected_time":70000000000,"state":"active","ping":52},{"user_id":613,"name":"sareena","steam_id":76561198810194062,"connected_time":1851000000000,"state":"active","ping":77},{"user_id":637,"name":"KittyKate ‚ù§","steam_id":76561198116340817,"connected_time":154000000000,"state":"active","ping":66},{"user_id":587,"name":"Silent Person","steam_id":76561198107763537,"connected_time":4264000000000,"state":"active","ping":78},{"user_id":638,"name":"Bajas","steam_id":76561198179339326,"connected_time":148000000000,"state":"active","ping":77},{"user_id":572,"name":"Sweat Plantation","steam_id":76561198025086883,"connected_time":4694000000000,"state":"active","ping":84},{"user_id":639,"name":"BuzzBees ‚ù§","steam_id":76561198101502273,"connected_time":129000000000,"state":"active","ping":64},{"user_id":438,"name":"Seb, Comrade","steam_id":76561198040279587,"connected_time":15531000000000,"state":"active","ping":99},{"user_id":545,"name":"Vershal Smershal","steam_id":76561198116223995,"connected_time":7299000000000,"state":"active","ping":60},{"user_id":640,"name":"‚ô´‚òÖXriasp‚òÖ‚ô´","steam_id":76561198104721321,"connected_time":108000000000,"state":"active","ping":74},{"user_id":612,"name":"dochris.2","steam_id":76561198026478625,"connected_time":1870000000000,"state":"active","ping":46}]},{"server_id":310,"name":"Uncletopia | Frankfurt | 5 | All Maps","name_short":"frk-5","host":"frk-1.de.uncletopia.com","port":27055,"enabled":true,"region":"eu","cc":"de","latitude":50.110924,"longitude":8.682127,"reserved":0,"last_update":"0001-01-01T00:00:00Z","name_a2s":"Uncletopia | Frankfurt | 5 | All Maps","protocol":17,"map":"cp_process_final","folder":"tf","game":"Team Fortress","app_id":440,"player_count":0,"max_players":24,"Bots":0,"server_type":"Dedicated","server_os":"Linux","password":true,"vac":true,"version":"7757534","steam_id":85568392924504277,"keywords":["cp","nocrits","nodmgspread","uncletopia"],"game_id":440,"stv_port":27056,"stv_name":"Uncletopia | Frankfurt | 5 | All Maps | STV","players":null},{"server_id":311,"name":"Uncletopia | Frankfurt | 6 | All Maps","name_short":"frk-6","host":"frk-1.de.uncletopia.com","port":27065,"enabled":true,"region":"eu","cc":"de","latitude":50.110924,"longitude":8.682127,"reserved":0,"last_update":"0001-01-01T00:00:00Z","name_a2s":"Uncletopia | Frankfurt | 6 | All Maps","protocol":17,"map":"pl_barnblitz","folder":"tf","game":"Team Fortress","app_id":440,"player_count":16,"max_players":24,"Bots":0,"server_type":"Dedicated","server_os":"Linux","password":true,"vac":true,"version":"7757534","steam_id":85568392924504278,"keywords":["nocrits","nodmgspread","payload","uncletopia"],"game_id":440,"stv_port":27066,"stv_name":"Uncletopia | Frankfurt | 6 | All Maps | STV","players":[{"user_id":263,"name":"The Duke","steam_id":76561198063644325,"connected_time":211000000000,"state":"active","ping":63},{"user_id":239,"name":"dirty","steam_id":76561197995572935,"connected_time":2992000000000,"state":"active","ping":82},{"user_id":243,"name":"Doctor Mobius","steam_id":76561197971281806,"connected_time":1686000000000,"state":"active","ping":69},{"user_id":255,"name":"Egg Guzzler","steam_id":76561199109194893,"connected_time":779000000000,"state":"active","ping":177},{"user_id":253,"name":"Garoiop","steam_id":76561198082326459,"connected_time":917000000000,"state":"active","ping":44},{"user_id":256,"name":"Rask","steam_id":76561198052934944,"connected_time":762000000000,"state":"active","ping":92},{"user_id":254,"name":"mercedes ben","steam_id":76561198000147423,"connected_time":865000000000,"state":"active","ping":54},{"user_id":233,"name":"Planet","steam_id":76561198044626616,"connected_time":3526000000000,"state":"active","ping":75},{"user_id":257,"name":"T-Pose Anteater [MFRC]","steam_id":76561198845601442,"connected_time":726000000000,"state":"active","ping":97},{"user_id":258,"name":"Flex","steam_id":76561197970482191,"connected_time":726000000000,"state":"active","ping":48},{"user_id":260,"name":"Bodhi","steam_id":76561198000606642,"connected_time":697000000000,"state":"active","ping":69},{"user_id":249,"name":"Sabour","steam_id":76561197963965445,"connected_time":1559000000000,"state":"active","ping":55},{"user_id":261,"name":"Markein","steam_id":76561198360754280,"connected_time":691000000000,"state":"active","ping":45},{"user_id":96,"name":"darktheif54","steam_id":76561198043650119,"connected_time":12657000000000,"state":"active","ping":55},{"user_id":242,"name":"dotdotdot","steam_id":76561198057628751,"connected_time":2346000000000,"state":"active","ping":67},{"user_id":204,"name":"leminsc8","steam_id":76561198825084995,"connected_time":5192000000000,"state":"active","ping":41}]},{"server_id":23,"name":"Uncletopia | Frankfurt | 7 | Stopwatch Beta","name_short":"frk-7","host":"frk-1.de.uncletopia.com","port":27075,"enabled":true,"region":"eu","cc":"de","latitude":50.110924,"longitude":8.682127,"reserved":0,"last_update":"0001-01-01T00:00:00Z","name_a2s":"Uncletopia | Frankfurt | 7 | Stopwatch Beta","protocol":17,"map":"workshop/koth_ramjam_rc1.ugc459778887","folder":"tf","game":"Team Fortress","app_id":440,"player_count":0,"max_players":24,"Bots":0,"server_type":"Dedicated","server_os":"Linux","password":true,"vac":true,"version":"7757534","steam_id":85568392924742827,"keywords":["cp","nocrits","nodmgspread","uncletopia"],"game_id":440,"stv_port":27076,"stv_name":"Uncletopia | Frankfurt | 7 | Stopwatch Beta | STV","players":null},{"server_id":24,"name":"Uncletopia | Frankfurt | 8 | Community","name_short":"frk-8","host":"frk-1.de.uncletopia.com","port":27085,"enabled":true,"region":"eu","cc":"de","latitude":50.110924,"longitude":8.682127,"reserved":0,"last_update":"0001-01-01T00:00:00Z","name_a2s":"Uncletopia | Frankfurt | 8 | Community","protocol":17,"map":"workshop/cp_snowbase_b18.ugc2081770490","folder":"tf","game":"Team Fortress","app_id":440,"player_count":0,"max_players":24,"Bots":0,"server_type":"Dedicated","server_os":"Linux","password":true,"vac":true,"version":"7757534","steam_id":85568392924742828,"keywords":["cp","nocrits","nodmgspread","uncletopia"],"game_id":440,"stv_port":27086,"stv_name":"Uncletopia | Frankfurt | 8 | Community | STV","players":null},{"server_id":202,"name":"Uncletopia | Hong Kong | 1 | All Maps","name_short":"hgk-1","host":"hgk-1.hk.uncletopia.com","port":27015,"enabled":true,"region":"asia","cc":"hk","latitude":22.302711,"longitude":114.177216,"reserved":0,"last_update":"0001-01-01T00:00:00Z","name_a2s":"Uncletopia | Hong Kong | 1 | All Maps","protocol":17,"map":"cp_dustbowl","folder":"tf","game":"Team Fortress","app_id":440,"player_count":0,"max_players":24,"Bots":0,"server_type":"Dedicated","server_os":"Linux","password":true,"vac":true,"version":"7757534","steam_id":85568392924494504,"keywords":["cp","nocrits","nodmgspread","uncletopia"],"game_id":440,"stv_port":27016,"stv_name":"Uncletopia | Hong Kong | 1 | All Maps | STV","players":null},{"server_id":1,"name":"Uncletopia | Los Angeles | 1 | All Maps","name_short":"lax-1","host":"lax-1.us.uncletopia.com","port":27015,"enabled":true,"region":"us-west","cc":"us","latitude":33.94279,"longitude":-118.41004,"reserved":0,"last_update":"0001-01-01T00:00:00Z","name_a2s":"Uncletopia | Los Angeles | 1 | All Maps","protocol":17,"map":"cp_dustbowl","folder":"tf","game":"Team Fortress","app_id":440,"player_count":23,"max_players":24,"Bots":0,"server_type":"Dedicated","server_os":"Linux","password":true,"vac":true,"version":"7757534","steam_id":85568392924469991,"keywords":["cp","nocrits","nodmgspread","uncletopia"],"game_id":440,"stv_port":27016,"stv_name":"Uncletopia | Los Angeles | 1 | All Maps | STV","players":[{"user_id":96,"name":"Octis","steam_id":76561198118322999,"connected_time":553000000000,"state":"active","ping":70},{"user_id":55,"name":"Boat","steam_id":76561198319185335,"connected_time":3388000000000,"state":"active","ping":66},{"user_id":97,"name":"Wackydavo","steam_id":76561197990094209,"connected_time":552000000000,"state":"active","ping":114},{"user_id":100,"name":"The Wise Guy","steam_id":76561198031080216,"connected_time":225000000000,"state":"active","ping":89},{"user_id":53,"name":"Nibotshooter","steam_id":76561199284825579,"connected_time":3683000000000,"state":"active","ping":84},{"user_id":56,"name":"ShredMaan","steam_id":76561198429982138,"connected_time":3387000000000,"state":"active","ping":51},{"user_id":60,"name":"WD40","steam_id":76561198170069109,"connected_time":3281000000000,"state":"active","ping":44},{"user_id":101,"name":"EOAW","steam_id":76561198310451639,"connected_time":189000000000,"state":"active","ping":73},{"user_id":79,"name":"dinnerblaster82","steam_id":76561198059041027,"connected_time":1639000000000,"state":"active","ping":87},{"user_id":92,"name":"Shamrock Shake Oct.10.2020 @8pm","steam_id":76561198833313201,"connected_time":979000000000,"state":"active","ping":49},{"user_id":102,"name":"Pudsla","steam_id":76561198258974036,"connected_time":131000000000,"state":"active","ping":59},{"user_id":103,"name":"PTSleepyHead","steam_id":76561198037748705,"connected_time":98000000000,"state":"active","ping":30},{"user_id":67,"name":"Nick the melon","steam_id":76561198798907871,"connected_time":2410000000000,"state":"active","ping":59},{"user_id":72,"name":"Drowse","steam_id":76561198029794548,"connected_time":2172000000000,"state":"active","ping":54},{"user_id":80,"name":"sand hanitizer","steam_id":76561198109625221,"connected_time":1629000000000,"state":"active","ping":113},{"user_id":104,"name":"doug.","steam_id":76561199002210356,"connected_time":47000000000,"state":"active","ping":92},{"user_id":105,"name":"LazyDoll","steam_id":76561198053186338,"connected_time":24000000000,"state":"active","ping":52},{"user_id":106,"name":"superbad","steam_id":76561198065913973,"connected_time":19000000000,"state":"active","ping":44},{"user_id":95,"name":"Master_Chief_20","steam_id":76561198309760791,"connected_time":565000000000,"state":"active","ping":83},{"user_id":107,"name":"Mef","steam_id":76561198247400482,"connected_time":19000000000,"state":"spawning","ping":100},{"user_id":76,"name":"watchfull","steam_id":76561198433266742,"connected_time":1832000000000,"state":"active","ping":81},{"user_id":83,"name":"Isaac","steam_id":76561198015727013,"connected_time":1513000000000,"state":"active","ping":61},{"user_id":94,"name":"ForAPessimistImPrettyOptimistic","steam_id":76561198170128009,"connected_time":699000000000,"state":"active","ping":57}]},{"server_id":112,"name":"Uncletopia | Los Angeles | 2 | All Maps","name_short":"lax-2","host":"lax-1.us.uncletopia.com","port":27025,"enabled":true,"region":"us-west","cc":"us","latitude":33.94279,"longitude":-118.41004,"reserved":0,"last_update":"0001-01-01T00:00:00Z","name_a2s":"Uncletopia | Los Angeles | 2 | All Maps","protocol":17,"map":"koth_cascade","folder":"tf","game":"Team Fortress","app_id":440,"player_count":0,"max_players":24,"Bots":0,"server_type":"Dedicated","server_os":"Linux","password":true,"vac":true,"version":"7757534","steam_id":85568392924469992,"keywords":["cp","nocrits","nodmgspread","uncletopia"],"game_id":440,"stv_port":27026,"stv_name":"Uncletopia | Los Angeles | 2 | All Maps | STV","players":null},{"server_id":324,"name":"Uncletopia | Los Angeles | 3 | All Maps","name_short":"lax-3","host":"lax-1.us.uncletopia.com","port":27035,"enabled":true,"region":"us-west","cc":"us","latitude":33.94279,"longitude":-118.41004,"reserved":0,"last_update":"0001-01-01T00:00:00Z","name_a2s":"Uncletopia | Los Angeles | 3 | All Maps","protocol":17,"map":"pl_pier","folder":"tf","game":"Team Fortress","app_id":440,"player_count":0,"max_players":24,"Bots":0,"server_type":"Dedicated","server_os":"Linux","password":true,"vac":true,"version":"7757534","steam_id":85568392924510198,"keywords":["nocrits","nodmgspread","payload","uncletopia"],"game_id":440,"stv_port":27036,"stv_name":"Uncletopia | Los Angeles | 3 | All Maps | STV","players":null},{"server_id":25,"name":"Uncletopia | Los Angeles | 4 | Stopwatch Beta","name_short":"lax-4","host":"lax-1.us.uncletopia.com","port":27045,"enabled":true,"region":"us-west","cc":"us","latitude":33.94279,"longitude":-118.41004,"reserved":0,"last_update":"0001-01-01T00:00:00Z","name_a2s":"Uncletopia | Los Angeles | 4 | Stopwatch Beta","protocol":17,"map":"pl_frontier_final","folder":"tf","game":"Team Fortress","app_id":440,"player_count":0,"max_players":24,"Bots":0,"server_type":"Dedicated","server_os":"Linux","password":true,"vac":true,"version":"7757534","steam_id":85568392924510199,"keywords":["nocrits","nodmgspread","payload","uncletopia"],"game_id":440,"stv_port":27046,"stv_name":"Uncletopia | Los Angeles | 4 | Stopwatch Beta | STV","players":null},{"server_id":11,"name":"Uncletopia | London | 1 | All Maps","name_short":"lon-1","host":"lon-1.uk.uncletopia.com","port":27015,"enabled":true,"region":"eu","cc":"gb","latitude":51.509865,"longitude":-0.118092,"reserved":0,"last_update":"0001-01-01T00:00:00Z","name_a2s":"Uncletopia | London | 1 | All Maps","protocol":17,"map":"pl_frontier_final","folder":"tf","game":"Team Fortress","app_id":440,"player_count":24,"max_players":24,"Bots":0,"server_type":"Dedicated","server_os":"Linux","password":true,"vac":true,"version":"7757534","steam_id":85568392924367362,"keywords":["nocrits","nodmgspread","payload","uncletopia"],"game_id":440,"stv_port":27016,"stv_name":"Uncletopia | London | 1 | All Maps | STV","players":[{"user_id":791,"name":"Carol Olston","steam_id":76561198080257273,"connected_time":554000000000,"state":"active","ping":41},{"user_id":766,"name":"let me cook","steam_id":76561198010380786,"connected_time":1781000000000,"state":"active","ping":45},{"user_id":767,"name":"Anystract's_Void","steam_id":76561199026571381,"connected_time":1722000000000,"state":"active","ping":90},{"user_id":768,"name":"toe bias","steam_id":76561199084996146,"connected_time":1721000000000,"state":"active","ping":57},{"user_id":769,"name":"Yaire","steam_id":76561198017343510,"connected_time":1704000000000,"state":"active","ping":55},{"user_id":788,"name":"Spetse","steam_id":76561197990649972,"connected_time":683000000000,"state":"active","ping":89},{"user_id":679,"name":"hazza","steam_id":76561198220057697,"connected_time":7649000000000,"state":"active","ping":63},{"user_id":795,"name":"sora","steam_id":76561198096547662,"connected_time":14000000000,"state":"spawning","ping":61},{"user_id":773,"name":"Life on Kars","steam_id":76561198021047489,"connected_time":1497000000000,"state":"active","ping":55},{"user_id":761,"name":"Karp","steam_id":76561199056452365,"connected_time":2424000000000,"state":"active","ping":67},{"user_id":774,"name":"godmodule","steam_id":76561198165995444,"connected_time":1497000000000,"state":"active","ping":84},{"user_id":777,"name":"CaptainMac","steam_id":76561198273156139,"connected_time":1424000000000,"state":"active","ping":55},{"user_id":747,"name":"Zhongding Construction Group Lt","steam_id":76561198065915748,"connected_time":3126000000000,"state":"active","ping":51},{"user_id":778,"name":"jameso","steam_id":76561198064042970,"connected_time":1400000000000,"state":"active","ping":48},{"user_id":779,"name":"OMG IS THAT SPY FROM TF2?","steam_id":76561199291684647,"connected_time":1382000000000,"state":"active","ping":74},{"user_id":720,"name":"homeinvasion$","steam_id":76561199111905021,"connected_time":5465000000000,"state":"active","ping":115},{"user_id":787,"name":"Qxillum","steam_id":76561198037201297,"connected_time":802000000000,"state":"active","ping":57},{"user_id":663,"name":"alf","steam_id":76561198060249715,"connected_time":9168000000000,"state":"active","ping":46},{"user_id":781,"name":"Bupka","steam_id":76561199209416348,"connected_time":1359000000000,"state":"active","ping":91},{"user_id":733,"name":"‚ú™ J","steam_id":76561198094911581,"connected_time":4052000000000,"state":"active","ping":56},{"user_id":782,"name":"≈Çysy_bambo","steam_id":76561198996474600,"connected_time":1347000000000,"state":"active","ping":103},{"user_id":794,"name":"The Greedy Grinner","steam_id":76561198531978435,"connected_time":430000000000,"state":"active","ping":76},{"user_id":783,"name":"‚ú™ Danny","steam_id":76561198104483241,"connected_time":1329000000000,"state":"active","ping":51},{"user_id":785,"name":"wolfenstein03","steam_id":76561198147173457,"connected_time":1221000000000,"state":"active","ping":77}]},{"server_id":114,"name":"Uncletopia | London | 2 | All Maps","name_short":"lon-2","host":"lon-1.uk.uncletopia.com","port":27025,"enabled":true,"region":"eu","cc":"gb","latitude":51.509865,"longitude":-0.118092,"reserved":0,"last_update":"0001-01-01T00:00:00Z","name_a2s":"Uncletopia | London | 2 | All Maps","protocol":17,"map":"pl_goldrush","folder":"tf","game":"Team Fortress","app_id":440,"player_count":25,"max_players":24,"Bots":0,"server_type":"Dedicated","server_os":"Linux","password":true,"vac":true,"version":"7757534","steam_id":85568392924470941,"keywords":["nocrits","nodmgspread","payload","uncletopia"],"game_id":440,"stv_port":27026,"stv_name":"Uncletopia | London | 2 | All Maps | STV","players":[{"user_id":238,"name":"TheFestiveDeliveryBoy","steam_id":76561198113246267,"connected_time":3832000000000,"state":"active","ping":142},{"user_id":278,"name":"TheBigAl","steam_id":76561198094563041,"connected_time":1979000000000,"state":"active","ping":57},{"user_id":333,"name":"ali.","steam_id":76561198148359093,"connected_time":309000000000,"state":"active","ping":35},{"user_id":271,"name":"T K","steam_id":76561198134256917,"connected_time":2168000000000,"state":"active","ping":69},{"user_id":336,"name":"tone","steam_id":76561197975301462,"connected_time":90000000000,"state":"active","ping":74},{"user_id":334,"name":"Tort","steam_id":76561198329646769,"connected_time":305000000000,"state":"active","ping":52},{"user_id":288,"name":"vexo","steam_id":76561198186680410,"connected_time":1671000000000,"state":"active","ping":34},{"user_id":314,"name":"Clorox Consumer","steam_id":76561198120949216,"connected_time":999000000000,"state":"active","ping":45},{"user_id":306,"name":"Juiceydough","steam_id":76561197997323419,"connected_time":1378000000000,"state":"active","ping":82},{"user_id":285,"name":"Joy","steam_id":76561198155314925,"connected_time":1766000000000,"state":"active","ping":59},{"user_id":250,"name":"[DN]Justine Smackhead littlewoo","steam_id":76561198051345585,"connected_time":3064000000000,"state":"active","ping":54},{"user_id":262,"name":"Bronze Age GRINDSET","steam_id":76561198859118263,"connected_time":2608000000000,"state":"active","ping":135},{"user_id":252,"name":"ABC2212","steam_id":76561198058849161,"connected_time":3012000000000,"state":"active","ping":60},{"user_id":335,"name":"ivanmixo","steam_id":76561198160213989,"connected_time":305000000000,"state":"active","ping":74},{"user_id":337,"name":"lenovo","steam_id":76561198049872496,"connected_time":87000000000,"state":"active","ping":84},{"user_id":299,"name":"Coyote29 elitegamers.ro","steam_id":76561198344502070,"connected_time":1501000000000,"state":"active","ping":90},{"user_id":257,"name":"Hotgamerdad","steam_id":76561198085940613,"connected_time":2874000000000,"state":"active","ping":59},{"user_id":258,"name":"The Bean Man","steam_id":76561198046932811,"connected_time":2854000000000,"state":"active","ping":62},{"user_id":292,"name":"Bobo","steam_id":76561198052308399,"connected_time":1592000000000,"state":"active","ping":68},{"user_id":290,"name":"nky","steam_id":76561198086229832,"connected_time":1604000000000,"state":"active","ping":73},{"user_id":338,"name":"penisfinger","steam_id":76561198103904286,"connected_time":5000000000,"state":"spawning","ping":77},{"user_id":317,"name":"Naomi ‚òÖ","steam_id":76561198060307235,"connected_time":942000000000,"state":"active","ping":55},{"user_id":295,"name":"bingy boingy","steam_id":76561198843625880,"connected_time":1558000000000,"state":"active","ping":63},{"user_id":296,"name":"RedFog","steam_id":76561198284713081,"connected_time":1556000000000,"state":"active","ping":50},{"user_id":298,"name":"GardenFungus","steam_id":76561198054894337,"connected_time":1534000000000,"state":"active","ping":44}]},{"server_id":320,"name":"Uncletopia | London | 3 | All Maps","name_short":"lon-3","host":"lon-1.uk.uncletopia.com","port":27035,"enabled":true,"region":"eu","cc":"gb","latitude":51.509865,"longitude":-0.118092,"reserved":0,"last_update":"0001-01-01T00:00:00Z","name_a2s":"Uncletopia | London | 3 | All Maps","protocol":17,"map":"pl_swiftwater_final1","folder":"tf","game":"Team Fortress","app_id":440,"player_count":24,"max_players":24,"Bots":0,"server_type":"Dedicated","server_os":"Linux","password":true,"vac":true,"version":"7757534","steam_id":85568392924510192,"keywords":["nocrits","nodmgspread","payload","uncletopia"],"game_id":440,"stv_port":27036,"stv_name":"Uncletopia | London | 3 | All Maps | STV","players":[{"user_id":703,"name":"Sacrishee","steam_id":76561198169853697,"connected_time":968000000000,"state":"active","ping":65},{"user_id":723,"name":"Emmonii","steam_id":76561199441805420,"connected_time":32000000000,"state":"spawning","ping":119},{"user_id":704,"name":"obscure","steam_id":76561198119532381,"connected_time":848000000000,"state":"active","ping":52},{"user_id":709,"name":"Hartlotte","steam_id":76561198314270417,"connected_time":696000000000,"state":"active","ping":43},{"user_id":690,"name":"furry jesus VR roleplay","steam_id":76561198159100379,"connected_time":2131000000000,"state":"active","ping":64},{"user_id":627,"name":"Benzema","steam_id":76561197999770869,"connected_time":7186000000000,"state":"active","ping":92},{"user_id":691,"name":"Stone Solid Septim","steam_id":76561198087543005,"connected_time":2125000000000,"state":"active","ping":36},{"user_id":685,"name":"Florua","steam_id":76561198182297846,"connected_time":2318000000000,"state":"active","ping":74},{"user_id":706,"name":"beurgeur","steam_id":76561198872426314,"connected_time":742000000000,"state":"active","ping":41},{"user_id":692,"name":"Penis Contortionist","steam_id":76561198073663784,"connected_time":2118000000000,"state":"active","ping":36},{"user_id":707,"name":"Din Javel","steam_id":76561198043018352,"connected_time":739000000000,"state":"active","ping":70},{"user_id":631,"name":"ScreamCram","steam_id":76561199114068524,"connected_time":6563000000000,"state":"active","ping":157},{"user_id":713,"name":"Dragul","steam_id":76561198032885938,"connected_time":600000000000,"state":"active","ping":75},{"user_id":702,"name":"Laurie","steam_id":76561198082951750,"connected_time":999000000000,"state":"active","ping":45},{"user_id":695,"name":"Drunk russian with pyromania","steam_id":76561198195527328,"connected_time":2005000000000,"state":"active","ping":45},{"user_id":722,"name":"!vAn =)","steam_id":76561198053121941,"connected_time":141000000000,"state":"active","ping":41},{"user_id":700,"name":"83TB of Genshin Impact hentai","steam_id":76561198329640236,"connected_time":1253000000000,"state":"active","ping":45},{"user_id":714,"name":"Videogamer","steam_id":76561198106012909,"connected_time":580000000000,"state":"active","ping":79},{"user_id":716,"name":"Rolloden","steam_id":76561198069414404,"connected_time":565000000000,"state":"active","ping":74},{"user_id":717,"name":"Commodore_Perry","steam_id":76561197986675784,"connected_time":551000000000,"state":"active","ping":130},{"user_id":645,"name":"im playing tf2","steam_id":76561198083615367,"connected_time":5832000000000,"state":"active","ping":38},{"user_id":696,"name":"The Entire Canadian Army","steam_id":76561198014636282,"connected_time":2003000000000,"state":"active","ping":174},{"user_id":698,"name":"Brica","steam_id":76561198196324799,"connected_time":1779000000000,"state":"active","ping":88},{"user_id":718,"name":"Bob","steam_id":76561198211772015,"connected_time":540000000000,"state":"active","ping":98}]},{"server_id":321,"name":"Uncletopia | London | 4 | All Maps","name_short":"lon-4","host":"lon-1.uk.uncletopia.com","port":27045,"enabled":true,"region":"eu","cc":"gb","latitude":51.509865,"longitude":-0.118092,"reserved":0,"last_update":"0001-01-01T00:00:00Z","name_a2s":"Uncletopia | London | 4 | All Maps","protocol":17,"map":"pl_badwater","folder":"tf","game":"Team Fortress","app_id":440,"player_count":23,"max_players":24,"Bots":0,"server_type":"Dedicated","server_os":"Linux","password":true,"vac":true,"version":"7757534","steam_id":85568392924510193,"keywords":["nocrits","nodmgspread","payload","uncletopia"],"game_id":440,"stv_port":27046,"stv_name":"Uncletopia | London | 4 | All Maps | STV","players":[{"user_id":486,"name":"Regan","steam_id":76561198100631086,"connected_time":2744000000000,"state":"active","ping":53},{"user_id":523,"name":"STiNGHAN","steam_id":76561198023989090,"connected_time":387000000000,"state":"active","ping":88},{"user_id":506,"name":"Grillem Dafoe","steam_id":76561198306874574,"connected_time":1706000000000,"state":"active","ping":62},{"user_id":527,"name":"Qosmo","steam_id":76561197980806182,"connected_time":0,"state":"spawning","ping":39},{"user_id":504,"name":"kactus","steam_id":76561198154630875,"connected_time":1809000000000,"state":"active","ping":62},{"user_id":437,"name":"Furno","steam_id":76561197999723047,"connected_time":5703000000000,"state":"active","ping":48},{"user_id":517,"name":"Ziltoid","steam_id":76561198020753675,"connected_time":615000000000,"state":"active","ping":73},{"user_id":490,"name":"Kn√∂sta","steam_id":76561198143422139,"connected_time":2480000000000,"state":"active","ping":107},{"user_id":477,"name":"Maurice‚Ñ¢","steam_id":76561198058727934,"connected_time":3562000000000,"state":"active","ping":50},{"user_id":510,"name":"etc","steam_id":76561197998394797,"connected_time":1619000000000,"state":"active","ping":46},{"user_id":518,"name":"FuneralDJ (semen demon)","steam_id":76561198105320071,"connected_time":613000000000,"state":"active","ping":44},{"user_id":526,"name":"Robbie","steam_id":76561198017504503,"connected_time":168000000000,"state":"spawning","ping":78},{"user_id":491,"name":"Their is a chickpea on my floor","steam_id":76561198987558651,"connected_time":2465000000000,"state":"active","ping":58},{"user_id":520,"name":"KingTeddy","steam_id":76561198131757499,"connected_time":496000000000,"state":"active","ping":83},{"user_id":515,"name":"Scouter","steam_id":76561198025368375,"connected_time":749000000000,"state":"active","ping":70},{"user_id":522,"name":"Mr.B","steam_id":76561199204478925,"connected_time":453000000000,"state":"active","ping":113},{"user_id":524,"name":"what is bro doing???","steam_id":76561198257836694,"connected_time":339000000000,"state":"active","ping":36},{"user_id":449,"name":"DooWooD","steam_id":76561198335810106,"connected_time":5235000000000,"state":"active","ping":75},{"user_id":494,"name":"sachiko #","steam_id":76561198139615715,"connected_time":2430000000000,"state":"active","ping":54},{"user_id":511,"name":"7 cans of monster","steam_id":76561198305806575,"connected_time":1374000000000,"state":"active","ping":84},{"user_id":496,"name":"Bat in a thousand","steam_id":76561198320506848,"connected_time":2411000000000,"state":"active","ping":44},{"user_id":509,"name":"bANji","steam_id":76561198108898161,"connected_time":1685000000000,"state":"active","ping":53},{"user_id":499,"name":"mocca","steam_id":76561198045388806,"connected_time":2254000000000,"state":"active","ping":74}]},{"server_id":21,"name":"Uncletopia | London | 5 | All Maps","name_short":"lon-5","host":"lon-1.uk.uncletopia.com","port":27055,"enabled":true,"region":"eu","cc":"gb","latitude":51.509865,"longitude":-0.118092,"reserved":0,"last_update":"0001-01-01T00:00:00Z","name_a2s":"Uncletopia | London | 5 | All Maps","protocol":17,"map":"pl_pier","folder":"tf","game":"Team Fortress","app_id":440,"player_count":24,"max_players":24,"Bots":0,"server_type":"Dedicated","server_os":"Linux","password":true,"vac":true,"version":"7757534","steam_id":85568392924742829,"keywords":["nocrits","nodmgspread","payload","uncletopia"],"game_id":440,"stv_port":27056,"stv_name":"Uncletopia | London | 5 | All Maps | STV","players":[{"user_id":181,"name":"Broadway Rose","steam_id":76561198046083342,"connected_time":2967000000000,"state":"active","ping":108},{"user_id":207,"name":"Jon (alt)","steam_id":76561199380849468,"connected_time":467000000000,"state":"active","ping":63},{"user_id":163,"name":"logantf","steam_id":76561198259668029,"connected_time":5463000000000,"state":"active","ping":48},{"user_id":186,"name":"Kernel Panic","steam_id":76561198215811047,"connected_time":2671000000000,"state":"active","ping":41},{"user_id":174,"name":"H-say","steam_id":76561198177400362,"connected_time":4146000000000,"state":"active","ping":91},{"user_id":187,"name":"Signor_UpB","steam_id":76561199145637231,"connected_time":2174000000000,"state":"active","ping":92},{"user_id":179,"name":"DeDMeeT (The Femboy Barista)","steam_id":76561198135686475,"connected_time":3570000000000,"state":"active","ping":39},{"user_id":188,"name":"Daga","steam_id":76561198055450219,"connected_time":2135000000000,"state":"active","ping":45},{"user_id":198,"name":"iki","steam_id":76561198119607160,"connected_time":1832000000000,"state":"active","ping":76},{"user_id":189,"name":"Bisago!","steam_id":76561198181794353,"connected_time":2118000000000,"state":"active","ping":45},{"user_id":206,"name":"raime","steam_id":76561198024903775,"connected_time":510000000000,"state":"active","ping":97},{"user_id":208,"name":"rock bottom revisited","steam_id":76561198051852765,"connected_time":406000000000,"state":"active","ping":76},{"user_id":205,"name":"Femboy Cr√®me","steam_id":76561198123124279,"connected_time":523000000000,"state":"active","ping":125},{"user_id":212,"name":"Thalgorock","steam_id":76561198195315022,"connected_time":14000000000,"state":"spawning","ping":61},{"user_id":194,"name":"kektuse","steam_id":76561198088426580,"connected_time":2020000000000,"state":"active","ping":74},{"user_id":170,"name":"syms","steam_id":76561198066679812,"connected_time":4667000000000,"state":"active","ping":91},{"user_id":211,"name":"sork","steam_id":76561198082446459,"connected_time":101000000000,"state":"active","ping":78},{"user_id":172,"name":"sbren sbeve","steam_id":76561198116530769,"connected_time":4296000000000,"state":"active","ping":90},{"user_id":199,"name":"Ember The Femboy","steam_id":76561198139630565,"connected_time":1650000000000,"state":"active","ping":63},{"user_id":193,"name":"MaypulSoyrup","steam_id":76561199213966821,"connected_time":2041000000000,"state":"active","ping":77},{"user_id":200,"name":"Camo Leaf","steam_id":76561197999456575,"connected_time":1598000000000,"state":"active","ping":64},{"user_id":180,"name":"Joseph Stalin","steam_id":76561198033199746,"connected_time":3042000000000,"state":"active","ping":56},{"user_id":201,"name":"Spaghetti Autism","steam_id":76561198125882199,"connected_time":1406000000000,"state":"active","ping":61},{"user_id":203,"name":"Cerabond","steam_id":76561199230915333,"connected_time":1183000000000,"state":"active","ping":132}]},{"server_id":22,"name":"Uncletopia | London | 6 | All Maps","name_short":"lon-6","host":"lon-1.uk.uncletopia.com","port":27065,"enabled":true,"region":"eu","cc":"gb","latitude":51.509865,"longitude":-0.118092,"reserved":0,"last_update":"0001-01-01T00:00:00Z","name_a2s":"Uncletopia | London | 6 | All Maps","protocol":17,"map":"cp_dustbowl","folder":"tf","game":"Team Fortress","app_id":440,"player_count":0,"max_players":24,"Bots":0,"server_type":"Dedicated","server_os":"Linux","password":true,"vac":true,"version":"7757534","steam_id":85568392924742830,"keywords":["cp","nocrits","nodmgspread","uncletopia"],"game_id":440,"stv_port":27066,"stv_name":"Uncletopia | London | 6 | All Maps | STV","players":null},{"server_id":40,"name":"Uncletopia | London | 7 | No Payload","name_short":"lon-7","host":"lon-1.uk.uncletopia.com","port":27075,"enabled":true,"region":"eu","cc":"gb","latitude":51.509865,"longitude":-0.118092,"reserved":0,"last_update":"0001-01-01T00:00:00Z","name_a2s":"Uncletopia | London | 7 | No Payload","protocol":17,"map":"koth_suijin","folder":"tf","game":"Team Fortress","app_id":440,"player_count":0,"max_players":24,"Bots":0,"server_type":"Dedicated","server_os":"Linux","password":true,"vac":true,"version":"7757534","steam_id":85568392924964314,"keywords":["cp","nocrits","nodmgspread","uncletopia"],"game_id":440,"stv_port":27076,"stv_name":"Uncletopia | London | 7 | No Payload | STV","players":null},{"server_id":41,"name":"Uncletopia | London | 8 | Community","name_short":"lon-8","host":"lon-1.uk.uncletopia.com","port":27085,"enabled":true,"region":"eu","cc":"gb","latitude":51.509865,"longitude":-0.118092,"reserved":0,"last_update":"0001-01-01T00:00:00Z","name_a2s":"Uncletopia | London | 8 | Community","protocol":17,"map":"workshop/cp_mannbase_rc2a.ugc1900737467","folder":"tf","game":"Team Fortress","app_id":440,"player_count":0,"max_players":24,"Bots":0,"server_type":"Dedicated","server_os":"Linux","password":true,"vac":true,"version":"7757534","steam_id":85568392924964315,"keywords":["cp","nocrits","nodmgspread","uncletopia"],"game_id":440,"stv_port":27086,"stv_name":"Uncletopia | London | 8 | Community | STV","players":null},{"server_id":300,"name":"Uncletopia | Montr√©al | 1 | All Maps","name_short":"mtl-1","host":"mtl-1.ca.uncletopia.com","port":27015,"enabled":true,"region":"us-east","cc":"ca","latitude":45.50889,"longitude":-73.56167,"reserved":0,"last_update":"0001-01-01T00:00:00Z","name_a2s":"Uncletopia | Montr√©al | 1 | All Maps","protocol":17,"map":"pl_barnblitz","folder":"tf","game":"Team Fortress","app_id":440,"player_count":24,"max_players":24,"Bots":0,"server_type":"Dedicated","server_os":"Linux","password":true,"vac":true,"version":"7757534","steam_id":85568392924500087,"keywords":["nocrits","nodmgspread","payload","uncletopia"],"game_id":440,"stv_port":27016,"stv_name":"Uncletopia | Montr√©al | 1 | All Maps | STV","players":[{"user_id":105,"name":"Woodsy Owl","steam_id":76561199100226695,"connected_time":230000000000,"state":"active","ping":46},{"user_id":73,"name":"Spruce Heffertippin","steam_id":76561198002435069,"connected_time":2295000000000,"state":"active","ping":112},{"user_id":50,"name":"Cement Drinker","steam_id":76561198143315013,"connected_time":3505000000000,"state":"active","ping":51},{"user_id":106,"name":"jooce","steam_id":76561198129069834,"connected_time":174000000000,"state":"active","ping":64},{"user_id":86,"name":"Ripley","steam_id":76561198080766916,"connected_time":1215000000000,"state":"active","ping":59},{"user_id":60,"name":"onionbagel4","steam_id":76561199134895220,"connected_time":2869000000000,"state":"active","ping":66},{"user_id":79,"name":"thigh meat.. meaty,,hips","steam_id":76561198103496593,"connected_time":2010000000000,"state":"active","ping":67},{"user_id":88,"name":"Johnny Lawrence #JohnnyMaxxing","steam_id":76561199367141671,"connected_time":1184000000000,"state":"active","ping":60},{"user_id":91,"name":"1777","steam_id":76561199473015151,"connected_time":1126000000000,"state":"active","ping":53},{"user_id":61,"name":"RipHunter77","steam_id":76561198272973014,"connected_time":2860000000000,"state":"active","ping":101},{"user_id":107,"name":"ROGUE-PLANET","steam_id":76561198116023052,"connected_time":143000000000,"state":"active","ping":90},{"user_id":92,"name":"Larry from Pokemon SV","steam_id":76561198095245223,"connected_time":1103000000000,"state":"active","ping":51},{"user_id":93,"name":"[chef] iron","steam_id":76561197970888616,"connected_time":1098000000000,"state":"active","ping":59},{"user_id":23,"name":"mio","steam_id":76561198239286750,"connected_time":5526000000000,"state":"active","ping":58},{"user_id":25,"name":"teaf","steam_id":76561198406252824,"connected_time":5520000000000,"state":"active","ping":120},{"user_id":98,"name":"Smiles","steam_id":76561198107197973,"connected_time":970000000000,"state":"active","ping":74},{"user_id":97,"name":"Bart Harley Jarvis","steam_id":76561199215811448,"connected_time":995000000000,"state":"active","ping":56},{"user_id":110,"name":"girls' last tour","steam_id":76561198321627268,"connected_time":73000000000,"state":"active","ping":152},{"user_id":108,"name":"SpaceHam","steam_id":76561198066432546,"connected_time":139000000000,"state":"active","ping":88},{"user_id":66,"name":"The Crungo","steam_id":76561199141492981,"connected_time":2670000000000,"state":"active","ping":54},{"user_id":55,"name":"Decimus","steam_id":76561198341781527,"connected_time":3188000000000,"state":"active","ping":69},{"user_id":83,"name":"chiswola","steam_id":76561198046920142,"connected_time":1261000000000,"state":"active","ping":91},{"user_id":109,"name":"ROUNDS player","steam_id":76561198041384532,"connected_time":130000000000,"state":"active","ping":84},{"user_id":111,"name":"Rex","steam_id":76561198138365053,"connected_time":72000000000,"state":"spawning","ping":136}]},{"server_id":301,"name":"Uncletopia | Montr√©al | 2 | All Maps","name_short":"mtl-2","host":"mtl-1.ca.uncletopia.com","port":27025,"enabled":true,"region":"us-east","cc":"ca","latitude":45.50889,"longitude":-73.56167,"reserved":0,"last_update":"0001-01-01T00:00:00Z","name_a2s":"Uncletopia | Montr√©al | 2 | All Maps","protocol":17,"map":"pl_snowycoast","folder":"tf","game":"Team Fortress","app_id":440,"player_count":0,"max_players":24,"Bots":0,"server_type":"Dedicated","server_os":"Linux","password":true,"vac":true,"version":"7757534","steam_id":85568392924500088,"keywords":["nocrits","nodmgspread","payload","uncletopia"],"game_id":440,"stv_port":27026,"stv_name":"Uncletopia | Montr√©al | 2 | All Maps | STV","players":null},{"server_id":302,"name":"Uncletopia | Montr√©al | 3 | All Maps","name_short":"mtl-3","host":"mtl-1.ca.uncletopia.com","port":27035,"enabled":true,"region":"us-east","cc":"ca","latitude":45.50889,"longitude":-73.56167,"reserved":0,"last_update":"0001-01-01T00:00:00Z","name_a2s":"Uncletopia | Montr√©al | 3 | All Maps","protocol":17,"map":"cp_dustbowl","folder":"tf","game":"Team Fortress","app_id":440,"player_count":0,"max_players":24,"Bots":0,"server_type":"Dedicated","server_os":"Linux","password":true,"vac":true,"version":"7757534","steam_id":85568392924500089,"keywords":["cp","nocrits","nodmgspread","uncletopia"],"game_id":440,"stv_port":27036,"stv_name":"Uncletopia | Montr√©al | 3 | All Maps | STV","players":null},{"server_id":303,"name":"Uncletopia | Montr√©al | 4 | No Payload","name_short":"mtl-4","host":"mtl-1.ca.uncletopia.com","port":27045,"enabled":true,"region":"us-east","cc":"ca","latitude":45.50889,"longitude":-73.56167,"reserved":0,"last_update":"0001-01-01T00:00:00Z","name_a2s":"Uncletopia | Montr√©al | 4 | No Payload","protocol":17,"map":"pl_borneo","folder":"tf","game":"Team Fortress","app_id":440,"player_count":0,"max_players":24,"Bots":0,"server_type":"Dedicated","server_os":"Linux","password":true,"vac":true,"version":"7757534","steam_id":85568392924500090,"keywords":["nocrits","nodmgspread","payload","uncletopia"],"game_id":440,"stv_port":27046,"stv_name":"Uncletopia | Montr√©al | 4 | No Payload | STV","players":null},{"server_id":13,"name":"Uncletopia | New York City | 1 | All Maps","name_short":"nyc-1","host":"nyc-1.us.uncletopia.com","port":27015,"enabled":true,"region":"us-east","cc":"us","latitude":40.73061,"longitude":-73.93524,"reserved":0,"last_update":"0001-01-01T00:00:00Z","name_a2s":"Uncletopia | New York City | 1 | All Maps","protocol":17,"map":"pl_badwater","folder":"tf","game":"Team Fortress","app_id":440,"player_count":24,"max_players":24,"Bots":0,"server_type":"Dedicated","server_os":"Linux","password":true,"vac":true,"version":"7757534","steam_id":85568392924469993,"keywords":["nocrits","nodmgspread","payload","uncletopia"],"game_id":440,"stv_port":27016,"stv_name":"Uncletopia | New York City | 1 | All Maps | STV","players":[{"user_id":290,"name":"Bernaners","steam_id":76561198142665643,"connected_time":6239000000000,"state":"active","ping":111},{"user_id":338,"name":"Laelaps","steam_id":76561198100061416,"connected_time":1764000000000,"state":"active","ping":54},{"user_id":336,"name":"nhbiker","steam_id":76561198081277675,"connected_time":1812000000000,"state":"active","ping":57},{"user_id":300,"name":"Krellah","steam_id":76561198287045069,"connected_time":5221000000000,"state":"active","ping":58},{"user_id":339,"name":"Loafus","steam_id":76561198154561111,"connected_time":1752000000000,"state":"active","ping":65},{"user_id":347,"name":"kursed","steam_id":76561198992371495,"connected_time":1331000000000,"state":"active","ping":45},{"user_id":346,"name":"Bother","steam_id":76561198336750909,"connected_time":1386000000000,"state":"active","ping":36},{"user_id":319,"name":"rlty","steam_id":76561198009395055,"connected_time":3144000000000,"state":"active","ping":47},{"user_id":313,"name":"Discourse","steam_id":76561198984286678,"connected_time":3685000000000,"state":"active","ping":75},{"user_id":337,"name":"rip muhammad ali","steam_id":76561198072640720,"connected_time":1802000000000,"state":"active","ping":50},{"user_id":350,"name":"Glad","steam_id":76561199388372220,"connected_time":413000000000,"state":"active","ping":54},{"user_id":324,"name":"Johnthan West","steam_id":76561198818688570,"connected_time":2962000000000,"state":"active","ping":54},{"user_id":288,"name":"wjnger","steam_id":76561198120498226,"connected_time":6267000000000,"state":"active","ping":125},{"user_id":340,"name":"Nightmare Tune","steam_id":76561198880493433,"connected_time":1750000000000,"state":"active","ping":87},{"user_id":341,"name":"Shagbark","steam_id":76561198173447342,"connected_time":1705000000000,"state":"active","ping":75},{"user_id":349,"name":"bladee","steam_id":76561198209795841,"connected_time":431000000000,"state":"active","ping":55},{"user_id":344,"name":"SpinetinglingToast","steam_id":76561198099470670,"connected_time":1629000000000,"state":"active","ping":52},{"user_id":348,"name":"SaltyFaulty","steam_id":76561199017898392,"connected_time":1109000000000,"state":"active","ping":65},{"user_id":351,"name":"Kangroe","steam_id":76561198346844814,"connected_time":408000000000,"state":"active","ping":75},{"user_id":352,"name":"grind","steam_id":76561198801214349,"connected_time":403000000000,"state":"active","ping":64},{"user_id":353,"name":"gimpy terry","steam_id":76561198940368888,"connected_time":188000000000,"state":"active","ping":60},{"user_id":354,"name":"A Puppy","steam_id":76561198828184456,"connected_time":183000000000,"state":"active","ping":49},{"user_id":241,"name":"Norik","steam_id":76561198116128390,"connected_time":10209000000000,"state":"active","ping":84},{"user_id":331,"name":"fast","steam_id":76561198311704368,"connected_time":2429000000000,"state":"active","ping":61}]},{"server_id":14,"name":"Uncletopia | New York City | 2 | All Maps","name_short":"nyc-2","host":"nyc-1.us.uncletopia.com","port":27025,"enabled":true,"region":"us-east","cc":"us","latitude":40.73061,"longitude":-73.93524,"reserved":0,"last_update":"0001-01-01T00:00:00Z","name_a2s":"Uncletopia | New York City | 2 | All Maps","protocol":17,"map":"koth_cascade","folder":"tf","game":"Team Fortress","app_id":440,"player_count":0,"max_players":24,"Bots":0,"server_type":"Dedicated","server_os":"Linux","password":true,"vac":true,"version":"7757534","steam_id":85568392924469994,"keywords":["cp","nocrits","nodmgspread","uncletopia"],"game_id":440,"stv_port":27026,"stv_name":"Uncletopia | New York City | 2 | All Maps | STV","players":null},{"server_id":15,"name":"Uncletopia | New York City | 3 | Stopwatch Beta","name_short":"nyc-3","host":"nyc-1.us.uncletopia.com","port":27035,"enabled":true,"region":"us-east","cc":"us","latitude":40.73061,"longitude":-73.93524,"reserved":0,"last_update":"0001-01-01T00:00:00Z","name_a2s":"Uncletopia | New York City | 3 | Stopwatch Beta","protocol":17,"map":"cp_mountainlab","folder":"tf","game":"Team Fortress","app_id":440,"player_count":0,"max_players":24,"Bots":0,"server_type":"Dedicated","server_os":"Linux","password":true,"vac":true,"version":"7757534","steam_id":85568392924742820,"keywords":["cp","nocrits","nodmgspread","uncletopia"],"game_id":440,"stv_port":27036,"stv_name":"Uncletopia | New York City | 3 | Stopwatch Beta | STV","players":null},{"server_id":16,"name":"Uncletopia | New York City | 4 | Community","name_short":"nyc-4","host":"nyc-1.us.uncletopia.com","port":27045,"enabled":true,"region":"us-east","cc":"us","latitude":40.73061,"longitude":-73.93524,"reserved":0,"last_update":"0001-01-01T00:00:00Z","name_a2s":"Uncletopia | New York City | 4 | Community","protocol":17,"map":"workshop/cp_reckoner_rc6.ugc674719999","folder":"tf","game":"Team Fortress","app_id":440,"player_count":0,"max_players":24,"Bots":0,"server_type":"Dedicated","server_os":"Linux","password":true,"vac":true,"version":"7757534","steam_id":85568392924742821,"keywords":["cp","nocrits","nodmgspread","uncletopia"],"game_id":440,"stv_port":27046,"stv_name":"Uncletopia | New York City | 4 | Community | STV","players":null},{"server_id":142,"name":"Uncletopia | S√£o Paulo | 1 | All Maps","name_short":"sao-1","host":"sao-1.br.uncletopia.com","port":27015,"enabled":true,"region":"sa","cc":"br","latitude":-23.533773,"longitude":-46.62529,"reserved":0,"last_update":"0001-01-01T00:00:00Z","name_a2s":"Uncletopia | S√£o Paulo | 1 | All Maps","protocol":17,"map":"pl_frontier_final","folder":"tf","game":"Team Fortress","app_id":440,"player_count":0,"max_players":24,"Bots":0,"server_type":"Dedicated","server_os":"Linux","password":true,"vac":true,"version":"7757534","steam_id":85568392924469996,"keywords":["nocrits","nodmgspread","payload","uncletopia"],"game_id":440,"stv_port":27016,"stv_name":"Uncletopia | S√£o Paulo | 1 | All Maps | STV","players":null},{"server_id":143,"name":"Uncletopia | S√£o Paulo | 2 | All Maps","name_short":"sao-2","host":"sao-2.br.uncletopia.com","port":27015,"enabled":true,"region":"sa","cc":"br","latitude":-23.533773,"longitude":-46.62529,"reserved":0,"last_update":"0001-01-01T00:00:00Z","name_a2s":"Uncletopia | S√£o Paulo | 2 | All Maps","protocol":17,"map":"pl_pier","folder":"tf","game":"Team Fortress","app_id":440,"player_count":7,"max_players":24,"Bots":0,"server_type":"Dedicated","server_os":"Linux","password":true,"vac":true,"version":"7757534","steam_id":85568392924485349,"keywords":["nocrits","nodmgspread","payload","uncletopia"],"game_id":440,"stv_port":27016,"stv_name":"Uncletopia | S√£o Paulo | 2 | All Maps | STV","players":[{"user_id":71,"name":"Somos campeones ‚òÖ‚òÖ‚òÖ","steam_id":76561199017999458,"connected_time":145000000000,"state":"active","ping":79},{"user_id":65,"name":"Recruta [BR]","steam_id":76561198082299867,"connected_time":1889000000000,"state":"active","ping":69},{"user_id":67,"name":"kate ‚ùÄ","steam_id":76561198805567120,"connected_time":1033000000000,"state":"active","ping":47},{"user_id":68,"name":"susi spah","steam_id":76561199095176649,"connected_time":796000000000,"state":"active","ping":42},{"user_id":69,"name":"Simply V","steam_id":76561199058243841,"connected_time":681000000000,"state":"active","ping":102},{"user_id":72,"name":"CrimsonKiller823","steam_id":76561199067615656,"connected_time":145000000000,"state":"active","ping":276},{"user_id":60,"name":"Biker Pyro #CLGang","steam_id":76561198392528524,"connected_time":3570000000000,"state":"active","ping":44}]},{"server_id":7,"name":"Uncletopia | Seattle | 1 | All Maps","name_short":"sea-1","host":"sea-1.us.uncletopia.com","port":27015,"enabled":true,"region":"us-west","cc":"us","latitude":47.608013,"longitude":-122.33517,"reserved":0,"last_update":"0001-01-01T00:00:00Z","name_a2s":"Uncletopia | Seattle | 1 | All Maps","protocol":17,"map":"pl_upward","folder":"tf","game":"Team Fortress","app_id":440,"player_count":24,"max_players":24,"Bots":0,"server_type":"Dedicated","server_os":"Linux","password":true,"vac":true,"version":"7757534","steam_id":85568392924469997,"keywords":["nocrits","nodmgspread","payload","uncletopia"],"game_id":440,"stv_port":27016,"stv_name":"Uncletopia | Seattle | 1 | All Maps | STV","players":[{"user_id":11,"name":"Korey","steam_id":76561198210734407,"connected_time":2689000000000,"state":"active","ping":119},{"user_id":12,"name":"Aardappel","steam_id":76561198030894676,"connected_time":2665000000000,"state":"active","ping":71},{"user_id":13,"name":"SHIADYNE","steam_id":76561198271939793,"connected_time":1260000000000,"state":"active","ping":45},{"user_id":14,"name":"Villchip","steam_id":76561198198599982,"connected_time":1154000000000,"state":"active","ping":49},{"user_id":15,"name":"Maj","steam_id":76561198128811267,"connected_time":1008000000000,"state":"active","ping":70},{"user_id":21,"name":"Klopo","steam_id":76561198871108633,"connected_time":640000000000,"state":"active","ping":53},{"user_id":40,"name":"FT","steam_id":76561198010452388,"connected_time":260000000000,"state":"active","ping":130},{"user_id":19,"name":"egyptiangodcard","steam_id":76561198855935442,"connected_time":717000000000,"state":"active","ping":60},{"user_id":23,"name":"SpidercaxeZeGamer","steam_id":76561199189075618,"connected_time":619000000000,"state":"active","ping":107},{"user_id":24,"name":"H4V0C","steam_id":76561199129350925,"connected_time":603000000000,"state":"active","ping":55},{"user_id":27,"name":"goongremlin","steam_id":76561198278196215,"connected_time":572000000000,"state":"active","ping":69},{"user_id":41,"name":"Chin","steam_id":76561198247426906,"connected_time":257000000000,"state":"active","ping":146},{"user_id":37,"name":"Delacroix","steam_id":76561198842964669,"connected_time":416000000000,"state":"active","ping":111},{"user_id":29,"name":"brobtlcehc","steam_id":76561198043558709,"connected_time":526000000000,"state":"active","ping":46},{"user_id":30,"name":"Red on Red","steam_id":76561198802356746,"connected_time":521000000000,"state":"active","ping":90},{"user_id":31,"name":"Tele Co","steam_id":76561198041909269,"connected_time":514000000000,"state":"active","ping":90},{"user_id":43,"name":"TwerkForWiFi","steam_id":76561198022489615,"connected_time":194000000000,"state":"active","ping":76},{"user_id":33,"name":"h","steam_id":76561198092186935,"connected_time":481000000000,"state":"active","ping":181},{"user_id":34,"name":"Thexx ‚ù§","steam_id":76561198113823050,"connected_time":475000000000,"state":"active","ping":46},{"user_id":35,"name":"Robogineer","steam_id":76561198026994739,"connected_time":464000000000,"state":"active","ping":74},{"user_id":36,"name":"nolife","steam_id":76561198414300607,"connected_time":454000000000,"state":"active","ping":90},{"user_id":38,"name":"Azaheth","steam_id":76561198253616898,"connected_time":385000000000,"state":"active","ping":74},{"user_id":39,"name":"Maniac Hat","steam_id":76561199082942851,"connected_time":371000000000,"state":"active","ping":135},{"user_id":45,"name":"Berdly","steam_id":76561199095454039,"connected_time":56000000000,"state":"active","ping":68}]},{"server_id":119,"name":"Uncletopia | Seattle | 2 | All Maps","name_short":"sea-2","host":"sea-1.us.uncletopia.com","port":27025,"enabled":true,"region":"us-west","cc":"us","latitude":47.608013,"longitude":-122.33517,"reserved":0,"last_update":"0001-01-01T00:00:00Z","name_a2s":"Uncletopia | Seattle | 2 | All Maps","protocol":17,"map":"pl_rumford_event","folder":"tf","game":"Team Fortress","app_id":440,"player_count":23,"max_players":24,"Bots":0,"server_type":"Dedicated","server_os":"Linux","password":true,"vac":true,"version":"7757534","steam_id":85568392924469998,"keywords":["nocrits","nodmgspread","payload","uncletopia"],"game_id":440,"stv_port":27026,"stv_name":"Uncletopia | Seattle | 2 | All Maps | STV","players":[{"user_id":273,"name":"dirty30","steam_id":76561198021226566,"connected_time":762000000000,"state":"active","ping":46},{"user_id":267,"name":"Cloud","steam_id":76561198272454184,"connected_time":1565000000000,"state":"active","ping":169},{"user_id":244,"name":"PerKnuckleChuckle","steam_id":76561198023221596,"connected_time":3098000000000,"state":"active","ping":83},{"user_id":266,"name":"TheMagicMrWaffle","steam_id":76561198104357256,"connected_time":1688000000000,"state":"active","ping":63},{"user_id":242,"name":"Communist Party of Wutville","steam_id":76561198844003641,"connected_time":3176000000000,"state":"active","ping":85},{"user_id":183,"name":"goldhed","steam_id":76561198051751133,"connected_time":5683000000000,"state":"active","ping":60},{"user_id":270,"name":"ulysses","steam_id":76561198059313367,"connected_time":1259000000000,"state":"active","ping":39},{"user_id":272,"name":"Pneumo.","steam_id":76561197987911883,"connected_time":1151000000000,"state":"active","ping":67},{"user_id":229,"name":"Immunized","steam_id":76561197985889870,"connected_time":3998000000000,"state":"active","ping":42},{"user_id":275,"name":"Artistic","steam_id":76561198118159566,"connected_time":62000000000,"state":"active","ping":90},{"user_id":227,"name":"i need an adult","steam_id":76561198086216875,"connected_time":4068000000000,"state":"active","ping":64},{"user_id":240,"name":"DORATHEEXPLORER","steam_id":76561198124773931,"connected_time":3539000000000,"state":"active","ping":89},{"user_id":211,"name":"Jorge_dude_2008","steam_id":76561198870649125,"connected_time":4463000000000,"state":"active","ping":76},{"user_id":255,"name":"Alexander1353","steam_id":76561198249641266,"connected_time":2379000000000,"state":"active","ping":79},{"user_id":276,"name":"Dirtywaterbottle","steam_id":76561198142897949,"connected_time":28000000000,"state":"spawning","ping":107},{"user_id":258,"name":"Lazy","steam_id":76561198802747832,"connected_time":2245000000000,"state":"active","ping":59},{"user_id":263,"name":"toodles","steam_id":76561198025463883,"connected_time":1790000000000,"state":"active","ping":50},{"user_id":268,"name":"SwoopShoot","steam_id":76561199024079388,"connected_time":1559000000000,"state":"active","ping":45},{"user_id":257,"name":"Arenovas","steam_id":76561198042341811,"connected_time":2284000000000,"state":"active","ping":75},{"user_id":274,"name":"vareh","steam_id":76561197993190926,"connected_time":573000000000,"state":"active","ping":60},{"user_id":277,"name":"NANO","steam_id":76561199009634635,"connected_time":9000000000,"state":"active","ping":150},{"user_id":250,"name":"Frostyfaucet","steam_id":76561198060524722,"connected_time":2732000000000,"state":"active","ping":38},{"user_id":265,"name":"Closed.","steam_id":76561198212598967,"connected_time":1698000000000,"state":"active","ping":74}]},{"server_id":406,"name":"Uncletopia | Seattle | 3 | Stopwatch Beta","name_short":"sea-3","host":"sea-1.us.uncletopia.com","port":27035,"enabled":true,"region":"us-west","cc":"us","latitude":47.608013,"longitude":-122.33517,"reserved":0,"last_update":"0001-01-01T00:00:00Z","name_a2s":"Uncletopia | Seattle | 3 | Stopwatch Beta","protocol":17,"map":"workshop/koth_clearcut_b15.ugc2107050255","folder":"tf","game":"Team Fortress","app_id":440,"player_count":3,"max_players":24,"Bots":0,"server_type":"Dedicated","server_os":"Linux","password":true,"vac":true,"version":"7757534","steam_id":85568392924515217,"keywords":["cp","nocrits","nodmgspread","uncletopia"],"game_id":440,"stv_port":27036,"stv_name":"Uncletopia | Seattle | 3 | Stopwatch Beta | STV","players":[{"user_id":7,"name":"January","steam_id":76561199100225735,"connected_time":152000000000,"state":"spawning","ping":44},{"user_id":8,"name":"Kreigsman [TSM]","steam_id":76561199113359934,"connected_time":121000000000,"state":"active","ping":107},{"user_id":9,"name":"Morse","steam_id":76561198039944542,"connected_time":4000000000,"state":"spawning","ping":66}]},{"server_id":17,"name":"Uncletopia | San Francisco | 1 | All Maps","name_short":"sfo-1","host":"sfo-1.us.uncletopia.com","port":27015,"enabled":true,"region":"us-west","cc":"us","latitude":37.77397,"longitude":-122.4313,"reserved":0,"last_update":"0001-01-01T00:00:00Z","name_a2s":"Uncletopia | San Francisco | 1 | All Maps","protocol":17,"map":"koth_viaduct","folder":"tf","game":"Team Fortress","app_id":440,"player_count":0,"max_players":24,"Bots":0,"server_type":"Dedicated","server_os":"Linux","password":true,"vac":true,"version":"7757534","steam_id":85568392924469999,"keywords":["cp","nocrits","nodmgspread","uncletopia"],"game_id":440,"stv_port":27016,"stv_name":"Uncletopia | San Francisco | 1 | All Maps | STV","players":null},{"server_id":18,"name":"Uncletopia | San Francisco | 2 | All Maps","name_short":"sfo-2","host":"sfo-1.us.uncletopia.com","port":27025,"enabled":true,"region":"us-west","cc":"us","latitude":37.77397,"longitude":-122.4313,"reserved":0,"last_update":"0001-01-01T00:00:00Z","name_a2s":"Uncletopia | San Francisco | 2 | All Maps","protocol":17,"map":"koth_highpass","folder":"tf","game":"Team Fortress","app_id":440,"player_count":0,"max_players":24,"Bots":0,"server_type":"Dedicated","server_os":"Linux","password":true,"vac":true,"version":"7757534","steam_id":85568392924470000,"keywords":["cp","nocrits","nodmgspread","uncletopia"],"game_id":440,"stv_port":27026,"stv_name":"Uncletopia | San Francisco | 2 | All Maps | STV","players":null},{"server_id":19,"name":"Uncletopia | San Francisco | 3 | Stopwatch Beta","name_short":"sfo-3","host":"sfo-1.us.uncletopia.com","port":27035,"enabled":true,"region":"us-west","cc":"us","latitude":37.77397,"longitude":-122.4313,"reserved":0,"last_update":"0001-01-01T00:00:00Z","name_a2s":"Uncletopia | San Francisco | 3 | Stopwatch Beta","protocol":17,"map":"pl_borneo","folder":"tf","game":"Team Fortress","app_id":440,"player_count":0,"max_players":24,"Bots":0,"server_type":"Dedicated","server_os":"Linux","password":true,"vac":true,"version":"7757534","steam_id":85568392924742824,"keywords":["nocrits","nodmgspread","payload","uncletopia"],"game_id":440,"stv_port":27036,"stv_name":"Uncletopia | San Francisco | 3 | Stopwatch Beta | STV","players":null},{"server_id":20,"name":"Uncletopia | San Francisco | 4 | Community","name_short":"sfo-4","host":"sfo-1.us.uncletopia.com","port":27045,"enabled":true,"region":"us-west","cc":"us","latitude":37.77397,"longitude":-122.4313,"reserved":0,"last_update":"0001-01-01T00:00:00Z","name_a2s":"Uncletopia | San Francisco | 4 | Community","protocol":17,"map":"koth_highpass","folder":"tf","game":"Team Fortress","app_id":440,"player_count":0,"max_players":24,"Bots":0,"server_type":"Dedicated","server_os":"Linux","password":true,"vac":true,"version":"7757534","steam_id":85568392924742826,"keywords":["cp","nocrits","nodmgspread","uncletopia"],"game_id":440,"stv_port":27046,"stv_name":"Uncletopia | San Francisco | 4 | Community | STV","players":null},{"server_id":141,"name":"Uncletopia | Sydney | 1 | All Maps","name_short":"syd-1","host":"syd-1.au.uncletopia.com","port":27015,"enabled":true,"region":"au","cc":"au","latitude":-33.865143,"longitude":151.2099,"reserved":0,"last_update":"0001-01-01T00:00:00Z","name_a2s":"Uncletopia | Sydney | 1 | All Maps","protocol":17,"map":"koth_highpass","folder":"tf","game":"Team Fortress","app_id":440,"player_count":0,"max_players":24,"Bots":0,"server_type":"Dedicated","server_os":"Linux","password":true,"vac":true,"version":"7757534","steam_id":85568392924470001,"keywords":["cp","nocrits","nodmgspread","uncletopia"],"game_id":440,"stv_port":27016,"stv_name":"Uncletopia | Sydney | 1 | All Maps | STV","players":null},{"server_id":123,"name":"Uncletopia | Sydney | 2 | All Maps","name_short":"syd-2","host":"syd-1.au.uncletopia.com","port":27025,"enabled":true,"region":"au","cc":"au","latitude":-33.865143,"longitude":151.2099,"reserved":0,"last_update":"0001-01-01T00:00:00Z","name_a2s":"Uncletopia | Sydney | 2 | All Maps","protocol":17,"map":"koth_highpass","folder":"tf","game":"Team Fortress","app_id":440,"player_count":0,"max_players":24,"Bots":0,"server_type":"Dedicated","server_os":"Linux","password":true,"vac":true,"version":"7757534","steam_id":85568392924470002,"keywords":["cp","nocrits","nodmgspread","uncletopia"],"game_id":440,"stv_port":27026,"stv_name":"Uncletopia | Sydney | 2 | All Maps | STV","players":null},{"server_id":395,"name":"Uncletopia | Sydney | 3 | All Maps","name_short":"syd-3","host":"syd-1.au.uncletopia.com","port":27035,"enabled":true,"region":"au","cc":"au","latitude":-33.865143,"longitude":151.2099,"reserved":0,"last_update":"0001-01-01T00:00:00Z","name_a2s":"Uncletopia | Sydney | 3 | All Maps","protocol":17,"map":"pl_upward","folder":"tf","game":"Team Fortress","app_id":440,"player_count":0,"max_players":24,"Bots":0,"server_type":"Dedicated","server_os":"Linux","password":true,"vac":true,"version":"7757534","steam_id":85568392925194467,"keywords":["nocrits","nodmgspread","payload","uncletopia"],"game_id":440,"stv_port":27036,"stv_name":"Uncletopia | Sydney | 3 | All Maps | STV","players":null},{"server_id":396,"name":"Uncletopia | Sydney | 4 | All Maps","name_short":"syd-4","host":"syd-1.au.uncletopia.com","port":27045,"enabled":true,"region":"au","cc":"au","latitude":-33.865143,"longitude":151.2099,"reserved":0,"last_update":"0001-01-01T00:00:00Z","name_a2s":"Uncletopia | Sydney | 4 | All Maps","protocol":17,"map":"koth_lakeside_final","folder":"tf","game":"Team Fortress","app_id":440,"player_count":0,"max_players":24,"Bots":0,"server_type":"Dedicated","server_os":"Linux","password":true,"vac":true,"version":"7757534","steam_id":85568392925397958,"keywords":["cp","nocrits","nodmgspread","uncletopia"],"game_id":440,"stv_port":27046,"stv_name":"Uncletopia | Sydney | 4 | All Maps | STV","players":null},{"server_id":58,"name":"Uncletopia | Sydney | 5 | Stopwatch Beta","name_short":"syd-5","host":"syd-1.au.uncletopia.com","port":27055,"enabled":true,"region":"au","cc":"au","latitude":-33.865143,"longitude":151.2099,"reserved":0,"last_update":"0001-01-01T00:00:00Z","name_a2s":"Uncletopia | Sydney | 5 | Stopwatch Beta","protocol":17,"map":"koth_highpass","folder":"tf","game":"Team Fortress","app_id":440,"player_count":0,"max_players":24,"Bots":0,"server_type":"Dedicated","server_os":"Linux","password":true,"vac":true,"version":"7757534","steam_id":85568392925397959,"keywords":["cp","nocrits","nodmgspread","uncletopia"],"game_id":440,"stv_port":27056,"stv_name":"Uncletopia | Sydney | 5 | Stopwatch Beta | STV","players":null},{"server_id":59,"name":"Uncletopia | Sydney | 6 | Community","name_short":"syd-6","host":"syd-1.au.uncletopia.com","port":27065,"enabled":true,"region":"au","cc":"au","latitude":-33.865143,"longitude":151.2099,"reserved":0,"last_update":"0001-01-01T00:00:00Z","name_a2s":"Uncletopia | Sydney | 6 | Community","protocol":17,"map":"cp_sunshine","folder":"tf","game":"Team Fortress","app_id":440,"player_count":0,"max_players":24,"Bots":0,"server_type":"Dedicated","server_os":"Linux","password":true,"vac":true,"version":"7757534","steam_id":85568392925397960,"keywords":["cp","nocrits","nodmgspread","uncletopia"],"game_id":440,"stv_port":27066,"stv_name":"Uncletopia | Sydney | 6 | Community | STV","players":null},{"server_id":49,"name":"Uncletopia | Warsaw | 1 | All Maps","name_short":"waw-1","host":"waw-1.pl.uncletopia.com","port":27015,"enabled":true,"region":"eu","cc":"pl","latitude":52.2297,"longitude":21.017532,"reserved":0,"last_update":"0001-01-01T00:00:00Z","name_a2s":"","protocol":0,"map":"","folder":"","game":"","app_id":0,"player_count":0,"max_players":0,"Bots":0,"server_type":"","server_os":"","password":false,"vac":false,"version":"","steam_id":0,"keywords":null,"game_id":0,"stv_port":0,"stv_name":"","players":null},{"server_id":50,"name":"Uncletopia | Warsaw | 2 | All Maps","name_short":"waw-2","host":"waw-1.pl.uncletopia.com","port":27025,"enabled":true,"region":"eu","cc":"pl","latitude":52.2297,"longitude":21.017532,"reserved":0,"last_update":"0001-01-01T00:00:00Z","name_a2s":"Uncletopia | Warsaw | 2 | All Maps","protocol":17,"map":"pl_swiftwater_final1","folder":"tf","game":"Team Fortress","app_id":440,"player_count":0,"max_players":24,"Bots":0,"server_type":"Dedicated","server_os":"Linux","password":true,"vac":true,"version":"7757534","steam_id":85568392925397851,"keywords":["nocrits","nodmgspread","payload","uncletopia"],"game_id":440,"stv_port":27026,"stv_name":"Uncletopia | Warsaw | 2 | All Maps | STV","players":null},{"server_id":51,"name":"Uncletopia | Warsaw | 3 | All Maps","name_short":"waw-3","host":"waw-1.pl.uncletopia.com","port":27035,"enabled":true,"region":"eu","cc":"pl","latitude":52.2297,"longitude":21.017532,"reserved":0,"last_update":"0001-01-01T00:00:00Z","name_a2s":"Uncletopia | Warsaw | 3 | All Maps","protocol":17,"map":"cp_dustbowl","folder":"tf","game":"Team Fortress","app_id":440,"player_count":0,"max_players":24,"Bots":0,"server_type":"Dedicated","server_os":"Linux","password":true,"vac":true,"version":"7757534","steam_id":85568392925397852,"keywords":["cp","nocrits","nodmgspread","uncletopia"],"game_id":440,"stv_port":27036,"stv_name":"Uncletopia | Warsaw | 3 | All Maps | STV","players":null},{"server_id":52,"name":"Uncletopia | Warsaw | 4 | All Maps","name_short":"waw-4","host":"waw-1.pl.uncletopia.com","port":27045,"enabled":true,"region":"eu","cc":"pl","latitude":52.2297,"longitude":21.017532,"reserved":0,"last_update":"0001-01-01T00:00:00Z","name_a2s":"Uncletopia | Warsaw | 4 | All Maps","protocol":17,"map":"pl_snowycoast","folder":"tf","game":"Team Fortress","app_id":440,"player_count":0,"max_players":24,"Bots":0,"server_type":"Dedicated","server_os":"Linux","password":true,"vac":true,"version":"7757534","steam_id":85568392925397853,"keywords":["nocrits","nodmgspread","payload","uncletopia"],"game_id":440,"stv_port":27046,"stv_name":"Uncletopia | Warsaw | 4 | All Maps | STV","players":null},{"server_id":53,"name":"Uncletopia | Warsaw | 5 | Stopwatch Beta","name_short":"waw-5","host":"waw-1.pl.uncletopia.com","port":27055,"enabled":true,"region":"eu","cc":"pl","latitude":52.2297,"longitude":21.017532,"reserved":0,"last_update":"0001-01-01T00:00:00Z","name_a2s":"Uncletopia | Warsaw | 5 | Stopwatch Beta","protocol":17,"map":"pl_barnblitz","folder":"tf","game":"Team Fortress","app_id":440,"player_count":0,"max_players":24,"Bots":0,"server_type":"Dedicated","server_os":"Linux","password":true,"vac":true,"version":"7757534","steam_id":85568392925397854,"keywords":["nocrits","nodmgspread","payload","uncletopia"],"game_id":440,"stv_port":27056,"stv_name":"Uncletopia | Warsaw | 5 | Stopwatch Beta | STV","players":null},{"server_id":54,"name":"Uncletopia | Warsaw | 6 | Community","name_short":"waw-6","host":"waw-1.pl.uncletopia.com","port":27065,"enabled":true,"region":"eu","cc":"pl","latitude":52.2297,"longitude":21.017532,"reserved":0,"last_update":"0001-01-01T00:00:00Z","name_a2s":"Uncletopia | Warsaw | 6 | Community","protocol":17,"map":"workshop/cp_sulfur_rc2.ugc619869471","folder":"tf","game":"Team Fortress","app_id":440,"player_count":0,"max_players":24,"Bots":0,"server_type":"Dedicated","server_os":"Linux","password":true,"vac":true,"version":"7757534","steam_id":85568392925397856,"keywords":["cp","nocrits","nodmgspread","uncletopia"],"game_id":440,"stv_port":27066,"stv_name":"Uncletopia | Warsaw | 6 | Community | STV","players":null}]}