{"status":true,"message":"","result":[{"server_id":9,"name":"Uncletopia | Atlanta | 1 | All Maps","name_short":"atl-1","host":"atl-1.us.uncletopia.com","port":27015,"enabled":true,"region":"us-east","cc":"us","latitude":33.753746,"longitude":-84.38633,"reserved":0,"last_update":"0001-01-01T00:00:00Z","name_a2s":"Uncletopia | Atlanta | 1 | All Maps","protocol":17,"map":"pl_badwater","folder":"tf","game":"Team Fortress","app_id":440,"player_count":24,"max_players":24,"Bots":0,"server_type":"Dedicated","server_os":"Linux","password":true,"vac":true,"version":"7961495","steam_id":85568392924469982,"keywords":["nocrits","nodmgspread","payload","uncletopia"],"game_id":440,"stv_port":27016,"stv_name":"Uncletopia | Atlanta | 1 | All Maps | STV","players":[{"user_id":5,"name":"Hugecliff","steam_id":76561198044288534,"connected_time":1636000000000,"state":"active","ping":74},{"user_id":6,"name":"Boneless Blithen","steam_id":76561197989955619,"connected_time":1619000000000,"state":"active","ping":122},{"user_id":7,"name":"Dr.Inkmix(femboy)","steam_id":76561198854070384,"connected_time":1607000000000,"state":"active","ping":108},{"user_id":8,"name":"Poo","steam_id":76561198265144507,"connected_time":1568000000000,"state":"active","ping":73},{"user_id":9,"name":"Ashes!","steam_id":76561197998475441,"connected_time":1541000000000,"state":"active","ping":77},{"user_id":18,"name":"soccercart00","steam_id":76561198289516405,"connected_time":1225000000000,"state":"active","ping":71},{"user_id":11,"name":"lucin","steam_id":76561198258062078,"connected_time":1398000000000,"state":"active","ping":59},{"user_id":12,"name":"Vuncc","steam_id":76561198062529768,"connected_time":1381000000000,"state":"active","ping":44},{"user_id":13,"name":"lil dickie","steam_id":76561198892196627,"connected_time":1356000000000,"state":"spawning","ping":86},{"user_id":14,"name":"ATL1| cola","steam_id":76561198374390458,"connected_time":1350000000000,"state":"active","ping":60},{"user_id":15,"name":"PHAT_head","steam_id":76561198220461392,"connected_time":1340000000000,"state":"active","ping":55},{"user_id":16,"name":"chexo4","steam_id":76561198150532531,"connected_time":1333000000000,"state":"active","ping":49},{"user_id":40,"name":"lu","steam_id":76561198080731872,"connected_time":120000000000,"state":"active","ping":68},{"user_id":37,"name":"Shapeshiftertrue","steam_id":76561198440835095,"connected_time":229000000000,"state":"active","ping":82},{"user_id":38,"name":"jailbreak","steam_id":76561198802085218,"connected_time":207000000000,"state":"active","ping":74},{"user_id":35,"name":"ATL1 | to4st","steam_id":76561198981009008,"connected_time":338000000000,"state":"active","ping":61},{"user_id":36,"name":"Luci‚òÖFer","steam_id":76561199030343810,"connected_time":314000000000,"state":"active","ping":49},{"user_id":24,"name":"Sigiferd","steam_id":76561198148788110,"connected_time":919000000000,"state":"active","ping":106},{"user_id":34,"name":"Doominic","steam_id":76561198259172209,"connected_time":351000000000,"state":"active","ping":84},{"user_id":39,"name":"Swifgz","steam_id":76561198162875756,"connected_time":153000000000,"state":"active","ping":61},{"user_id":27,"name":"Jango","steam_id":76561198084589742,"connected_time":862000000000,"state":"active","ping":52},{"user_id":29,"name":"my terror world wide","steam_id":76561198206177593,"connected_time":829000000000,"state":"active","ping":91},{"user_id":30,"name":"ATL1 | luxin","steam_id":76561198399383047,"connected_time":824000000000,"state":"active","ping":46},{"user_id":33,"name":"Kuri","steam_id":76561199037050183,"connected_time":558000000000,"state":"active","ping":77}]},{"server_id":104,"name":"Uncletopia | Atlanta | 2 | All Maps","name_short":"atl-2","host":"atl-1.us.uncletopia.com","port":27025,"enabled":true,"region":"us-east","cc":"us","latitude":33.753746,"longitude":-84.38633,"reserved":0,"last_update":"0001-01-01T00:00:00Z","name_a2s":"Uncletopia | Atlanta | 2 | All Maps","protocol":17,"map":"pl_badwater","folder":"tf","game":"Team Fortress","app_id":440,"player_count":4,"max_players":24,"Bots":0,"server_type":"Dedicated","server_os":"Linux","password":true,"vac":true,"version":"7961495","steam_id":85568392924469983,"keywords":["nocrits","nodmgspread","payload","uncletopia"],"game_id":440,"stv_port":27026,"stv_name":"Uncletopia | Atlanta | 2 | All Maps | STV","players":[{"user_id":4,"name":"Biggie Cheese","steam_id":76561198799362335,"connected_time":565000000000,"state":"active","ping":75},{"user_id":5,"name":"–õ—É–∏—Å","steam_id":76561198818196886,"connected_time":88000000000,"state":"active","ping":57},{"user_id":6,"name":"DlTTO","steam_id":76561199427026752,"connected_time":46000000000,"state":"spawning","ping":84},{"user_id":7,"name":"scrungle","steam_id":76561198041102272,"connected_time":32000000000,"state":"active","ping":60}]},{"server_id":400,"name":"Uncletopia | Atlanta | 3 | Stopwatch","name_short":"atl-3","host":"atl-1.us.uncletopia.com","port":27035,"enabled":true,"region":"us-east","cc":"us","latitude":33.753746,"longitude":-84.38633,"reserved":0,"last_update":"0001-01-01T00:00:00Z","name_a2s":"Uncletopia | Atlanta | 3 | Stopwatch","protocol":17,"map":"pl_badwater","folder":"tf","game":"Team Fortress","app_id":440,"player_count":0,"max_players":24,"Bots":0,"server_type":"Dedicated","server_os":"Linux","password":true,"vac":true,"version":"7961495","steam_id":85568392924515187,"keywords":["nocrits","nodmgspread","payload","uncletopia"],"game_id":440,"stv_port":27036,"stv_name":"Uncletopia | Atlanta | 3 | Stopwatch | STV","players":null},{"server_id":401,"name":"Uncletopia | Atlanta | 4 | Community","name_short":"atl-4","host":"atl-1.us.uncletopia.com","port":27045,"enabled":true,"region":"us-east","cc":"us","latitude":33.753746,"longitude":-84.38633,"reserved":0,"last_update":"0001-01-01T00:00:00Z","name_a2s":"Uncletopia | Atlanta | 4 | Community","protocol":17,"map":"cp_sunshine","folder":"tf","game":"Team Fortress","app_id":440,"player_count":0,"max_players":24,"Bots":0,"server_type":"Dedicated","server_os":"Linux","password":true,"vac":true,"version":"7961495","steam_id":85568392924515188,"keywords":["cp","nocrits","nodmgspread","uncletopia"],"game_id":440,"stv_port":27046,"stv_name":"Uncletopia | Atlanta | 4 | Community | STV","players":null},{"server_id":2,"name":"Uncletopia | Chicago | 1 | All Maps","name_short":"chi-1","host":"chi-1.us.uncletopia.com","port":27015,"enabled":true,"region":"us-central","cc":"us","latitude":41.881832,"longitude":-87.62318,"reserved":0,"last_update":"0001-01-01T00:00:00Z","name_a2s":"Uncletopia | Chicago | 1 | All Maps","protocol":17,"map":"pl_barnblitz","folder":"tf","game":"Team Fortress","app_id":440,"player_count":24,"max_players":24,"Bots":0,"server_type":"Dedicated","server_os":"Linux","password":true,"vac":true,"version":"7961495","steam_id":85568392924469984,"keywords":["nocrits","nodmgspread","payload","uncletopia"],"game_id":440,"stv_port":27016,"stv_name":"Uncletopia | Chicago | 1 | All Maps | STV","players":[{"user_id":326,"name":"icyy","steam_id":76561198968001329,"connected_time":1410000000000,"state":"active","ping":61},{"user_id":334,"name":"Space","steam_id":76561198350489754,"connected_time":300000000000,"state":"active","ping":46},{"user_id":267,"name":"TheAlmightyG","steam_id":76561198235946096,"connected_time":7846000000000,"state":"active","ping":89},{"user_id":261,"name":"Kraftlos","steam_id":76561198074350350,"connected_time":8368000000000,"state":"active","ping":77},{"user_id":299,"name":"Hooked","steam_id":76561198007302139,"connected_time":3719000000000,"state":"active","ping":75},{"user_id":329,"name":"Big Donnie","steam_id":76561198396789061,"connected_time":1228000000000,"state":"active","ping":75},{"user_id":307,"name":"TallBit","steam_id":76561199059748976,"connected_time":2997000000000,"state":"active","ping":56},{"user_id":328,"name":"TheCenturionGod","steam_id":76561199054176354,"connected_time":1304000000000,"state":"active","ping":101},{"user_id":333,"name":"Word To Your Mothership","steam_id":76561198034329138,"connected_time":591000000000,"state":"active","ping":102},{"user_id":279,"name":"Celestial Bodies","steam_id":76561198212572955,"connected_time":6411000000000,"state":"active","ping":79},{"user_id":271,"name":"loser","steam_id":76561198259380127,"connected_time":6766000000000,"state":"active","ping":51},{"user_id":294,"name":"Ras","steam_id":76561198123546775,"connected_time":4691000000000,"state":"active","ping":78},{"user_id":306,"name":"Jesse Bear","steam_id":76561198217075305,"connected_time":3360000000000,"state":"active","ping":80},{"user_id":310,"name":"Fredrick","steam_id":76561197981419964,"connected_time":2847000000000,"state":"active","ping":69},{"user_id":313,"name":"MechaSixVII","steam_id":76561198014927379,"connected_time":2640000000000,"state":"active","ping":96},{"user_id":336,"name":"vegicide","steam_id":76561198239286750,"connected_time":63000000000,"state":"spawning","ping":76},{"user_id":330,"name":"Cobrakid1968","steam_id":76561198106262346,"connected_time":1098000000000,"state":"active","ping":83},{"user_id":319,"name":"Kuyumiester","steam_id":76561198126835302,"connected_time":1988000000000,"state":"active","ping":63},{"user_id":335,"name":"UUUURT","steam_id":76561198047468140,"connected_time":76000000000,"state":"active","ping":126},{"user_id":304,"name":"DiscoTraveler","steam_id":76561199240168088,"connected_time":3636000000000,"state":"active","ping":93},{"user_id":327,"name":"eloressa","steam_id":76561198120330867,"connected_time":1345000000000,"state":"active","ping":65},{"user_id":320,"name":"A Sun","steam_id":76561198142545364,"connected_time":1988000000000,"state":"active","ping":69},{"user_id":332,"name":"Posture Check","steam_id":76561198998634786,"connected_time":724000000000,"state":"active","ping":101},{"user_id":278,"name":"Lia_Rein","steam_id":76561198151569597,"connected_time":6513000000000,"state":"active","ping":138}]},{"server_id":106,"name":"Uncletopia | Chicago | 2 | All Maps","name_short":"chi-2","host":"chi-1.us.uncletopia.com","port":27025,"enabled":true,"region":"us-central","cc":"us","latitude":41.881832,"longitude":-87.62318,"reserved":0,"last_update":"0001-01-01T00:00:00Z","name_a2s":"Uncletopia | Chicago | 2 | All Maps","protocol":17,"map":"cp_snakewater_final1","folder":"tf","game":"Team Fortress","app_id":440,"player_count":24,"max_players":24,"Bots":0,"server_type":"Dedicated","server_os":"Linux","password":true,"vac":true,"version":"7961495","steam_id":85568392924469985,"keywords":["cp","nocrits","nodmgspread","uncletopia"],"game_id":440,"stv_port":27026,"stv_name":"Uncletopia | Chicago | 2 | All Maps | STV","players":[{"user_id":473,"name":"Coms","steam_id":76561198204995668,"connected_time":280000000000,"state":"active","ping":79},{"user_id":474,"name":"Grimm - (RIP Rick May/Kitty0706","steam_id":76561199050642411,"connected_time":266000000000,"state":"active","ping":86},{"user_id":459,"name":"Sturmwolken [1312]","steam_id":76561198260905784,"connected_time":1143000000000,"state":"active","ping":65},{"user_id":453,"name":"Glover Speedrunner","steam_id":76561198015154311,"connected_time":1641000000000,"state":"active","ping":45},{"user_id":475,"name":"Huloon","steam_id":76561198070837568,"connected_time":226000000000,"state":"active","ping":70},{"user_id":435,"name":"GingerVitis","steam_id":76561198137746341,"connected_time":2532000000000,"state":"active","ping":100},{"user_id":436,"name":"SpongedSocks","steam_id":76561198374009086,"connected_time":2530000000000,"state":"active","ping":70},{"user_id":452,"name":"Some_Arse","steam_id":76561198039095394,"connected_time":1818000000000,"state":"active","ping":61},{"user_id":444,"name":"pretzel","steam_id":76561198885041703,"connected_time":2446000000000,"state":"active","ping":66},{"user_id":441,"name":"Omega.J2","steam_id":76561198065028876,"connected_time":2488000000000,"state":"active","ping":75},{"user_id":408,"name":"fresco","steam_id":76561199101199477,"connected_time":4931000000000,"state":"active","ping":64},{"user_id":437,"name":"Ali-B","steam_id":76561198274455701,"connected_time":2522000000000,"state":"active","ping":103},{"user_id":468,"name":"YellowCellPhone","steam_id":76561198015070315,"connected_time":587000000000,"state":"active","ping":55},{"user_id":458,"name":"Busta-Ma-Balls","steam_id":76561198005777658,"connected_time":1151000000000,"state":"active","ping":84},{"user_id":470,"name":"Portizz","steam_id":76561198095732366,"connected_time":463000000000,"state":"active","ping":87},{"user_id":471,"name":"scramble scramble scramble scra","steam_id":76561198041048289,"connected_time":458000000000,"state":"active","ping":60},{"user_id":472,"name":"sheeesh","steam_id":76561198038080028,"connected_time":302000000000,"state":"active","ping":104},{"user_id":476,"name":"leonardo doujinshi","steam_id":76561198025810326,"connected_time":168000000000,"state":"active","ping":78},{"user_id":439,"name":"Gunrunner","steam_id":76561198062065735,"connected_time":2514000000000,"state":"active","ping":98},{"user_id":446,"name":"oppenheimer style","steam_id":76561198026664629,"connected_time":2417000000000,"state":"active","ping":53},{"user_id":450,"name":"object permanence","steam_id":76561198050393061,"connected_time":2111000000000,"state":"active","ping":76},{"user_id":461,"name":"lenincommie","steam_id":76561199229244796,"connected_time":1131000000000,"state":"active","ping":75},{"user_id":442,"name":"TechnoBear2099","steam_id":76561198238863596,"connected_time":2484000000000,"state":"active","ping":70},{"user_id":456,"name":"DededeMain | trade.tf","steam_id":76561198310951632,"connected_time":1466000000000,"state":"active","ping":65}]},{"server_id":402,"name":"Uncletopia | Chicago | 3 | All Maps","name_short":"chi-3","host":"chi-1.us.uncletopia.com","port":27035,"enabled":true,"region":"us-central","cc":"us","latitude":41.881832,"longitude":-87.62318,"reserved":0,"last_update":"0001-01-01T00:00:00Z","name_a2s":"Uncletopia | Chicago | 3 | All Maps","protocol":17,"map":"pl_swiftwater_final1","folder":"tf","game":"Team Fortress","app_id":440,"player_count":24,"max_players":24,"Bots":0,"server_type":"Dedicated","server_os":"Linux","password":true,"vac":true,"version":"7961495","steam_id":85568392924515191,"keywords":["nocrits","nodmgspread","payload","uncletopia"],"game_id":440,"stv_port":27036,"stv_name":"Uncletopia | Chicago | 3 | All Maps | STV","players":[{"user_id":163,"name":"SiltyStar85","steam_id":76561198309175923,"connected_time":353000000000,"state":"active","ping":92},{"user_id":144,"name":"PairaDyme11","steam_id":76561198313534384,"connected_time":1573000000000,"state":"active","ping":68},{"user_id":105,"name":"MMAD","steam_id":76561198026446420,"connected_time":3860000000000,"state":"active","ping":78},{"user_id":148,"name":"LlamaCrazy","steam_id":76561198803427474,"connected_time":1519000000000,"state":"active","ping":60},{"user_id":122,"name":"Rukks","steam_id":76561197993918954,"connected_time":2832000000000,"state":"active","ping":89},{"user_id":173,"name":"jan kili","steam_id":76561198289894834,"connected_time":203000000000,"state":"active","ping":93},{"user_id":165,"name":"Monterfart","steam_id":76561198125034271,"connected_time":320000000000,"state":"active","ping":62},{"user_id":160,"name":"b√ºddeh","steam_id":76561198070735936,"connected_time":969000000000,"state":"active","ping":59},{"user_id":102,"name":"corntent","steam_id":76561198824847948,"connected_time":4067000000000,"state":"active","ping":64},{"user_id":149,"name":"jolo","steam_id":76561198042831480,"connected_time":1504000000000,"state":"active","ping":66},{"user_id":150,"name":"Apple Zoo","steam_id":76561198013732450,"connected_time":1460000000000,"state":"active","ping":57},{"user_id":166,"name":"CCTV Camera","steam_id":76561198373692962,"connected_time":306000000000,"state":"active","ping":45},{"user_id":162,"name":"Amoxicilina","steam_id":76561198168486429,"connected_time":403000000000,"state":"active","ping":129},{"user_id":83,"name":"mild mannered mystery man","steam_id":76561198072095399,"connected_time":5118000000000,"state":"active","ping":47},{"user_id":151,"name":"MacawAbalone","steam_id":76561198015127948,"connected_time":1455000000000,"state":"active","ping":50},{"user_id":137,"name":"Keymaster","steam_id":76561198881514228,"connected_time":1944000000000,"state":"active","ping":82},{"user_id":161,"name":"Crunchy","steam_id":76561198060342804,"connected_time":968000000000,"state":"active","ping":80},{"user_id":136,"name":"Horse","steam_id":76561198004583631,"connected_time":2054000000000,"state":"active","ping":80},{"user_id":168,"name":"Rook","steam_id":76561198062918299,"connected_time":298000000000,"state":"active","ping":72},{"user_id":169,"name":"CozyChloe","steam_id":76561199096964288,"connected_time":281000000000,"state":"active","ping":40},{"user_id":175,"name":"Mr Bootylicious","steam_id":76561199075353403,"connected_time":179000000000,"state":"active","ping":65},{"user_id":172,"name":"MR.BURRITO","steam_id":76561198192583090,"connected_time":231000000000,"state":"active","ping":176},{"user_id":174,"name":"Lv3 Kobold Shadow Sorcerer","steam_id":76561198042068995,"connected_time":202000000000,"state":"active","ping":69},{"user_id":176,"name":"Mr. Fluffy Penguins","steam_id":76561198172538149,"connected_time":113000000000,"state":"active","ping":90}]},{"server_id":403,"name":"Uncletopia | Chicago | 4 | All Maps","name_short":"chi-4","host":"chi-1.us.uncletopia.com","port":27045,"enabled":true,"region":"us-central","cc":"us","latitude":41.881832,"longitude":-87.62318,"reserved":0,"last_update":"0001-01-01T00:00:00Z","name_a2s":"Uncletopia | Chicago | 4 | All Maps","protocol":17,"map":"pl_frontier_final","folder":"tf","game":"Team Fortress","app_id":440,"player_count":24,"max_players":24,"Bots":0,"server_type":"Dedicated","server_os":"Linux","password":true,"vac":true,"version":"7961495","steam_id":85568392924515193,"keywords":["nocrits","nodmgspread","payload","uncletopia"],"game_id":440,"stv_port":27046,"stv_name":"Uncletopia | Chicago | 4 | All Maps | STV","players":[{"user_id":593,"name":"cooldog01","steam_id":76561198121922413,"connected_time":363000000000,"state":"active","ping":104},{"user_id":574,"name":"Femboy Medic Main","steam_id":76561198268225109,"connected_time":2042000000000,"state":"active","ping":95},{"user_id":573,"name":"ndvr (femboy (REAL))","steam_id":76561199379200102,"connected_time":2085000000000,"state":"active","ping":60},{"user_id":594,"name":"Drapph","steam_id":76561199384213314,"connected_time":192000000000,"state":"active","ping":63},{"user_id":585,"name":"Farty McDooDoo","steam_id":76561198040367929,"connected_time":1302000000000,"state":"active","ping":64},{"user_id":559,"name":"crazyabe111","steam_id":76561198407686352,"connected_time":3497000000000,"state":"active","ping":72},{"user_id":575,"name":"Stoopnagle","steam_id":76561198011942560,"connected_time":1852000000000,"state":"active","ping":82},{"user_id":570,"name":"Crowshifter","steam_id":76561198016871465,"connected_time":2341000000000,"state":"active","ping":68},{"user_id":583,"name":"Reactiveisland5","steam_id":76561198145775523,"connected_time":1374000000000,"state":"active","ping":75},{"user_id":547,"name":"YoteDab McFapDab.jpg","steam_id":76561197984870380,"connected_time":4093000000000,"state":"active","ping":115},{"user_id":581,"name":"Doubie","steam_id":76561198104492019,"connected_time":1422000000000,"state":"active","ping":75},{"user_id":522,"name":"zacmattsmith","steam_id":76561199027704149,"connected_time":5699000000000,"state":"active","ping":86},{"user_id":590,"name":"Baby gaming","steam_id":76561198867319323,"connected_time":392000000000,"state":"active","ping":68},{"user_id":564,"name":"ApertureCity","steam_id":76561198004153607,"connected_time":2818000000000,"state":"active","ping":83},{"user_id":518,"name":"my pitbull eats women under 5'7","steam_id":76561198142756572,"connected_time":6034000000000,"state":"active","ping":75},{"user_id":582,"name":"Gameguru","steam_id":76561198070288064,"connected_time":1397000000000,"state":"active","ping":76},{"user_id":520,"name":"Nazo","steam_id":76561197972314320,"connected_time":5949000000000,"state":"active","ping":78},{"user_id":591,"name":"Goldensliv","steam_id":76561198161673891,"connected_time":392000000000,"state":"active","ping":92},{"user_id":521,"name":"Fern","steam_id":76561198043781842,"connected_time":5933000000000,"state":"active","ping":83},{"user_id":584,"name":"CASR","steam_id":76561199122040210,"connected_time":1347000000000,"state":"active","ping":90},{"user_id":588,"name":"guy","steam_id":76561198079925551,"connected_time":1121000000000,"state":"active","ping":61},{"user_id":589,"name":"Sprit ‚ô•","steam_id":76561198268780781,"connected_time":1087000000000,"state":"active","ping":48},{"user_id":592,"name":"shirts","steam_id":76561199019533093,"connected_time":391000000000,"state":"active","ping":68},{"user_id":556,"name":"Zero","steam_id":76561198033384990,"connected_time":3759000000000,"state":"active","ping":59}]},{"server_id":36,"name":"Uncletopia | Chicago | 5 | All Maps","name_short":"chi-5","host":"chi-2.us.uncletopia.com","port":27015,"enabled":true,"region":"us-central","cc":"us","latitude":41.881832,"longitude":-87.62318,"reserved":0,"last_update":"0001-01-01T00:00:00Z","name_a2s":"Uncletopia | Chicago | 5 | All Maps","protocol":17,"map":"koth_nucleus","folder":"tf","game":"Team Fortress","app_id":440,"player_count":24,"max_players":24,"Bots":0,"server_type":"Dedicated","server_os":"Linux","password":true,"vac":true,"version":"7961495","steam_id":85568392924866362,"keywords":["cp","nocrits","nodmgspread","uncletopia"],"game_id":440,"stv_port":27016,"stv_name":"Uncletopia | Chicago | 5 | All Maps | STV","players":[{"user_id":445,"name":"Bheem","steam_id":76561198170453459,"connected_time":1771000000000,"state":"active","ping":79},{"user_id":475,"name":"Spare(8)Ball","steam_id":76561197982432995,"connected_time":104000000000,"state":"active","ping":101},{"user_id":447,"name":"beans","steam_id":76561199082781884,"connected_time":1715000000000,"state":"active","ping":64},{"user_id":471,"name":"MADHEAD347","steam_id":76561199475145723,"connected_time":385000000000,"state":"active","ping":85},{"user_id":430,"name":"Sweetest Tea","steam_id":76561198197699062,"connected_time":3219000000000,"state":"active","ping":71},{"user_id":367,"name":"Yummy Kabobz","steam_id":76561198067661705,"connected_time":7131000000000,"state":"active","ping":65},{"user_id":470,"name":"dumpster fire","steam_id":76561199180461090,"connected_time":406000000000,"state":"active","ping":62},{"user_id":310,"name":"graham crackr","steam_id":76561199072720886,"connected_time":11042000000000,"state":"active","ping":62},{"user_id":463,"name":"green bean","steam_id":76561198113099204,"connected_time":765000000000,"state":"active","ping":90},{"user_id":472,"name":"EpicShot","steam_id":76561197962680270,"connected_time":174000000000,"state":"active","ping":160},{"user_id":464,"name":"NUt","steam_id":76561198031007966,"connected_time":763000000000,"state":"active","ping":67},{"user_id":468,"name":"2cats_2curious","steam_id":76561198027143149,"connected_time":490000000000,"state":"active","ping":45},{"user_id":455,"name":"Soapbar","steam_id":76561198081714169,"connected_time":1180000000000,"state":"active","ping":88},{"user_id":436,"name":"Dokkibai","steam_id":76561198355935693,"connected_time":2786000000000,"state":"active","ping":49},{"user_id":448,"name":"MrEdman4","steam_id":76561198062233923,"connected_time":1711000000000,"state":"active","ping":75},{"user_id":466,"name":"Butters495","steam_id":76561197998689042,"connected_time":553000000000,"state":"active","ping":89},{"user_id":473,"name":"BOUZENZEL","steam_id":76561198095000722,"connected_time":144000000000,"state":"active","ping":60},{"user_id":418,"name":"starfungus","steam_id":76561198158312789,"connected_time":3579000000000,"state":"active","ping":100},{"user_id":432,"name":"hideyochest","steam_id":76561198090366059,"connected_time":3215000000000,"state":"active","ping":67},{"user_id":474,"name":"Elijah","steam_id":76561199178274018,"connected_time":128000000000,"state":"active","ping":92},{"user_id":422,"name":"shadowtaco69","steam_id":76561198112453714,"connected_time":3481000000000,"state":"active","ping":95},{"user_id":467,"name":"beesh!","steam_id":76561198353847752,"connected_time":547000000000,"state":"active","ping":76},{"user_id":394,"name":"mini boss","steam_id":76561198062763756,"connected_time":5907000000000,"state":"active","ping":53},{"user_id":452,"name":"Op banana","steam_id":76561198303231451,"connected_time":1415000000000,"state":"active","ping":73}]},{"server_id":37,"name":"Uncletopia | Chicago | 6 | All Maps","name_short":"chi-6","host":"chi-2.us.uncletopia.com","port":27025,"enabled":true,"region":"us-central","cc":"us","latitude":41.881832,"longitude":-87.62318,"reserved":0,"last_update":"0001-01-01T00:00:00Z","name_a2s":"Uncletopia | Chicago | 6 | All Maps","protocol":17,"map":"pl_swiftwater_final1","folder":"tf","game":"Team Fortress","app_id":440,"player_count":24,"max_players":24,"Bots":0,"server_type":"Dedicated","server_os":"Linux","password":true,"vac":true,"version":"7961495","steam_id":85568392924866363,"keywords":["nocrits","nodmgspread","payload","uncletopia"],"game_id":440,"stv_port":27026,"stv_name":"Uncletopia | Chicago | 6 | All Maps | STV","players":[{"user_id":166,"name":"Plant Enthusiast","steam_id":76561198045718960,"connected_time":1252000000000,"state":"active","ping":54},{"user_id":172,"name":"Gotta Move That Gear Up","steam_id":76561197993467034,"connected_time":899000000000,"state":"active","ping":54},{"user_id":147,"name":"Melaza Bois","steam_id":76561199031977210,"connected_time":2030000000000,"state":"active","ping":69},{"user_id":174,"name":"Rornir","steam_id":76561198081829615,"connected_time":865000000000,"state":"active","ping":45},{"user_id":152,"name":"Whyamidoingthisaaaa","steam_id":76561199168837342,"connected_time":1979000000000,"state":"active","ping":72},{"user_id":157,"name":"ImpeachedPear","steam_id":76561199125565239,"connected_time":1889000000000,"state":"active","ping":79},{"user_id":132,"name":"kicks","steam_id":76561199228854923,"connected_time":3030000000000,"state":"active","ping":63},{"user_id":135,"name":"Soldier","steam_id":76561199078537280,"connected_time":2994000000000,"state":"active","ping":73},{"user_id":148,"name":"GoldtoothFour","steam_id":76561198055529332,"connected_time":2016000000000,"state":"active","ping":57},{"user_id":173,"name":"Ninjoth","steam_id":76561198038611753,"connected_time":893000000000,"state":"active","ping":71},{"user_id":175,"name":"notdoxed","steam_id":76561197992591404,"connected_time":855000000000,"state":"active","ping":51},{"user_id":163,"name":"shadow wizard money gang","steam_id":76561198067487745,"connected_time":1495000000000,"state":"active","ping":61},{"user_id":176,"name":"upgrade9000","steam_id":76561198443060751,"connected_time":837000000000,"state":"active","ping":109},{"user_id":160,"name":"Blue_car_Reid","steam_id":76561198161120719,"connected_time":1637000000000,"state":"active","ping":46},{"user_id":100,"name":"CoffeeZombi","steam_id":76561198172708053,"connected_time":5572000000000,"state":"active","ping":83},{"user_id":107,"name":"Nobody","steam_id":76561198286486517,"connected_time":4826000000000,"state":"active","ping":78},{"user_id":164,"name":"anonion","steam_id":76561198056477584,"connected_time":1420000000000,"state":"active","ping":89},{"user_id":177,"name":"CakeWut","steam_id":76561198156272110,"connected_time":835000000000,"state":"active","ping":102},{"user_id":169,"name":"SEGNO","steam_id":76561198102780113,"connected_time":1157000000000,"state":"active","ping":70},{"user_id":178,"name":"RadicalToad","steam_id":76561198151116956,"connected_time":808000000000,"state":"active","ping":84},{"user_id":137,"name":"(grandma) penis engineer","steam_id":76561198101203842,"connected_time":2821000000000,"state":"active","ping":85},{"user_id":153,"name":"Toxic-Fluid","steam_id":76561198115530353,"connected_time":1976000000000,"state":"active","ping":76},{"user_id":156,"name":"ethanf","steam_id":76561198103930234,"connected_time":1958000000000,"state":"active","ping":56},{"user_id":171,"name":"BeautifulDeer","steam_id":76561198119588300,"connected_time":1157000000000,"state":"active","ping":84}]},{"server_id":38,"name":"Uncletopia | Chicago | 7 | Stopwatch","name_short":"chi-7","host":"chi-2.us.uncletopia.com","port":27035,"enabled":true,"region":"us-central","cc":"us","latitude":41.881832,"longitude":-87.62318,"reserved":0,"last_update":"0001-01-01T00:00:00Z","name_a2s":"Uncletopia | Chicago | 7 | Stopwatch","protocol":17,"map":"workshop/koth_ramjam_rc1.ugc459778887","folder":"tf","game":"Team Fortress","app_id":440,"player_count":2,"max_players":24,"Bots":0,"server_type":"Dedicated","server_os":"Linux","password":true,"vac":true,"version":"7961495","steam_id":85568392924866364,"keywords":["cp","nocrits","nodmgspread","uncletopia"],"game_id":440,"stv_port":27036,"stv_name":"Uncletopia | Chicago | 7 | Stopwatch | STV","players":[{"user_id":15,"name":"Drewey","steam_id":76561198369218784,"connected_time":522000000000,"state":"active","ping":45},{"user_id":16,"name":"Rizzly Bear","steam_id":76561198119269965,"connected_time":504000000000,"state":"active","ping":55}]},{"server_id":39,"name":"Uncletopia | Chicago | 8 | Community","name_short":"chi-8","host":"chi-2.us.uncletopia.com","port":27045,"enabled":true,"region":"us-central","cc":"us","latitude":41.881832,"longitude":-87.62318,"reserved":0,"last_update":"0001-01-01T00:00:00Z","name_a2s":"Uncletopia | Chicago | 8 | Community","protocol":17,"map":"workshop/koth_slaughter_rc1.ugc1712845210","folder":"tf","game":"Team Fortress","app_id":440,"player_count":0,"max_players":24,"Bots":0,"server_type":"Dedicated","server_os":"Linux","password":true,"vac":true,"version":"7961495","steam_id":85568392924866365,"keywords":["cp","nocrits","nodmgspread","uncletopia"],"game_id":440,"stv_port":27046,"stv_name":"Uncletopia | Chicago | 8 | Community | STV","players":null},{"server_id":8,"name":"Uncletopia | Dallas | 1 | All Maps","name_short":"dal-1","host":"dal-1.us.uncletopia.com","port":27015,"enabled":true,"region":"us-central","cc":"us","latitude":32.779167,"longitude":-96.80889,"reserved":0,"last_update":"0001-01-01T00:00:00Z","name_a2s":"Uncletopia | Dallas | 1 | All Maps","protocol":17,"map":"pl_upward","folder":"tf","game":"Team Fortress","app_id":440,"player_count":24,"max_players":24,"Bots":0,"server_type":"Dedicated","server_os":"Linux","password":true,"vac":true,"version":"7961495","steam_id":85568392924469986,"keywords":["nocrits","nodmgspread","payload","uncletopia"],"game_id":440,"stv_port":27016,"stv_name":"Uncletopia | Dallas | 1 | All Maps | STV","players":[{"user_id":287,"name":"FrostStorm","steam_id":76561198142685151,"connected_time":507000000000,"state":"active","ping":90},{"user_id":275,"name":"Lettuce_Plays","steam_id":76561198872255639,"connected_time":725000000000,"state":"active","ping":88},{"user_id":271,"name":"radicalPolio","steam_id":76561197961561855,"connected_time":930000000000,"state":"active","ping":43},{"user_id":284,"name":"jeremy elbertson","steam_id":76561198044420428,"connected_time":626000000000,"state":"active","ping":60},{"user_id":218,"name":"GalaxyDoug32","steam_id":76561197997126305,"connected_time":5658000000000,"state":"active","ping":106},{"user_id":210,"name":"JacobOneHundredPercentWholeWhea","steam_id":76561198045992418,"connected_time":6054000000000,"state":"active","ping":111},{"user_id":266,"name":"catrinaisahuman","steam_id":76561198281355729,"connected_time":1339000000000,"state":"active","ping":60},{"user_id":228,"name":"ihave80hp","steam_id":76561199251621911,"connected_time":4293000000000,"state":"active","ping":63},{"user_id":288,"name":"DoctorDrew","steam_id":76561197962400538,"connected_time":477000000000,"state":"active","ping":99},{"user_id":280,"name":"prehistoric gamer","steam_id":76561198069523062,"connected_time":686000000000,"state":"active","ping":83},{"user_id":256,"name":"stickg","steam_id":76561199193020423,"connected_time":1612000000000,"state":"active","ping":84},{"user_id":276,"name":"hyazz","steam_id":76561199100342013,"connected_time":724000000000,"state":"active","ping":76},{"user_id":277,"name":"H.","steam_id":76561198074951179,"connected_time":718000000000,"state":"active","ping":75},{"user_id":279,"name":"Sprinklingmydoughnut","steam_id":76561198168009092,"connected_time":713000000000,"state":"active","ping":113},{"user_id":206,"name":"duddlee","steam_id":76561198030052564,"connected_time":6189000000000,"state":"active","ping":107},{"user_id":235,"name":"VOLCANIC BIRD ENEMY","steam_id":76561198366299848,"connected_time":4127000000000,"state":"active","ping":66},{"user_id":290,"name":"Yam Jazzy Jim","steam_id":76561198000788950,"connected_time":203000000000,"state":"active","ping":81},{"user_id":269,"name":"Espresso Enjoyer","steam_id":76561198254238409,"connected_time":1147000000000,"state":"active","ping":73},{"user_id":289,"name":"WumpisWumbo","steam_id":76561199238214734,"connected_time":352000000000,"state":"active","ping":69},{"user_id":267,"name":"MakerRov","steam_id":76561198914108894,"connected_time":1332000000000,"state":"active","ping":86},{"user_id":283,"name":"CORGI.EXE","steam_id":76561198077093432,"connected_time":646000000000,"state":"active","ping":89},{"user_id":285,"name":"yan Ka","steam_id":76561198305840153,"connected_time":586000000000,"state":"active","ping":88},{"user_id":261,"name":"An Engineer","steam_id":76561198110381643,"connected_time":1500000000000,"state":"active","ping":45},{"user_id":208,"name":"fortniteGamer747","steam_id":76561197987878886,"connected_time":6115000000000,"state":"active","ping":190}]},{"server_id":108,"name":"Uncletopia | Dallas | 2 | All Maps","name_short":"dal-2","host":"dal-1.us.uncletopia.com","port":27025,"enabled":true,"region":"us-central","cc":"us","latitude":32.779167,"longitude":-96.80889,"reserved":0,"last_update":"0001-01-01T00:00:00Z","name_a2s":"Uncletopia | Dallas | 2 | All Maps","protocol":17,"map":"pl_borneo","folder":"tf","game":"Team Fortress","app_id":440,"player_count":24,"max_players":24,"Bots":0,"server_type":"Dedicated","server_os":"Linux","password":true,"vac":true,"version":"7961495","steam_id":85568392924469988,"keywords":["nocrits","nodmgspread","payload","uncletopia"],"game_id":440,"stv_port":27026,"stv_name":"Uncletopia | Dallas | 2 | All Maps | STV","players":[{"user_id":309,"name":"Dr. Han","steam_id":76561198811130843,"connected_time":871000000000,"state":"active","ping":102},{"user_id":313,"name":"tobrehto","steam_id":76561198097544038,"connected_time":317000000000,"state":"active","ping":60},{"user_id":293,"name":"FedoraPenguin","steam_id":76561199041063703,"connected_time":2183000000000,"state":"active","ping":87},{"user_id":297,"name":"newgrounds1004","steam_id":76561199471951160,"connected_time":1560000000000,"state":"active","ping":65},{"user_id":311,"name":"Clockwork0613","steam_id":76561198987121123,"connected_time":697000000000,"state":"active","ping":105},{"user_id":314,"name":"Moonlighter","steam_id":76561198325526945,"connected_time":307000000000,"state":"active","ping":82},{"user_id":286,"name":"TF2C | fac","steam_id":76561198009818412,"connected_time":2385000000000,"state":"active","ping":55},{"user_id":242,"name":"gooselover42069","steam_id":76561198059562839,"connected_time":6978000000000,"state":"active","ping":59},{"user_id":288,"name":"King Of The Chill","steam_id":76561197971394640,"connected_time":2372000000000,"state":"active","ping":75},{"user_id":319,"name":"augs","steam_id":76561199120607417,"connected_time":74000000000,"state":"active","ping":96},{"user_id":321,"name":"Jovo","steam_id":76561197993265970,"connected_time":55000000000,"state":"active","ping":93},{"user_id":322,"name":"Sicko Mode (Chris Pratt Cover)","steam_id":76561198315786174,"connected_time":50000000000,"state":"active","ping":107},{"user_id":301,"name":"REALLINUSJEWTIP.","steam_id":76561198056647983,"connected_time":1520000000000,"state":"active","ping":89},{"user_id":285,"name":"Primordial pouch","steam_id":76561198077993687,"connected_time":2443000000000,"state":"active","ping":103},{"user_id":302,"name":"paisano","steam_id":76561198065575472,"connected_time":1518000000000,"state":"active","ping":74},{"user_id":323,"name":"floppy muppet","steam_id":76561198003076261,"connected_time":38000000000,"state":"active","ping":95},{"user_id":280,"name":"ark","steam_id":76561198041066271,"connected_time":3274000000000,"state":"active","ping":71},{"user_id":324,"name":"nao","steam_id":76561198073982533,"connected_time":30000000000,"state":"active","ping":59},{"user_id":325,"name":"TwistyBoi","steam_id":76561198201410603,"connected_time":28000000000,"state":"spawning","ping":83},{"user_id":281,"name":"batheman63","steam_id":76561198881818552,"connected_time":3140000000000,"state":"active","ping":89},{"user_id":318,"name":"-_-","steam_id":76561198005773253,"connected_time":119000000000,"state":"active","ping":93},{"user_id":262,"name":"cupsovietxeno","steam_id":76561198997539399,"connected_time":4988000000000,"state":"active","ping":95},{"user_id":315,"name":"Dude","steam_id":76561199058616824,"connected_time":302000000000,"state":"active","ping":66},{"user_id":326,"name":"Snitzman","steam_id":76561198068303272,"connected_time":5000000000,"state":"spawning","ping":71}]},{"server_id":404,"name":"Uncletopia | Dallas | 3 | All Maps","name_short":"dal-3","host":"dal-1.us.uncletopia.com","port":27035,"enabled":true,"region":"us-central","cc":"us","latitude":32.779167,"longitude":-96.80889,"reserved":0,"last_update":"0001-01-01T00:00:00Z","name_a2s":"Uncletopia | Dallas | 3 | All Maps","protocol":17,"map":"koth_viaduct","folder":"tf","game":"Team Fortress","app_id":440,"player_count":0,"max_players":24,"Bots":0,"server_type":"Dedicated","server_os":"Linux","password":true,"vac":true,"version":"7961495","steam_id":85568392924515219,"keywords":["cp","nocrits","nodmgspread","uncletopia"],"game_id":440,"stv_port":27036,"stv_name":"Uncletopia | Dallas | 3 | All Maps | STV","players":null},{"server_id":405,"name":"Uncletopia | Dallas | 4 | Community","name_short":"dal-4","host":"dal-1.us.uncletopia.com","port":27045,"enabled":true,"region":"us-central","cc":"us","latitude":32.779167,"longitude":-96.80889,"reserved":0,"last_update":"0001-01-01T00:00:00Z","name_a2s":"Uncletopia | Dallas | 4 | Community","protocol":17,"map":"workshop/pl_emerge_rc2.ugc888027758","folder":"tf","game":"Team Fortress","app_id":440,"player_count":0,"max_players":24,"Bots":0,"server_type":"Dedicated","server_os":"Linux","password":true,"vac":true,"version":"7961495","steam_id":85568392924515220,"keywords":["nocrits","nodmgspread","payload","uncletopia"],"game_id":440,"stv_port":27046,"stv_name":"Uncletopia | Dallas | 4 | Community | STV","players":null},{"server_id":5,"name":"Uncletopia | Frankfurt | 1 | All Maps","name_short":"frk-1","host":"frk-1.de.uncletopia.com","port":27015,"enabled":true,"region":"eu","cc":"de","latitude":50.110924,"longitude":8.682127,"reserved":0,"last_update":"0001-01-01T00:00:00Z","name_a2s":"Uncletopia | Frankfurt | 1 | All Maps","protocol":17,"map":"cp_snakewater_final1","folder":"tf","game":"Team Fortress","app_id":440,"player_count":0,"max_players":24,"Bots":0,"server_type":"Dedicated","server_os":"Linux","password":true,"vac":true,"version":"7961495","steam_id":85568392924469989,"keywords":["cp","nocrits","nodmgspread","uncletopia"],"game_id":440,"stv_port":27016,"stv_name":"Uncletopia | Frankfurt | 1 | All Maps | STV","players":null},{"server_id":110,"name":"Uncletopia | Frankfurt | 2 | All Maps","name_short":"frk-2","host":"frk-1.de.uncletopia.com","port":27025,"enabled":true,"region":"eu","cc":"de","latitude":50.110924,"longitude":8.682127,"reserved":0,"last_update":"0001-01-01T00:00:00Z","name_a2s":"Uncletopia | Frankfurt | 2 | All Maps","protocol":17,"map":"cp_snakewater_final1","folder":"tf","game":"Team Fortress","app_id":440,"player_count":0,"max_players":24,"Bots":0,"server_type":"Dedicated","server_os":"Linux","password":true,"vac":true,"version":"7961495","steam_id":85568392924469990,"keywords":["cp","nocrits","nodmgspread","uncletopia"],"game_id":440,"stv_port":27026,"stv_name":"Uncletopia | Frankfurt | 2 | All Maps | STV","players":null},{"server_id":308,"name":"Uncletopia | Frankfurt | 3 | All Maps","name_short":"frk-3","host":"frk-1.de.uncletopia.com","port":27035,"enabled":true,"region":"eu","cc":"de","latitude":50.110924,"longitude":8.682127,"reserved":0,"last_update":"0001-01-01T00:00:00Z","name_a2s":"Uncletopia | Frankfurt | 3 | All Maps","protocol":17,"map":"koth_lakeside_final","folder":"tf","game":"Team Fortress","app_id":440,"player_count":0,"max_players":24,"Bots":0,"server_type":"Dedicated","server_os":"Linux","password":true,"vac":true,"version":"7961495","steam_id":85568392924504274,"keywords":["cp","nocrits","nodmgspread","uncletopia"],"game_id":440,"stv_port":27036,"stv_name":"Uncletopia | Frankfurt | 3 | All Maps | STV","players":null},{"server_id":309,"name":"Uncletopia | Frankfurt | 4 | All Maps","name_short":"frk-4","host":"frk-1.de.uncletopia.com","port":27045,"enabled":true,"region":"eu","cc":"de","latitude":50.110924,"longitude":8.682127,"reserved":0,"last_update":"0001-01-01T00:00:00Z","name_a2s":"Uncletopia | Frankfurt | 4 | All Maps","protocol":17,"map":"koth_highpass","folder":"tf","game":"Team Fortress","app_id":440,"player_count":0,"max_players":24,"Bots":0,"server_type":"Dedicated","server_os":"Linux","password":true,"vac":true,"version":"7961495","steam_id":85568392924504275,"keywords":["cp","nocrits","nodmgspread","uncletopia"],"game_id":440,"stv_port":27046,"stv_name":"Uncletopia | Frankfurt | 4 | All Maps | STV","players":null},{"server_id":310,"name":"Uncletopia | Frankfurt | 5 | All Maps","name_short":"frk-5","host":"frk-1.de.uncletopia.com","port":27055,"enabled":true,"region":"eu","cc":"de","latitude":50.110924,"longitude":8.682127,"reserved":0,"last_update":"0001-01-01T00:00:00Z","name_a2s":"Uncletopia | Frankfurt | 5 | All Maps","protocol":17,"map":"cp_snakewater_final1","folder":"tf","game":"Team Fortress","app_id":440,"player_count":0,"max_players":24,"Bots":0,"server_type":"Dedicated","server_os":"Linux","password":true,"vac":true,"version":"7961495","steam_id":85568392924504277,"keywords":["cp","nocrits","nodmgspread","uncletopia"],"game_id":440,"stv_port":27056,"stv_name":"Uncletopia | Frankfurt | 5 | All Maps | STV","players":null},{"server_id":311,"name":"Uncletopia | Frankfurt | 6 | All Maps","name_short":"frk-6","host":"frk-1.de.uncletopia.com","port":27065,"enabled":true,"region":"eu","cc":"de","latitude":50.110924,"longitude":8.682127,"reserved":0,"last_update":"0001-01-01T00:00:00Z","name_a2s":"Uncletopia | Frankfurt | 6 | All Maps","protocol":17,"map":"cp_sunshine","folder":"tf","game":"Team Fortress","app_id":440,"player_count":22,"max_players":24,"Bots":0,"server_type":"Dedicated","server_os":"Linux","password":true,"vac":true,"version":"7961495","steam_id":85568392924504278,"keywords":["cp","nocrits","nodmgspread","uncletopia"],"game_id":440,"stv_port":27066,"stv_name":"Uncletopia | Frankfurt | 6 | All Maps | STV","players":[{"user_id":302,"name":"Albert?","steam_id":76561198049405872,"connected_time":2721000000000,"state":"active","ping":38},{"user_id":306,"name":"biohazard.pt","steam_id":76561198088367808,"connected_time":2652000000000,"state":"active","ping":73},{"user_id":319,"name":"Fzx","steam_id":76561198159869614,"connected_time":1213000000000,"state":"active","ping":107},{"user_id":320,"name":"Scatter","steam_id":76561198258085271,"connected_time":1206000000000,"state":"active","ping":81},{"user_id":274,"name":"Kenny Savage","steam_id":76561199049383900,"connected_time":4003000000000,"state":"active","ping":64},{"user_id":301,"name":"Dr. Sus","steam_id":76561198344435644,"connected_time":2865000000000,"state":"active","ping":60},{"user_id":321,"name":"F2P Challenge","steam_id":76561199498773639,"connected_time":1151000000000,"state":"active","ping":77},{"user_id":311,"name":"‚ùÖ‚úÆnurse‚úÆ‚ùÖ","steam_id":76561198204505424,"connected_time":2118000000000,"state":"active","ping":84},{"user_id":322,"name":"ChPerette üéÆ","steam_id":76561198060004887,"connected_time":1107000000000,"state":"active","ping":45},{"user_id":315,"name":"Mr.Shpee","steam_id":76561198158701474,"connected_time":1367000000000,"state":"active","ping":75},{"user_id":265,"name":"Imperial City Guard","steam_id":76561198083355845,"connected_time":4428000000000,"state":"active","ping":51},{"user_id":309,"name":"DNA","steam_id":76561198095477557,"connected_time":2194000000000,"state":"active","ping":80},{"user_id":333,"name":"Solima","steam_id":76561198045349099,"connected_time":56000000000,"state":"active","ping":58},{"user_id":331,"name":"shr1mple","steam_id":76561198173537027,"connected_time":440000000000,"state":"active","ping":42},{"user_id":325,"name":"wG auto","steam_id":76561198062247888,"connected_time":993000000000,"state":"active","ping":70},{"user_id":323,"name":"‚òÅ Lou1smeister ‚òÅ","steam_id":76561198004032968,"connected_time":1071000000000,"state":"active","ping":62},{"user_id":198,"name":"finbar","steam_id":76561198056812396,"connected_time":8770000000000,"state":"active","ping":75},{"user_id":326,"name":"poop master","steam_id":76561198175847487,"connected_time":935000000000,"state":"active","ping":99},{"user_id":292,"name":"etc","steam_id":76561197998394797,"connected_time":3380000000000,"state":"active","ping":58},{"user_id":223,"name":"Lucky Number 13","steam_id":76561198043951279,"connected_time":7724000000000,"state":"active","ping":79},{"user_id":296,"name":"Penis Contortionist","steam_id":76561198073663784,"connected_time":3060000000000,"state":"active","ping":49},{"user_id":316,"name":"Grey","steam_id":76561198187190267,"connected_time":1367000000000,"state":"active","ping":46}]},{"server_id":23,"name":"Uncletopia | Frankfurt | 7 | Stopwatch","name_short":"frk-7","host":"frk-1.de.uncletopia.com","port":27075,"enabled":true,"region":"eu","cc":"de","latitude":50.110924,"longitude":8.682127,"reserved":0,"last_update":"0001-01-01T00:00:00Z","name_a2s":"Uncletopia | Frankfurt | 7 | Stopwatch","protocol":17,"map":"pl_frontier_final","folder":"tf","game":"Team Fortress","app_id":440,"player_count":0,"max_players":24,"Bots":0,"server_type":"Dedicated","server_os":"Linux","password":true,"vac":true,"version":"7961495","steam_id":85568392924742827,"keywords":["nocrits","nodmgspread","payload","uncletopia"],"game_id":440,"stv_port":27076,"stv_name":"Uncletopia | Frankfurt | 7 | Stopwatch | STV","players":null},{"server_id":24,"name":"Uncletopia | Frankfurt | 8 | Community","name_short":"frk-8","host":"frk-1.de.uncletopia.com","port":27085,"enabled":true,"region":"eu","cc":"de","latitude":50.110924,"longitude":8.682127,"reserved":0,"last_update":"0001-01-01T00:00:00Z","name_a2s":"Uncletopia | Frankfurt | 8 | Community","protocol":17,"map":"workshop/koth_ashville_final.ugc2130459942","folder":"tf","game":"Team Fortress","app_id":440,"player_count":0,"max_players":24,"Bots":0,"server_type":"Dedicated","server_os":"Linux","password":true,"vac":true,"version":"7961495","steam_id":85568392924742828,"keywords":["cp","nocrits","nodmgspread","uncletopia"],"game_id":440,"stv_port":27086,"stv_name":"Uncletopia | Frankfurt | 8 | Community | STV","players":null},{"server_id":202,"name":"Uncletopia | Hong Kong | 1 | All Maps","name_short":"hgk-1","host":"hgk-1.hk.uncletopia.com","port":27015,"enabled":true,"region":"asia","cc":"hk","latitude":22.302711,"longitude":114.177216,"reserved":0,"last_update":"0001-01-01T00:00:00Z","name_a2s":"Uncletopia | Hong Kong | 1 | All Maps","protocol":17,"map":"pl_frontier_final","folder":"tf","game":"Team Fortress","app_id":440,"player_count":1,"max_players":24,"Bots":0,"server_type":"Dedicated","server_os":"Linux","password":true,"vac":true,"version":"7961495","steam_id":85568392924494504,"keywords":["nocrits","nodmgspread","payload","uncletopia"],"game_id":440,"stv_port":27016,"stv_name":"Uncletopia | Hong Kong | 1 | All Maps | STV","players":[{"user_id":3,"name":"poopypantsjoe","steam_id":76561198204747977,"connected_time":80000000000,"state":"active","ping":61}]},{"server_id":1,"name":"Uncletopia | Los Angeles | 1 | All Maps","name_short":"lax-1","host":"lax-1.us.uncletopia.com","port":27015,"enabled":true,"region":"us-west","cc":"us","latitude":33.94279,"longitude":-118.41004,"reserved":0,"last_update":"0001-01-01T00:00:00Z","name_a2s":"Uncletopia | Los Angeles | 1 | All Maps","protocol":17,"map":"koth_viaduct","folder":"tf","game":"Team Fortress","app_id":440,"player_count":19,"max_players":24,"Bots":0,"server_type":"Dedicated","server_os":"Linux","password":true,"vac":true,"version":"7961495","steam_id":85568392924469991,"keywords":["cp","nocrits","nodmgspread","uncletopia"],"game_id":440,"stv_port":27016,"stv_name":"Uncletopia | Los Angeles | 1 | All Maps | STV","players":[{"user_id":236,"name":"Rose (Jademod/Zap)","steam_id":76561198041849827,"connected_time":53000000000,"state":"spawning","ping":87},{"user_id":224,"name":"ena - d","steam_id":76561198072329335,"connected_time":1085000000000,"state":"active","ping":103},{"user_id":192,"name":"sans undertale","steam_id":76561199128903858,"connected_time":2733000000000,"state":"active","ping":73},{"user_id":193,"name":"Seshreb","steam_id":76561198846614634,"connected_time":2683000000000,"state":"active","ping":53},{"user_id":234,"name":"Aglovail","steam_id":76561198276988844,"connected_time":412000000000,"state":"active","ping":54},{"user_id":230,"name":"r u guys going trick or treatin","steam_id":76561199074585110,"connected_time":936000000000,"state":"active","ping":45},{"user_id":102,"name":"Jimmy","steam_id":76561198857959855,"connected_time":7986000000000,"state":"active","ping":47},{"user_id":228,"name":"Scoron","steam_id":76561198062099305,"connected_time":1058000000000,"state":"active","ping":64},{"user_id":225,"name":"Mustard Man","steam_id":76561198067299247,"connected_time":1085000000000,"state":"active","ping":117},{"user_id":152,"name":"Callie","steam_id":76561198131833567,"connected_time":4277000000000,"state":"active","ping":78},{"user_id":194,"name":"Eden","steam_id":76561198081284664,"connected_time":2591000000000,"state":"active","ping":58},{"user_id":207,"name":"‚ú™ Y V E S","steam_id":76561198299479796,"connected_time":1560000000000,"state":"active","ping":42},{"user_id":235,"name":"Dawson Prime","steam_id":76561198162830209,"connected_time":405000000000,"state":"active","ping":81},{"user_id":214,"name":"thisisSteve","steam_id":76561198420882318,"connected_time":1394000000000,"state":"active","ping":53},{"user_id":201,"name":"Billy Mays","steam_id":76561197998876324,"connected_time":2224000000000,"state":"active","ping":59},{"user_id":203,"name":"Pixelated Pussy","steam_id":76561198002511088,"connected_time":1726000000000,"state":"active","ping":57},{"user_id":196,"name":"MTGbigdog","steam_id":76561198838760637,"connected_time":2520000000000,"state":"active","ping":124},{"user_id":229,"name":"Linksaver1","steam_id":76561198096312838,"connected_time":1047000000000,"state":"active","ping":52},{"user_id":219,"name":"Malcor","steam_id":76561198017594953,"connected_time":1301000000000,"state":"active","ping":122}]},{"server_id":112,"name":"Uncletopia | Los Angeles | 2 | All Maps","name_short":"lax-2","host":"lax-1.us.uncletopia.com","port":27025,"enabled":true,"region":"us-west","cc":"us","latitude":33.94279,"longitude":-118.41004,"reserved":0,"last_update":"0001-01-01T00:00:00Z","name_a2s":"Uncletopia | Los Angeles | 2 | All Maps","protocol":17,"map":"koth_lakeside_final","folder":"tf","game":"Team Fortress","app_id":440,"player_count":0,"max_players":24,"Bots":0,"server_type":"Dedicated","server_os":"Linux","password":true,"vac":true,"version":"7961495","steam_id":85568392924469992,"keywords":["cp","nocrits","nodmgspread","uncletopia"],"game_id":440,"stv_port":27026,"stv_name":"Uncletopia | Los Angeles | 2 | All Maps | STV","players":null},{"server_id":324,"name":"Uncletopia | Los Angeles | 3 | All Maps","name_short":"lax-3","host":"lax-1.us.uncletopia.com","port":27035,"enabled":true,"region":"us-west","cc":"us","latitude":33.94279,"longitude":-118.41004,"reserved":0,"last_update":"0001-01-01T00:00:00Z","name_a2s":"Uncletopia | Los Angeles | 3 | All Maps","protocol":17,"map":"cp_gorge","folder":"tf","game":"Team Fortress","app_id":440,"player_count":23,"max_players":24,"Bots":0,"server_type":"Dedicated","server_os":"Linux","password":true,"vac":true,"version":"7961495","steam_id":85568392924510198,"keywords":["cp","nocrits","nodmgspread","uncletopia"],"game_id":440,"stv_port":27036,"stv_name":"Uncletopia | Los Angeles | 3 | All Maps | STV","players":[{"user_id":107,"name":"irmao do pistola","steam_id":76561199494928942,"connected_time":858000000000,"state":"active","ping":134},{"user_id":21,"name":"OxOoxen841","steam_id":76561198297981993,"connected_time":5640000000000,"state":"active","ping":104},{"user_id":124,"name":"HAHAHAHA!!!","steam_id":76561199208835578,"connected_time":364000000000,"state":"active","ping":115},{"user_id":108,"name":"MiTiP","steam_id":76561198868699864,"connected_time":853000000000,"state":"active","ping":79},{"user_id":104,"name":"array","steam_id":76561198280409646,"connected_time":1229000000000,"state":"active","ping":33},{"user_id":114,"name":"Krysar","steam_id":76561198202077555,"connected_time":742000000000,"state":"active","ping":96},{"user_id":112,"name":"Freeza","steam_id":76561198050341005,"connected_time":768000000000,"state":"active","ping":45},{"user_id":118,"name":"Unlimited_Trees","steam_id":76561198299141443,"connected_time":470000000000,"state":"active","ping":56},{"user_id":116,"name":"Firedust19","steam_id":76561198153238631,"connected_time":604000000000,"state":"active","ping":65},{"user_id":29,"name":"gas station tweaker","steam_id":76561198264288798,"connected_time":5117000000000,"state":"active","ping":57},{"user_id":91,"name":"Fajita Master","steam_id":76561198329150962,"connected_time":1871000000000,"state":"active","ping":99},{"user_id":126,"name":"bcizzo","steam_id":76561197994399953,"connected_time":320000000000,"state":"active","ping":66},{"user_id":32,"name":"Hectic_Puppy (bday in 3 DAYS)","steam_id":76561198111645213,"connected_time":5077000000000,"state":"active","ping":45},{"user_id":74,"name":"üëÅ sumixodic","steam_id":76561198090770710,"connected_time":3659000000000,"state":"active","ping":62},{"user_id":119,"name":"jamlsal","steam_id":76561198965364083,"connected_time":470000000000,"state":"active","ping":91},{"user_id":122,"name":"luigiclub","steam_id":76561198180548194,"connected_time":402000000000,"state":"active","ping":80},{"user_id":123,"name":"Gojira19","steam_id":76561198206384351,"connected_time":388000000000,"state":"active","ping":129},{"user_id":132,"name":"Pyrolandian","steam_id":76561199057252600,"connected_time":155000000000,"state":"active","ping":206},{"user_id":105,"name":"GlossyBat","steam_id":76561198929313869,"connected_time":1213000000000,"state":"active","ping":53},{"user_id":125,"name":"Western_dragon","steam_id":76561198130456105,"connected_time":363000000000,"state":"active","ping":58},{"user_id":131,"name":"drank baby","steam_id":76561199483723843,"connected_time":230000000000,"state":"active","ping":56},{"user_id":128,"name":"Sock","steam_id":76561198315420000,"connected_time":281000000000,"state":"active","ping":103},{"user_id":129,"name":"OGBobbyJohns","steam_id":76561197964339077,"connected_time":255000000000,"state":"active","ping":85}]},{"server_id":25,"name":"Uncletopia | Los Angeles | 4 | Stopwatch","name_short":"lax-4","host":"lax-1.us.uncletopia.com","port":27045,"enabled":true,"region":"us-west","cc":"us","latitude":33.94279,"longitude":-118.41004,"reserved":0,"last_update":"0001-01-01T00:00:00Z","name_a2s":"Uncletopia | Los Angeles | 4 | Stopwatch","protocol":17,"map":"pl_barnblitz","folder":"tf","game":"Team Fortress","app_id":440,"player_count":0,"max_players":24,"Bots":0,"server_type":"Dedicated","server_os":"Linux","password":true,"vac":true,"version":"7961495","steam_id":85568392924510199,"keywords":["nocrits","nodmgspread","payload","uncletopia"],"game_id":440,"stv_port":27046,"stv_name":"Uncletopia | Los Angeles | 4 | Stopwatch | STV","players":null},{"server_id":11,"name":"Uncletopia | London | 1 | All Maps","name_short":"lon-1","host":"lon-1.uk.uncletopia.com","port":27015,"enabled":true,"region":"eu","cc":"gb","latitude":51.509865,"longitude":-0.118092,"reserved":0,"last_update":"0001-01-01T00:00:00Z","name_a2s":"Uncletopia | London | 1 | All Maps","protocol":17,"map":"pl_pier","folder":"tf","game":"Team Fortress","app_id":440,"player_count":24,"max_players":24,"Bots":0,"server_type":"Dedicated","server_os":"Linux","password":true,"vac":true,"version":"7961495","steam_id":85568392924367362,"keywords":["nocrits","nodmgspread","payload","uncletopia"],"game_id":440,"stv_port":27016,"stv_name":"Uncletopia | London | 1 | All Maps | STV","players":[{"user_id":907,"name":"BreadBubbles","steam_id":76561198174332826,"connected_time":4678000000000,"state":"active","ping":56},{"user_id":918,"name":"biohazard","steam_id":76561198162873354,"connected_time":2094000000000,"state":"active","ping":83},{"user_id":922,"name":"Ephix","steam_id":76561197977164055,"connected_time":1349000000000,"state":"active","ping":52},{"user_id":785,"name":"shooer!","steam_id":76561198110531281,"connected_time":18079000000000,"state":"active","ping":70},{"user_id":893,"name":"Cabbch","steam_id":76561198045955679,"connected_time":6879000000000,"state":"active","ping":52},{"user_id":925,"name":"Invi","steam_id":76561198061107149,"connected_time":1300000000000,"state":"active","ping":90},{"user_id":921,"name":"The Black Duckling","steam_id":76561198383394891,"connected_time":1573000000000,"state":"active","ping":147},{"user_id":919,"name":"puck","steam_id":76561198121260981,"connected_time":1838000000000,"state":"active","ping":36},{"user_id":915,"name":"Huskai","steam_id":76561198141512362,"connected_time":2648000000000,"state":"active","ping":44},{"user_id":727,"name":"whimsy.","steam_id":76561198878171763,"connected_time":23098000000000,"state":"active","ping":52},{"user_id":934,"name":"Felix","steam_id":76561198030482164,"connected_time":113000000000,"state":"active","ping":66},{"user_id":931,"name":"Vershal Smershal","steam_id":76561198116223995,"connected_time":720000000000,"state":"active","ping":57},{"user_id":880,"name":"Clown :o)","steam_id":76561198074657015,"connected_time":7966000000000,"state":"active","ping":58},{"user_id":933,"name":"learning how 2 golf","steam_id":76561198040690770,"connected_time":116000000000,"state":"active","ping":46},{"user_id":878,"name":"sora (live :3)","steam_id":76561198096547662,"connected_time":8836000000000,"state":"active","ping":53},{"user_id":906,"name":"GoblinGaming (Albert Fan)","steam_id":76561198360395476,"connected_time":4689000000000,"state":"active","ping":37},{"user_id":930,"name":"Psyche","steam_id":76561198091662001,"connected_time":730000000000,"state":"active","ping":32},{"user_id":901,"name":"rigel_","steam_id":76561198148640847,"connected_time":4996000000000,"state":"active","ping":76},{"user_id":927,"name":"Old Witch","steam_id":76561198283001170,"connected_time":1203000000000,"state":"active","ping":157},{"user_id":862,"name":"Lyra","steam_id":76561198043601838,"connected_time":9989000000000,"state":"active","ping":61},{"user_id":891,"name":"‚ô° Birdy ‚ô°","steam_id":76561198139632682,"connected_time":7170000000000,"state":"active","ping":89},{"user_id":908,"name":"Marquis de Hoto","steam_id":76561198080687708,"connected_time":4666000000000,"state":"active","ping":74},{"user_id":913,"name":"Purps","steam_id":76561198053886680,"connected_time":3385000000000,"state":"active","ping":38},{"user_id":932,"name":"agent youppii","steam_id":76561198055264447,"connected_time":714000000000,"state":"active","ping":60}]},{"server_id":114,"name":"Uncletopia | London | 2 | All Maps","name_short":"lon-2","host":"lon-1.uk.uncletopia.com","port":27025,"enabled":true,"region":"eu","cc":"gb","latitude":51.509865,"longitude":-0.118092,"reserved":0,"last_update":"0001-01-01T00:00:00Z","name_a2s":"Uncletopia | London | 2 | All Maps","protocol":17,"map":"pl_upward","folder":"tf","game":"Team Fortress","app_id":440,"player_count":22,"max_players":24,"Bots":0,"server_type":"Dedicated","server_os":"Linux","password":true,"vac":true,"version":"7961495","steam_id":85568392924470941,"keywords":["nocrits","nodmgspread","payload","uncletopia"],"game_id":440,"stv_port":27026,"stv_name":"Uncletopia | London | 2 | All Maps | STV","players":[{"user_id":593,"name":"Semi","steam_id":76561199105889252,"connected_time":1046000000000,"state":"active","ping":75},{"user_id":604,"name":"any1 wanna help me with medic","steam_id":76561198051852765,"connected_time":71000000000,"state":"active","ping":73},{"user_id":594,"name":"xD_TheRizzler","steam_id":76561198202638164,"connected_time":955000000000,"state":"active","ping":89},{"user_id":596,"name":"southwest florida","steam_id":76561198049639319,"connected_time":818000000000,"state":"active","ping":80},{"user_id":597,"name":"gediot#2","steam_id":76561199229899155,"connected_time":813000000000,"state":"active","ping":39},{"user_id":605,"name":"Dean Craig Pelton From Communit","steam_id":76561198155010055,"connected_time":69000000000,"state":"active","ping":121},{"user_id":607,"name":"landocalrissian","steam_id":76561198027033926,"connected_time":29000000000,"state":"active","ping":58},{"user_id":584,"name":"bryophyta","steam_id":76561197968945306,"connected_time":1726000000000,"state":"active","ping":71},{"user_id":598,"name":"khamba","steam_id":76561198054783240,"connected_time":805000000000,"state":"active","ping":144},{"user_id":599,"name":"King Nugget","steam_id":76561198134037464,"connected_time":797000000000,"state":"active","ping":58},{"user_id":557,"name":"Mentlegen","steam_id":76561198064764010,"connected_time":3542000000000,"state":"active","ping":123},{"user_id":600,"name":"[HOL] Solringen","steam_id":76561198003584681,"connected_time":782000000000,"state":"active","ping":75},{"user_id":586,"name":"AmericanOnLondonUncletopiaServe","steam_id":76561198062870114,"connected_time":1635000000000,"state":"active","ping":147},{"user_id":559,"name":"grati5","steam_id":76561198057088344,"connected_time":3392000000000,"state":"active","ping":122},{"user_id":601,"name":"the rat","steam_id":76561198079101313,"connected_time":782000000000,"state":"active","ping":56},{"user_id":602,"name":"pickle beans","steam_id":76561199084371787,"connected_time":774000000000,"state":"active","ping":83},{"user_id":553,"name":"Sploigy","steam_id":76561197985773614,"connected_time":3814000000000,"state":"active","ping":76},{"user_id":564,"name":"katana on the trains","steam_id":76561198202464032,"connected_time":3269000000000,"state":"active","ping":59},{"user_id":568,"name":"Ankmar le Touffu","steam_id":76561198169381436,"connected_time":3093000000000,"state":"active","ping":60},{"user_id":603,"name":"smrk","steam_id":76561198066926098,"connected_time":743000000000,"state":"active","ping":60},{"user_id":577,"name":"NonProphet","steam_id":76561198280149820,"connected_time":2691000000000,"state":"active","ping":59},{"user_id":579,"name":"Fnif","steam_id":76561197987988100,"connected_time":2461000000000,"state":"active","ping":68}]},{"server_id":320,"name":"Uncletopia | London | 3 | All Maps","name_short":"lon-3","host":"lon-1.uk.uncletopia.com","port":27035,"enabled":true,"region":"eu","cc":"gb","latitude":51.509865,"longitude":-0.118092,"reserved":0,"last_update":"0001-01-01T00:00:00Z","name_a2s":"Uncletopia | London | 3 | All Maps","protocol":17,"map":"pl_borneo","folder":"tf","game":"Team Fortress","app_id":440,"player_count":23,"max_players":24,"Bots":0,"server_type":"Dedicated","server_os":"Linux","password":true,"vac":true,"version":"7961495","steam_id":85568392924510192,"keywords":["nocrits","nodmgspread","payload","uncletopia"],"game_id":440,"stv_port":27036,"stv_name":"Uncletopia | London | 3 | All Maps | STV","players":[{"user_id":358,"name":"Spongebob","steam_id":76561197998176511,"connected_time":94000000000,"state":"active","ping":153},{"user_id":346,"name":"Medic Main","steam_id":76561198057918945,"connected_time":1517000000000,"state":"active","ping":107},{"user_id":348,"name":"Skarp","steam_id":76561198034398376,"connected_time":1016000000000,"state":"active","ping":60},{"user_id":328,"name":"Maximilian1359","steam_id":76561198152439608,"connected_time":3975000000000,"state":"active","ping":59},{"user_id":307,"name":"lawn","steam_id":76561198001243486,"connected_time":5407000000000,"state":"active","ping":44},{"user_id":308,"name":"chillrend_morphs_high_lod6","steam_id":76561198452963141,"connected_time":5392000000000,"state":"active","ping":91},{"user_id":352,"name":"JujuBalu","steam_id":76561198207253071,"connected_time":605000000000,"state":"active","ping":29},{"user_id":356,"name":"Severeburrito16","steam_id":76561198353155991,"connected_time":237000000000,"state":"active","ping":129},{"user_id":349,"name":"Husky_VDB","steam_id":76561198107523098,"connected_time":1009000000000,"state":"active","ping":46},{"user_id":301,"name":"ketamine","steam_id":76561198057104208,"connected_time":5885000000000,"state":"active","ping":97},{"user_id":309,"name":"Nomakh","steam_id":76561198096414653,"connected_time":5383000000000,"state":"active","ping":89},{"user_id":327,"name":"orange","steam_id":76561198963378933,"connected_time":4007000000000,"state":"active","ping":39},{"user_id":312,"name":"Steen","steam_id":76561198122992510,"connected_time":5219000000000,"state":"active","ping":45},{"user_id":338,"name":"stun","steam_id":76561198276681691,"connected_time":2296000000000,"state":"active","ping":51},{"user_id":353,"name":"7Samurai","steam_id":76561198045546017,"connected_time":510000000000,"state":"active","ping":147},{"user_id":355,"name":"three","steam_id":76561199024512720,"connected_time":446000000000,"state":"active","ping":54},{"user_id":329,"name":"Assassin+","steam_id":76561197994310420,"connected_time":3973000000000,"state":"active","ping":62},{"user_id":299,"name":"Air","steam_id":76561198271025518,"connected_time":6171000000000,"state":"active","ping":104},{"user_id":339,"name":"I might knife you","steam_id":76561199267543998,"connected_time":2292000000000,"state":"active","ping":81},{"user_id":331,"name":"sheryl","steam_id":76561198088624259,"connected_time":3949000000000,"state":"active","ping":61},{"user_id":357,"name":"Mr. Bean","steam_id":76561198086929777,"connected_time":159000000000,"state":"active","ping":59},{"user_id":342,"name":"JubeCube","steam_id":76561198377284087,"connected_time":2260000000000,"state":"active","ping":71},{"user_id":332,"name":"applier of the lotion","steam_id":76561198798803845,"connected_time":3949000000000,"state":"active","ping":47}]},{"server_id":321,"name":"Uncletopia | London | 4 | All Maps","name_short":"lon-4","host":"lon-1.uk.uncletopia.com","port":27045,"enabled":true,"region":"eu","cc":"gb","latitude":51.509865,"longitude":-0.118092,"reserved":0,"last_update":"0001-01-01T00:00:00Z","name_a2s":"Uncletopia | London | 4 | All Maps","protocol":17,"map":"koth_viaduct","folder":"tf","game":"Team Fortress","app_id":440,"player_count":0,"max_players":24,"Bots":0,"server_type":"Dedicated","server_os":"Linux","password":true,"vac":true,"version":"7961495","steam_id":85568392924510193,"keywords":["cp","nocrits","nodmgspread","uncletopia"],"game_id":440,"stv_port":27046,"stv_name":"Uncletopia | London | 4 | All Maps | STV","players":null},{"server_id":21,"name":"Uncletopia | London | 5 | All Maps","name_short":"lon-5","host":"lon-1.uk.uncletopia.com","port":27055,"enabled":true,"region":"eu","cc":"gb","latitude":51.509865,"longitude":-0.118092,"reserved":0,"last_update":"0001-01-01T00:00:00Z","name_a2s":"Uncletopia | London | 5 | All Maps","protocol":17,"map":"cp_dustbowl","folder":"tf","game":"Team Fortress","app_id":440,"player_count":0,"max_players":24,"Bots":0,"server_type":"Dedicated","server_os":"Linux","password":true,"vac":true,"version":"7961495","steam_id":85568392924742829,"keywords":["cp","nocrits","nodmgspread","uncletopia"],"game_id":440,"stv_port":27056,"stv_name":"Uncletopia | London | 5 | All Maps | STV","players":null},{"server_id":22,"name":"Uncletopia | London | 6 | All Maps","name_short":"lon-6","host":"lon-1.uk.uncletopia.com","port":27065,"enabled":true,"region":"eu","cc":"gb","latitude":51.509865,"longitude":-0.118092,"reserved":0,"last_update":"0001-01-01T00:00:00Z","name_a2s":"Uncletopia | London | 6 | All Maps","protocol":17,"map":"koth_lakeside_final","folder":"tf","game":"Team Fortress","app_id":440,"player_count":0,"max_players":24,"Bots":0,"server_type":"Dedicated","server_os":"Linux","password":true,"vac":true,"version":"7961495","steam_id":85568392924742830,"keywords":["cp","nocrits","nodmgspread","uncletopia"],"game_id":440,"stv_port":27066,"stv_name":"Uncletopia | London | 6 | All Maps | STV","players":null},{"server_id":40,"name":"Uncletopia | London | 7 | Stopwatch","name_short":"lon-7","host":"lon-1.uk.uncletopia.com","port":27075,"enabled":true,"region":"eu","cc":"gb","latitude":51.509865,"longitude":-0.118092,"reserved":0,"last_update":"0001-01-01T00:00:00Z","name_a2s":"Uncletopia | London | 7 | Stopwatch","protocol":17,"map":"workshop/pl_summercoast_rc8e.ugc1761528829","folder":"tf","game":"Team Fortress","app_id":440,"player_count":0,"max_players":24,"Bots":0,"server_type":"Dedicated","server_os":"Linux","password":true,"vac":true,"version":"7961495","steam_id":85568392924964314,"keywords":["nocrits","nodmgspread","payload","uncletopia"],"game_id":440,"stv_port":27076,"stv_name":"Uncletopia | London | 7 | Stopwatch | STV","players":null},{"server_id":41,"name":"Uncletopia | London | 8 | Community","name_short":"lon-8","host":"lon-1.uk.uncletopia.com","port":27085,"enabled":true,"region":"eu","cc":"gb","latitude":51.509865,"longitude":-0.118092,"reserved":0,"last_update":"0001-01-01T00:00:00Z","name_a2s":"Uncletopia | London | 8 | Community","protocol":17,"map":"workshop/cp_logjam_rc12.ugc454812035","folder":"tf","game":"Team Fortress","app_id":440,"player_count":0,"max_players":24,"Bots":0,"server_type":"Dedicated","server_os":"Linux","password":true,"vac":true,"version":"7961495","steam_id":85568392924964315,"keywords":["cp","nocrits","nodmgspread","uncletopia"],"game_id":440,"stv_port":27086,"stv_name":"Uncletopia | London | 8 | Community | STV","players":null},{"server_id":300,"name":"Uncletopia | Montr√©al | 1 | One Thousand Uncles","name_short":"mtl-1","host":"mtl-1.ca.uncletopia.com","port":27015,"enabled":true,"region":"us-east","cc":"ca","latitude":45.50889,"longitude":-73.56167,"reserved":0,"last_update":"0001-01-01T00:00:00Z","name_a2s":"","protocol":0,"map":"","folder":"","game":"","app_id":0,"player_count":9,"max_players":0,"Bots":0,"server_type":"","server_os":"","password":false,"vac":false,"version":"","steam_id":0,"keywords":null,"game_id":0,"stv_port":0,"stv_name":"","players":[{"user_id":117,"name":"cDrive","steam_id":76561198179612321,"connected_time":2354000000000,"state":"active","ping":53},{"user_id":105,"name":"Rhutebeer","steam_id":76561198018302761,"connected_time":4486000000000,"state":"active","ping":105},{"user_id":118,"name":"TheGalacticGuy","steam_id":76561199094547569,"connected_time":2107000000000,"state":"active","ping":57},{"user_id":126,"name":"Benyboi_f2p","steam_id":76561199501299582,"connected_time":531000000000,"state":"active","ping":62},{"user_id":123,"name":"manbearswineflu","steam_id":76561198083945137,"connected_time":1038000000000,"state":"active","ping":71},{"user_id":121,"name":"Fire skys","steam_id":76561199260090417,"connected_time":1448000000000,"state":"active","ping":80},{"user_id":124,"name":"Uncle Larry","steam_id":76561198889151082,"connected_time":1009000000000,"state":"active","ping":92},{"user_id":111,"name":"Huey","steam_id":76561198972816386,"connected_time":3744000000000,"state":"active","ping":86},{"user_id":127,"name":"Jack Meehoff","steam_id":76561199246237446,"connected_time":258000000000,"state":"active","ping":66}]},{"server_id":301,"name":"Uncletopia | Montr√©al | 2 | One Thousand Uncles","name_short":"mtl-2","host":"mtl-1.ca.uncletopia.com","port":27025,"enabled":true,"region":"us-east","cc":"ca","latitude":45.50889,"longitude":-73.56167,"reserved":0,"last_update":"0001-01-01T00:00:00Z","name_a2s":"","protocol":0,"map":"","folder":"","game":"","app_id":0,"player_count":0,"max_players":0,"Bots":0,"server_type":"","server_os":"","password":false,"vac":false,"version":"","steam_id":0,"keywords":null,"game_id":0,"stv_port":0,"stv_name":"","players":null},{"server_id":302,"name":"Uncletopia | Montr√©al | 3 | One Thousand Uncles","name_short":"mtl-3","host":"mtl-1.ca.uncletopia.com","port":27035,"enabled":true,"region":"us-east","cc":"ca","latitude":45.50889,"longitude":-73.56167,"reserved":0,"last_update":"0001-01-01T00:00:00Z","name_a2s":"","protocol":0,"map":"","folder":"","game":"","app_id":0,"player_count":0,"max_players":0,"Bots":0,"server_type":"","server_os":"","password":false,"vac":false,"version":"","steam_id":0,"keywords":null,"game_id":0,"stv_port":0,"stv_name":"","players":null},{"server_id":13,"name":"Uncletopia | New York City | 1 | All Maps","name_short":"nyc-1","host":"nyc-1.us.uncletopia.com","port":27015,"enabled":true,"region":"us-east","cc":"us","latitude":40.73061,"longitude":-73.93524,"reserved":0,"last_update":"0001-01-01T00:00:00Z","name_a2s":"Uncletopia | New York City | 1 | All Maps","protocol":17,"map":"pl_goldrush","folder":"tf","game":"Team Fortress","app_id":440,"player_count":24,"max_players":24,"Bots":0,"server_type":"Dedicated","server_os":"Linux","password":true,"vac":true,"version":"7961495","steam_id":85568392924469993,"keywords":["nocrits","nodmgspread","payload","uncletopia"],"game_id":440,"stv_port":27016,"stv_name":"Uncletopia | New York City | 1 | All Maps | STV","players":[{"user_id":299,"name":"ash","steam_id":76561198127890645,"connected_time":2197000000000,"state":"active","ping":83},{"user_id":265,"name":"Nicholas Deckolas","steam_id":76561198005301468,"connected_time":3481000000000,"state":"active","ping":91},{"user_id":310,"name":"üöΩKorfJobüöΩ","steam_id":76561198212932833,"connected_time":1123000000000,"state":"active","ping":282},{"user_id":319,"name":"Telomerase","steam_id":76561198095792685,"connected_time":536000000000,"state":"active","ping":69},{"user_id":196,"name":"The Undead Knight","steam_id":76561198010654500,"connected_time":9309000000000,"state":"active","ping":94},{"user_id":289,"name":"Skull_King","steam_id":76561198098476154,"connected_time":2478000000000,"state":"active","ping":74},{"user_id":315,"name":"Monty","steam_id":76561197993567253,"connected_time":707000000000,"state":"active","ping":112},{"user_id":189,"name":"Frost ‚ô•","steam_id":76561198168870617,"connected_time":10440000000000,"state":"active","ping":54},{"user_id":306,"name":"Reiner","steam_id":76561199201762178,"connected_time":1415000000000,"state":"active","ping":86},{"user_id":261,"name":"jackass","steam_id":76561198209380493,"connected_time":4565000000000,"state":"active","ping":46},{"user_id":296,"name":"nomad","steam_id":76561197998740399,"connected_time":2218000000000,"state":"active","ping":54},{"user_id":259,"name":"ekgooby","steam_id":76561198043678479,"connected_time":5039000000000,"state":"active","ping":63},{"user_id":284,"name":"blood-thirsty pitbull","steam_id":76561198106690989,"connected_time":2618000000000,"state":"active","ping":54},{"user_id":314,"name":"dratives 46","steam_id":76561199192799242,"connected_time":1002000000000,"state":"active","ping":86},{"user_id":294,"name":"baconandx","steam_id":76561198355074004,"connected_time":2268000000000,"state":"active","ping":64},{"user_id":317,"name":"Gravity Bomb","steam_id":76561198190417719,"connected_time":624000000000,"state":"active","ping":65},{"user_id":307,"name":"BirdieNuke","steam_id":76561198244538150,"connected_time":1410000000000,"state":"active","ping":55},{"user_id":271,"name":"badabing badaboom","steam_id":76561198850358863,"connected_time":3428000000000,"state":"active","ping":156},{"user_id":266,"name":"Nerrrd_","steam_id":76561198870129960,"connected_time":3479000000000,"state":"active","ping":45},{"user_id":318,"name":"Dr. Feelgood (Ph.D, MD)","steam_id":76561198040611061,"connected_time":617000000000,"state":"active","ping":50},{"user_id":320,"name":"Bolshenose","steam_id":76561198069857272,"connected_time":217000000000,"state":"active","ping":58},{"user_id":298,"name":"eish","steam_id":76561198089463603,"connected_time":2204000000000,"state":"active","ping":137},{"user_id":277,"name":"Octovaitor","steam_id":76561198004658451,"connected_time":3251000000000,"state":"active","ping":47},{"user_id":313,"name":"DriftingOne","steam_id":76561198044836619,"connected_time":1082000000000,"state":"active","ping":72}]},{"server_id":14,"name":"Uncletopia | New York City | 2 | All Maps","name_short":"nyc-2","host":"nyc-1.us.uncletopia.com","port":27025,"enabled":true,"region":"us-east","cc":"us","latitude":40.73061,"longitude":-73.93524,"reserved":0,"last_update":"0001-01-01T00:00:00Z","name_a2s":"Uncletopia | New York City | 2 | All Maps","protocol":17,"map":"pl_borneo","folder":"tf","game":"Team Fortress","app_id":440,"player_count":24,"max_players":24,"Bots":0,"server_type":"Dedicated","server_os":"Linux","password":true,"vac":true,"version":"7961495","steam_id":85568392924469994,"keywords":["nocrits","nodmgspread","payload","uncletopia"],"game_id":440,"stv_port":27026,"stv_name":"Uncletopia | New York City | 2 | All Maps | STV","players":[{"user_id":508,"name":"emotional suppport e-cigarette","steam_id":76561198172120615,"connected_time":407000000000,"state":"active","ping":35},{"user_id":507,"name":"DJ Pierce","steam_id":76561198394241466,"connected_time":411000000000,"state":"active","ping":82},{"user_id":506,"name":"War on Drugs Fighter","steam_id":76561198103211035,"connected_time":448000000000,"state":"active","ping":74},{"user_id":497,"name":"addera","steam_id":76561198041535102,"connected_time":1633000000000,"state":"active","ping":74},{"user_id":473,"name":"rob1028","steam_id":76561198055429931,"connected_time":2961000000000,"state":"active","ping":68},{"user_id":496,"name":"iceetee","steam_id":76561198156275931,"connected_time":1645000000000,"state":"active","ping":62},{"user_id":490,"name":"Oxygen User","steam_id":76561199111975528,"connected_time":1953000000000,"state":"active","ping":86},{"user_id":472,"name":"HARRY B HOLE","steam_id":76561198842067238,"connected_time":3027000000000,"state":"active","ping":86},{"user_id":462,"name":"Lumi","steam_id":76561198089978036,"connected_time":4141000000000,"state":"active","ping":49},{"user_id":510,"name":"iCarly Lore Expert","steam_id":76561198111902910,"connected_time":268000000000,"state":"active","ping":43},{"user_id":469,"name":"wolfgrey139","steam_id":76561199206554751,"connected_time":3395000000000,"state":"active","ping":52},{"user_id":465,"name":"hayes","steam_id":76561198057101042,"connected_time":3608000000000,"state":"active","ping":93},{"user_id":471,"name":"Shack","steam_id":76561198035503322,"connected_time":3135000000000,"state":"active","ping":93},{"user_id":414,"name":"BeerPowder","steam_id":76561198058129400,"connected_time":6481000000000,"state":"active","ping":51},{"user_id":509,"name":"Coolcat","steam_id":76561198180933957,"connected_time":394000000000,"state":"active","ping":80},{"user_id":501,"name":"YesMargaret","steam_id":76561198127971751,"connected_time":1366000000000,"state":"active","ping":80},{"user_id":458,"name":"The Grim Heaper","steam_id":76561197987759101,"connected_time":4405000000000,"state":"active","ping":127},{"user_id":498,"name":"chimi","steam_id":76561198064111533,"connected_time":1588000000000,"state":"active","ping":40},{"user_id":479,"name":"Lin","steam_id":76561198143746480,"connected_time":2705000000000,"state":"active","ping":123},{"user_id":468,"name":"TheBoxWizard","steam_id":76561198447992832,"connected_time":3588000000000,"state":"active","ping":55},{"user_id":489,"name":"Voracious Puma","steam_id":76561197963621649,"connected_time":1956000000000,"state":"active","ping":88},{"user_id":480,"name":"Queso2469","steam_id":76561197993024580,"connected_time":2702000000000,"state":"active","ping":54},{"user_id":495,"name":"‚òòÔ∏èNACHO_üçÄ","steam_id":76561198076618089,"connected_time":1658000000000,"state":"active","ping":58},{"user_id":504,"name":"Chef","steam_id":76561198725474081,"connected_time":578000000000,"state":"active","ping":99}]},{"server_id":15,"name":"Uncletopia | New York City | 3 | Stopwatch","name_short":"nyc-3","host":"nyc-1.us.uncletopia.com","port":27035,"enabled":true,"region":"us-east","cc":"us","latitude":40.73061,"longitude":-73.93524,"reserved":0,"last_update":"0001-01-01T00:00:00Z","name_a2s":"Uncletopia | New York City | 3 | Stopwatch","protocol":17,"map":"workshop/koth_ashville_final.ugc2130459942","folder":"tf","game":"Team Fortress","app_id":440,"player_count":0,"max_players":24,"Bots":0,"server_type":"Dedicated","server_os":"Linux","password":true,"vac":true,"version":"7961495","steam_id":85568392924742820,"keywords":["cp","nocrits","nodmgspread","uncletopia"],"game_id":440,"stv_port":27036,"stv_name":"Uncletopia | New York City | 3 | Stopwatch | STV","players":null},{"server_id":16,"name":"Uncletopia | New York City | 4 | Community","name_short":"nyc-4","host":"nyc-1.us.uncletopia.com","port":27045,"enabled":true,"region":"us-east","cc":"us","latitude":40.73061,"longitude":-73.93524,"reserved":0,"last_update":"0001-01-01T00:00:00Z","name_a2s":"Uncletopia | New York City | 4 | Community","protocol":17,"map":"workshop/pl_cactuscanyon_redux_final2.ugc2579644293","folder":"tf","game":"Team Fortress","app_id":440,"player_count":4,"max_players":24,"Bots":0,"server_type":"Dedicated","server_os":"Linux","password":true,"vac":true,"version":"7961495","steam_id":85568392924742821,"keywords":["nocrits","nodmgspread","payload","uncletopia"],"game_id":440,"stv_port":27046,"stv_name":"Uncletopia | New York City | 4 | Community | STV","players":[{"user_id":12,"name":"Daggersboy","steam_id":76561198087658449,"connected_time":582000000000,"state":"active","ping":56},{"user_id":13,"name":"Really Cool Bird","steam_id":76561198268632388,"connected_time":500000000000,"state":"active","ping":63},{"user_id":14,"name":"Morioh Radio","steam_id":76561198354551883,"connected_time":488000000000,"state":"active","ping":73},{"user_id":15,"name":"Shuu","steam_id":76561199199180558,"connected_time":56000000000,"state":"active","ping":42}]},{"server_id":142,"name":"Uncletopia | S√£o Paulo | 1 | All Maps","name_short":"sao-1","host":"sao-1.br.uncletopia.com","port":27015,"enabled":true,"region":"sa","cc":"br","latitude":-23.533773,"longitude":-46.62529,"reserved":0,"last_update":"0001-01-01T00:00:00Z","name_a2s":"Uncletopia | S√£o Paulo | 1 | All Maps","protocol":17,"map":"cp_snakewater_final1","folder":"tf","game":"Team Fortress","app_id":440,"player_count":0,"max_players":24,"Bots":0,"server_type":"Dedicated","server_os":"Linux","password":true,"vac":true,"version":"7961495","steam_id":85568392924469996,"keywords":["cp","nocrits","nodmgspread","uncletopia"],"game_id":440,"stv_port":27016,"stv_name":"Uncletopia | S√£o Paulo | 1 | All Maps | STV","players":null},{"server_id":143,"name":"Uncletopia | S√£o Paulo | 2 | Community","name_short":"sao-2","host":"sao-2.br.uncletopia.com","port":27015,"enabled":true,"region":"sa","cc":"br","latitude":-23.533773,"longitude":-46.62529,"reserved":0,"last_update":"0001-01-01T00:00:00Z","name_a2s":"Uncletopia | S√£o Paulo | 2 | Community","protocol":17,"map":"workshop/cp_reckoner_rc6.ugc674719999","folder":"tf","game":"Team Fortress","app_id":440,"player_count":6,"max_players":24,"Bots":0,"server_type":"Dedicated","server_os":"Linux","password":true,"vac":true,"version":"7961495","steam_id":85568392924485349,"keywords":["cp","nocrits","nodmgspread","uncletopia"],"game_id":440,"stv_port":27016,"stv_name":"Uncletopia | S√£o Paulo | 2 | Community | STV","players":[{"user_id":17,"name":"Rafindigsk 60hz","steam_id":76561199499235424,"connected_time":2954000000000,"state":"active","ping":33},{"user_id":18,"name":"ElderYuko","steam_id":76561199090628256,"connected_time":2901000000000,"state":"active","ping":51},{"user_id":23,"name":"RaposaDePel√∫cia","steam_id":76561199051404580,"connected_time":1173000000000,"state":"active","ping":56},{"user_id":26,"name":"Zeca","steam_id":76561198808765523,"connected_time":96000000000,"state":"active","ping":74},{"user_id":28,"name":"Eu Sou 157","steam_id":76561198352089243,"connected_time":80000000000,"state":"active","ping":38},{"user_id":29,"name":"Lucky_zat","steam_id":76561199176352128,"connected_time":80000000000,"state":"active","ping":105}]},{"server_id":7,"name":"Uncletopia | Seattle | 1 | All Maps","name_short":"sea-1","host":"sea-1.us.uncletopia.com","port":27015,"enabled":true,"region":"us-west","cc":"us","latitude":47.608013,"longitude":-122.33517,"reserved":0,"last_update":"0001-01-01T00:00:00Z","name_a2s":"Uncletopia | Seattle | 1 | All Maps","protocol":17,"map":"pl_swiftwater_final1","folder":"tf","game":"Team Fortress","app_id":440,"player_count":24,"max_players":24,"Bots":0,"server_type":"Dedicated","server_os":"Linux","password":true,"vac":true,"version":"7961495","steam_id":85568392924469997,"keywords":["nocrits","nodmgspread","payload","uncletopia"],"game_id":440,"stv_port":27016,"stv_name":"Uncletopia | Seattle | 1 | All Maps | STV","players":[{"user_id":451,"name":"invenomious","steam_id":76561199032714821,"connected_time":3492000000000,"state":"active","ping":40},{"user_id":482,"name":"Greskrendtregk","steam_id":76561197969553142,"connected_time":438000000000,"state":"active","ping":55},{"user_id":480,"name":"Skoad","steam_id":76561198104650528,"connected_time":597000000000,"state":"active","ping":78},{"user_id":465,"name":"fried water","steam_id":76561198360311110,"connected_time":2475000000000,"state":"active","ping":45},{"user_id":478,"name":"trackpad gaming | f2p","steam_id":76561198840414371,"connected_time":1139000000000,"state":"active","ping":42},{"user_id":479,"name":"rad killl raccoon","steam_id":76561198980975595,"connected_time":1113000000000,"state":"active","ping":42},{"user_id":423,"name":"Nom Skirrett","steam_id":76561198014600788,"connected_time":6276000000000,"state":"active","ping":60},{"user_id":410,"name":"jurt","steam_id":76561198966381490,"connected_time":7612000000000,"state":"active","ping":47},{"user_id":481,"name":"Eraser cat","steam_id":76561199045570463,"connected_time":516000000000,"state":"active","ping":50},{"user_id":419,"name":"TheBrocklobster","steam_id":76561198039682984,"connected_time":7290000000000,"state":"active","ping":85},{"user_id":475,"name":"Hazel Nutts :3","steam_id":76561199247095754,"connected_time":1675000000000,"state":"active","ping":58},{"user_id":476,"name":"Spectre‚Åπ‚Åπ‚Åπ","steam_id":76561198037535169,"connected_time":1201000000000,"state":"active","ping":73},{"user_id":433,"name":"you just got dyked on","steam_id":76561198018977723,"connected_time":5463000000000,"state":"active","ping":44},{"user_id":472,"name":"Ricedayo ‚ô•üê¨","steam_id":76561198194154351,"connected_time":1724000000000,"state":"active","ping":85},{"user_id":436,"name":"dodecadron","steam_id":76561198027397222,"connected_time":4794000000000,"state":"active","ping":69},{"user_id":454,"name":"fish (2:3)","steam_id":76561198134331073,"connected_time":3435000000000,"state":"active","ping":49},{"user_id":473,"name":"nothing but normality","steam_id":76561198213385439,"connected_time":1717000000000,"state":"active","ping":90},{"user_id":448,"name":"Drake from State Farm","steam_id":76561199069029812,"connected_time":3572000000000,"state":"active","ping":80},{"user_id":441,"name":"Arkus","steam_id":76561199092478198,"connected_time":4538000000000,"state":"active","ping":46},{"user_id":483,"name":"Daz","steam_id":76561198041431938,"connected_time":72000000000,"state":"active","ping":53},{"user_id":468,"name":"Furry Femboy Hooters (CEO)","steam_id":76561198097745857,"connected_time":1747000000000,"state":"active","ping":59},{"user_id":458,"name":"slime boy 37","steam_id":76561199105474479,"connected_time":2954000000000,"state":"active","ping":104},{"user_id":461,"name":"Yikes","steam_id":76561198118639409,"connected_time":2594000000000,"state":"active","ping":47},{"user_id":469,"name":"MidnightBrooklyn!","steam_id":76561198235375340,"connected_time":1747000000000,"state":"active","ping":57}]},{"server_id":119,"name":"Uncletopia | Seattle | 2 | All Maps","name_short":"sea-2","host":"sea-1.us.uncletopia.com","port":27025,"enabled":true,"region":"us-west","cc":"us","latitude":47.608013,"longitude":-122.33517,"reserved":0,"last_update":"0001-01-01T00:00:00Z","name_a2s":"Uncletopia | Seattle | 2 | All Maps","protocol":17,"map":"pl_swiftwater_final1","folder":"tf","game":"Team Fortress","app_id":440,"player_count":2,"max_players":24,"Bots":0,"server_type":"Dedicated","server_os":"Linux","password":true,"vac":true,"version":"7961495","steam_id":85568392924469998,"keywords":["nocrits","nodmgspread","payload","uncletopia"],"game_id":440,"stv_port":27026,"stv_name":"Uncletopia | Seattle | 2 | All Maps | STV","players":[{"user_id":8,"name":"Azary56","steam_id":76561198321404617,"connected_time":168000000000,"state":"active","ping":59},{"user_id":9,"name":"MrPenguin","steam_id":76561199374387317,"connected_time":145000000000,"state":"active","ping":57}]},{"server_id":406,"name":"Uncletopia | Seattle | 3 | Stopwatch","name_short":"sea-3","host":"sea-1.us.uncletopia.com","port":27035,"enabled":true,"region":"us-west","cc":"us","latitude":47.608013,"longitude":-122.33517,"reserved":0,"last_update":"0001-01-01T00:00:00Z","name_a2s":"Uncletopia | Seattle | 3 | Stopwatch","protocol":17,"map":"pl_swiftwater_final1","folder":"tf","game":"Team Fortress","app_id":440,"player_count":0,"max_players":24,"Bots":0,"server_type":"Dedicated","server_os":"Linux","password":true,"vac":true,"version":"7961495","steam_id":85568392924515217,"keywords":["nocrits","nodmgspread","payload","uncletopia"],"game_id":440,"stv_port":27036,"stv_name":"Uncletopia | Seattle | 3 | Stopwatch | STV","players":null},{"server_id":17,"name":"Uncletopia | San Francisco | 1 | All Maps","name_short":"sfo-1","host":"sfo-1.us.uncletopia.com","port":27015,"enabled":true,"region":"us-west","cc":"us","latitude":37.77397,"longitude":-122.4313,"reserved":0,"last_update":"0001-01-01T00:00:00Z","name_a2s":"Uncletopia | San Francisco | 1 | All Maps","protocol":17,"map":"koth_highpass","folder":"tf","game":"Team Fortress","app_id":440,"player_count":0,"max_players":24,"Bots":0,"server_type":"Dedicated","server_os":"Linux","password":true,"vac":true,"version":"7961495","steam_id":85568392924469999,"keywords":["cp","nocrits","nodmgspread","uncletopia"],"game_id":440,"stv_port":27016,"stv_name":"Uncletopia | San Francisco | 1 | All Maps | STV","players":null},{"server_id":18,"name":"Uncletopia | San Francisco | 2 | All Maps","name_short":"sfo-2","host":"sfo-1.us.uncletopia.com","port":27025,"enabled":true,"region":"us-west","cc":"us","latitude":37.77397,"longitude":-122.4313,"reserved":0,"last_update":"0001-01-01T00:00:00Z","name_a2s":"Uncletopia | San Francisco | 2 | All Maps","protocol":17,"map":"cp_dustbowl","folder":"tf","game":"Team Fortress","app_id":440,"player_count":24,"max_players":24,"Bots":0,"server_type":"Dedicated","server_os":"Linux","password":true,"vac":true,"version":"7961495","steam_id":85568392924470000,"keywords":["cp","nocrits","nodmgspread","uncletopia"],"game_id":440,"stv_port":27026,"stv_name":"Uncletopia | San Francisco | 2 | All Maps | STV","players":[{"user_id":497,"name":"Soggy Zogg","steam_id":76561198836316052,"connected_time":105000000000,"state":"active","ping":66},{"user_id":493,"name":"MEEPking","steam_id":76561198277668880,"connected_time":689000000000,"state":"active","ping":55},{"user_id":477,"name":"jadene11","steam_id":76561199369221113,"connected_time":2107000000000,"state":"active","ping":67},{"user_id":494,"name":"Pwnedbyfatty - PMKBB","steam_id":76561197995037409,"connected_time":630000000000,"state":"active","ping":120},{"user_id":489,"name":"the pizza","steam_id":76561198221331476,"connected_time":863000000000,"state":"active","ping":30},{"user_id":469,"name":"Kazoo","steam_id":76561199229748300,"connected_time":2473000000000,"state":"active","ping":69},{"user_id":462,"name":"CheekyMcCheek","steam_id":76561198081978491,"connected_time":3022000000000,"state":"active","ping":69},{"user_id":498,"name":"goth witch","steam_id":76561198069605283,"connected_time":101000000000,"state":"active","ping":57},{"user_id":499,"name":"dax","steam_id":76561198045335319,"connected_time":92000000000,"state":"active","ping":132},{"user_id":480,"name":"Can You Feel It Mr.Krabs","steam_id":76561198128302414,"connected_time":1715000000000,"state":"active","ping":68},{"user_id":476,"name":"Kawaiiestboi","steam_id":76561198182178703,"connected_time":2116000000000,"state":"active","ping":69},{"user_id":485,"name":"bob1444","steam_id":76561198110258432,"connected_time":1054000000000,"state":"active","ping":69},{"user_id":451,"name":"livesy Jumpscare","steam_id":76561198153908250,"connected_time":3656000000000,"state":"active","ping":80},{"user_id":500,"name":"Dullahan","steam_id":76561198119668908,"connected_time":84000000000,"state":"active","ping":46},{"user_id":474,"name":"Rude Dog","steam_id":76561197980385816,"connected_time":2149000000000,"state":"active","ping":74},{"user_id":486,"name":"Birby","steam_id":76561198884009768,"connected_time":1016000000000,"state":"active","ping":58},{"user_id":471,"name":"{AVG} Xx_Half-Life2fan420_xX","steam_id":76561199231634222,"connected_time":2419000000000,"state":"active","ping":109},{"user_id":505,"name":"RushIn","steam_id":76561199013261240,"connected_time":19000000000,"state":"active","ping":90},{"user_id":502,"name":"GreenApples","steam_id":76561198120559543,"connected_time":79000000000,"state":"active","ping":45},{"user_id":503,"name":"Alice.png","steam_id":76561198404454346,"connected_time":74000000000,"state":"active","ping":66},{"user_id":504,"name":"lockadox","steam_id":76561199032938044,"connected_time":70000000000,"state":"active","ping":138},{"user_id":492,"name":"Lunarthrope","steam_id":76561198292132147,"connected_time":829000000000,"state":"active","ping":71},{"user_id":495,"name":"Mentally Ill Woman","steam_id":76561198072030567,"connected_time":613000000000,"state":"active","ping":94},{"user_id":454,"name":"Therapy Goth","steam_id":76561198048448497,"connected_time":3633000000000,"state":"active","ping":106}]},{"server_id":19,"name":"Uncletopia | San Francisco | 3 | Stopwatch","name_short":"sfo-3","host":"sfo-1.us.uncletopia.com","port":27035,"enabled":true,"region":"us-west","cc":"us","latitude":37.77397,"longitude":-122.4313,"reserved":0,"last_update":"0001-01-01T00:00:00Z","name_a2s":"Uncletopia | San Francisco | 3 | Stopwatch","protocol":17,"map":"workshop/koth_product_final.ugc454272353","folder":"tf","game":"Team Fortress","app_id":440,"player_count":0,"max_players":24,"Bots":0,"server_type":"Dedicated","server_os":"Linux","password":true,"vac":true,"version":"7961495","steam_id":85568392924742824,"keywords":["cp","nocrits","nodmgspread","uncletopia"],"game_id":440,"stv_port":27036,"stv_name":"Uncletopia | San Francisco | 3 | Stopwatch | STV","players":null},{"server_id":20,"name":"Uncletopia | San Francisco | 4 | Community","name_short":"sfo-4","host":"sfo-1.us.uncletopia.com","port":27045,"enabled":true,"region":"us-west","cc":"us","latitude":37.77397,"longitude":-122.4313,"reserved":0,"last_update":"0001-01-01T00:00:00Z","name_a2s":"Uncletopia | San Francisco | 4 | Community","protocol":17,"map":"pl_pier","folder":"tf","game":"Team Fortress","app_id":440,"player_count":0,"max_players":24,"Bots":0,"server_type":"Dedicated","server_os":"Linux","password":true,"vac":true,"version":"7961495","steam_id":85568392924742826,"keywords":["nocrits","nodmgspread","payload","uncletopia"],"game_id":440,"stv_port":27046,"stv_name":"Uncletopia | San Francisco | 4 | Community | STV","players":null},{"server_id":141,"name":"Uncletopia | Sydney | 1 | All Maps","name_short":"syd-1","host":"syd-1.au.uncletopia.com","port":27015,"enabled":true,"region":"au","cc":"au","latitude":-33.865143,"longitude":151.2099,"reserved":0,"last_update":"0001-01-01T00:00:00Z","name_a2s":"Uncletopia | Sydney | 1 | All Maps","protocol":17,"map":"koth_viaduct","folder":"tf","game":"Team Fortress","app_id":440,"player_count":0,"max_players":24,"Bots":0,"server_type":"Dedicated","server_os":"Linux","password":true,"vac":true,"version":"7961495","steam_id":85568392924470001,"keywords":["cp","nocrits","nodmgspread","uncletopia"],"game_id":440,"stv_port":27016,"stv_name":"Uncletopia | Sydney | 1 | All Maps | STV","players":null},{"server_id":123,"name":"Uncletopia | Sydney | 2 | All Maps","name_short":"syd-2","host":"syd-1.au.uncletopia.com","port":27025,"enabled":true,"region":"au","cc":"au","latitude":-33.865143,"longitude":151.2099,"reserved":0,"last_update":"0001-01-01T00:00:00Z","name_a2s":"Uncletopia | Sydney | 2 | All Maps","protocol":17,"map":"koth_viaduct","folder":"tf","game":"Team Fortress","app_id":440,"player_count":0,"max_players":24,"Bots":0,"server_type":"Dedicated","server_os":"Linux","password":true,"vac":true,"version":"7961495","steam_id":85568392924470002,"keywords":["cp","nocrits","nodmgspread","uncletopia"],"game_id":440,"stv_port":27026,"stv_name":"Uncletopia | Sydney | 2 | All Maps | STV","players":null},{"server_id":395,"name":"Uncletopia | Sydney | 3 | All Maps","name_short":"syd-3","host":"syd-1.au.uncletopia.com","port":27035,"enabled":true,"region":"au","cc":"au","latitude":-33.865143,"longitude":151.2099,"reserved":0,"last_update":"0001-01-01T00:00:00Z","name_a2s":"Uncletopia | Sydney | 3 | All Maps","protocol":17,"map":"pl_frontier_final","folder":"tf","game":"Team Fortress","app_id":440,"player_count":0,"max_players":24,"Bots":0,"server_type":"Dedicated","server_os":"Linux","password":true,"vac":true,"version":"7961495","steam_id":85568392925194467,"keywords":["nocrits","nodmgspread","payload","uncletopia"],"game_id":440,"stv_port":27036,"stv_name":"Uncletopia | Sydney | 3 | All Maps | STV","players":null},{"server_id":396,"name":"Uncletopia | Sydney | 4 | All Maps","name_short":"syd-4","host":"syd-1.au.uncletopia.com","port":27045,"enabled":true,"region":"au","cc":"au","latitude":-33.865143,"longitude":151.2099,"reserved":0,"last_update":"0001-01-01T00:00:00Z","name_a2s":"Uncletopia | Sydney | 4 | All Maps","protocol":17,"map":"cp_process_final","folder":"tf","game":"Team Fortress","app_id":440,"player_count":0,"max_players":24,"Bots":0,"server_type":"Dedicated","server_os":"Linux","password":true,"vac":true,"version":"7961495","steam_id":85568392925397958,"keywords":["cp","nocrits","nodmgspread","uncletopia"],"game_id":440,"stv_port":27046,"stv_name":"Uncletopia | Sydney | 4 | All Maps | STV","players":null},{"server_id":58,"name":"Uncletopia | Sydney | 5 | Stopwatch","name_short":"syd-5","host":"syd-1.au.uncletopia.com","port":27055,"enabled":true,"region":"au","cc":"au","latitude":-33.865143,"longitude":151.2099,"reserved":0,"last_update":"0001-01-01T00:00:00Z","name_a2s":"Uncletopia | Sydney | 5 | Stopwatch","protocol":17,"map":"pl_frontier_final","folder":"tf","game":"Team Fortress","app_id":440,"player_count":0,"max_players":24,"Bots":0,"server_type":"Dedicated","server_os":"Linux","password":true,"vac":true,"version":"7961495","steam_id":85568392925397959,"keywords":["nocrits","nodmgspread","payload","uncletopia"],"game_id":440,"stv_port":27056,"stv_name":"Uncletopia | Sydney | 5 | Stopwatch | STV","players":null},{"server_id":59,"name":"Uncletopia | Sydney | 6 | Community","name_short":"syd-6","host":"syd-1.au.uncletopia.com","port":27065,"enabled":true,"region":"au","cc":"au","latitude":-33.865143,"longitude":151.2099,"reserved":0,"last_update":"0001-01-01T00:00:00Z","name_a2s":"Uncletopia | Sydney | 6 | Community","protocol":17,"map":"cp_sunshine","folder":"tf","game":"Team Fortress","app_id":440,"player_count":0,"max_players":24,"Bots":0,"server_type":"Dedicated","server_os":"Linux","password":true,"vac":true,"version":"7961495","steam_id":85568392925397960,"keywords":["cp","nocrits","nodmgspread","uncletopia"],"game_id":440,"stv_port":27066,"stv_name":"Uncletopia | Sydney | 6 | Community | STV","players":null},{"server_id":49,"name":"Uncletopia | Warsaw | 1 | One Thousand Uncles","name_short":"waw-1","host":"waw-1.pl.uncletopia.com","port":27015,"enabled":true,"region":"eu","cc":"pl","latitude":52.2297,"longitude":21.017532,"reserved":0,"last_update":"0001-01-01T00:00:00Z","name_a2s":"Uncletopia | Warsaw | 1 | One Thousand Uncles","protocol":17,"map":"cp_egypt_final","folder":"tf","game":"Team Fortress","app_id":440,"player_count":20,"max_players":32,"Bots":16,"server_type":"Dedicated","server_os":"Linux","password":true,"vac":true,"version":"7961495","steam_id":85568392925397850,"keywords":["alltalk","bots","cp","danepve","increased_maxplayers","nocrits","norespawntime","uncletopia"],"game_id":440,"stv_port":0,"stv_name":"","players":[{"user_id":208,"name":"Œ©vetabolŒ©","steam_id":76561199015064558,"connected_time":6307000000000,"state":"active","ping":110},{"user_id":144,"name":"Invicator","steam_id":76561198082895461,"connected_time":10361000000000,"state":"active","ping":71},{"user_id":217,"name":"M.C.Mcmuffins","steam_id":76561198068225535,"connected_time":3519000000000,"state":"active","ping":67},{"user_id":183,"name":"RoofRabbid","steam_id":76561198012821810,"connected_time":7592000000000,"state":"active","ping":106}]},{"server_id":50,"name":"Uncletopia | Warsaw | 2 | One Thousand Uncles","name_short":"waw-2","host":"waw-1.pl.uncletopia.com","port":27025,"enabled":true,"region":"eu","cc":"pl","latitude":52.2297,"longitude":21.017532,"reserved":0,"last_update":"0001-01-01T00:00:00Z","name_a2s":"Uncletopia | Warsaw | 2 | One Thousand Uncles","protocol":17,"map":"cp_mercenarypark","folder":"tf","game":"Team Fortress","app_id":440,"player_count":0,"max_players":32,"Bots":0,"server_type":"Dedicated","server_os":"Linux","password":true,"vac":true,"version":"7961495","steam_id":85568392925397851,"keywords":["alltalk","cp","danepve","increased_maxplayers","nocrits","norespawntime","uncletopia"],"game_id":440,"stv_port":0,"stv_name":"","players":null},{"server_id":51,"name":"Uncletopia | Warsaw | 3 | All Maps","name_short":"waw-3","host":"waw-1.pl.uncletopia.com","port":27035,"enabled":true,"region":"eu","cc":"pl","latitude":52.2297,"longitude":21.017532,"reserved":0,"last_update":"0001-01-01T00:00:00Z","name_a2s":"Uncletopia | Warsaw | 3 | All Maps","protocol":17,"map":"plr_pipeline","folder":"tf","game":"Team Fortress","app_id":440,"player_count":0,"max_players":24,"Bots":0,"server_type":"Dedicated","server_os":"Linux","password":true,"vac":true,"version":"7961495","steam_id":85568392925397852,"keywords":["nocrits","nodmgspread","payload","uncletopia"],"game_id":440,"stv_port":27036,"stv_name":"Uncletopia | Warsaw | 3 | All Maps | STV","players":null},{"server_id":52,"name":"Uncletopia | Warsaw | 4 | All Maps","name_short":"waw-4","host":"waw-1.pl.uncletopia.com","port":27045,"enabled":true,"region":"eu","cc":"pl","latitude":52.2297,"longitude":21.017532,"reserved":0,"last_update":"0001-01-01T00:00:00Z","name_a2s":"Uncletopia | Warsaw | 4 | All Maps","protocol":17,"map":"cp_snakewater_final1","folder":"tf","game":"Team Fortress","app_id":440,"player_count":0,"max_players":24,"Bots":0,"server_type":"Dedicated","server_os":"Linux","password":true,"vac":true,"version":"7961495","steam_id":85568392925397853,"keywords":["cp","nocrits","nodmgspread","uncletopia"],"game_id":440,"stv_port":27046,"stv_name":"Uncletopia | Warsaw | 4 | All Maps | STV","players":null},{"server_id":53,"name":"Uncletopia | Warsaw | 5 | Stopwatch","name_short":"waw-5","host":"waw-1.pl.uncletopia.com","port":27055,"enabled":true,"region":"eu","cc":"pl","latitude":52.2297,"longitude":21.017532,"reserved":0,"last_update":"0001-01-01T00:00:00Z","name_a2s":"Uncletopia | Warsaw | 5 | Stopwatch","protocol":17,"map":"koth_highpass","folder":"tf","game":"Team Fortress","app_id":440,"player_count":0,"max_players":24,"Bots":0,"server_type":"Dedicated","server_os":"Linux","password":true,"vac":true,"version":"7961495","steam_id":85568392925397854,"keywords":["cp","nocrits","nodmgspread","uncletopia"],"game_id":440,"stv_port":27056,"stv_name":"Uncletopia | Warsaw | 5 | Stopwatch | STV","players":null},{"server_id":54,"name":"Uncletopia | Warsaw | 6 | Community","name_short":"waw-6","host":"waw-1.pl.uncletopia.com","port":27065,"enabled":true,"region":"eu","cc":"pl","latitude":52.2297,"longitude":21.017532,"reserved":0,"last_update":"0001-01-01T00:00:00Z","name_a2s":"Uncletopia | Warsaw | 6 | Community","protocol":17,"map":"workshop/cp_villa_b19.ugc2113052569","folder":"tf","game":"Team Fortress","app_id":440,"player_count":0,"max_players":24,"Bots":0,"server_type":"Dedicated","server_os":"Linux","password":true,"vac":true,"version":"7961495","steam_id":85568392925397856,"keywords":["cp","nocrits","nodmgspread","uncletopia"],"game_id":440,"stv_port":27066,"stv_name":"Uncletopia | Warsaw | 6 | Community | STV","players":null}]}