{"status":true,"message":"","result":[{"server_id":9,"name":"Uncletopia | Atlanta | 1 | All Maps","name_short":"atl-1","host":"atl-1.us.uncletopia.com","port":27015,"enabled":true,"region":"us-east","cc":"us","latitude":33.753746,"longitude":-84.38633,"reserved":0,"last_update":"0001-01-01T00:00:00Z","name_a2s":"Uncletopia | Atlanta | 1 | All Maps","protocol":17,"map":"cp_altitude","folder":"tf","game":"Team Fortress","app_id":440,"player_count":24,"max_players":24,"Bots":0,"server_type":"Dedicated","server_os":"Linux","password":true,"vac":true,"version":"7882260","steam_id":85568392924469982,"keywords":["cp","nocrits","nodmgspread","uncletopia"],"game_id":440,"stv_port":27016,"stv_name":"Uncletopia | Atlanta | 1 | All Maps | STV","players":[{"user_id":230,"name":"jpuck","steam_id":76561198025018960,"connected_time":8579000000000,"state":"active","ping":58},{"user_id":272,"name":"Smittywerbenjager-manjenson","steam_id":76561198067060742,"connected_time":3512000000000,"state":"active","ping":76},{"user_id":328,"name":"Rockhead","steam_id":76561197995196535,"connected_time":294000000000,"state":"active","ping":72},{"user_id":290,"name":"Franz","steam_id":76561198041929745,"connected_time":1168000000000,"state":"active","ping":105},{"user_id":333,"name":"walrus","steam_id":76561198057853319,"connected_time":89000000000,"state":"active","ping":72},{"user_id":331,"name":"lu","steam_id":76561198080731872,"connected_time":213000000000,"state":"active","ping":74},{"user_id":279,"name":"Arkyfalke","steam_id":76561199026095784,"connected_time":3096000000000,"state":"active","ping":58},{"user_id":334,"name":"HARRY","steam_id":76561198842067238,"connected_time":81000000000,"state":"active","ping":72},{"user_id":329,"name":"200 beef","steam_id":76561198044285202,"connected_time":284000000000,"state":"active","ping":85},{"user_id":325,"name":"Fiendss","steam_id":76561198026186354,"connected_time":476000000000,"state":"active","ping":104},{"user_id":286,"name":"Sovereign","steam_id":76561198223959572,"connected_time":2473000000000,"state":"active","ping":70},{"user_id":336,"name":"Big Mon","steam_id":76561198409907417,"connected_time":28000000000,"state":"active","ping":113},{"user_id":337,"name":"elincyt","steam_id":76561198967771724,"connected_time":0,"state":"spawning","ping":37},{"user_id":332,"name":"AdmiralCrunch","steam_id":76561198117444710,"connected_time":194000000000,"state":"active","ping":50},{"user_id":322,"name":"JustJeffIguess","steam_id":76561199474207659,"connected_time":888000000000,"state":"active","ping":78},{"user_id":225,"name":"Bubu!","steam_id":76561198188722751,"connected_time":9923000000000,"state":"active","ping":104},{"user_id":269,"name":"TheRealMud","steam_id":76561198138312993,"connected_time":3667000000000,"state":"active","ping":84},{"user_id":276,"name":"HeosDma","steam_id":76561198433703212,"connected_time":3324000000000,"state":"active","ping":70},{"user_id":335,"name":"Rin \"Hindwing\" Redtail","steam_id":76561199074865638,"connected_time":76000000000,"state":"active","ping":59},{"user_id":330,"name":"sbobi","steam_id":76561198320075173,"connected_time":230000000000,"state":"active","ping":76},{"user_id":253,"name":"tux","steam_id":76561198167746330,"connected_time":5740000000000,"state":"active","ping":54},{"user_id":288,"name":"lukiepills","steam_id":76561199020587077,"connected_time":1604000000000,"state":"active","ping":64},{"user_id":285,"name":"give me your baby faces blaster","steam_id":76561199013442982,"connected_time":2651000000000,"state":"active","ping":67},{"user_id":319,"name":"Bali","steam_id":76561198038693845,"connected_time":908000000000,"state":"active","ping":74}]},{"server_id":104,"name":"Uncletopia | Atlanta | 2 | All Maps","name_short":"atl-2","host":"atl-1.us.uncletopia.com","port":27025,"enabled":true,"region":"us-east","cc":"us","latitude":33.753746,"longitude":-84.38633,"reserved":0,"last_update":"0001-01-01T00:00:00Z","name_a2s":"Uncletopia | Atlanta | 2 | All Maps","protocol":17,"map":"cp_dustbowl","folder":"tf","game":"Team Fortress","app_id":440,"player_count":23,"max_players":24,"Bots":0,"server_type":"Dedicated","server_os":"Linux","password":true,"vac":true,"version":"7882260","steam_id":85568392924469983,"keywords":["cp","nocrits","nodmgspread","uncletopia"],"game_id":440,"stv_port":27026,"stv_name":"Uncletopia | Atlanta | 2 | All Maps | STV","players":[{"user_id":214,"name":"eyes","steam_id":76561198211699576,"connected_time":519000000000,"state":"active","ping":59},{"user_id":186,"name":"nhbiker","steam_id":76561198081277675,"connected_time":2793000000000,"state":"active","ping":60},{"user_id":137,"name":"[Reece]","steam_id":76561198076404892,"connected_time":6798000000000,"state":"active","ping":60},{"user_id":215,"name":"braindead","steam_id":76561198263631055,"connected_time":218000000000,"state":"active","ping":46},{"user_id":218,"name":"dicksnip","steam_id":76561198356515396,"connected_time":19000000000,"state":"active","ping":88},{"user_id":205,"name":"MvM player","steam_id":76561199038566105,"connected_time":1684000000000,"state":"active","ping":83},{"user_id":169,"name":"FancyBones","steam_id":76561198180198885,"connected_time":3990000000000,"state":"active","ping":72},{"user_id":195,"name":"The Power","steam_id":76561198060566884,"connected_time":2559000000000,"state":"active","ping":134},{"user_id":190,"name":"Gwando","steam_id":76561198294629124,"connected_time":2668000000000,"state":"active","ping":62},{"user_id":154,"name":"chiswola","steam_id":76561198046920142,"connected_time":5619000000000,"state":"active","ping":87},{"user_id":200,"name":"Tough Puffin","steam_id":76561198024011010,"connected_time":2022000000000,"state":"active","ping":94},{"user_id":208,"name":"scarymanfunnynipples","steam_id":76561198057149957,"connected_time":1611000000000,"state":"active","ping":70},{"user_id":209,"name":"Stryder","steam_id":76561199387418697,"connected_time":1609000000000,"state":"active","ping":83},{"user_id":212,"name":"Justin","steam_id":76561198271757080,"connected_time":1263000000000,"state":"active","ping":62},{"user_id":179,"name":"Gaming123","steam_id":76561198801780168,"connected_time":3871000000000,"state":"active","ping":72},{"user_id":196,"name":"Lapisüíõ ","steam_id":76561198009198502,"connected_time":2550000000000,"state":"active","ping":78},{"user_id":199,"name":"terrydavis99@aol.com","steam_id":76561198070923665,"connected_time":2062000000000,"state":"active","ping":92},{"user_id":134,"name":"ivylain","steam_id":76561198287330136,"connected_time":6906000000000,"state":"active","ping":54},{"user_id":193,"name":"Antipathy","steam_id":76561199120802649,"connected_time":2601000000000,"state":"active","ping":68},{"user_id":194,"name":"Konrad Vilulf","steam_id":76561198111124481,"connected_time":2575000000000,"state":"active","ping":71},{"user_id":210,"name":"PUPPY MONKEY BABY","steam_id":76561198068885410,"connected_time":1578000000000,"state":"active","ping":75},{"user_id":147,"name":"DiscoTraveler","steam_id":76561199240168088,"connected_time":6146000000000,"state":"active","ping":52},{"user_id":216,"name":"angry birds","steam_id":76561199134195354,"connected_time":78000000000,"state":"active","ping":69}]},{"server_id":400,"name":"Uncletopia | Atlanta | 3 | Community","name_short":"atl-3","host":"atl-1.us.uncletopia.com","port":27035,"enabled":true,"region":"us-east","cc":"us","latitude":33.753746,"longitude":-84.38633,"reserved":0,"last_update":"0001-01-01T00:00:00Z","name_a2s":"Uncletopia | Atlanta | 3 | Community","protocol":17,"map":"workshop/pl_vigil_rc9.ugc1266210012","folder":"tf","game":"Team Fortress","app_id":440,"player_count":3,"max_players":24,"Bots":0,"server_type":"Dedicated","server_os":"Linux","password":true,"vac":true,"version":"7882260","steam_id":85568392924515187,"keywords":["nocrits","nodmgspread","payload","uncletopia"],"game_id":440,"stv_port":27036,"stv_name":"Uncletopia | Atlanta | 3 | Community | STV","players":[{"user_id":17,"name":"Armored Fetus","steam_id":76561199124368632,"connected_time":1362000000000,"state":"active","ping":71},{"user_id":18,"name":"joe mama","steam_id":76561199233087212,"connected_time":1354000000000,"state":"active","ping":84},{"user_id":25,"name":"Lord Theodore XIII","steam_id":76561198085842797,"connected_time":344000000000,"state":"active","ping":63}]},{"server_id":401,"name":"Uncletopia | Atlanta | 4 | No Payload","name_short":"atl-4","host":"atl-1.us.uncletopia.com","port":27045,"enabled":true,"region":"us-east","cc":"us","latitude":33.753746,"longitude":-84.38633,"reserved":0,"last_update":"0001-01-01T00:00:00Z","name_a2s":"","protocol":0,"map":"","folder":"","game":"","app_id":0,"player_count":0,"max_players":0,"Bots":0,"server_type":"","server_os":"","password":false,"vac":false,"version":"","steam_id":0,"keywords":null,"game_id":0,"stv_port":0,"stv_name":"","players":null},{"server_id":2,"name":"Uncletopia | Chicago | 1 | All Maps","name_short":"chi-1","host":"chi-1.us.uncletopia.com","port":27015,"enabled":true,"region":"us-central","cc":"us","latitude":41.881832,"longitude":-87.62318,"reserved":0,"last_update":"0001-01-01T00:00:00Z","name_a2s":"Uncletopia | Chicago | 1 | All Maps","protocol":17,"map":"pl_swiftwater_final1","folder":"tf","game":"Team Fortress","app_id":440,"player_count":24,"max_players":24,"Bots":0,"server_type":"Dedicated","server_os":"Linux","password":true,"vac":true,"version":"7882260","steam_id":85568392924469984,"keywords":["nocrits","nodmgspread","payload","uncletopia"],"game_id":440,"stv_port":27016,"stv_name":"Uncletopia | Chicago | 1 | All Maps | STV","players":[{"user_id":382,"name":"JestinJester","steam_id":76561198411846094,"connected_time":5267000000000,"state":"active","ping":70},{"user_id":397,"name":"0","steam_id":76561198046055673,"connected_time":4147000000000,"state":"active","ping":75},{"user_id":367,"name":"JSClinton","steam_id":76561198067487389,"connected_time":6751000000000,"state":"active","ping":68},{"user_id":407,"name":"Katy","steam_id":76561198079395814,"connected_time":3434000000000,"state":"active","ping":66},{"user_id":427,"name":"SOGGY DOGGY","steam_id":76561199158847498,"connected_time":1160000000000,"state":"active","ping":106},{"user_id":425,"name":"femboy_beats","steam_id":76561199245717718,"connected_time":1271000000000,"state":"active","ping":56},{"user_id":439,"name":"brea?","steam_id":76561198025130409,"connected_time":860000000000,"state":"active","ping":80},{"user_id":435,"name":"Goat","steam_id":76561198068447650,"connected_time":1130000000000,"state":"active","ping":68},{"user_id":379,"name":"Rec","steam_id":76561198022813906,"connected_time":5464000000000,"state":"active","ping":54},{"user_id":430,"name":"Bubblegum Bitch","steam_id":76561198043307965,"connected_time":1145000000000,"state":"active","ping":88},{"user_id":331,"name":"Pocket Snipers","steam_id":76561198207987376,"connected_time":10012000000000,"state":"active","ping":64},{"user_id":349,"name":"richard clock","steam_id":76561198048455671,"connected_time":8247000000000,"state":"active","ping":60},{"user_id":445,"name":"99RM","steam_id":76561198107382571,"connected_time":80000000000,"state":"active","ping":125},{"user_id":371,"name":"slop","steam_id":76561198199803242,"connected_time":6466000000000,"state":"active","ping":82},{"user_id":395,"name":"Jak(i)","steam_id":76561198076823144,"connected_time":4314000000000,"state":"active","ping":56},{"user_id":442,"name":"Unregistered Hypercam 2","steam_id":76561198046895822,"connected_time":479000000000,"state":"active","ping":75},{"user_id":418,"name":"kite","steam_id":76561198346516392,"connected_time":2664000000000,"state":"active","ping":96},{"user_id":419,"name":"Gay Weed \u003c3","steam_id":76561198158240142,"connected_time":2056000000000,"state":"active","ping":58},{"user_id":443,"name":"Drilly22","steam_id":76561198068838338,"connected_time":369000000000,"state":"active","ping":93},{"user_id":424,"name":"Bottom Trans Cowgirl","steam_id":76561198304239680,"connected_time":1303000000000,"state":"active","ping":78},{"user_id":433,"name":"Blazing Hyena","steam_id":76561199121852680,"connected_time":1136000000000,"state":"active","ping":103},{"user_id":440,"name":"Secret Derg","steam_id":76561198065005979,"connected_time":587000000000,"state":"active","ping":93},{"user_id":334,"name":"Lia_Rein","steam_id":76561198151569597,"connected_time":9669000000000,"state":"active","ping":147},{"user_id":444,"name":"Tyco","steam_id":76561197978414167,"connected_time":205000000000,"state":"active","ping":76}]},{"server_id":106,"name":"Uncletopia | Chicago | 2 | All Maps","name_short":"chi-2","host":"chi-1.us.uncletopia.com","port":27025,"enabled":true,"region":"us-central","cc":"us","latitude":41.881832,"longitude":-87.62318,"reserved":0,"last_update":"0001-01-01T00:00:00Z","name_a2s":"Uncletopia | Chicago | 2 | All Maps","protocol":17,"map":"cp_steel","folder":"tf","game":"Team Fortress","app_id":440,"player_count":24,"max_players":24,"Bots":0,"server_type":"Dedicated","server_os":"Linux","password":true,"vac":true,"version":"7882260","steam_id":85568392924469985,"keywords":["cp","nocrits","nodmgspread","uncletopia"],"game_id":440,"stv_port":27026,"stv_name":"Uncletopia | Chicago | 2 | All Maps | STV","players":[{"user_id":241,"name":"Goober alert!","steam_id":76561198175727790,"connected_time":1061000000000,"state":"active","ping":100},{"user_id":263,"name":"Len","steam_id":76561199141913673,"connected_time":149000000000,"state":"active","ping":85},{"user_id":206,"name":"Gildedire","steam_id":76561198063959574,"connected_time":2827000000000,"state":"active","ping":81},{"user_id":245,"name":"Centipede on a Game Boy","steam_id":76561199016285746,"connected_time":1032000000000,"state":"active","ping":140},{"user_id":216,"name":"caption cool","steam_id":76561197990612056,"connected_time":2560000000000,"state":"active","ping":47},{"user_id":249,"name":"Clockwick","steam_id":76561198047292719,"connected_time":998000000000,"state":"active","ping":65},{"user_id":194,"name":"Peepster","steam_id":76561198297854733,"connected_time":3082000000000,"state":"active","ping":75},{"user_id":247,"name":"The Poop Dealer","steam_id":76561198141198352,"connected_time":1030000000000,"state":"active","ping":46},{"user_id":242,"name":"HavocGDI","steam_id":76561199388371914,"connected_time":1059000000000,"state":"active","ping":130},{"user_id":244,"name":"Riddle","steam_id":76561198892207399,"connected_time":1035000000000,"state":"active","ping":61},{"user_id":246,"name":"LABRAT","steam_id":76561199226732110,"connected_time":1032000000000,"state":"active","ping":84},{"user_id":165,"name":"be","steam_id":76561198000824533,"connected_time":4939000000000,"state":"active","ping":95},{"user_id":258,"name":"Roberto Del Fuego","steam_id":76561198043458554,"connected_time":545000000000,"state":"active","ping":50},{"user_id":262,"name":"tastiest turd known to man","steam_id":76561198165299077,"connected_time":217000000000,"state":"active","ping":69},{"user_id":257,"name":"totoro","steam_id":76561198210420871,"connected_time":672000000000,"state":"active","ping":50},{"user_id":217,"name":"Zoot","steam_id":76561198121944243,"connected_time":2537000000000,"state":"active","ping":84},{"user_id":208,"name":"Samuel","steam_id":76561198128938939,"connected_time":2772000000000,"state":"active","ping":54},{"user_id":264,"name":"scrotal recall","steam_id":76561198135945598,"connected_time":133000000000,"state":"active","ping":77},{"user_id":250,"name":"kermitcreeper(ZAZA)","steam_id":76561199222829972,"connected_time":972000000000,"state":"active","ping":60},{"user_id":205,"name":"Chunk Stuffer","steam_id":76561198856508573,"connected_time":2860000000000,"state":"active","ping":72},{"user_id":236,"name":"PhobosAtTheGatesOfE3M1","steam_id":76561198137116276,"connected_time":1350000000000,"state":"active","ping":97},{"user_id":255,"name":"peedrinker","steam_id":76561198876275070,"connected_time":808000000000,"state":"active","ping":73},{"user_id":260,"name":"Wengatang","steam_id":76561198021747059,"connected_time":517000000000,"state":"active","ping":60},{"user_id":252,"name":"Meh","steam_id":76561198078187920,"connected_time":961000000000,"state":"active","ping":98}]},{"server_id":402,"name":"Uncletopia | Chicago | 3 | All Maps","name_short":"chi-3","host":"chi-1.us.uncletopia.com","port":27035,"enabled":true,"region":"us-central","cc":"us","latitude":41.881832,"longitude":-87.62318,"reserved":0,"last_update":"0001-01-01T00:00:00Z","name_a2s":"Uncletopia | Chicago | 3 | All Maps","protocol":17,"map":"cp_dustbowl","folder":"tf","game":"Team Fortress","app_id":440,"player_count":24,"max_players":24,"Bots":0,"server_type":"Dedicated","server_os":"Linux","password":true,"vac":true,"version":"7882260","steam_id":85568392924515191,"keywords":["cp","nocrits","nodmgspread","uncletopia"],"game_id":440,"stv_port":27036,"stv_name":"Uncletopia | Chicago | 3 | All Maps | STV","players":[{"user_id":531,"name":"Goromi from the hit game Yakuza","steam_id":76561198173087634,"connected_time":958000000000,"state":"active","ping":120},{"user_id":468,"name":"ChaingunnerFails","steam_id":76561198963075967,"connected_time":5303000000000,"state":"active","ping":104},{"user_id":528,"name":"cupcake","steam_id":76561198987892499,"connected_time":1460000000000,"state":"active","ping":73},{"user_id":509,"name":"bob ross#savetf2","steam_id":76561199159026819,"connected_time":2133000000000,"state":"active","ping":57},{"user_id":510,"name":"claeb :)","steam_id":76561198028761580,"connected_time":2132000000000,"state":"active","ping":68},{"user_id":488,"name":"tacofever","steam_id":76561198010966507,"connected_time":3788000000000,"state":"active","ping":99},{"user_id":532,"name":"Sneetch [sRb]","steam_id":76561197996693506,"connected_time":823000000000,"state":"active","ping":85},{"user_id":500,"name":"the guy who asked","steam_id":76561199216398638,"connected_time":3189000000000,"state":"active","ping":67},{"user_id":508,"name":"God","steam_id":76561198131089513,"connected_time":2175000000000,"state":"active","ping":54},{"user_id":487,"name":"Toastie","steam_id":76561198246760934,"connected_time":3873000000000,"state":"active","ping":58},{"user_id":455,"name":"Endzilla88","steam_id":76561198257926514,"connected_time":6151000000000,"state":"active","ping":98},{"user_id":533,"name":"Big J","steam_id":76561199189855696,"connected_time":815000000000,"state":"active","ping":77},{"user_id":477,"name":"Skeleton Dad","steam_id":76561198021489595,"connected_time":4620000000000,"state":"active","ping":73},{"user_id":446,"name":"ihave80hp","steam_id":76561199251621911,"connected_time":6464000000000,"state":"active","ping":89},{"user_id":501,"name":"Naturebringer","steam_id":76561198346457588,"connected_time":3187000000000,"state":"active","ping":175},{"user_id":524,"name":"Player0x01","steam_id":76561197979240996,"connected_time":1559000000000,"state":"active","ping":111},{"user_id":518,"name":"Gamerdude313","steam_id":76561198869211435,"connected_time":1810000000000,"state":"active","ping":84},{"user_id":504,"name":"Rukks","steam_id":76561197993918954,"connected_time":2722000000000,"state":"active","ping":88},{"user_id":534,"name":"Dev","steam_id":76561198388276870,"connected_time":718000000000,"state":"active","ping":88},{"user_id":507,"name":"ArnoldGamingÔæ†Ÿ¥","steam_id":76561198040140247,"connected_time":2501000000000,"state":"active","ping":94},{"user_id":424,"name":"r3xit","steam_id":76561198065725996,"connected_time":7575000000000,"state":"active","ping":99},{"user_id":529,"name":"[„èà] Bumpercars","steam_id":76561198061591743,"connected_time":1370000000000,"state":"active","ping":64},{"user_id":530,"name":"Prison Sal","steam_id":76561198355553673,"connected_time":1044000000000,"state":"active","ping":50},{"user_id":511,"name":"vv","steam_id":76561198134813102,"connected_time":2119000000000,"state":"active","ping":59}]},{"server_id":403,"name":"Uncletopia | Chicago | 4 | All Maps","name_short":"chi-4","host":"chi-1.us.uncletopia.com","port":27045,"enabled":true,"region":"us-central","cc":"us","latitude":41.881832,"longitude":-87.62318,"reserved":0,"last_update":"0001-01-01T00:00:00Z","name_a2s":"Uncletopia | Chicago | 4 | All Maps","protocol":17,"map":"ctf_2fort","folder":"tf","game":"Team Fortress","app_id":440,"player_count":24,"max_players":24,"Bots":0,"server_type":"Dedicated","server_os":"Linux","password":true,"vac":true,"version":"7882260","steam_id":85568392924515193,"keywords":["ctf","nocrits","nodmgspread","uncletopia"],"game_id":440,"stv_port":27046,"stv_name":"Uncletopia | Chicago | 4 | All Maps | STV","players":[{"user_id":386,"name":"s m o o f","steam_id":76561197975849691,"connected_time":1200000000000,"state":"active","ping":75},{"user_id":394,"name":"HeavyMettleDick","steam_id":76561198001925087,"connected_time":801000000000,"state":"active","ping":70},{"user_id":387,"name":"Necronoxide","steam_id":76561197997856321,"connected_time":1195000000000,"state":"active","ping":89},{"user_id":382,"name":"GoldtoothFour","steam_id":76561198055529332,"connected_time":1749000000000,"state":"active","ping":55},{"user_id":391,"name":"igotmail","steam_id":76561198070631899,"connected_time":895000000000,"state":"active","ping":67},{"user_id":384,"name":"crashymicsplody","steam_id":76561198213916765,"connected_time":1616000000000,"state":"active","ping":70},{"user_id":376,"name":"[El Fail] MR.BadassMCLee","steam_id":76561198043787818,"connected_time":1904000000000,"state":"active","ping":114},{"user_id":392,"name":"Brother Pudge","steam_id":76561198247815090,"connected_time":879000000000,"state":"active","ping":51},{"user_id":393,"name":"putrid slob","steam_id":76561198382572522,"connected_time":866000000000,"state":"active","ping":70},{"user_id":378,"name":"plant(OG)","steam_id":76561198071231540,"connected_time":1884000000000,"state":"active","ping":61},{"user_id":377,"name":"Crazy Insane Proboscis Monkey","steam_id":76561198061011176,"connected_time":1904000000000,"state":"active","ping":86},{"user_id":389,"name":"MEGATRON","steam_id":76561198820480684,"connected_time":1117000000000,"state":"active","ping":58},{"user_id":260,"name":"I might","steam_id":76561198121256258,"connected_time":8876000000000,"state":"active","ping":68},{"user_id":368,"name":"Sectus","steam_id":76561198034616577,"connected_time":2294000000000,"state":"active","ping":45},{"user_id":396,"name":"feet","steam_id":76561198214318937,"connected_time":490000000000,"state":"active","ping":144},{"user_id":400,"name":"Lancer47","steam_id":76561198020481475,"connected_time":184000000000,"state":"active","ping":86},{"user_id":309,"name":"Bobato Chaps","steam_id":76561198065103552,"connected_time":5976000000000,"state":"active","ping":47},{"user_id":397,"name":"Beelthazus","steam_id":76561198127783432,"connected_time":397000000000,"state":"active","ping":73},{"user_id":380,"name":"NUMBER 1 THUG","steam_id":76561198163636470,"connected_time":1860000000000,"state":"active","ping":57},{"user_id":379,"name":"„ÅÑ„Å°„Åî„Åæ„Çç","steam_id":76561198166100997,"connected_time":1884000000000,"state":"active","ping":75},{"user_id":398,"name":"ÕìÕìÃùÕôÃ†ÃùÕñÕâÃ•CÕÇÕëÕ¨ÕõÕãÃø","steam_id":76561198423390455,"connected_time":338000000000,"state":"active","ping":108},{"user_id":360,"name":"Adventurematt","steam_id":76561199302420877,"connected_time":2731000000000,"state":"active","ping":81},{"user_id":399,"name":"Ringo x Seiran","steam_id":76561198357437908,"connected_time":223000000000,"state":"active","ping":62},{"user_id":402,"name":"P‚ô•is‚ô•n","steam_id":76561198140584050,"connected_time":116000000000,"state":"active","ping":72}]},{"server_id":36,"name":"Uncletopia | Chicago | 5 | All Maps","name_short":"chi-5","host":"chi-2.us.uncletopia.com","port":27015,"enabled":true,"region":"us-central","cc":"us","latitude":41.881832,"longitude":-87.62318,"reserved":0,"last_update":"0001-01-01T00:00:00Z","name_a2s":"Uncletopia | Chicago | 5 | All Maps","protocol":17,"map":"pl_upward","folder":"tf","game":"Team Fortress","app_id":440,"player_count":24,"max_players":24,"Bots":0,"server_type":"Dedicated","server_os":"Linux","password":true,"vac":true,"version":"7882260","steam_id":85568392924866362,"keywords":["nocrits","nodmgspread","payload","uncletopia"],"game_id":440,"stv_port":27016,"stv_name":"Uncletopia | Chicago | 5 | All Maps | STV","players":[{"user_id":428,"name":"kramer","steam_id":76561198117761965,"connected_time":198000000000,"state":"active","ping":70},{"user_id":429,"name":"„Äåiam3nigma„Äç","steam_id":76561198081580177,"connected_time":193000000000,"state":"active","ping":67},{"user_id":343,"name":"ceres","steam_id":76561198291976960,"connected_time":3511000000000,"state":"active","ping":104},{"user_id":354,"name":"Kurt Biscuitmaker","steam_id":76561198331701823,"connected_time":2626000000000,"state":"active","ping":85},{"user_id":379,"name":"The_Epic_Conclusion","steam_id":76561198084250179,"connected_time":1154000000000,"state":"active","ping":76},{"user_id":430,"name":"canadian birds","steam_id":76561198059466588,"connected_time":190000000000,"state":"active","ping":73},{"user_id":329,"name":"Scrumpy Main","steam_id":76561198146302597,"connected_time":4145000000000,"state":"active","ping":69},{"user_id":305,"name":"PerliousFalcon","steam_id":76561198124801907,"connected_time":5527000000000,"state":"active","ping":114},{"user_id":294,"name":"captain red","steam_id":76561198191587983,"connected_time":6187000000000,"state":"active","ping":81},{"user_id":431,"name":"ColbertDolbert?","steam_id":76561198299613842,"connected_time":171000000000,"state":"active","ping":90},{"user_id":421,"name":"Isfahan","steam_id":76561197997143025,"connected_time":450000000000,"state":"active","ping":61},{"user_id":376,"name":"Goofball","steam_id":76561198061211537,"connected_time":1195000000000,"state":"active","ping":74},{"user_id":423,"name":"cass","steam_id":76561198074502046,"connected_time":387000000000,"state":"active","ping":76},{"user_id":293,"name":"robsan","steam_id":76561198137375391,"connected_time":6523000000000,"state":"active","ping":166},{"user_id":366,"name":"Griddy #Hateologist","steam_id":76561199100342013,"connected_time":2079000000000,"state":"active","ping":94},{"user_id":345,"name":"Atlas (Skylar)","steam_id":76561198041531774,"connected_time":3383000000000,"state":"active","ping":55},{"user_id":432,"name":"nicolas the mercenary","steam_id":76561199077641644,"connected_time":166000000000,"state":"active","ping":63},{"user_id":394,"name":".BL14","steam_id":76561198374604922,"connected_time":966000000000,"state":"active","ping":62},{"user_id":362,"name":"GooberGuy","steam_id":76561199390197955,"connected_time":2103000000000,"state":"active","ping":123},{"user_id":363,"name":"qjkxkcd","steam_id":76561198035922283,"connected_time":2102000000000,"state":"active","ping":68},{"user_id":433,"name":"Ros","steam_id":76561199055963822,"connected_time":160000000000,"state":"active","ping":73},{"user_id":427,"name":"TrustyGun","steam_id":76561198022854020,"connected_time":293000000000,"state":"active","ping":73},{"user_id":340,"name":"gang shit weekly","steam_id":76561198442685742,"connected_time":3685000000000,"state":"active","ping":87},{"user_id":375,"name":"RoFrogle","steam_id":76561199078941377,"connected_time":1455000000000,"state":"active","ping":66}]},{"server_id":37,"name":"Uncletopia | Chicago | 6 | All Maps","name_short":"chi-6","host":"chi-2.us.uncletopia.com","port":27025,"enabled":true,"region":"us-central","cc":"us","latitude":41.881832,"longitude":-87.62318,"reserved":0,"last_update":"0001-01-01T00:00:00Z","name_a2s":"Uncletopia | Chicago | 6 | All Maps","protocol":17,"map":"cp_badlands","folder":"tf","game":"Team Fortress","app_id":440,"player_count":24,"max_players":24,"Bots":0,"server_type":"Dedicated","server_os":"Linux","password":true,"vac":true,"version":"7882260","steam_id":85568392924866363,"keywords":["cp","nocrits","nodmgspread","uncletopia"],"game_id":440,"stv_port":27026,"stv_name":"Uncletopia | Chicago | 6 | All Maps | STV","players":[{"user_id":142,"name":"A Shiny Meat Bicycle","steam_id":76561198358757709,"connected_time":663000000000,"state":"active","ping":91},{"user_id":138,"name":"babashi boolbaba","steam_id":76561197972601902,"connected_time":702000000000,"state":"active","ping":79},{"user_id":91,"name":"responds with haha","steam_id":76561198073269122,"connected_time":4810000000000,"state":"active","ping":62},{"user_id":156,"name":"Ze_√úber_Nerd","steam_id":76561198091148675,"connected_time":198000000000,"state":"active","ping":63},{"user_id":155,"name":"Rukh","steam_id":76561197999361315,"connected_time":265000000000,"state":"active","ping":94},{"user_id":153,"name":"Data","steam_id":76561198147917933,"connected_time":360000000000,"state":"active","ping":73},{"user_id":130,"name":"dansal","steam_id":76561197997042510,"connected_time":1304000000000,"state":"active","ping":79},{"user_id":157,"name":"darkjustin54","steam_id":76561198060056280,"connected_time":192000000000,"state":"active","ping":60},{"user_id":159,"name":"OmniMoto","steam_id":76561198091298557,"connected_time":148000000000,"state":"active","ping":83},{"user_id":136,"name":"birr","steam_id":76561198896091253,"connected_time":749000000000,"state":"active","ping":95},{"user_id":160,"name":"gamergod38","steam_id":76561198821637622,"connected_time":128000000000,"state":"active","ping":60},{"user_id":108,"name":"lesio","steam_id":76561198064249174,"connected_time":3761000000000,"state":"active","ping":91},{"user_id":129,"name":"wokky bin laddn","steam_id":76561198265200834,"connected_time":1395000000000,"state":"active","ping":71},{"user_id":102,"name":"steven","steam_id":76561198173047169,"connected_time":3829000000000,"state":"active","ping":60},{"user_id":145,"name":"jstn","steam_id":76561198845283665,"connected_time":648000000000,"state":"active","ping":68},{"user_id":152,"name":"DRAGON EMPEROR","steam_id":76561198095072184,"connected_time":546000000000,"state":"active","ping":63},{"user_id":124,"name":"VelocityCubeR","steam_id":76561198044351011,"connected_time":2272000000000,"state":"active","ping":57},{"user_id":105,"name":"seldom","steam_id":76561198166193756,"connected_time":3798000000000,"state":"active","ping":55},{"user_id":147,"name":"jema","steam_id":76561198276513608,"connected_time":626000000000,"state":"active","ping":166},{"user_id":148,"name":"FINNERTY2018","steam_id":76561198829848794,"connected_time":619000000000,"state":"active","ping":157},{"user_id":158,"name":"Tony Pizza","steam_id":76561198044331477,"connected_time":173000000000,"state":"active","ping":75},{"user_id":149,"name":"DumbScout","steam_id":76561198059646395,"connected_time":593000000000,"state":"active","ping":70},{"user_id":150,"name":"theblindfool44","steam_id":76561199473729241,"connected_time":583000000000,"state":"active","ping":103},{"user_id":95,"name":"sunny","steam_id":76561198069380992,"connected_time":4186000000000,"state":"active","ping":86}]},{"server_id":38,"name":"Uncletopia | Chicago | 7 | Stopwatch Beta","name_short":"chi-7","host":"chi-2.us.uncletopia.com","port":27035,"enabled":true,"region":"us-central","cc":"us","latitude":41.881832,"longitude":-87.62318,"reserved":0,"last_update":"0001-01-01T00:00:00Z","name_a2s":"Uncletopia | Chicago | 7 | Stopwatch Beta","protocol":17,"map":"workshop/koth_ashville_final.ugc2130459942","folder":"tf","game":"Team Fortress","app_id":440,"player_count":0,"max_players":24,"Bots":0,"server_type":"Dedicated","server_os":"Linux","password":true,"vac":true,"version":"7882260","steam_id":85568392924866364,"keywords":["cp","nocrits","nodmgspread","uncletopia"],"game_id":440,"stv_port":27036,"stv_name":"Uncletopia | Chicago | 7 | Stopwatch Beta | STV","players":null},{"server_id":39,"name":"Uncletopia | Chicago | 8 | Community","name_short":"chi-8","host":"chi-2.us.uncletopia.com","port":27045,"enabled":true,"region":"us-central","cc":"us","latitude":41.881832,"longitude":-87.62318,"reserved":0,"last_update":"0001-01-01T00:00:00Z","name_a2s":"Uncletopia | Chicago | 8 | Community","protocol":17,"map":"workshop/koth_trenchfoot_b1a.ugc731436616","folder":"tf","game":"Team Fortress","app_id":440,"player_count":23,"max_players":24,"Bots":0,"server_type":"Dedicated","server_os":"Linux","password":true,"vac":true,"version":"7882260","steam_id":85568392924866365,"keywords":["cp","nocrits","nodmgspread","uncletopia"],"game_id":440,"stv_port":27046,"stv_name":"Uncletopia | Chicago | 8 | Community | STV","players":[{"user_id":276,"name":"Cedric","steam_id":76561198072090580,"connected_time":4131000000000,"state":"active","ping":89},{"user_id":343,"name":"Venk","steam_id":76561198251131422,"connected_time":1335000000000,"state":"active","ping":69},{"user_id":332,"name":"DonoC","steam_id":76561198274473338,"connected_time":1662000000000,"state":"active","ping":87},{"user_id":357,"name":"Azazelinha","steam_id":76561199366325015,"connected_time":133000000000,"state":"active","ping":152},{"user_id":359,"name":"whittlo","steam_id":76561198056793479,"connected_time":37000000000,"state":"active","ping":68},{"user_id":329,"name":"Lunky","steam_id":76561198391687083,"connected_time":1707000000000,"state":"active","ping":103},{"user_id":330,"name":"Junko","steam_id":76561198146089003,"connected_time":1687000000000,"state":"active","ping":49},{"user_id":352,"name":"westward (was/were)","steam_id":76561198805512350,"connected_time":692000000000,"state":"active","ping":105},{"user_id":333,"name":"duneblaster0","steam_id":76561198040364680,"connected_time":1658000000000,"state":"active","ping":45},{"user_id":336,"name":"Reisen Udongein Inaba","steam_id":76561198051082314,"connected_time":1539000000000,"state":"active","ping":106},{"user_id":356,"name":"PEPSI POWERED MAN","steam_id":76561198362668431,"connected_time":175000000000,"state":"active","ping":285},{"user_id":337,"name":"Max Headroom [1985]","steam_id":76561198868952224,"connected_time":1441000000000,"state":"active","ping":79},{"user_id":338,"name":"Sabag3D","steam_id":76561198094402240,"connected_time":1431000000000,"state":"active","ping":100},{"user_id":353,"name":"bluelazerneon","steam_id":76561199013426640,"connected_time":656000000000,"state":"active","ping":104},{"user_id":339,"name":"The Chosen One","steam_id":76561199046984627,"connected_time":1416000000000,"state":"active","ping":91},{"user_id":318,"name":"Marc Antony","steam_id":76561198011366517,"connected_time":2365000000000,"state":"active","ping":57},{"user_id":348,"name":"The Piss Man","steam_id":76561198054387581,"connected_time":1247000000000,"state":"active","ping":69},{"user_id":316,"name":"Ice","steam_id":76561198285200892,"connected_time":2473000000000,"state":"active","ping":103},{"user_id":355,"name":"hoot.","steam_id":76561198066876703,"connected_time":407000000000,"state":"active","ping":48},{"user_id":354,"name":"WSHavoc","steam_id":76561197979650482,"connected_time":653000000000,"state":"active","ping":103},{"user_id":358,"name":"MDD","steam_id":76561197998850659,"connected_time":118000000000,"state":"active","ping":84},{"user_id":323,"name":"Mr.noob","steam_id":76561199200442395,"connected_time":2142000000000,"state":"active","ping":173},{"user_id":321,"name":"elthore","steam_id":76561197980789110,"connected_time":2248000000000,"state":"active","ping":76}]},{"server_id":8,"name":"Uncletopia | Dallas | 1 | All Maps","name_short":"dal-1","host":"dal-1.us.uncletopia.com","port":27015,"enabled":true,"region":"us-central","cc":"us","latitude":32.779167,"longitude":-96.80889,"reserved":0,"last_update":"0001-01-01T00:00:00Z","name_a2s":"Uncletopia | Dallas | 1 | All Maps","protocol":17,"map":"pl_upward","folder":"tf","game":"Team Fortress","app_id":440,"player_count":22,"max_players":24,"Bots":0,"server_type":"Dedicated","server_os":"Linux","password":true,"vac":true,"version":"7882260","steam_id":85568392924469986,"keywords":["nocrits","nodmgspread","payload","uncletopia"],"game_id":440,"stv_port":27016,"stv_name":"Uncletopia | Dallas | 1 | All Maps | STV","players":[{"user_id":398,"name":"Nugakku","steam_id":76561198082346219,"connected_time":2770000000000,"state":"active","ping":63},{"user_id":410,"name":"Nyplestheclown","steam_id":76561198028600291,"connected_time":630000000000,"state":"active","ping":66},{"user_id":338,"name":"J.G. Klaus","steam_id":76561198001111196,"connected_time":5203000000000,"state":"active","ping":47},{"user_id":416,"name":"go touch keyboard","steam_id":76561198197388678,"connected_time":408000000000,"state":"active","ping":75},{"user_id":378,"name":"Chief Diggery K.","steam_id":76561198066629137,"connected_time":3360000000000,"state":"active","ping":84},{"user_id":409,"name":"CreepyCook","steam_id":76561198242874622,"connected_time":744000000000,"state":"active","ping":58},{"user_id":376,"name":"Optimore","steam_id":76561198047662990,"connected_time":3380000000000,"state":"active","ping":74},{"user_id":404,"name":"60","steam_id":76561198079583278,"connected_time":2248000000000,"state":"active","ping":72},{"user_id":401,"name":"Frontier Psychiatrist","steam_id":76561198038689088,"connected_time":2433000000000,"state":"active","ping":90},{"user_id":347,"name":"Jack Horner in a F-16","steam_id":76561198062438923,"connected_time":4616000000000,"state":"active","ping":61},{"user_id":364,"name":"Once in a Lifetime","steam_id":76561199180652178,"connected_time":3539000000000,"state":"active","ping":89},{"user_id":395,"name":"BrendenMad","steam_id":76561198031250581,"connected_time":2925000000000,"state":"active","ping":59},{"user_id":393,"name":"Apollo","steam_id":76561198162364702,"connected_time":2947000000000,"state":"active","ping":90},{"user_id":411,"name":"SmokeyGalaxy","steam_id":76561198118780516,"connected_time":626000000000,"state":"active","ping":58},{"user_id":413,"name":"purply-ghost","steam_id":76561199204779865,"connected_time":607000000000,"state":"active","ping":49},{"user_id":384,"name":"CaptainKn1ght","steam_id":76561198018979695,"connected_time":3213000000000,"state":"active","ping":75},{"user_id":414,"name":"milk master","steam_id":76561198127851014,"connected_time":595000000000,"state":"active","ping":46},{"user_id":403,"name":"[GUT] RiDiK¬Æ","steam_id":76561197969756446,"connected_time":2400000000000,"state":"active","ping":78},{"user_id":407,"name":"a bucket of chicken","steam_id":76561198023710042,"connected_time":2015000000000,"state":"active","ping":47},{"user_id":399,"name":"TechnoBear2099","steam_id":76561198238863596,"connected_time":2690000000000,"state":"active","ping":45},{"user_id":394,"name":"iaPK","steam_id":76561198056618642,"connected_time":2946000000000,"state":"active","ping":53},{"user_id":391,"name":"Dr_Riddler","steam_id":76561198139493285,"connected_time":3021000000000,"state":"active","ping":97}]},{"server_id":108,"name":"Uncletopia | Dallas | 2 | All Maps","name_short":"dal-2","host":"dal-1.us.uncletopia.com","port":27025,"enabled":true,"region":"us-central","cc":"us","latitude":32.779167,"longitude":-96.80889,"reserved":0,"last_update":"0001-01-01T00:00:00Z","name_a2s":"Uncletopia | Dallas | 2 | All Maps","protocol":17,"map":"cp_sunshine","folder":"tf","game":"Team Fortress","app_id":440,"player_count":24,"max_players":24,"Bots":0,"server_type":"Dedicated","server_os":"Linux","password":true,"vac":true,"version":"7882260","steam_id":85568392924469988,"keywords":["cp","nocrits","nodmgspread","uncletopia"],"game_id":440,"stv_port":27026,"stv_name":"Uncletopia | Dallas | 2 | All Maps | STV","players":[{"user_id":291,"name":"Cervid√©","steam_id":76561198098579497,"connected_time":1547000000000,"state":"active","ping":102},{"user_id":296,"name":"Unlock The Shock (She/They)","steam_id":76561198823616667,"connected_time":299000000000,"state":"spawning","ping":44},{"user_id":252,"name":"Elena Manetta","steam_id":76561197998344054,"connected_time":3623000000000,"state":"active","ping":75},{"user_id":276,"name":"flu walrus","steam_id":76561198207940136,"connected_time":2015000000000,"state":"active","ping":60},{"user_id":227,"name":"bolainassr0","steam_id":76561199079078845,"connected_time":5652000000000,"state":"active","ping":82},{"user_id":224,"name":"Cristanc99","steam_id":76561198114715810,"connected_time":6108000000000,"state":"active","ping":46},{"user_id":253,"name":"hforce11","steam_id":76561198087647130,"connected_time":3622000000000,"state":"active","ping":67},{"user_id":283,"name":"onsen episode","steam_id":76561197979960008,"connected_time":1874000000000,"state":"active","ping":98},{"user_id":290,"name":"pel","steam_id":76561198021224745,"connected_time":1630000000000,"state":"active","ping":77},{"user_id":244,"name":"Darling","steam_id":76561198127525888,"connected_time":4181000000000,"state":"active","ping":47},{"user_id":294,"name":"Cofi","steam_id":76561199026721822,"connected_time":564000000000,"state":"active","ping":125},{"user_id":201,"name":"Hero Smasher","steam_id":76561198150681669,"connected_time":7964000000000,"state":"active","ping":79},{"user_id":255,"name":"minty","steam_id":76561198096347625,"connected_time":3570000000000,"state":"active","ping":74},{"user_id":293,"name":"Monsieur l'INGENIEUR","steam_id":76561198090504334,"connected_time":998000000000,"state":"active","ping":113},{"user_id":272,"name":"Sho' Nuff, the Shogun of Harlem","steam_id":76561198010708247,"connected_time":2533000000000,"state":"active","ping":95},{"user_id":299,"name":"The Largest Man (in Japan)","steam_id":76561198103183142,"connected_time":24000000000,"state":"connecting","ping":252},{"user_id":289,"name":"Little Green Man, Clayton","steam_id":76561198038945235,"connected_time":1662000000000,"state":"active","ping":101},{"user_id":295,"name":"ilady","steam_id":76561198139802458,"connected_time":409000000000,"state":"active","ping":83},{"user_id":285,"name":"john dark soul","steam_id":76561198072826791,"connected_time":1868000000000,"state":"active","ping":91},{"user_id":300,"name":"Ranger","steam_id":76561198829369360,"connected_time":24000000000,"state":"active","ping":81},{"user_id":222,"name":"*‚ô•‚Äß‚ÇäÀö Matches *‚ô•‚Äß‚Çä","steam_id":76561198048925904,"connected_time":6247000000000,"state":"active","ping":88},{"user_id":262,"name":"Shalom","steam_id":76561198410005222,"connected_time":3354000000000,"state":"active","ping":182},{"user_id":278,"name":"—Å—á–∏–∑—è—≥","steam_id":76561199182960322,"connected_time":1980000000000,"state":"active","ping":54},{"user_id":264,"name":"Cat","steam_id":76561198191887141,"connected_time":3288000000000,"state":"active","ping":101}]},{"server_id":5,"name":"Uncletopia | Frankfurt | 1 | All Maps","name_short":"frk-1","host":"frk-1.de.uncletopia.com","port":27015,"enabled":true,"region":"eu","cc":"de","latitude":50.110924,"longitude":8.682127,"reserved":0,"last_update":"0001-01-01T00:00:00Z","name_a2s":"Uncletopia | Frankfurt | 1 | All Maps","protocol":17,"map":"cp_snakewater_final1","folder":"tf","game":"Team Fortress","app_id":440,"player_count":14,"max_players":24,"Bots":0,"server_type":"Dedicated","server_os":"Linux","password":true,"vac":true,"version":"7882260","steam_id":85568392924469989,"keywords":["cp","nocrits","nodmgspread","uncletopia"],"game_id":440,"stv_port":27016,"stv_name":"Uncletopia | Frankfurt | 1 | All Maps | STV","players":[{"user_id":743,"name":"yard man","steam_id":76561198019477093,"connected_time":1725000000000,"state":"active","ping":73},{"user_id":762,"name":"Rez","steam_id":76561198410598772,"connected_time":51000000000,"state":"active","ping":55},{"user_id":749,"name":"|Manhurd|","steam_id":76561198255433180,"connected_time":1416000000000,"state":"active","ping":86},{"user_id":707,"name":"-DarkFairy- #savetf2","steam_id":76561198388135016,"connected_time":3944000000000,"state":"active","ping":64},{"user_id":740,"name":"markkululz","steam_id":76561198120166752,"connected_time":1901000000000,"state":"active","ping":74},{"user_id":731,"name":"Vulcano116","steam_id":76561198044168248,"connected_time":2375000000000,"state":"active","ping":58},{"user_id":756,"name":"-Boomer-","steam_id":76561197970798571,"connected_time":993000000000,"state":"active","ping":99},{"user_id":757,"name":"Kacperos12","steam_id":76561198044168268,"connected_time":865000000000,"state":"active","ping":81},{"user_id":760,"name":"skatie","steam_id":76561198169487380,"connected_time":281000000000,"state":"active","ping":68},{"user_id":761,"name":"WOOO","steam_id":76561198260848563,"connected_time":247000000000,"state":"active","ping":86},{"user_id":752,"name":"Kelek","steam_id":76561197971943553,"connected_time":1372000000000,"state":"active","ping":74},{"user_id":733,"name":"Kqinzel","steam_id":76561198272559065,"connected_time":2357000000000,"state":"active","ping":61},{"user_id":719,"name":"Little Satan","steam_id":76561198083614760,"connected_time":3518000000000,"state":"active","ping":74},{"user_id":691,"name":"Schelemago","steam_id":76561198074733578,"connected_time":4646000000000,"state":"active","ping":51}]},{"server_id":110,"name":"Uncletopia | Frankfurt | 2 | All Maps","name_short":"frk-2","host":"frk-1.de.uncletopia.com","port":27025,"enabled":true,"region":"eu","cc":"de","latitude":50.110924,"longitude":8.682127,"reserved":0,"last_update":"0001-01-01T00:00:00Z","name_a2s":"Uncletopia | Frankfurt | 2 | All Maps","protocol":17,"map":"cp_sunshine","folder":"tf","game":"Team Fortress","app_id":440,"player_count":0,"max_players":24,"Bots":0,"server_type":"Dedicated","server_os":"Linux","password":true,"vac":true,"version":"7882260","steam_id":85568392924469990,"keywords":["cp","nocrits","nodmgspread","uncletopia"],"game_id":440,"stv_port":27026,"stv_name":"Uncletopia | Frankfurt | 2 | All Maps | STV","players":null},{"server_id":308,"name":"Uncletopia | Frankfurt | 3 | All Maps","name_short":"frk-3","host":"frk-1.de.uncletopia.com","port":27035,"enabled":true,"region":"eu","cc":"de","latitude":50.110924,"longitude":8.682127,"reserved":0,"last_update":"0001-01-01T00:00:00Z","name_a2s":"Uncletopia | Frankfurt | 3 | All Maps","protocol":17,"map":"pl_barnblitz","folder":"tf","game":"Team Fortress","app_id":440,"player_count":0,"max_players":24,"Bots":0,"server_type":"Dedicated","server_os":"Linux","password":true,"vac":true,"version":"7882260","steam_id":85568392924504274,"keywords":["nocrits","nodmgspread","payload","uncletopia"],"game_id":440,"stv_port":27036,"stv_name":"Uncletopia | Frankfurt | 3 | All Maps | STV","players":null},{"server_id":309,"name":"Uncletopia | Frankfurt | 4 | All Maps","name_short":"frk-4","host":"frk-1.de.uncletopia.com","port":27045,"enabled":true,"region":"eu","cc":"de","latitude":50.110924,"longitude":8.682127,"reserved":0,"last_update":"0001-01-01T00:00:00Z","name_a2s":"Uncletopia | Frankfurt | 4 | All Maps","protocol":17,"map":"pl_badwater","folder":"tf","game":"Team Fortress","app_id":440,"player_count":24,"max_players":24,"Bots":0,"server_type":"Dedicated","server_os":"Linux","password":true,"vac":true,"version":"7882260","steam_id":85568392924504275,"keywords":["nocrits","nodmgspread","payload","uncletopia"],"game_id":440,"stv_port":27046,"stv_name":"Uncletopia | Frankfurt | 4 | All Maps | STV","players":[{"user_id":157,"name":"astigmatic","steam_id":76561199103959197,"connected_time":618000000000,"state":"active","ping":85},{"user_id":138,"name":"Arasey","steam_id":76561198996948426,"connected_time":1721000000000,"state":"active","ping":83},{"user_id":74,"name":"hananamanna","steam_id":76561198006570285,"connected_time":5638000000000,"state":"active","ping":114},{"user_id":139,"name":"addicted","steam_id":76561199129801006,"connected_time":1659000000000,"state":"active","ping":44},{"user_id":124,"name":"pootis","steam_id":76561199477874283,"connected_time":2876000000000,"state":"active","ping":77},{"user_id":159,"name":"üå≠ HugeE #YNWA","steam_id":76561198245495152,"connected_time":582000000000,"state":"active","ping":60},{"user_id":171,"name":"Sofia v. Boergersatt","steam_id":76561197968530671,"connected_time":227000000000,"state":"active","ping":46},{"user_id":135,"name":"cuboidbird741","steam_id":76561198174823322,"connected_time":2121000000000,"state":"active","ping":63},{"user_id":97,"name":"Anri Okita's Massive Milkers","steam_id":76561199186352720,"connected_time":4505000000000,"state":"active","ping":68},{"user_id":131,"name":"oriano","steam_id":76561198099916327,"connected_time":2528000000000,"state":"active","ping":60},{"user_id":160,"name":"oskar.collins2","steam_id":76561199092232637,"connected_time":579000000000,"state":"active","ping":75},{"user_id":167,"name":"üå≠ Arentrir #YNWA","steam_id":76561198334126785,"connected_time":517000000000,"state":"active","ping":75},{"user_id":150,"name":"Ë™∞„Åã„ÅåË¶ã„Å¶„ÅÑ„Çã","steam_id":76561198834913692,"connected_time":1209000000000,"state":"active","ping":72},{"user_id":172,"name":"TidB","steam_id":76561198055342304,"connected_time":226000000000,"state":"active","ping":55},{"user_id":115,"name":"Mooodyboi.‚ô•","steam_id":76561198132577404,"connected_time":3885000000000,"state":"active","ping":63},{"user_id":163,"name":"BayaLilKneenjah","steam_id":76561198073676996,"connected_time":563000000000,"state":"active","ping":82},{"user_id":168,"name":"üíä hbivnm #YNWA","steam_id":76561197996468677,"connected_time":513000000000,"state":"active","ping":60},{"user_id":173,"name":"hud_saytext_time 0","steam_id":76561198010327228,"connected_time":100000000000,"state":"active","ping":68},{"user_id":164,"name":"DeanAdamFry","steam_id":76561198054153160,"connected_time":548000000000,"state":"active","ping":65},{"user_id":136,"name":"Bambi","steam_id":76561198166972711,"connected_time":2084000000000,"state":"active","ping":61},{"user_id":147,"name":"6'3 horny aroused male with gun","steam_id":76561199042470246,"connected_time":1400000000000,"state":"active","ping":60},{"user_id":134,"name":"Garold","steam_id":76561198429658370,"connected_time":2398000000000,"state":"active","ping":125},{"user_id":169,"name":"James","steam_id":76561198138558005,"connected_time":491000000000,"state":"active","ping":74},{"user_id":129,"name":"Mr. Mustard","steam_id":76561198025185606,"connected_time":2784000000000,"state":"active","ping":69}]},{"server_id":310,"name":"Uncletopia | Frankfurt | 5 | All Maps","name_short":"frk-5","host":"frk-1.de.uncletopia.com","port":27055,"enabled":true,"region":"eu","cc":"de","latitude":50.110924,"longitude":8.682127,"reserved":0,"last_update":"0001-01-01T00:00:00Z","name_a2s":"Uncletopia | Frankfurt | 5 | All Maps","protocol":17,"map":"pl_swiftwater_final1","folder":"tf","game":"Team Fortress","app_id":440,"player_count":2,"max_players":24,"Bots":0,"server_type":"Dedicated","server_os":"Linux","password":true,"vac":true,"version":"7882260","steam_id":85568392924504277,"keywords":["nocrits","nodmgspread","payload","uncletopia"],"game_id":440,"stv_port":27056,"stv_name":"Uncletopia | Frankfurt | 5 | All Maps | STV","players":[{"user_id":42,"name":"jokuwik","steam_id":76561198409720732,"connected_time":357000000000,"state":"active","ping":83},{"user_id":43,"name":"Kjat","steam_id":76561198839433592,"connected_time":230000000000,"state":"active","ping":47}]},{"server_id":311,"name":"Uncletopia | Frankfurt | 6 | All Maps","name_short":"frk-6","host":"frk-1.de.uncletopia.com","port":27065,"enabled":true,"region":"eu","cc":"de","latitude":50.110924,"longitude":8.682127,"reserved":0,"last_update":"0001-01-01T00:00:00Z","name_a2s":"Uncletopia | Frankfurt | 6 | All Maps","protocol":17,"map":"koth_lakeside_final","folder":"tf","game":"Team Fortress","app_id":440,"player_count":0,"max_players":24,"Bots":0,"server_type":"Dedicated","server_os":"Linux","password":true,"vac":true,"version":"7882260","steam_id":85568392924504278,"keywords":["cp","nocrits","nodmgspread","uncletopia"],"game_id":440,"stv_port":27066,"stv_name":"Uncletopia | Frankfurt | 6 | All Maps | STV","players":null},{"server_id":23,"name":"Uncletopia | Frankfurt | 7 | Stopwatch Beta","name_short":"frk-7","host":"frk-1.de.uncletopia.com","port":27075,"enabled":true,"region":"eu","cc":"de","latitude":50.110924,"longitude":8.682127,"reserved":0,"last_update":"0001-01-01T00:00:00Z","name_a2s":"Uncletopia | Frankfurt | 7 | Stopwatch Beta","protocol":17,"map":"workshop/pl_summercoast_rc8e.ugc1761528829","folder":"tf","game":"Team Fortress","app_id":440,"player_count":0,"max_players":24,"Bots":0,"server_type":"Dedicated","server_os":"Linux","password":true,"vac":true,"version":"7882260","steam_id":85568392924742827,"keywords":["nocrits","nodmgspread","payload","uncletopia"],"game_id":440,"stv_port":27076,"stv_name":"Uncletopia | Frankfurt | 7 | Stopwatch Beta | STV","players":null},{"server_id":24,"name":"Uncletopia | Frankfurt | 8 | Community","name_short":"frk-8","host":"frk-1.de.uncletopia.com","port":27085,"enabled":true,"region":"eu","cc":"de","latitude":50.110924,"longitude":8.682127,"reserved":0,"last_update":"0001-01-01T00:00:00Z","name_a2s":"Uncletopia | Frankfurt | 8 | Community","protocol":17,"map":"workshop/koth_synthetic_rc6a.ugc1549817316","folder":"tf","game":"Team Fortress","app_id":440,"player_count":24,"max_players":24,"Bots":0,"server_type":"Dedicated","server_os":"Linux","password":true,"vac":true,"version":"7882260","steam_id":85568392924742828,"keywords":["cp","nocrits","nodmgspread","uncletopia"],"game_id":440,"stv_port":27086,"stv_name":"Uncletopia | Frankfurt | 8 | Community | STV","players":[{"user_id":367,"name":"sHIFTINGvORTEX","steam_id":76561198231648332,"connected_time":1169000000000,"state":"active","ping":76},{"user_id":374,"name":"Catharina Imperatrix","steam_id":76561198294818839,"connected_time":862000000000,"state":"active","ping":71},{"user_id":369,"name":"MoinMaX40K","steam_id":76561199137983269,"connected_time":1038000000000,"state":"active","ping":63},{"user_id":333,"name":"fregaropa","steam_id":76561198150806166,"connected_time":4493000000000,"state":"active","ping":79},{"user_id":352,"name":"joachym","steam_id":76561198428579761,"connected_time":2679000000000,"state":"active","ping":58},{"user_id":370,"name":"dotdotdot","steam_id":76561198057628751,"connected_time":997000000000,"state":"active","ping":61},{"user_id":342,"name":"medicinal man","steam_id":76561198202668788,"connected_time":4241000000000,"state":"active","ping":62},{"user_id":320,"name":"Tegnerud","steam_id":76561198214185612,"connected_time":5185000000000,"state":"active","ping":72},{"user_id":371,"name":"Yunker","steam_id":76561198339576891,"connected_time":995000000000,"state":"active","ping":164},{"user_id":285,"name":"TylowStar","steam_id":76561198357107806,"connected_time":7745000000000,"state":"active","ping":61},{"user_id":377,"name":"Tea guy","steam_id":76561198797847641,"connected_time":780000000000,"state":"active","ping":74},{"user_id":373,"name":"\u003cUsername Unknown\u003e","steam_id":76561198255311543,"connected_time":905000000000,"state":"active","ping":140},{"user_id":234,"name":"Farao Ramses II","steam_id":76561198078722712,"connected_time":12205000000000,"state":"active","ping":47},{"user_id":375,"name":"tracey stacks","steam_id":76561198885581544,"connected_time":849000000000,"state":"active","ping":103},{"user_id":376,"name":"RocK Knight","steam_id":76561198186054573,"connected_time":835000000000,"state":"active","ping":68},{"user_id":379,"name":"Thijs","steam_id":76561197983426728,"connected_time":648000000000,"state":"active","ping":74},{"user_id":380,"name":"Major Tom","steam_id":76561198055993463,"connected_time":640000000000,"state":"active","ping":63},{"user_id":354,"name":"Psychotic Personality Core","steam_id":76561198254853528,"connected_time":2661000000000,"state":"active","ping":156},{"user_id":382,"name":"STiNGHAN","steam_id":76561198023989090,"connected_time":636000000000,"state":"active","ping":84},{"user_id":383,"name":"Roysten","steam_id":76561198036139183,"connected_time":635000000000,"state":"active","ping":48},{"user_id":356,"name":"LVIXX","steam_id":76561198188767928,"connected_time":2584000000000,"state":"active","ping":75},{"user_id":384,"name":"[JT]Reefer","steam_id":76561197988333655,"connected_time":610000000000,"state":"active","ping":59},{"user_id":364,"name":"St√ºmpy","steam_id":76561198255904077,"connected_time":1936000000000,"state":"active","ping":67},{"user_id":385,"name":"ali","steam_id":76561198148359093,"connected_time":539000000000,"state":"active","ping":45}]},{"server_id":202,"name":"Uncletopia | Hong Kong | 1 | All Maps","name_short":"hgk-1","host":"hgk-1.hk.uncletopia.com","port":27015,"enabled":true,"region":"asia","cc":"hk","latitude":22.302711,"longitude":114.177216,"reserved":0,"last_update":"0001-01-01T00:00:00Z","name_a2s":"Uncletopia | Hong Kong | 1 | All Maps","protocol":17,"map":"koth_nucleus","folder":"tf","game":"Team Fortress","app_id":440,"player_count":0,"max_players":24,"Bots":0,"server_type":"Dedicated","server_os":"Linux","password":true,"vac":true,"version":"7882260","steam_id":85568392924494504,"keywords":["cp","nocrits","nodmgspread","uncletopia"],"game_id":440,"stv_port":27016,"stv_name":"Uncletopia | Hong Kong | 1 | All Maps | STV","players":null},{"server_id":1,"name":"Uncletopia | Los Angeles | 1 | All Maps","name_short":"lax-1","host":"lax-1.us.uncletopia.com","port":27015,"enabled":true,"region":"us-west","cc":"us","latitude":33.94279,"longitude":-118.41004,"reserved":0,"last_update":"0001-01-01T00:00:00Z","name_a2s":"Uncletopia | Los Angeles | 1 | All Maps","protocol":17,"map":"pl_badwater","folder":"tf","game":"Team Fortress","app_id":440,"player_count":24,"max_players":24,"Bots":0,"server_type":"Dedicated","server_os":"Linux","password":true,"vac":true,"version":"7882260","steam_id":85568392924469991,"keywords":["nocrits","nodmgspread","payload","uncletopia"],"game_id":440,"stv_port":27016,"stv_name":"Uncletopia | Los Angeles | 1 | All Maps | STV","players":[{"user_id":313,"name":"Syfun","steam_id":76561198042734428,"connected_time":857000000000,"state":"active","ping":119},{"user_id":300,"name":"danielarmvt","steam_id":76561198799723201,"connected_time":1901000000000,"state":"active","ping":104},{"user_id":315,"name":"Midnight-AG","steam_id":76561198115714484,"connected_time":782000000000,"state":"active","ping":76},{"user_id":262,"name":"wlfgng","steam_id":76561198316639499,"connected_time":3713000000000,"state":"active","ping":46},{"user_id":298,"name":"oil","steam_id":76561198099980149,"connected_time":2076000000000,"state":"active","ping":55},{"user_id":238,"name":"OverShocked","steam_id":76561198256715195,"connected_time":5822000000000,"state":"active","ping":119},{"user_id":317,"name":"SpringIvan","steam_id":76561199133179509,"connected_time":510000000000,"state":"active","ping":46},{"user_id":308,"name":"Lock'd","steam_id":76561198170108230,"connected_time":1439000000000,"state":"active","ping":44},{"user_id":301,"name":"Super crak 202 9","steam_id":76561199176207530,"connected_time":1754000000000,"state":"active","ping":69},{"user_id":302,"name":"Schnitz","steam_id":76561198265484253,"connected_time":1749000000000,"state":"active","ping":55},{"user_id":221,"name":"Apprentice Pybro","steam_id":76561197996353534,"connected_time":6523000000000,"state":"active","ping":45},{"user_id":312,"name":"FI LO","steam_id":76561198976530881,"connected_time":1062000000000,"state":"active","ping":30},{"user_id":303,"name":"Ban_nana","steam_id":76561199206827767,"connected_time":1677000000000,"state":"active","ping":85},{"user_id":307,"name":"radino","steam_id":76561198003182237,"connected_time":1456000000000,"state":"active","ping":64},{"user_id":296,"name":"Sirphantom","steam_id":76561198125415432,"connected_time":2233000000000,"state":"active","ping":68},{"user_id":282,"name":"DrunkOnChocolateMilk","steam_id":76561198036540528,"connected_time":2657000000000,"state":"active","ping":77},{"user_id":234,"name":"Boommanchu","steam_id":76561198057491452,"connected_time":5925000000000,"state":"active","ping":118},{"user_id":304,"name":"Wacks","steam_id":76561198079476100,"connected_time":1623000000000,"state":"active","ping":58},{"user_id":178,"name":"eggplantgirl‚ô•","steam_id":76561198811515692,"connected_time":8751000000000,"state":"active","ping":45},{"user_id":309,"name":"Yoinkinator","steam_id":76561198011366624,"connected_time":1370000000000,"state":"active","ping":55},{"user_id":287,"name":"Magicduh","steam_id":76561198432312019,"connected_time":2547000000000,"state":"active","ping":115},{"user_id":288,"name":"HeartAttack","steam_id":76561198135833968,"connected_time":2545000000000,"state":"active","ping":63},{"user_id":289,"name":"Farmer caboose","steam_id":76561198117370670,"connected_time":2543000000000,"state":"active","ping":83},{"user_id":318,"name":"HunterTW","steam_id":76561198124141856,"connected_time":508000000000,"state":"active","ping":70}]},{"server_id":112,"name":"Uncletopia | Los Angeles | 2 | All Maps","name_short":"lax-2","host":"lax-1.us.uncletopia.com","port":27025,"enabled":true,"region":"us-west","cc":"us","latitude":33.94279,"longitude":-118.41004,"reserved":0,"last_update":"0001-01-01T00:00:00Z","name_a2s":"Uncletopia | Los Angeles | 2 | All Maps","protocol":17,"map":"pl_upward","folder":"tf","game":"Team Fortress","app_id":440,"player_count":22,"max_players":24,"Bots":0,"server_type":"Dedicated","server_os":"Linux","password":true,"vac":true,"version":"7882260","steam_id":85568392924469992,"keywords":["nocrits","nodmgspread","payload","uncletopia"],"game_id":440,"stv_port":27026,"stv_name":"Uncletopia | Los Angeles | 2 | All Maps | STV","players":[{"user_id":202,"name":"Furrio","steam_id":76561198174104607,"connected_time":2927000000000,"state":"active","ping":98},{"user_id":214,"name":"Plague","steam_id":76561199224029155,"connected_time":2361000000000,"state":"active","ping":66},{"user_id":226,"name":"bad vibrations","steam_id":76561198036283992,"connected_time":615000000000,"state":"active","ping":60},{"user_id":203,"name":"Zynil","steam_id":76561199066418256,"connected_time":2892000000000,"state":"active","ping":51},{"user_id":221,"name":"viha4n","steam_id":76561199208867417,"connected_time":2049000000000,"state":"active","ping":68},{"user_id":224,"name":"FerretNoir","steam_id":76561199071136530,"connected_time":1493000000000,"state":"active","ping":75},{"user_id":205,"name":"ATA3","steam_id":76561198099640423,"connected_time":2860000000000,"state":"active","ping":55},{"user_id":227,"name":"Spazz","steam_id":76561198036167494,"connected_time":588000000000,"state":"active","ping":78},{"user_id":228,"name":"sunbather","steam_id":76561198868600487,"connected_time":552000000000,"state":"active","ping":113},{"user_id":229,"name":"Socal","steam_id":76561199454892300,"connected_time":472000000000,"state":"active","ping":67},{"user_id":236,"name":"(1)james may","steam_id":76561198043857339,"connected_time":354000000000,"state":"active","ping":49},{"user_id":230,"name":"ryghehn","steam_id":76561198195359229,"connected_time":471000000000,"state":"active","ping":75},{"user_id":223,"name":"Darkspiral","steam_id":76561198080807559,"connected_time":1499000000000,"state":"active","ping":46},{"user_id":184,"name":"muffinman12126","steam_id":76561199471924109,"connected_time":3798000000000,"state":"active","ping":55},{"user_id":232,"name":"Hashbrowncow","steam_id":76561198272021902,"connected_time":470000000000,"state":"active","ping":57},{"user_id":143,"name":"James May","steam_id":76561198101506575,"connected_time":7133000000000,"state":"active","ping":80},{"user_id":233,"name":"Acto","steam_id":76561198043025164,"connected_time":450000000000,"state":"active","ping":84},{"user_id":196,"name":"cat","steam_id":76561198302651200,"connected_time":3170000000000,"state":"active","ping":113},{"user_id":234,"name":"uzr","steam_id":76561198799343084,"connected_time":446000000000,"state":"active","ping":55},{"user_id":211,"name":"supatrip","steam_id":76561198131030886,"connected_time":2670000000000,"state":"active","ping":56},{"user_id":235,"name":"Floaty","steam_id":76561198100029503,"connected_time":435000000000,"state":"active","ping":86},{"user_id":156,"name":"anitheproto","steam_id":76561198047786061,"connected_time":5376000000000,"state":"active","ping":77}]},{"server_id":324,"name":"Uncletopia | Los Angeles | 3 | All Maps","name_short":"lax-3","host":"lax-1.us.uncletopia.com","port":27035,"enabled":true,"region":"us-west","cc":"us","latitude":33.94279,"longitude":-118.41004,"reserved":0,"last_update":"0001-01-01T00:00:00Z","name_a2s":"Uncletopia | Los Angeles | 3 | All Maps","protocol":17,"map":"cp_powerhouse","folder":"tf","game":"Team Fortress","app_id":440,"player_count":24,"max_players":24,"Bots":0,"server_type":"Dedicated","server_os":"Linux","password":true,"vac":true,"version":"7882260","steam_id":85568392924510198,"keywords":["cp","nocrits","nodmgspread","uncletopia"],"game_id":440,"stv_port":27036,"stv_name":"Uncletopia | Los Angeles | 3 | All Maps | STV","players":[{"user_id":199,"name":"See? Bass!","steam_id":76561198207220181,"connected_time":837000000000,"state":"active","ping":86},{"user_id":175,"name":"Rezayne","steam_id":76561198047576346,"connected_time":2502000000000,"state":"active","ping":99},{"user_id":184,"name":"super0seal","steam_id":76561199478907849,"connected_time":1731000000000,"state":"active","ping":111},{"user_id":216,"name":"Enderkill777","steam_id":76561198876915153,"connected_time":9000000000,"state":"spawning","ping":93},{"user_id":196,"name":"hatsune miku","steam_id":76561199445009981,"connected_time":1171000000000,"state":"active","ping":71},{"user_id":201,"name":"St. Michael","steam_id":76561198037611052,"connected_time":708000000000,"state":"active","ping":74},{"user_id":215,"name":"minx","steam_id":76561198075551260,"connected_time":38000000000,"state":"active","ping":199},{"user_id":206,"name":"Edendelt","steam_id":76561199382750867,"connected_time":569000000000,"state":"active","ping":52},{"user_id":167,"name":"no vc no c","steam_id":76561197989503095,"connected_time":3292000000000,"state":"active","ping":165},{"user_id":207,"name":"intek","steam_id":76561198052705291,"connected_time":552000000000,"state":"active","ping":92},{"user_id":214,"name":"ExpDelta","steam_id":76561199126443129,"connected_time":65000000000,"state":"active","ping":102},{"user_id":176,"name":"Hi, I am PIPPUM nice to meetcha","steam_id":76561198081457924,"connected_time":2493000000000,"state":"active","ping":98},{"user_id":133,"name":"triph","steam_id":76561198067196509,"connected_time":5755000000000,"state":"active","ping":43},{"user_id":203,"name":"miguelrodriguez2013","steam_id":76561198269253587,"connected_time":690000000000,"state":"active","ping":59},{"user_id":210,"name":"sir barry lyndon","steam_id":76561198017539604,"connected_time":414000000000,"state":"active","ping":105},{"user_id":123,"name":"Sweese","steam_id":76561198863456987,"connected_time":6651000000000,"state":"active","ping":67},{"user_id":198,"name":"muddy","steam_id":76561198035015260,"connected_time":926000000000,"state":"active","ping":81},{"user_id":182,"name":"Drive-By-Fish-Guy","steam_id":76561198105513652,"connected_time":1916000000000,"state":"active","ping":61},{"user_id":186,"name":"dope","steam_id":76561198126699550,"connected_time":1717000000000,"state":"active","ping":58},{"user_id":211,"name":"lord bullingdon","steam_id":76561198102681457,"connected_time":412000000000,"state":"active","ping":103},{"user_id":209,"name":"[Bandit]","steam_id":76561197986919852,"connected_time":513000000000,"state":"active","ping":73},{"user_id":212,"name":"Rallo","steam_id":76561198324357861,"connected_time":407000000000,"state":"active","ping":90},{"user_id":194,"name":"demo gaming!","steam_id":76561198397708640,"connected_time":1235000000000,"state":"active","ping":28},{"user_id":191,"name":"Dooku","steam_id":76561198216958508,"connected_time":1317000000000,"state":"active","ping":54}]},{"server_id":25,"name":"Uncletopia | Los Angeles | 4 | Stopwatch Beta","name_short":"lax-4","host":"lax-1.us.uncletopia.com","port":27045,"enabled":true,"region":"us-west","cc":"us","latitude":33.94279,"longitude":-118.41004,"reserved":0,"last_update":"0001-01-01T00:00:00Z","name_a2s":"Uncletopia | Los Angeles | 4 | Stopwatch Beta","protocol":17,"map":"workshop/pl_barnblitz_pro7.ugc582280235","folder":"tf","game":"Team Fortress","app_id":440,"player_count":0,"max_players":24,"Bots":0,"server_type":"Dedicated","server_os":"Linux","password":true,"vac":true,"version":"7882260","steam_id":85568392924510199,"keywords":["nocrits","nodmgspread","payload","uncletopia"],"game_id":440,"stv_port":27046,"stv_name":"Uncletopia | Los Angeles | 4 | Stopwatch Beta | STV","players":null},{"server_id":11,"name":"Uncletopia | London | 1 | All Maps","name_short":"lon-1","host":"lon-1.uk.uncletopia.com","port":27015,"enabled":true,"region":"eu","cc":"gb","latitude":51.509865,"longitude":-0.118092,"reserved":0,"last_update":"0001-01-01T00:00:00Z","name_a2s":"Uncletopia | London | 1 | All Maps","protocol":17,"map":"cp_egypt_final","folder":"tf","game":"Team Fortress","app_id":440,"player_count":24,"max_players":24,"Bots":0,"server_type":"Dedicated","server_os":"Linux","password":true,"vac":true,"version":"7882260","steam_id":85568392924367362,"keywords":["cp","nocrits","nodmgspread","uncletopia"],"game_id":440,"stv_port":27016,"stv_name":"Uncletopia | London | 1 | All Maps | STV","players":[{"user_id":462,"name":"TunnelVision","steam_id":76561198232823472,"connected_time":1409000000000,"state":"active","ping":55},{"user_id":479,"name":"The Butterman#SaveTF2","steam_id":76561198065057086,"connected_time":363000000000,"state":"active","ping":76},{"user_id":420,"name":"worm curator","steam_id":76561198255576760,"connected_time":3922000000000,"state":"active","ping":59},{"user_id":467,"name":"R0mulone","steam_id":76561198352513792,"connected_time":1091000000000,"state":"active","ping":61},{"user_id":483,"name":"Boil em mash em","steam_id":76561198026508026,"connected_time":122000000000,"state":"active","ping":76},{"user_id":469,"name":"Carter","steam_id":76561198005243938,"connected_time":821000000000,"state":"active","ping":75},{"user_id":470,"name":"padillacampos","steam_id":76561198161923970,"connected_time":786000000000,"state":"active","ping":74},{"user_id":455,"name":"teddy","steam_id":76561198007436837,"connected_time":1889000000000,"state":"active","ping":40},{"user_id":464,"name":"owlsie","steam_id":76561198094883280,"connected_time":1364000000000,"state":"active","ping":61},{"user_id":423,"name":"Mineran","steam_id":76561198357224424,"connected_time":3891000000000,"state":"active","ping":93},{"user_id":477,"name":"Maridor","steam_id":76561199094592508,"connected_time":431000000000,"state":"active","ping":63},{"user_id":394,"name":"Lincoln","steam_id":76561198847649299,"connected_time":5704000000000,"state":"active","ping":51},{"user_id":401,"name":"tea girl","steam_id":76561198068054530,"connected_time":5590000000000,"state":"active","ping":81},{"user_id":468,"name":"shreddies 750g","steam_id":76561198188642265,"connected_time":1067000000000,"state":"active","ping":101},{"user_id":375,"name":"Meddler","steam_id":76561198033001402,"connected_time":7533000000000,"state":"active","ping":45},{"user_id":459,"name":"Elix","steam_id":76561199072306920,"connected_time":1852000000000,"state":"active","ping":99},{"user_id":481,"name":"Quantum","steam_id":76561197981677092,"connected_time":194000000000,"state":"active","ping":44},{"user_id":480,"name":"Bonca","steam_id":76561198137503531,"connected_time":292000000000,"state":"active","ping":74},{"user_id":412,"name":"Stigurna","steam_id":76561198063906822,"connected_time":4615000000000,"state":"active","ping":98},{"user_id":475,"name":"D_Ink","steam_id":76561198267716662,"connected_time":574000000000,"state":"active","ping":43},{"user_id":473,"name":"Mabert","steam_id":76561198436058407,"connected_time":727000000000,"state":"active","ping":77},{"user_id":476,"name":"Mitsos Dankhouse","steam_id":76561198073753149,"connected_time":533000000000,"state":"active","ping":59},{"user_id":482,"name":"Themoonisacheese","steam_id":76561198025594173,"connected_time":178000000000,"state":"active","ping":52},{"user_id":478,"name":"Hoff","steam_id":76561198026537318,"connected_time":430000000000,"state":"active","ping":43}]},{"server_id":114,"name":"Uncletopia | London | 2 | All Maps","name_short":"lon-2","host":"lon-1.uk.uncletopia.com","port":27025,"enabled":true,"region":"eu","cc":"gb","latitude":51.509865,"longitude":-0.118092,"reserved":0,"last_update":"0001-01-01T00:00:00Z","name_a2s":"Uncletopia | London | 2 | All Maps","protocol":17,"map":"pl_frontier_final","folder":"tf","game":"Team Fortress","app_id":440,"player_count":24,"max_players":24,"Bots":0,"server_type":"Dedicated","server_os":"Linux","password":true,"vac":true,"version":"7882260","steam_id":85568392924470941,"keywords":["nocrits","nodmgspread","payload","uncletopia"],"game_id":440,"stv_port":27026,"stv_name":"Uncletopia | London | 2 | All Maps | STV","players":[{"user_id":852,"name":"Frank","steam_id":76561198086672774,"connected_time":4190000000000,"state":"active","ping":49},{"user_id":892,"name":"sora :3","steam_id":76561198096547662,"connected_time":1644000000000,"state":"active","ping":50},{"user_id":887,"name":"MorVill","steam_id":76561198809859945,"connected_time":2316000000000,"state":"active","ping":52},{"user_id":865,"name":"shh... tiny carrots r sleeping","steam_id":76561198069649097,"connected_time":3176000000000,"state":"active","ping":47},{"user_id":894,"name":"dn4k","steam_id":76561199221755690,"connected_time":1280000000000,"state":"active","ping":87},{"user_id":861,"name":"Metalizer","steam_id":76561198099595082,"connected_time":3508000000000,"state":"active","ping":87},{"user_id":901,"name":"vug","steam_id":76561198042227249,"connected_time":138000000000,"state":"active","ping":45},{"user_id":900,"name":"REN","steam_id":76561198000596385,"connected_time":330000000000,"state":"active","ping":85},{"user_id":830,"name":"Adam/Sentry Gun tf2","steam_id":76561199103777436,"connected_time":6088000000000,"state":"active","ping":80},{"user_id":859,"name":"Mr_Pulse_","steam_id":76561198095001602,"connected_time":3814000000000,"state":"active","ping":102},{"user_id":810,"name":"TheEventGuy","steam_id":76561197972797744,"connected_time":6993000000000,"state":"active","ping":70},{"user_id":867,"name":"frosty","steam_id":76561198094560834,"connected_time":3161000000000,"state":"active","ping":48},{"user_id":877,"name":"Daniele Antox","steam_id":76561198323879930,"connected_time":2863000000000,"state":"active","ping":72},{"user_id":899,"name":"I sell exotic parrots","steam_id":76561199192434258,"connected_time":410000000000,"state":"active","ping":90},{"user_id":891,"name":"klaus","steam_id":76561198150394201,"connected_time":1706000000000,"state":"active","ping":95},{"user_id":869,"name":"cinny","steam_id":76561198832112629,"connected_time":3081000000000,"state":"active","ping":84},{"user_id":876,"name":"Stayprone","steam_id":76561197963491785,"connected_time":2890000000000,"state":"active","ping":70},{"user_id":898,"name":"Volcyy","steam_id":76561198063979124,"connected_time":867000000000,"state":"active","ping":51},{"user_id":809,"name":"thepro-strong","steam_id":76561198047359132,"connected_time":7085000000000,"state":"active","ping":74},{"user_id":844,"name":"Circular","steam_id":76561198001536710,"connected_time":4958000000000,"state":"active","ping":49},{"user_id":889,"name":"Dirty Joe","steam_id":76561198142418870,"connected_time":2035000000000,"state":"active","ping":45},{"user_id":826,"name":"alan","steam_id":76561198306947435,"connected_time":6493000000000,"state":"active","ping":72},{"user_id":888,"name":"gibb (official)","steam_id":76561198074097655,"connected_time":2147000000000,"state":"active","ping":38},{"user_id":875,"name":"The Bee","steam_id":76561198127779511,"connected_time":2928000000000,"state":"active","ping":58}]},{"server_id":320,"name":"Uncletopia | London | 3 | All Maps","name_short":"lon-3","host":"lon-1.uk.uncletopia.com","port":27035,"enabled":true,"region":"eu","cc":"gb","latitude":51.509865,"longitude":-0.118092,"reserved":0,"last_update":"0001-01-01T00:00:00Z","name_a2s":"Uncletopia | London | 3 | All Maps","protocol":17,"map":"pl_frontier_final","folder":"tf","game":"Team Fortress","app_id":440,"player_count":22,"max_players":24,"Bots":0,"server_type":"Dedicated","server_os":"Linux","password":true,"vac":true,"version":"7882260","steam_id":85568392924510192,"keywords":["nocrits","nodmgspread","payload","uncletopia"],"game_id":440,"stv_port":27036,"stv_name":"Uncletopia | London | 3 | All Maps | STV","players":[{"user_id":668,"name":"Oblivious","steam_id":76561198058570705,"connected_time":1437000000000,"state":"active","ping":86},{"user_id":703,"name":"Hildreth","steam_id":76561197995254867,"connected_time":51000000000,"state":"active","ping":69},{"user_id":525,"name":"AlbaniaGamer47","steam_id":76561198254861721,"connected_time":7285000000000,"state":"active","ping":70},{"user_id":704,"name":"Bodeine Brazy","steam_id":76561198122181176,"connected_time":40000000000,"state":"active","ping":46},{"user_id":702,"name":"Lario","steam_id":76561199194109193,"connected_time":59000000000,"state":"active","ping":85},{"user_id":705,"name":"Aeglos","steam_id":76561198248698294,"connected_time":36000000000,"state":"active","ping":46},{"user_id":672,"name":"Creature from the piss drawer","steam_id":76561198055949151,"connected_time":1328000000000,"state":"active","ping":46},{"user_id":706,"name":"BSantos57","steam_id":76561198000597094,"connected_time":0,"state":"connecting","ping":0},{"user_id":687,"name":"Will or Mole","steam_id":76561198046415938,"connected_time":645000000000,"state":"active","ping":73},{"user_id":696,"name":"WATANG!","steam_id":76561198040478926,"connected_time":244000000000,"state":"active","ping":70},{"user_id":633,"name":"svantezch","steam_id":76561198373831657,"connected_time":2195000000000,"state":"active","ping":77},{"user_id":566,"name":"Aroo","steam_id":76561198132601368,"connected_time":4846000000000,"state":"active","ping":76},{"user_id":697,"name":"Mommy (Official)","steam_id":76561198060638325,"connected_time":228000000000,"state":"active","ping":48},{"user_id":591,"name":"Glenn Quagmire","steam_id":76561199348527880,"connected_time":3258000000000,"state":"active","ping":102},{"user_id":580,"name":"tm`","steam_id":76561197993580412,"connected_time":3744000000000,"state":"active","ping":60},{"user_id":563,"name":"Voks_","steam_id":76561198159687785,"connected_time":5143000000000,"state":"active","ping":69},{"user_id":683,"name":"CalThePal","steam_id":76561198084842126,"connected_time":955000000000,"state":"active","ping":45},{"user_id":576,"name":"ufomaster1111111","steam_id":76561198837347666,"connected_time":3923000000000,"state":"active","ping":66},{"user_id":698,"name":"Mommy (Most Officialest)","steam_id":76561198208740557,"connected_time":214000000000,"state":"active","ping":61},{"user_id":468,"name":"MoeruKurowassan","steam_id":76561198319349647,"connected_time":9992000000000,"state":"active","ping":86},{"user_id":635,"name":"Sheikh Mahmood Shaaban","steam_id":76561198985288329,"connected_time":2162000000000,"state":"active","ping":56},{"user_id":588,"name":"StealthCat","steam_id":76561198068937412,"connected_time":3411000000000,"state":"active","ping":31}]},{"server_id":321,"name":"Uncletopia | London | 4 | All Maps","name_short":"lon-4","host":"lon-1.uk.uncletopia.com","port":27045,"enabled":true,"region":"eu","cc":"gb","latitude":51.509865,"longitude":-0.118092,"reserved":0,"last_update":"0001-01-01T00:00:00Z","name_a2s":"Uncletopia | London | 4 | All Maps","protocol":17,"map":"pl_badwater","folder":"tf","game":"Team Fortress","app_id":440,"player_count":24,"max_players":24,"Bots":0,"server_type":"Dedicated","server_os":"Linux","password":true,"vac":true,"version":"7882260","steam_id":85568392924510193,"keywords":["nocrits","nodmgspread","payload","uncletopia"],"game_id":440,"stv_port":27046,"stv_name":"Uncletopia | London | 4 | All Maps | STV","players":[{"user_id":436,"name":"Big They/Them is watching YOU","steam_id":76561198307598168,"connected_time":425000000000,"state":"active","ping":61},{"user_id":438,"name":"cr #pizdaaim","steam_id":76561197993508562,"connected_time":313000000000,"state":"active","ping":60},{"user_id":433,"name":"pabbott123110","steam_id":76561199231739796,"connected_time":757000000000,"state":"active","ping":140},{"user_id":439,"name":"AproX","steam_id":76561198880652045,"connected_time":306000000000,"state":"active","ping":86},{"user_id":429,"name":"Joel!","steam_id":76561198155422742,"connected_time":1045000000000,"state":"active","ping":64},{"user_id":416,"name":"nedilya","steam_id":76561198039692077,"connected_time":2545000000000,"state":"active","ping":63},{"user_id":417,"name":"Maythorn","steam_id":76561198049709072,"connected_time":2151000000000,"state":"active","ping":135},{"user_id":347,"name":"Mau","steam_id":76561198003382595,"connected_time":8101000000000,"state":"active","ping":45},{"user_id":437,"name":"PASTAMAN!!!","steam_id":76561198995641765,"connected_time":407000000000,"state":"active","ping":63},{"user_id":435,"name":"Alegz","steam_id":76561198287810139,"connected_time":540000000000,"state":"active","ping":83},{"user_id":443,"name":"Bartis","steam_id":76561198119512221,"connected_time":178000000000,"state":"active","ping":107},{"user_id":442,"name":"meow","steam_id":76561198289343488,"connected_time":235000000000,"state":"active","ping":60},{"user_id":445,"name":"Charles Darwin","steam_id":76561197973496139,"connected_time":162000000000,"state":"active","ping":68},{"user_id":446,"name":"kotamine","steam_id":76561198068907991,"connected_time":159000000000,"state":"active","ping":75},{"user_id":448,"name":"Ixsus\u003c3","steam_id":76561198094756869,"connected_time":142000000000,"state":"active","ping":60},{"user_id":383,"name":"ldshwt","steam_id":76561198090364357,"connected_time":5825000000000,"state":"active","ping":60},{"user_id":449,"name":"WILDYZZZZ\u003c3","steam_id":76561199244793006,"connected_time":127000000000,"state":"active","ping":55},{"user_id":390,"name":"T K","steam_id":76561198134256917,"connected_time":5437000000000,"state":"active","ping":77},{"user_id":450,"name":"Mr.O #deletesniper","steam_id":76561198039567498,"connected_time":122000000000,"state":"active","ping":55},{"user_id":451,"name":"r06u3","steam_id":76561198254099253,"connected_time":103000000000,"state":"active","ping":180},{"user_id":422,"name":"The Subway Scientist","steam_id":76561198193757646,"connected_time":1975000000000,"state":"active","ping":48},{"user_id":452,"name":"Gordon","steam_id":76561198303652059,"connected_time":98000000000,"state":"active","ping":86},{"user_id":453,"name":"Jaques Tits","steam_id":76561198073001219,"connected_time":84000000000,"state":"active","ping":113},{"user_id":428,"name":"Silent","steam_id":76561198344588858,"connected_time":1156000000000,"state":"active","ping":54}]},{"server_id":21,"name":"Uncletopia | London | 5 | All Maps","name_short":"lon-5","host":"lon-1.uk.uncletopia.com","port":27055,"enabled":true,"region":"eu","cc":"gb","latitude":51.509865,"longitude":-0.118092,"reserved":0,"last_update":"0001-01-01T00:00:00Z","name_a2s":"Uncletopia | London | 5 | All Maps","protocol":17,"map":"pl_borneo","folder":"tf","game":"Team Fortress","app_id":440,"player_count":23,"max_players":24,"Bots":0,"server_type":"Dedicated","server_os":"Linux","password":true,"vac":true,"version":"7882260","steam_id":85568392924742829,"keywords":["nocrits","nodmgspread","payload","uncletopia"],"game_id":440,"stv_port":27056,"stv_name":"Uncletopia | London | 5 | All Maps | STV","players":[{"user_id":703,"name":"Lyncurion","steam_id":76561199260022725,"connected_time":2426000000000,"state":"active","ping":87},{"user_id":647,"name":"eeeeee","steam_id":76561198017786875,"connected_time":5766000000000,"state":"active","ping":65},{"user_id":649,"name":"gfjhsdf","steam_id":76561198136736426,"connected_time":5728000000000,"state":"active","ping":74},{"user_id":653,"name":"Carrotcracker","steam_id":76561198034862396,"connected_time":5676000000000,"state":"active","ping":79},{"user_id":718,"name":"xulera","steam_id":76561198080736030,"connected_time":1654000000000,"state":"active","ping":62},{"user_id":710,"name":"TheBeardedM1G","steam_id":76561198040208946,"connected_time":2029000000000,"state":"active","ping":46},{"user_id":675,"name":"erykow7","steam_id":76561198280606501,"connected_time":5020000000000,"state":"active","ping":83},{"user_id":705,"name":"Penis Contortionist","steam_id":76561198073663784,"connected_time":2304000000000,"state":"active","ping":44},{"user_id":720,"name":"negro chui defoncer","steam_id":76561198031325797,"connected_time":1286000000000,"state":"active","ping":55},{"user_id":636,"name":"AftiksPL","steam_id":76561198875182686,"connected_time":6669000000000,"state":"active","ping":104},{"user_id":686,"name":"Vezage","steam_id":76561198064916164,"connected_time":4014000000000,"state":"active","ping":77},{"user_id":719,"name":"maybe blw.tf","steam_id":76561199028670732,"connected_time":1388000000000,"state":"active","ping":63},{"user_id":707,"name":"The Punch","steam_id":76561198212488780,"connected_time":2149000000000,"state":"active","ping":60},{"user_id":708,"name":"nyanezt","steam_id":76561198253734265,"connected_time":2127000000000,"state":"active","ping":97},{"user_id":725,"name":"‚ô• trixy ‚ô•","steam_id":76561199474154775,"connected_time":478000000000,"state":"active","ping":59},{"user_id":712,"name":"TeleporterComponent.tsx","steam_id":76561198303429751,"connected_time":1923000000000,"state":"active","ping":57},{"user_id":722,"name":"The Sex Defender","steam_id":76561198165732391,"connected_time":949000000000,"state":"active","ping":91},{"user_id":714,"name":"ChPerette","steam_id":76561198060004887,"connected_time":1872000000000,"state":"active","ping":45},{"user_id":727,"name":"Neco-arc Astolfo","steam_id":76561198989682540,"connected_time":201000000000,"state":"active","ping":57},{"user_id":724,"name":"SnusRunkarn","steam_id":76561199124072329,"connected_time":554000000000,"state":"active","ping":208},{"user_id":681,"name":"Dmra2130","steam_id":76561198087127144,"connected_time":4690000000000,"state":"active","ping":69},{"user_id":683,"name":"Cpt_frost","steam_id":76561198218034817,"connected_time":4263000000000,"state":"active","ping":50},{"user_id":692,"name":"DragonLord","steam_id":76561198074279225,"connected_time":3320000000000,"state":"active","ping":48}]},{"server_id":22,"name":"Uncletopia | London | 6 | All Maps","name_short":"lon-6","host":"lon-1.uk.uncletopia.com","port":27065,"enabled":true,"region":"eu","cc":"gb","latitude":51.509865,"longitude":-0.118092,"reserved":0,"last_update":"0001-01-01T00:00:00Z","name_a2s":"Uncletopia | London | 6 | All Maps","protocol":17,"map":"pl_badwater","folder":"tf","game":"Team Fortress","app_id":440,"player_count":22,"max_players":24,"Bots":0,"server_type":"Dedicated","server_os":"Linux","password":true,"vac":true,"version":"7882260","steam_id":85568392924742830,"keywords":["nocrits","nodmgspread","payload","uncletopia"],"game_id":440,"stv_port":27066,"stv_name":"Uncletopia | London | 6 | All Maps | STV","players":[{"user_id":678,"name":"PK Blizzard","steam_id":76561198039836567,"connected_time":2806000000000,"state":"active","ping":36},{"user_id":705,"name":"Atze","steam_id":76561198041171843,"connected_time":438000000000,"state":"active","ping":66},{"user_id":679,"name":"skill","steam_id":76561198106012909,"connected_time":2767000000000,"state":"active","ping":74},{"user_id":651,"name":"BoBunny McGlitter","steam_id":76561198057403817,"connected_time":4897000000000,"state":"active","ping":74},{"user_id":706,"name":"Karabast","steam_id":76561198041208332,"connected_time":428000000000,"state":"active","ping":81},{"user_id":682,"name":"xKralTR","steam_id":76561198810670279,"connected_time":2338000000000,"state":"active","ping":126},{"user_id":702,"name":"FilipeLuk","steam_id":76561198150675438,"connected_time":784000000000,"state":"active","ping":72},{"user_id":711,"name":"Ollieburgs","steam_id":76561198214704451,"connected_time":239000000000,"state":"active","ping":55},{"user_id":654,"name":"I hate mikado","steam_id":76561199089149091,"connected_time":4541000000000,"state":"active","ping":83},{"user_id":713,"name":"Alejandro","steam_id":76561197970051493,"connected_time":67000000000,"state":"spawning","ping":201},{"user_id":691,"name":"Entropy VT","steam_id":76561199039628923,"connected_time":1580000000000,"state":"active","ping":72},{"user_id":698,"name":"Shovelhalfrusty","steam_id":76561198346447513,"connected_time":1153000000000,"state":"active","ping":70},{"user_id":704,"name":"Rickario","steam_id":76561199068338969,"connected_time":716000000000,"state":"active","ping":55},{"user_id":687,"name":"Limeg210","steam_id":76561198152671630,"connected_time":1820000000000,"state":"active","ping":87},{"user_id":714,"name":"Tywhip","steam_id":76561199207545191,"connected_time":42000000000,"state":"active","ping":55},{"user_id":688,"name":"Abaddon","steam_id":76561199205559813,"connected_time":1747000000000,"state":"active","ping":55},{"user_id":689,"name":"MILKY","steam_id":76561199261620682,"connected_time":1685000000000,"state":"active","ping":69},{"user_id":710,"name":"Bajas","steam_id":76561198179339326,"connected_time":327000000000,"state":"active","ping":83},{"user_id":690,"name":"Drovecz_Hun","steam_id":76561198054703214,"connected_time":1681000000000,"state":"active","ping":84},{"user_id":692,"name":"tek4","steam_id":76561198047399339,"connected_time":1529000000000,"state":"active","ping":130},{"user_id":693,"name":"Vectillion","steam_id":76561198074292454,"connected_time":1525000000000,"state":"active","ping":70},{"user_id":694,"name":"FairlyFatFungus","steam_id":76561199152828854,"connected_time":1446000000000,"state":"active","ping":55}]},{"server_id":40,"name":"Uncletopia | London | 7 | No Payload","name_short":"lon-7","host":"lon-1.uk.uncletopia.com","port":27075,"enabled":true,"region":"eu","cc":"gb","latitude":51.509865,"longitude":-0.118092,"reserved":0,"last_update":"0001-01-01T00:00:00Z","name_a2s":"Uncletopia | London | 7 | No Payload","protocol":17,"map":"plr_hightower","folder":"tf","game":"Team Fortress","app_id":440,"player_count":22,"max_players":24,"Bots":0,"server_type":"Dedicated","server_os":"Linux","password":true,"vac":true,"version":"7882260","steam_id":85568392924964314,"keywords":["nocrits","nodmgspread","payload","uncletopia"],"game_id":440,"stv_port":27076,"stv_name":"Uncletopia | London | 7 | No Payload | STV","players":[{"user_id":498,"name":"Pinkchup","steam_id":76561198106802803,"connected_time":3865000000000,"state":"active","ping":78},{"user_id":531,"name":"kitsune miku","steam_id":76561198058432834,"connected_time":1400000000000,"state":"active","ping":54},{"user_id":539,"name":"meriones","steam_id":76561198034234373,"connected_time":763000000000,"state":"active","ping":39},{"user_id":532,"name":"AdiMinion","steam_id":76561198962938054,"connected_time":1398000000000,"state":"active","ping":86},{"user_id":497,"name":"Bobo","steam_id":76561198052308399,"connected_time":3902000000000,"state":"active","ping":68},{"user_id":519,"name":"PerskuleBenener","steam_id":76561198156899375,"connected_time":2750000000000,"state":"active","ping":82},{"user_id":471,"name":"Toby","steam_id":76561198173304074,"connected_time":7367000000000,"state":"active","ping":46},{"user_id":516,"name":"Cake","steam_id":76561198155804193,"connected_time":2995000000000,"state":"active","ping":183},{"user_id":521,"name":"tuber","steam_id":76561198086644199,"connected_time":2689000000000,"state":"active","ping":44},{"user_id":538,"name":"Minimi","steam_id":76561198873850443,"connected_time":796000000000,"state":"active","ping":56},{"user_id":526,"name":"The.Real.Genesis","steam_id":76561198999652040,"connected_time":2354000000000,"state":"active","ping":55},{"user_id":473,"name":"ObiNotKenobi","steam_id":76561198340018440,"connected_time":7274000000000,"state":"active","ping":89},{"user_id":546,"name":"gooseloose64","steam_id":76561199410265902,"connected_time":238000000000,"state":"active","ping":99},{"user_id":398,"name":"ThatGamingKiwi","steam_id":76561199170522237,"connected_time":12860000000000,"state":"active","ping":143},{"user_id":520,"name":"Nero Claudius","steam_id":76561198173936397,"connected_time":2734000000000,"state":"active","ping":100},{"user_id":352,"name":"M2rtRa","steam_id":76561198111036466,"connected_time":14930000000000,"state":"active","ping":75},{"user_id":522,"name":"NinjaTuna","steam_id":76561198034569315,"connected_time":2682000000000,"state":"active","ping":51},{"user_id":525,"name":"bowchika wowa #SlavaUkraine","steam_id":76561198159564550,"connected_time":2508000000000,"state":"active","ping":72},{"user_id":535,"name":"Valfezant","steam_id":76561199063983797,"connected_time":1301000000000,"state":"active","ping":75},{"user_id":537,"name":"Jackie Chan","steam_id":76561199378865926,"connected_time":811000000000,"state":"active","ping":84},{"user_id":426,"name":"Zonts","steam_id":76561198850176432,"connected_time":10870000000000,"state":"active","ping":76},{"user_id":509,"name":"Garoiop","steam_id":76561198082326459,"connected_time":3456000000000,"state":"active","ping":42}]},{"server_id":41,"name":"Uncletopia | London | 8 | Community","name_short":"lon-8","host":"lon-1.uk.uncletopia.com","port":27085,"enabled":true,"region":"eu","cc":"gb","latitude":51.509865,"longitude":-0.118092,"reserved":0,"last_update":"0001-01-01T00:00:00Z","name_a2s":"Uncletopia | London | 8 | Community","protocol":17,"map":"workshop/koth_trenchfoot_b1a.ugc731436616","folder":"tf","game":"Team Fortress","app_id":440,"player_count":0,"max_players":24,"Bots":0,"server_type":"Dedicated","server_os":"Linux","password":true,"vac":true,"version":"7882260","steam_id":85568392924964315,"keywords":["cp","nocrits","nodmgspread","uncletopia"],"game_id":440,"stv_port":27086,"stv_name":"Uncletopia | London | 8 | Community | STV","players":null},{"server_id":300,"name":"Uncletopia | Montr√©al | 1 | All Maps","name_short":"mtl-1","host":"mtl-1.ca.uncletopia.com","port":27015,"enabled":true,"region":"us-east","cc":"ca","latitude":45.50889,"longitude":-73.56167,"reserved":0,"last_update":"0001-01-01T00:00:00Z","name_a2s":"Uncletopia | Montr√©al | 1 | All Maps","protocol":17,"map":"pl_borneo","folder":"tf","game":"Team Fortress","app_id":440,"player_count":24,"max_players":24,"Bots":0,"server_type":"Dedicated","server_os":"Linux","password":true,"vac":true,"version":"7882260","steam_id":85568392924500087,"keywords":["nocrits","nodmgspread","payload","uncletopia"],"game_id":440,"stv_port":27016,"stv_name":"Uncletopia | Montr√©al | 1 | All Maps | STV","players":[{"user_id":90,"name":"boneyard","steam_id":76561199080454140,"connected_time":3296000000000,"state":"active","ping":65},{"user_id":54,"name":"jZKS","steam_id":76561199042230081,"connected_time":5819000000000,"state":"active","ping":53},{"user_id":119,"name":"Professional Clicker","steam_id":76561199210799428,"connected_time":475000000000,"state":"active","ping":51},{"user_id":117,"name":"slowdance","steam_id":76561198097427947,"connected_time":790000000000,"state":"active","ping":143},{"user_id":95,"name":"TheGuyWhoPlays","steam_id":76561198277363002,"connected_time":2864000000000,"state":"active","ping":58},{"user_id":99,"name":"IAmAProfesonal","steam_id":76561199171858953,"connected_time":2096000000000,"state":"active","ping":48},{"user_id":111,"name":"Fuzzy Toast","steam_id":76561198028067781,"connected_time":1244000000000,"state":"active","ping":57},{"user_id":112,"name":"carrot cake","steam_id":76561198055174915,"connected_time":1071000000000,"state":"active","ping":82},{"user_id":114,"name":"thundah!","steam_id":76561199159928133,"connected_time":893000000000,"state":"active","ping":48},{"user_id":121,"name":"Tones","steam_id":76561198039572032,"connected_time":145000000000,"state":"active","ping":45},{"user_id":80,"name":"Cat in Your Backyard","steam_id":76561197979078330,"connected_time":3891000000000,"state":"active","ping":60},{"user_id":115,"name":"LemonZest","steam_id":76561199196369249,"connected_time":890000000000,"state":"active","ping":72},{"user_id":88,"name":"Sodemo","steam_id":76561198074987146,"connected_time":3434000000000,"state":"active","ping":70},{"user_id":104,"name":"Candy Mann From Brooklyn","steam_id":76561198251655918,"connected_time":1683000000000,"state":"active","ping":60},{"user_id":109,"name":"ShadowHawky","steam_id":76561198163775303,"connected_time":1460000000000,"state":"active","ping":63},{"user_id":105,"name":"FUMO FUMO","steam_id":76561199445350651,"connected_time":1666000000000,"state":"active","ping":50},{"user_id":84,"name":"HOOPLA","steam_id":76561198993451858,"connected_time":3809000000000,"state":"active","ping":59},{"user_id":49,"name":"Blueberry The Fox","steam_id":76561198311460784,"connected_time":6173000000000,"state":"active","ping":71},{"user_id":53,"name":"Viriditaz","steam_id":76561198255457461,"connected_time":6043000000000,"state":"active","ping":67},{"user_id":85,"name":"custodian","steam_id":76561198058793778,"connected_time":3790000000000,"state":"active","ping":61},{"user_id":120,"name":"Gamba","steam_id":76561198069264650,"connected_time":391000000000,"state":"active","ping":72},{"user_id":110,"name":"6t26j","steam_id":76561198278282836,"connected_time":1324000000000,"state":"active","ping":54},{"user_id":87,"name":"bikerkid207","steam_id":76561198390782783,"connected_time":3693000000000,"state":"active","ping":70},{"user_id":46,"name":"drdoofus123","steam_id":76561198016826181,"connected_time":6645000000000,"state":"active","ping":79}]},{"server_id":301,"name":"Uncletopia | Montr√©al | 2 | All Maps","name_short":"mtl-2","host":"mtl-1.ca.uncletopia.com","port":27025,"enabled":true,"region":"us-east","cc":"ca","latitude":45.50889,"longitude":-73.56167,"reserved":0,"last_update":"0001-01-01T00:00:00Z","name_a2s":"Uncletopia | Montr√©al | 2 | All Maps","protocol":17,"map":"pl_borneo","folder":"tf","game":"Team Fortress","app_id":440,"player_count":21,"max_players":24,"Bots":0,"server_type":"Dedicated","server_os":"Linux","password":true,"vac":true,"version":"7882260","steam_id":85568392924500088,"keywords":["nocrits","nodmgspread","payload","uncletopia"],"game_id":440,"stv_port":27026,"stv_name":"Uncletopia | Montr√©al | 2 | All Maps | STV","players":[{"user_id":4,"name":"comet","steam_id":76561198149217841,"connected_time":4194000000000,"state":"spawning","ping":120},{"user_id":5,"name":"Kirb","steam_id":76561198042133789,"connected_time":4148000000000,"state":"spawning","ping":70},{"user_id":6,"name":"bARWARS","steam_id":76561198179873103,"connected_time":4100000000000,"state":"spawning","ping":132},{"user_id":7,"name":"Nr","steam_id":76561198156798850,"connected_time":3989000000000,"state":"spawning","ping":65},{"user_id":10,"name":"Snapdragron","steam_id":76561198348485302,"connected_time":1874000000000,"state":"spawning","ping":63},{"user_id":21,"name":"Urethra Franklin","steam_id":76561198269033403,"connected_time":390000000000,"state":"spawning","ping":119},{"user_id":14,"name":"rory438","steam_id":76561198236681912,"connected_time":974000000000,"state":"spawning","ping":41},{"user_id":15,"name":"Fashion","steam_id":76561198056788026,"connected_time":932000000000,"state":"spawning","ping":80},{"user_id":16,"name":"PizzariaDelPepperino","steam_id":76561198107925910,"connected_time":768000000000,"state":"spawning","ping":135},{"user_id":18,"name":"you forgot the sauce","steam_id":76561198387016713,"connected_time":681000000000,"state":"spawning","ping":45},{"user_id":28,"name":"Recursive Gamer","steam_id":76561198042102952,"connected_time":239000000000,"state":"spawning","ping":88},{"user_id":20,"name":"Kronos_Titan","steam_id":76561199091925123,"connected_time":499000000000,"state":"spawning","ping":155},{"user_id":22,"name":"vfa","steam_id":76561198055729118,"connected_time":378000000000,"state":"spawning","ping":138},{"user_id":23,"name":"gamer","steam_id":76561198123331910,"connected_time":351000000000,"state":"spawning","ping":92},{"user_id":24,"name":"blobb","steam_id":76561198950448488,"connected_time":343000000000,"state":"spawning","ping":46},{"user_id":25,"name":"Streamline","steam_id":76561198031098638,"connected_time":318000000000,"state":"spawning","ping":110},{"user_id":29,"name":"HOT SOUP","steam_id":76561199077389918,"connected_time":233000000000,"state":"spawning","ping":88},{"user_id":30,"name":"pipepeepi","steam_id":76561198845905873,"connected_time":224000000000,"state":"spawning","ping":55},{"user_id":35,"name":"‚ô• PsychicCellar ‚ô•","steam_id":76561198045923020,"connected_time":148000000000,"state":"spawning","ping":106},{"user_id":32,"name":"Flashtasm","steam_id":76561198026635660,"connected_time":181000000000,"state":"spawning","ping":38},{"user_id":33,"name":"naaro","steam_id":76561199394529617,"connected_time":179000000000,"state":"spawning","ping":86}]},{"server_id":302,"name":"Uncletopia | Montr√©al | 3 | All Maps","name_short":"mtl-3","host":"mtl-1.ca.uncletopia.com","port":27035,"enabled":true,"region":"us-east","cc":"ca","latitude":45.50889,"longitude":-73.56167,"reserved":0,"last_update":"0001-01-01T00:00:00Z","name_a2s":"Uncletopia | Montr√©al | 3 | All Maps","protocol":17,"map":"pl_barnblitz","folder":"tf","game":"Team Fortress","app_id":440,"player_count":0,"max_players":24,"Bots":0,"server_type":"Dedicated","server_os":"Linux","password":true,"vac":true,"version":"7882260","steam_id":85568392924500089,"keywords":["nocrits","nodmgspread","payload","uncletopia"],"game_id":440,"stv_port":27036,"stv_name":"Uncletopia | Montr√©al | 3 | All Maps | STV","players":null},{"server_id":303,"name":"Uncletopia | Montr√©al | 4 | No Payload","name_short":"mtl-4","host":"mtl-1.ca.uncletopia.com","port":27045,"enabled":true,"region":"us-east","cc":"ca","latitude":45.50889,"longitude":-73.56167,"reserved":0,"last_update":"0001-01-01T00:00:00Z","name_a2s":"Uncletopia | Montr√©al | 4 | No Payload","protocol":17,"map":"koth_harvest_final","folder":"tf","game":"Team Fortress","app_id":440,"player_count":0,"max_players":24,"Bots":0,"server_type":"Dedicated","server_os":"Linux","password":true,"vac":true,"version":"7882260","steam_id":85568392924500090,"keywords":["cp","nocrits","nodmgspread","uncletopia"],"game_id":440,"stv_port":27046,"stv_name":"Uncletopia | Montr√©al | 4 | No Payload | STV","players":null},{"server_id":13,"name":"Uncletopia | New York City | 1 | All Maps","name_short":"nyc-1","host":"nyc-1.us.uncletopia.com","port":27015,"enabled":true,"region":"us-east","cc":"us","latitude":40.73061,"longitude":-73.93524,"reserved":0,"last_update":"0001-01-01T00:00:00Z","name_a2s":"Uncletopia | New York City | 1 | All Maps","protocol":17,"map":"pl_barnblitz","folder":"tf","game":"Team Fortress","app_id":440,"player_count":24,"max_players":24,"Bots":0,"server_type":"Dedicated","server_os":"Linux","password":true,"vac":true,"version":"7882260","steam_id":85568392924469993,"keywords":["nocrits","nodmgspread","payload","uncletopia"],"game_id":440,"stv_port":27016,"stv_name":"Uncletopia | New York City | 1 | All Maps | STV","players":[{"user_id":344,"name":"SINEPLLAMS","steam_id":76561198316993833,"connected_time":5040000000000,"state":"active","ping":53},{"user_id":389,"name":"ok","steam_id":76561198445140249,"connected_time":1671000000000,"state":"active","ping":73},{"user_id":347,"name":"Meep_God","steam_id":76561199127667536,"connected_time":4975000000000,"state":"active","ping":67},{"user_id":315,"name":"Flint","steam_id":76561198148412420,"connected_time":7306000000000,"state":"active","ping":75},{"user_id":397,"name":"CEO of Great Value Rootbeer","steam_id":76561198255823904,"connected_time":847000000000,"state":"active","ping":112},{"user_id":395,"name":"saib","steam_id":76561198966980576,"connected_time":876000000000,"state":"active","ping":41},{"user_id":267,"name":"pogo","steam_id":76561198148913461,"connected_time":10820000000000,"state":"active","ping":50},{"user_id":391,"name":"Mr_MilkCheese","steam_id":76561198871981421,"connected_time":1653000000000,"state":"active","ping":93},{"user_id":354,"name":"Spartanm1ner","steam_id":76561199207797066,"connected_time":4589000000000,"state":"active","ping":71},{"user_id":398,"name":"Prof. Oli","steam_id":76561198980241587,"connected_time":826000000000,"state":"active","ping":70},{"user_id":387,"name":"Marc G","steam_id":76561198062650363,"connected_time":2287000000000,"state":"active","ping":81},{"user_id":376,"name":"GanZ","steam_id":76561199378883538,"connected_time":3575000000000,"state":"active","ping":68},{"user_id":390,"name":"sonic1394","steam_id":76561198054636788,"connected_time":1668000000000,"state":"active","ping":72},{"user_id":353,"name":"Will4Fun","steam_id":76561198302268726,"connected_time":4637000000000,"state":"active","ping":75},{"user_id":392,"name":"evnobev","steam_id":76561198038966462,"connected_time":1606000000000,"state":"active","ping":40},{"user_id":402,"name":"Drapph","steam_id":76561199384213314,"connected_time":567000000000,"state":"active","ping":87},{"user_id":403,"name":"sex","steam_id":76561198198787713,"connected_time":81000000000,"state":"active","ping":94},{"user_id":299,"name":"vyzxia","steam_id":76561198063562131,"connected_time":8314000000000,"state":"active","ping":109},{"user_id":386,"name":"Pockets","steam_id":76561198001742296,"connected_time":2518000000000,"state":"active","ping":80},{"user_id":388,"name":"Bother","steam_id":76561198336750909,"connected_time":1710000000000,"state":"active","ping":40},{"user_id":394,"name":"Cheesi","steam_id":76561199417190840,"connected_time":1438000000000,"state":"active","ping":75},{"user_id":401,"name":"GardenOfStone","steam_id":76561199069870534,"connected_time":792000000000,"state":"active","ping":105},{"user_id":287,"name":"Polar","steam_id":76561198043108060,"connected_time":9476000000000,"state":"active","ping":68},{"user_id":396,"name":"Phocae (She/Her)","steam_id":76561199317584594,"connected_time":876000000000,"state":"active","ping":65}]},{"server_id":14,"name":"Uncletopia | New York City | 2 | All Maps","name_short":"nyc-2","host":"nyc-1.us.uncletopia.com","port":27025,"enabled":true,"region":"us-east","cc":"us","latitude":40.73061,"longitude":-73.93524,"reserved":0,"last_update":"0001-01-01T00:00:00Z","name_a2s":"Uncletopia | New York City | 2 | All Maps","protocol":17,"map":"cp_altitude","folder":"tf","game":"Team Fortress","app_id":440,"player_count":24,"max_players":24,"Bots":0,"server_type":"Dedicated","server_os":"Linux","password":true,"vac":true,"version":"7882260","steam_id":85568392924469994,"keywords":["cp","nocrits","nodmgspread","uncletopia"],"game_id":440,"stv_port":27026,"stv_name":"Uncletopia | New York City | 2 | All Maps | STV","players":[{"user_id":346,"name":"weedcat","steam_id":76561198346054736,"connected_time":1893000000000,"state":"active","ping":66},{"user_id":370,"name":"TDR","steam_id":76561198093243434,"connected_time":458000000000,"state":"active","ping":81},{"user_id":377,"name":"raiden, squeeze my hog","steam_id":76561198138221795,"connected_time":305000000000,"state":"active","ping":91},{"user_id":317,"name":"Pib","steam_id":76561197994926573,"connected_time":4811000000000,"state":"active","ping":71},{"user_id":374,"name":"Normalux","steam_id":76561198293891426,"connected_time":417000000000,"state":"active","ping":81},{"user_id":315,"name":"Infinity","steam_id":76561199134919099,"connected_time":4883000000000,"state":"active","ping":53},{"user_id":297,"name":"Gentoo Linux Gaming","steam_id":76561197999657118,"connected_time":5499000000000,"state":"active","ping":64},{"user_id":371,"name":"k3nny11","steam_id":76561198182533757,"connected_time":447000000000,"state":"active","ping":75},{"user_id":226,"name":"emilee (evil)","steam_id":76561198061455664,"connected_time":10913000000000,"state":"active","ping":46},{"user_id":363,"name":"TheIrishbong","steam_id":76561198189590453,"connected_time":900000000000,"state":"active","ping":140},{"user_id":364,"name":"Duality","steam_id":76561198065689035,"connected_time":866000000000,"state":"active","ping":115},{"user_id":349,"name":"Emperor Dankatine","steam_id":76561198044741086,"connected_time":1839000000000,"state":"active","ping":100},{"user_id":372,"name":"jsinchv","steam_id":76561199277955739,"connected_time":439000000000,"state":"active","ping":44},{"user_id":343,"name":"Kirbs","steam_id":76561198970654800,"connected_time":2315000000000,"state":"active","ping":49},{"user_id":358,"name":"nebby","steam_id":76561197990815274,"connected_time":1042000000000,"state":"active","ping":60},{"user_id":351,"name":"austintacious","steam_id":76561198054118061,"connected_time":1538000000000,"state":"active","ping":66},{"user_id":327,"name":"shploopie","steam_id":76561198264289810,"connected_time":4149000000000,"state":"active","ping":66},{"user_id":375,"name":"Dragoninventor (He/Him)","steam_id":76561198956224948,"connected_time":336000000000,"state":"active","ping":103},{"user_id":376,"name":"ePun","steam_id":76561198271891295,"connected_time":332000000000,"state":"active","ping":59},{"user_id":350,"name":"Sir Punglton III","steam_id":76561199100719067,"connected_time":1827000000000,"state":"active","ping":76},{"user_id":356,"name":"squiddy","steam_id":76561198131737468,"connected_time":1068000000000,"state":"active","ping":49},{"user_id":336,"name":"‚ù§ Dinky Doop ‚ù§","steam_id":76561198121358089,"connected_time":3862000000000,"state":"active","ping":79},{"user_id":359,"name":"mini vegas stan","steam_id":76561198126029630,"connected_time":1040000000000,"state":"active","ping":65},{"user_id":362,"name":"BallofBandages","steam_id":76561198089817918,"connected_time":921000000000,"state":"active","ping":54}]},{"server_id":15,"name":"Uncletopia | New York City | 3 | Stopwatch Beta","name_short":"nyc-3","host":"nyc-1.us.uncletopia.com","port":27035,"enabled":true,"region":"us-east","cc":"us","latitude":40.73061,"longitude":-73.93524,"reserved":0,"last_update":"0001-01-01T00:00:00Z","name_a2s":"Uncletopia | New York City | 3 | Stopwatch Beta","protocol":17,"map":"workshop/koth_bagel_rc6.ugc2514036946","folder":"tf","game":"Team Fortress","app_id":440,"player_count":0,"max_players":24,"Bots":0,"server_type":"Dedicated","server_os":"Linux","password":true,"vac":true,"version":"7882260","steam_id":85568392924742820,"keywords":["cp","nocrits","nodmgspread","uncletopia"],"game_id":440,"stv_port":27036,"stv_name":"Uncletopia | New York City | 3 | Stopwatch Beta | STV","players":null},{"server_id":16,"name":"Uncletopia | New York City | 4 | Community","name_short":"nyc-4","host":"nyc-1.us.uncletopia.com","port":27045,"enabled":true,"region":"us-east","cc":"us","latitude":40.73061,"longitude":-73.93524,"reserved":0,"last_update":"0001-01-01T00:00:00Z","name_a2s":"Uncletopia | New York City | 4 | Community","protocol":17,"map":"workshop/pl_barnblitz_pro7.ugc582280235","folder":"tf","game":"Team Fortress","app_id":440,"player_count":24,"max_players":24,"Bots":0,"server_type":"Dedicated","server_os":"Linux","password":true,"vac":true,"version":"7882260","steam_id":85568392924742821,"keywords":["nocrits","nodmgspread","payload","uncletopia"],"game_id":440,"stv_port":27046,"stv_name":"Uncletopia | New York City | 4 | Community | STV","players":[{"user_id":109,"name":"NOM","steam_id":76561199059006203,"connected_time":1125000000000,"state":"active","ping":90},{"user_id":101,"name":"sad.mov","steam_id":76561198156746320,"connected_time":2045000000000,"state":"active","ping":62},{"user_id":122,"name":"Loleo","steam_id":76561198348132374,"connected_time":399000000000,"state":"active","ping":62},{"user_id":103,"name":"Xpiredd","steam_id":76561198449525437,"connected_time":1878000000000,"state":"active","ping":54},{"user_id":85,"name":"got me drip drip","steam_id":76561198000564263,"connected_time":3318000000000,"state":"active","ping":72},{"user_id":123,"name":"Combatspok","steam_id":76561197971598115,"connected_time":124000000000,"state":"active","ping":45},{"user_id":116,"name":"who is sandy loam???","steam_id":76561198033073709,"connected_time":997000000000,"state":"active","ping":46},{"user_id":120,"name":"zaza rizzington","steam_id":76561199187337967,"connected_time":655000000000,"state":"active","ping":66},{"user_id":95,"name":"Penis but it rhymes with Venice","steam_id":76561197986420836,"connected_time":2694000000000,"state":"active","ping":56},{"user_id":102,"name":"hashmap","steam_id":76561198043794014,"connected_time":1964000000000,"state":"active","ping":56},{"user_id":86,"name":"lanoc","steam_id":76561198055415367,"connected_time":3313000000000,"state":"active","ping":74},{"user_id":121,"name":"Who Am I?","steam_id":76561198098141967,"connected_time":650000000000,"state":"active","ping":121},{"user_id":112,"name":"CyMeryy","steam_id":76561197984986540,"connected_time":1098000000000,"state":"active","ping":129},{"user_id":61,"name":"Musica Universalis","steam_id":76561198184794174,"connected_time":4289000000000,"state":"active","ping":73},{"user_id":113,"name":"Warbler","steam_id":76561198132094572,"connected_time":1097000000000,"state":"active","ping":82},{"user_id":124,"name":"Ash","steam_id":76561199477460938,"connected_time":111000000000,"state":"active","ping":85},{"user_id":89,"name":"lost in spaaaaace","steam_id":76561199085974120,"connected_time":3172000000000,"state":"active","ping":58},{"user_id":108,"name":"CORGI.EXE","steam_id":76561198077093432,"connected_time":1270000000000,"state":"active","ping":47},{"user_id":114,"name":"bella.malle","steam_id":76561198839474877,"connected_time":1083000000000,"state":"active","ping":99},{"user_id":44,"name":"The Incredible Fem Boy","steam_id":76561198355754259,"connected_time":5334000000000,"state":"active","ping":66},{"user_id":100,"name":"cake","steam_id":76561198321802800,"connected_time":2359000000000,"state":"active","ping":62},{"user_id":46,"name":"Zixzs","steam_id":76561198055504126,"connected_time":5261000000000,"state":"active","ping":79},{"user_id":98,"name":"Cake Noddle","steam_id":76561198070072005,"connected_time":2554000000000,"state":"active","ping":163},{"user_id":115,"name":"Brooklyn","steam_id":76561199242737130,"connected_time":1074000000000,"state":"active","ping":75}]},{"server_id":142,"name":"Uncletopia | S√£o Paulo | 1 | All Maps","name_short":"sao-1","host":"sao-1.br.uncletopia.com","port":27015,"enabled":true,"region":"sa","cc":"br","latitude":-23.533773,"longitude":-46.62529,"reserved":0,"last_update":"0001-01-01T00:00:00Z","name_a2s":"Uncletopia | S√£o Paulo | 1 | All Maps","protocol":17,"map":"koth_lakeside_final","folder":"tf","game":"Team Fortress","app_id":440,"player_count":0,"max_players":24,"Bots":0,"server_type":"Dedicated","server_os":"Linux","password":true,"vac":true,"version":"7882260","steam_id":85568392924469996,"keywords":["cp","nocrits","nodmgspread","uncletopia"],"game_id":440,"stv_port":27016,"stv_name":"Uncletopia | S√£o Paulo | 1 | All Maps | STV","players":null},{"server_id":143,"name":"Uncletopia | S√£o Paulo | 2 | All Maps","name_short":"sao-2","host":"sao-2.br.uncletopia.com","port":27015,"enabled":true,"region":"sa","cc":"br","latitude":-23.533773,"longitude":-46.62529,"reserved":0,"last_update":"0001-01-01T00:00:00Z","name_a2s":"Uncletopia | S√£o Paulo | 2 | All Maps","protocol":17,"map":"pl_badwater","folder":"tf","game":"Team Fortress","app_id":440,"player_count":21,"max_players":24,"Bots":0,"server_type":"Dedicated","server_os":"Linux","password":true,"vac":true,"version":"7882260","steam_id":85568392924485349,"keywords":["nocrits","nodmgspread","payload","uncletopia"],"game_id":440,"stv_port":27016,"stv_name":"Uncletopia | S√£o Paulo | 2 | All Maps | STV","players":[{"user_id":152,"name":"Balofofinho","steam_id":76561199010366390,"connected_time":2621000000000,"state":"active","ping":74},{"user_id":151,"name":"Soffia la Notte","steam_id":76561198330474206,"connected_time":2850000000000,"state":"active","ping":75},{"user_id":182,"name":"Rex2.0","steam_id":76561198217672824,"connected_time":879000000000,"state":"active","ping":53},{"user_id":153,"name":"FIZA NOW","steam_id":76561199101122185,"connected_time":2612000000000,"state":"active","ping":63},{"user_id":169,"name":"vitor7993","steam_id":76561198435768174,"connected_time":1685000000000,"state":"active","ping":45},{"user_id":195,"name":"Ratchet55","steam_id":76561198208655521,"connected_time":40000000000,"state":"active","ping":238},{"user_id":176,"name":"degtyarev","steam_id":76561198348787458,"connected_time":1339000000000,"state":"active","ping":53},{"user_id":175,"name":"Polar","steam_id":76561198888597586,"connected_time":1371000000000,"state":"active","ping":78},{"user_id":130,"name":"zeiccia","steam_id":76561198316688969,"connected_time":4354000000000,"state":"active","ping":58},{"user_id":136,"name":"Torna-te S√°bio.","steam_id":76561198078377030,"connected_time":3900000000000,"state":"active","ping":118},{"user_id":138,"name":".fnord","steam_id":76561198119754613,"connected_time":3834000000000,"state":"active","ping":45},{"user_id":159,"name":"eDot","steam_id":76561199076298530,"connected_time":2324000000000,"state":"active","ping":54},{"user_id":189,"name":"el cr√≠tico random","steam_id":76561199273952274,"connected_time":409000000000,"state":"active","ping":182},{"user_id":170,"name":"Zeko","steam_id":76561198281769544,"connected_time":1615000000000,"state":"active","ping":91},{"user_id":94,"name":"Quoth","steam_id":76561198113465470,"connected_time":5876000000000,"state":"active","ping":43},{"user_id":171,"name":"Rick Astley Gaming","steam_id":76561199088485755,"connected_time":1546000000000,"state":"active","ping":85},{"user_id":164,"name":"Mig","steam_id":76561199160582392,"connected_time":2075000000000,"state":"active","ping":127},{"user_id":193,"name":"Volt_killer","steam_id":76561198859486607,"connected_time":249000000000,"state":"active","ping":190},{"user_id":177,"name":"Grunt420","steam_id":76561199407313140,"connected_time":1309000000000,"state":"active","ping":145},{"user_id":180,"name":"what dadog doin","steam_id":76561198097563747,"connected_time":1126000000000,"state":"active","ping":95},{"user_id":179,"name":"billmetalwork","steam_id":76561199222035084,"connected_time":1207000000000,"state":"active","ping":65}]},{"server_id":7,"name":"Uncletopia | Seattle | 1 | All Maps","name_short":"sea-1","host":"sea-1.us.uncletopia.com","port":27015,"enabled":true,"region":"us-west","cc":"us","latitude":47.608013,"longitude":-122.33517,"reserved":0,"last_update":"0001-01-01T00:00:00Z","name_a2s":"Uncletopia | Seattle | 1 | All Maps","protocol":17,"map":"pl_barnblitz","folder":"tf","game":"Team Fortress","app_id":440,"player_count":24,"max_players":24,"Bots":0,"server_type":"Dedicated","server_os":"Linux","password":true,"vac":true,"version":"7882260","steam_id":85568392924469997,"keywords":["nocrits","nodmgspread","payload","uncletopia"],"game_id":440,"stv_port":27016,"stv_name":"Uncletopia | Seattle | 1 | All Maps | STV","players":[{"user_id":372,"name":"Willem Dafoe","steam_id":76561198037453253,"connected_time":2022000000000,"state":"active","ping":114},{"user_id":390,"name":"El_Trasho","steam_id":76561199072457283,"connected_time":268000000000,"state":"active","ping":64},{"user_id":383,"name":"certified play-doh devourer","steam_id":76561199229848770,"connected_time":1209000000000,"state":"active","ping":52},{"user_id":356,"name":"Retroliar","steam_id":76561199004899484,"connected_time":2932000000000,"state":"active","ping":77},{"user_id":346,"name":"Big Yoshi","steam_id":76561199160576376,"connected_time":3804000000000,"state":"active","ping":90},{"user_id":380,"name":"Keamy","steam_id":76561199471434875,"connected_time":1353000000000,"state":"active","ping":41},{"user_id":247,"name":"soup","steam_id":76561198043209046,"connected_time":9657000000000,"state":"active","ping":75},{"user_id":385,"name":"blinkerton city","steam_id":76561198054270410,"connected_time":790000000000,"state":"active","ping":57},{"user_id":308,"name":"MegumiTame","steam_id":76561198450280686,"connected_time":6275000000000,"state":"active","ping":54},{"user_id":399,"name":"bloodbabe2","steam_id":76561199483227167,"connected_time":197000000000,"state":"active","ping":152},{"user_id":402,"name":"greens beans","steam_id":76561198153611491,"connected_time":146000000000,"state":"active","ping":44},{"user_id":393,"name":"DoctorBodacious","steam_id":76561198258784171,"connected_time":244000000000,"state":"active","ping":318},{"user_id":387,"name":"toes","steam_id":76561198221151676,"connected_time":424000000000,"state":"active","ping":57},{"user_id":401,"name":"doomshroom","steam_id":76561198092827250,"connected_time":188000000000,"state":"active","ping":56},{"user_id":395,"name":"ttv_shingo_is_live","steam_id":76561198998571073,"connected_time":224000000000,"state":"active","ping":71},{"user_id":396,"name":"bladees saddest, realest verse","steam_id":76561198098099826,"connected_time":221000000000,"state":"active","ping":89},{"user_id":334,"name":"Flesh Eating Turtle","steam_id":76561198116742139,"connected_time":4317000000000,"state":"active","ping":57},{"user_id":404,"name":"dust | she/it","steam_id":76561198045218909,"connected_time":55000000000,"state":"active","ping":47},{"user_id":337,"name":"DMAFGreatoverlordSchikonmaster","steam_id":76561198123510618,"connected_time":4142000000000,"state":"active","ping":68},{"user_id":364,"name":"Depths","steam_id":76561198343435310,"connected_time":2561000000000,"state":"active","ping":74},{"user_id":398,"name":"Hirochi","steam_id":76561198850339384,"connected_time":205000000000,"state":"active","ping":88},{"user_id":384,"name":"Fh","steam_id":76561198000903511,"connected_time":1012000000000,"state":"active","ping":72},{"user_id":378,"name":"Sumtingwong","steam_id":76561198154503584,"connected_time":1762000000000,"state":"active","ping":66},{"user_id":388,"name":"Luca","steam_id":76561198125087140,"connected_time":383000000000,"state":"active","ping":50}]},{"server_id":119,"name":"Uncletopia | Seattle | 2 | All Maps","name_short":"sea-2","host":"sea-1.us.uncletopia.com","port":27025,"enabled":true,"region":"us-west","cc":"us","latitude":47.608013,"longitude":-122.33517,"reserved":0,"last_update":"0001-01-01T00:00:00Z","name_a2s":"Uncletopia | Seattle | 2 | All Maps","protocol":17,"map":"pl_badwater","folder":"tf","game":"Team Fortress","app_id":440,"player_count":24,"max_players":24,"Bots":0,"server_type":"Dedicated","server_os":"Linux","password":true,"vac":true,"version":"7882260","steam_id":85568392924469998,"keywords":["nocrits","nodmgspread","payload","uncletopia"],"game_id":440,"stv_port":27026,"stv_name":"Uncletopia | Seattle | 2 | All Maps | STV","players":[{"user_id":226,"name":"plague doctor","steam_id":76561198348387126,"connected_time":1401000000000,"state":"active","ping":85},{"user_id":207,"name":"Real (real)","steam_id":76561199059653595,"connected_time":2459000000000,"state":"active","ping":51},{"user_id":240,"name":"WHERESMYTEAM oh right there","steam_id":76561198045964573,"connected_time":607000000000,"state":"active","ping":75},{"user_id":243,"name":"FiddyFoMike","steam_id":76561198057072581,"connected_time":292000000000,"state":"active","ping":61},{"user_id":165,"name":"Dunkle","steam_id":76561198041903573,"connected_time":6476000000000,"state":"active","ping":41},{"user_id":216,"name":"Finnedorb","steam_id":76561199057066957,"connected_time":2136000000000,"state":"active","ping":103},{"user_id":221,"name":"reiidaya","steam_id":76561198325306660,"connected_time":1891000000000,"state":"active","ping":52},{"user_id":203,"name":"Kipper","steam_id":76561198008515450,"connected_time":2880000000000,"state":"active","ping":77},{"user_id":225,"name":"Person","steam_id":76561198073885832,"connected_time":1535000000000,"state":"active","ping":94},{"user_id":163,"name":"Phoenix","steam_id":76561199465534945,"connected_time":6495000000000,"state":"active","ping":95},{"user_id":244,"name":"Number28","steam_id":76561198315018819,"connected_time":165000000000,"state":"active","ping":84},{"user_id":223,"name":"Banzai","steam_id":76561198196503877,"connected_time":1685000000000,"state":"active","ping":52},{"user_id":215,"name":"jacix3 [gay wolfgirl]{she/it}","steam_id":76561198205004165,"connected_time":2171000000000,"state":"active","ping":63},{"user_id":245,"name":"Strikerbolt","steam_id":76561199095622897,"connected_time":14000000000,"state":"active","ping":77},{"user_id":233,"name":"TripleHelix","steam_id":76561198175400991,"connected_time":1010000000000,"state":"active","ping":73},{"user_id":217,"name":"OHGODBEES!","steam_id":76561198000653374,"connected_time":2106000000000,"state":"active","ping":96},{"user_id":230,"name":"‚ô•Npenplz‚ô•","steam_id":76561197999605423,"connected_time":1063000000000,"state":"active","ping":84},{"user_id":234,"name":"Freyja","steam_id":76561198207412177,"connected_time":1006000000000,"state":"active","ping":76},{"user_id":224,"name":"motherofdragons96","steam_id":76561198864779097,"connected_time":1681000000000,"state":"active","ping":91},{"user_id":239,"name":"Nephi","steam_id":76561198031525122,"connected_time":760000000000,"state":"active","ping":128},{"user_id":235,"name":"Quack","steam_id":76561198288193793,"connected_time":1004000000000,"state":"active","ping":114},{"user_id":236,"name":"salty red","steam_id":76561199014145422,"connected_time":987000000000,"state":"active","ping":132},{"user_id":237,"name":"Gock","steam_id":76561198197045587,"connected_time":963000000000,"state":"active","ping":146},{"user_id":242,"name":"Shamrock Shake Oct.10.2020 @8pm","steam_id":76561198833313201,"connected_time":362000000000,"state":"active","ping":88}]},{"server_id":406,"name":"Uncletopia | Seattle | 3 | Stopwatch Beta","name_short":"sea-3","host":"sea-1.us.uncletopia.com","port":27035,"enabled":true,"region":"us-west","cc":"us","latitude":47.608013,"longitude":-122.33517,"reserved":0,"last_update":"0001-01-01T00:00:00Z","name_a2s":"Uncletopia | Seattle | 3 | Stopwatch Beta","protocol":17,"map":"workshop/koth_ashville_final.ugc2130459942","folder":"tf","game":"Team Fortress","app_id":440,"player_count":0,"max_players":24,"Bots":0,"server_type":"Dedicated","server_os":"Linux","password":true,"vac":true,"version":"7882260","steam_id":85568392924515217,"keywords":["cp","nocrits","nodmgspread","uncletopia"],"game_id":440,"stv_port":27036,"stv_name":"Uncletopia | Seattle | 3 | Stopwatch Beta | STV","players":null},{"server_id":17,"name":"Uncletopia | San Francisco | 1 | All Maps","name_short":"sfo-1","host":"sfo-1.us.uncletopia.com","port":27015,"enabled":true,"region":"us-west","cc":"us","latitude":37.77397,"longitude":-122.4313,"reserved":0,"last_update":"0001-01-01T00:00:00Z","name_a2s":"Uncletopia | San Francisco | 1 | All Maps","protocol":17,"map":"cp_process_final","folder":"tf","game":"Team Fortress","app_id":440,"player_count":0,"max_players":24,"Bots":0,"server_type":"Dedicated","server_os":"Linux","password":true,"vac":true,"version":"7757534","steam_id":85568392924469999,"keywords":["cp","nocrits","nodmgspread","uncletopia"],"game_id":440,"stv_port":27016,"stv_name":"Uncletopia | San Francisco | 1 | All Maps | STV","players":null},{"server_id":18,"name":"Uncletopia | San Francisco | 2 | All Maps","name_short":"sfo-2","host":"sfo-1.us.uncletopia.com","port":27025,"enabled":true,"region":"us-west","cc":"us","latitude":37.77397,"longitude":-122.4313,"reserved":0,"last_update":"0001-01-01T00:00:00Z","name_a2s":"Uncletopia | San Francisco | 2 | All Maps","protocol":17,"map":"koth_highpass","folder":"tf","game":"Team Fortress","app_id":440,"player_count":0,"max_players":24,"Bots":0,"server_type":"Dedicated","server_os":"Linux","password":true,"vac":true,"version":"7757534","steam_id":85568392924470000,"keywords":["cp","nocrits","nodmgspread","uncletopia"],"game_id":440,"stv_port":27026,"stv_name":"Uncletopia | San Francisco | 2 | All Maps | STV","players":null},{"server_id":19,"name":"Uncletopia | San Francisco | 3 | Stopwatch Beta","name_short":"sfo-3","host":"sfo-1.us.uncletopia.com","port":27035,"enabled":true,"region":"us-west","cc":"us","latitude":37.77397,"longitude":-122.4313,"reserved":0,"last_update":"0001-01-01T00:00:00Z","name_a2s":"Uncletopia | San Francisco | 3 | Stopwatch Beta","protocol":17,"map":"koth_lakeside_final","folder":"tf","game":"Team Fortress","app_id":440,"player_count":0,"max_players":24,"Bots":0,"server_type":"Dedicated","server_os":"Linux","password":true,"vac":true,"version":"7757534","steam_id":85568392924742824,"keywords":["cp","nocrits","nodmgspread","uncletopia"],"game_id":440,"stv_port":27036,"stv_name":"Uncletopia | San Francisco | 3 | Stopwatch Beta | STV","players":null},{"server_id":20,"name":"Uncletopia | San Francisco | 4 | Community","name_short":"sfo-4","host":"sfo-1.us.uncletopia.com","port":27045,"enabled":true,"region":"us-west","cc":"us","latitude":37.77397,"longitude":-122.4313,"reserved":0,"last_update":"0001-01-01T00:00:00Z","name_a2s":"Uncletopia | San Francisco | 4 | Community","protocol":17,"map":"cp_altitude","folder":"tf","game":"Team Fortress","app_id":440,"player_count":0,"max_players":24,"Bots":0,"server_type":"Dedicated","server_os":"Linux","password":true,"vac":true,"version":"7757534","steam_id":85568392924742826,"keywords":["cp","nocrits","nodmgspread","uncletopia"],"game_id":440,"stv_port":27046,"stv_name":"Uncletopia | San Francisco | 4 | Community | STV","players":null},{"server_id":141,"name":"Uncletopia | Sydney | 1 | All Maps","name_short":"syd-1","host":"syd-1.au.uncletopia.com","port":27015,"enabled":true,"region":"au","cc":"au","latitude":-33.865143,"longitude":151.2099,"reserved":0,"last_update":"0001-01-01T00:00:00Z","name_a2s":"Uncletopia | Sydney | 1 | All Maps","protocol":17,"map":"koth_highpass","folder":"tf","game":"Team Fortress","app_id":440,"player_count":0,"max_players":24,"Bots":0,"server_type":"Dedicated","server_os":"Linux","password":true,"vac":true,"version":"7882260","steam_id":85568392924470001,"keywords":["cp","nocrits","nodmgspread","uncletopia"],"game_id":440,"stv_port":27016,"stv_name":"Uncletopia | Sydney | 1 | All Maps | STV","players":null},{"server_id":123,"name":"Uncletopia | Sydney | 2 | All Maps","name_short":"syd-2","host":"syd-1.au.uncletopia.com","port":27025,"enabled":true,"region":"au","cc":"au","latitude":-33.865143,"longitude":151.2099,"reserved":0,"last_update":"0001-01-01T00:00:00Z","name_a2s":"Uncletopia | Sydney | 2 | All Maps","protocol":17,"map":"pl_barnblitz","folder":"tf","game":"Team Fortress","app_id":440,"player_count":0,"max_players":24,"Bots":0,"server_type":"Dedicated","server_os":"Linux","password":true,"vac":true,"version":"7882260","steam_id":85568392924470002,"keywords":["nocrits","nodmgspread","payload","uncletopia"],"game_id":440,"stv_port":27026,"stv_name":"Uncletopia | Sydney | 2 | All Maps | STV","players":null},{"server_id":395,"name":"Uncletopia | Sydney | 3 | All Maps","name_short":"syd-3","host":"syd-1.au.uncletopia.com","port":27035,"enabled":true,"region":"au","cc":"au","latitude":-33.865143,"longitude":151.2099,"reserved":0,"last_update":"0001-01-01T00:00:00Z","name_a2s":"Uncletopia | Sydney | 3 | All Maps","protocol":17,"map":"pl_badwater","folder":"tf","game":"Team Fortress","app_id":440,"player_count":0,"max_players":24,"Bots":0,"server_type":"Dedicated","server_os":"Linux","password":true,"vac":true,"version":"7882260","steam_id":85568392925194467,"keywords":["nocrits","nodmgspread","payload","uncletopia"],"game_id":440,"stv_port":27036,"stv_name":"Uncletopia | Sydney | 3 | All Maps | STV","players":null},{"server_id":396,"name":"Uncletopia | Sydney | 4 | All Maps","name_short":"syd-4","host":"syd-1.au.uncletopia.com","port":27045,"enabled":true,"region":"au","cc":"au","latitude":-33.865143,"longitude":151.2099,"reserved":0,"last_update":"0001-01-01T00:00:00Z","name_a2s":"Uncletopia | Sydney | 4 | All Maps","protocol":17,"map":"cp_dustbowl","folder":"tf","game":"Team Fortress","app_id":440,"player_count":0,"max_players":24,"Bots":0,"server_type":"Dedicated","server_os":"Linux","password":true,"vac":true,"version":"7882260","steam_id":85568392925397958,"keywords":["cp","nocrits","nodmgspread","uncletopia"],"game_id":440,"stv_port":27046,"stv_name":"Uncletopia | Sydney | 4 | All Maps | STV","players":null},{"server_id":58,"name":"Uncletopia | Sydney | 5 | Stopwatch Beta","name_short":"syd-5","host":"syd-1.au.uncletopia.com","port":27055,"enabled":true,"region":"au","cc":"au","latitude":-33.865143,"longitude":151.2099,"reserved":0,"last_update":"0001-01-01T00:00:00Z","name_a2s":"Uncletopia | Sydney | 5 | Stopwatch Beta","protocol":17,"map":"cp_snakewater_final1","folder":"tf","game":"Team Fortress","app_id":440,"player_count":0,"max_players":24,"Bots":0,"server_type":"Dedicated","server_os":"Linux","password":true,"vac":true,"version":"7882260","steam_id":85568392925397959,"keywords":["cp","nocrits","nodmgspread","uncletopia"],"game_id":440,"stv_port":27056,"stv_name":"Uncletopia | Sydney | 5 | Stopwatch Beta | STV","players":null},{"server_id":59,"name":"Uncletopia | Sydney | 6 | Community","name_short":"syd-6","host":"syd-1.au.uncletopia.com","port":27065,"enabled":true,"region":"au","cc":"au","latitude":-33.865143,"longitude":151.2099,"reserved":0,"last_update":"0001-01-01T00:00:00Z","name_a2s":"Uncletopia | Sydney | 6 | Community","protocol":17,"map":"pl_snowycoast","folder":"tf","game":"Team Fortress","app_id":440,"player_count":0,"max_players":24,"Bots":0,"server_type":"Dedicated","server_os":"Linux","password":true,"vac":true,"version":"7882260","steam_id":85568392925397960,"keywords":["nocrits","nodmgspread","payload","uncletopia"],"game_id":440,"stv_port":27066,"stv_name":"Uncletopia | Sydney | 6 | Community | STV","players":null},{"server_id":49,"name":"Uncletopia | Warsaw | 1 | All Maps","name_short":"waw-1","host":"waw-1.pl.uncletopia.com","port":27015,"enabled":true,"region":"eu","cc":"pl","latitude":52.2297,"longitude":21.017532,"reserved":0,"last_update":"0001-01-01T00:00:00Z","name_a2s":"","protocol":0,"map":"","folder":"","game":"","app_id":0,"player_count":0,"max_players":0,"Bots":0,"server_type":"","server_os":"","password":false,"vac":false,"version":"","steam_id":0,"keywords":null,"game_id":0,"stv_port":0,"stv_name":"","players":null},{"server_id":50,"name":"Uncletopia | Warsaw | 2 | All Maps","name_short":"waw-2","host":"waw-1.pl.uncletopia.com","port":27025,"enabled":true,"region":"eu","cc":"pl","latitude":52.2297,"longitude":21.017532,"reserved":0,"last_update":"0001-01-01T00:00:00Z","name_a2s":"Uncletopia | Warsaw | 2 | All Maps","protocol":17,"map":"koth_cascade","folder":"tf","game":"Team Fortress","app_id":440,"player_count":0,"max_players":24,"Bots":0,"server_type":"Dedicated","server_os":"Linux","password":true,"vac":true,"version":"7882260","steam_id":85568392925397851,"keywords":["cp","nocrits","nodmgspread","uncletopia"],"game_id":440,"stv_port":27026,"stv_name":"Uncletopia | Warsaw | 2 | All Maps | STV","players":null},{"server_id":51,"name":"Uncletopia | Warsaw | 3 | All Maps","name_short":"waw-3","host":"waw-1.pl.uncletopia.com","port":27035,"enabled":true,"region":"eu","cc":"pl","latitude":52.2297,"longitude":21.017532,"reserved":0,"last_update":"0001-01-01T00:00:00Z","name_a2s":"Uncletopia | Warsaw | 3 | All Maps","protocol":17,"map":"pl_frontier_final","folder":"tf","game":"Team Fortress","app_id":440,"player_count":0,"max_players":24,"Bots":0,"server_type":"Dedicated","server_os":"Linux","password":true,"vac":true,"version":"7882260","steam_id":85568392925397852,"keywords":["nocrits","nodmgspread","payload","uncletopia"],"game_id":440,"stv_port":27036,"stv_name":"Uncletopia | Warsaw | 3 | All Maps | STV","players":null},{"server_id":52,"name":"Uncletopia | Warsaw | 4 | All Maps","name_short":"waw-4","host":"waw-1.pl.uncletopia.com","port":27045,"enabled":true,"region":"eu","cc":"pl","latitude":52.2297,"longitude":21.017532,"reserved":0,"last_update":"0001-01-01T00:00:00Z","name_a2s":"Uncletopia | Warsaw | 4 | All Maps","protocol":17,"map":"pl_frontier_final","folder":"tf","game":"Team Fortress","app_id":440,"player_count":0,"max_players":24,"Bots":0,"server_type":"Dedicated","server_os":"Linux","password":true,"vac":true,"version":"7882260","steam_id":85568392925397853,"keywords":["nocrits","nodmgspread","payload","uncletopia"],"game_id":440,"stv_port":27046,"stv_name":"Uncletopia | Warsaw | 4 | All Maps | STV","players":null},{"server_id":53,"name":"Uncletopia | Warsaw | 5 | Stopwatch Beta","name_short":"waw-5","host":"waw-1.pl.uncletopia.com","port":27055,"enabled":true,"region":"eu","cc":"pl","latitude":52.2297,"longitude":21.017532,"reserved":0,"last_update":"0001-01-01T00:00:00Z","name_a2s":"Uncletopia | Warsaw | 5 | Stopwatch Beta","protocol":17,"map":"workshop/koth_bagel_rc6.ugc2514036946","folder":"tf","game":"Team Fortress","app_id":440,"player_count":0,"max_players":24,"Bots":0,"server_type":"Dedicated","server_os":"Linux","password":true,"vac":true,"version":"7882260","steam_id":85568392925397854,"keywords":["cp","nocrits","nodmgspread","uncletopia"],"game_id":440,"stv_port":27056,"stv_name":"Uncletopia | Warsaw | 5 | Stopwatch Beta | STV","players":null},{"server_id":54,"name":"Uncletopia | Warsaw | 6 | Community","name_short":"waw-6","host":"waw-1.pl.uncletopia.com","port":27065,"enabled":true,"region":"eu","cc":"pl","latitude":52.2297,"longitude":21.017532,"reserved":0,"last_update":"0001-01-01T00:00:00Z","name_a2s":"Uncletopia | Warsaw | 6 | Community","protocol":17,"map":"workshop/koth_bagel_rc6.ugc2514036946","folder":"tf","game":"Team Fortress","app_id":440,"player_count":0,"max_players":24,"Bots":0,"server_type":"Dedicated","server_os":"Linux","password":true,"vac":true,"version":"7882260","steam_id":85568392925397856,"keywords":["cp","nocrits","nodmgspread","uncletopia"],"game_id":440,"stv_port":27066,"stv_name":"Uncletopia | Warsaw | 6 | Community | STV","players":null}]}