{"status":true,"message":"","result":[{"server_id":9,"name":"Uncletopia | Atlanta | 1 | All Maps","name_short":"atl-1","host":"atl-1.us.uncletopia.com","port":27015,"enabled":true,"region":"us-east","cc":"us","latitude":33.753746,"longitude":-84.38633,"reserved":0,"last_update":"0001-01-01T00:00:00Z","name_a2s":"Uncletopia | Atlanta | 1 | All Maps","protocol":17,"map":"pl_borneo","folder":"tf","game":"Team Fortress","app_id":440,"player_count":24,"max_players":24,"Bots":0,"server_type":"Dedicated","server_os":"Linux","password":true,"vac":true,"version":"7961495","steam_id":85568392924469982,"keywords":["nocrits","nodmgspread","payload","uncletopia"],"game_id":440,"stv_port":27016,"stv_name":"Uncletopia | Atlanta | 1 | All Maps | STV","players":[{"user_id":499,"name":"Xavibite","steam_id":76561198209380493,"connected_time":9443000000000,"state":"active","ping":60},{"user_id":538,"name":"mangokip","steam_id":76561198156471516,"connected_time":4795000000000,"state":"active","ping":45},{"user_id":516,"name":"Rat","steam_id":76561198137925582,"connected_time":7632000000000,"state":"active","ping":70},{"user_id":561,"name":"Ligh3t","steam_id":76561198179178533,"connected_time":1660000000000,"state":"active","ping":86},{"user_id":564,"name":"Engineer2650","steam_id":76561198121410799,"connected_time":853000000000,"state":"active","ping":75},{"user_id":542,"name":"com lag","steam_id":76561198019019392,"connected_time":4760000000000,"state":"active","ping":74},{"user_id":557,"name":"Aniz","steam_id":76561199226665024,"connected_time":2416000000000,"state":"active","ping":123},{"user_id":556,"name":"Le4n!!!","steam_id":76561198045522596,"connected_time":2445000000000,"state":"active","ping":72},{"user_id":509,"name":"Maestro","steam_id":76561198157325020,"connected_time":8029000000000,"state":"active","ping":60},{"user_id":560,"name":"Pharaxer‚Ñ¢","steam_id":76561198051236069,"connected_time":2003000000000,"state":"active","ping":157},{"user_id":555,"name":"Willly the WHALE","steam_id":76561198927517471,"connected_time":2455000000000,"state":"active","ping":56},{"user_id":550,"name":"Tay1Qr","steam_id":76561198082809935,"connected_time":3588000000000,"state":"active","ping":60},{"user_id":533,"name":"bkiller","steam_id":76561198029265697,"connected_time":5750000000000,"state":"active","ping":79},{"user_id":563,"name":"Wingm4n","steam_id":76561198064127012,"connected_time":913000000000,"state":"active","ping":46},{"user_id":552,"name":"Ghetto Smosh Fan","steam_id":76561198097272509,"connected_time":2559000000000,"state":"active","ping":39},{"user_id":518,"name":"ATL1 | to4st","steam_id":76561198981009008,"connected_time":7630000000000,"state":"active","ping":73},{"user_id":566,"name":"Equinox","steam_id":76561198274279754,"connected_time":498000000000,"state":"active","ping":102},{"user_id":527,"name":"lil hog","steam_id":76561199230929836,"connected_time":6681000000000,"state":"active","ping":87},{"user_id":565,"name":"nerf me","steam_id":76561198310495200,"connected_time":826000000000,"state":"active","ping":72},{"user_id":549,"name":"BreatheWater","steam_id":76561199066460803,"connected_time":3698000000000,"state":"active","ping":93},{"user_id":551,"name":"Valenhart","steam_id":76561198354036240,"connected_time":2686000000000,"state":"active","ping":69},{"user_id":541,"name":"kite","steam_id":76561198346516392,"connected_time":4784000000000,"state":"active","ping":81},{"user_id":554,"name":"Oddball","steam_id":76561198040440984,"connected_time":2543000000000,"state":"active","ping":88},{"user_id":531,"name":"Im High","steam_id":76561198049954886,"connected_time":6222000000000,"state":"active","ping":80}]},{"server_id":104,"name":"Uncletopia | Atlanta | 2 | All Maps","name_short":"atl-2","host":"atl-1.us.uncletopia.com","port":27025,"enabled":true,"region":"us-east","cc":"us","latitude":33.753746,"longitude":-84.38633,"reserved":0,"last_update":"0001-01-01T00:00:00Z","name_a2s":"Uncletopia | Atlanta | 2 | All Maps","protocol":17,"map":"pl_pier","folder":"tf","game":"Team Fortress","app_id":440,"player_count":23,"max_players":24,"Bots":0,"server_type":"Dedicated","server_os":"Linux","password":true,"vac":true,"version":"7961495","steam_id":85568392924469983,"keywords":["nocrits","nodmgspread","payload","uncletopia"],"game_id":440,"stv_port":27026,"stv_name":"Uncletopia | Atlanta | 2 | All Maps | STV","players":[{"user_id":794,"name":"Yoru","steam_id":76561198119698950,"connected_time":30000000000,"state":"active","ping":113},{"user_id":750,"name":"Mr. Luggy","steam_id":76561198072723392,"connected_time":3191000000000,"state":"active","ping":87},{"user_id":779,"name":"Chris Duo","steam_id":76561198312765677,"connected_time":781000000000,"state":"active","ping":58},{"user_id":791,"name":":3","steam_id":76561198077449460,"connected_time":219000000000,"state":"active","ping":80},{"user_id":710,"name":"Download a car","steam_id":76561198027174998,"connected_time":6322000000000,"state":"active","ping":84},{"user_id":684,"name":"MeMyBongusAndTheGreatOutdoors","steam_id":76561198097708978,"connected_time":8736000000000,"state":"active","ping":68},{"user_id":761,"name":"wise","steam_id":76561198030066204,"connected_time":2681000000000,"state":"active","ping":56},{"user_id":763,"name":"DethSQRL","steam_id":76561199149628610,"connected_time":2424000000000,"state":"active","ping":71},{"user_id":768,"name":"Metbol","steam_id":76561198001362410,"connected_time":1746000000000,"state":"active","ping":84},{"user_id":781,"name":"Mengle","steam_id":76561198001953684,"connected_time":487000000000,"state":"active","ping":83},{"user_id":780,"name":"Bleok","steam_id":76561198078212322,"connected_time":761000000000,"state":"active","ping":106},{"user_id":782,"name":"gmaay","steam_id":76561199104911185,"connected_time":472000000000,"state":"active","ping":69},{"user_id":783,"name":"BitPieStudios","steam_id":76561198059216393,"connected_time":449000000000,"state":"active","ping":103},{"user_id":784,"name":"the voices are winning","steam_id":76561199007483227,"connected_time":426000000000,"state":"active","ping":85},{"user_id":790,"name":"RollingCow","steam_id":76561198067114237,"connected_time":285000000000,"state":"active","ping":84},{"user_id":733,"name":"illious","steam_id":76561198169925494,"connected_time":4493000000000,"state":"active","ping":63},{"user_id":786,"name":"friendlyfred27","steam_id":76561198144673121,"connected_time":409000000000,"state":"active","ping":79},{"user_id":759,"name":"Shystie","steam_id":76561198025371440,"connected_time":2829000000000,"state":"active","ping":101},{"user_id":792,"name":"Barry Chopsticks","steam_id":76561198185241418,"connected_time":186000000000,"state":"active","ping":63},{"user_id":788,"name":"`o2","steam_id":76561197992030936,"connected_time":390000000000,"state":"active","ping":61},{"user_id":789,"name":"GimliLOTR","steam_id":76561198163746000,"connected_time":364000000000,"state":"active","ping":71},{"user_id":749,"name":"my monitor is off","steam_id":76561198148905570,"connected_time":3298000000000,"state":"active","ping":65},{"user_id":777,"name":"pocket medic","steam_id":76561198145320480,"connected_time":894000000000,"state":"active","ping":90}]},{"server_id":400,"name":"Uncletopia | Atlanta | 3 | Stopwatch","name_short":"atl-3","host":"atl-1.us.uncletopia.com","port":27035,"enabled":true,"region":"us-east","cc":"us","latitude":33.753746,"longitude":-84.38633,"reserved":0,"last_update":"0001-01-01T00:00:00Z","name_a2s":"Uncletopia | Atlanta | 3 | Stopwatch","protocol":17,"map":"cp_process_final","folder":"tf","game":"Team Fortress","app_id":440,"player_count":0,"max_players":24,"Bots":0,"server_type":"Dedicated","server_os":"Linux","password":true,"vac":true,"version":"7961495","steam_id":85568392924515187,"keywords":["cp","nocrits","nodmgspread","uncletopia"],"game_id":440,"stv_port":27036,"stv_name":"Uncletopia | Atlanta | 3 | Stopwatch | STV","players":null},{"server_id":401,"name":"Uncletopia | Atlanta | 4 | Community","name_short":"atl-4","host":"atl-1.us.uncletopia.com","port":27045,"enabled":true,"region":"us-east","cc":"us","latitude":33.753746,"longitude":-84.38633,"reserved":0,"last_update":"0001-01-01T00:00:00Z","name_a2s":"Uncletopia | Atlanta | 4 | Community","protocol":17,"map":"workshop/pl_shoreleave_rc2.ugc1238849347","folder":"tf","game":"Team Fortress","app_id":440,"player_count":0,"max_players":24,"Bots":0,"server_type":"Dedicated","server_os":"Linux","password":true,"vac":true,"version":"7961495","steam_id":85568392924515188,"keywords":["nocrits","nodmgspread","payload","uncletopia"],"game_id":440,"stv_port":27046,"stv_name":"Uncletopia | Atlanta | 4 | Community | STV","players":null},{"server_id":2,"name":"Uncletopia | Chicago | 1 | All Maps","name_short":"chi-1","host":"chi-1.us.uncletopia.com","port":27015,"enabled":true,"region":"us-central","cc":"us","latitude":41.881832,"longitude":-87.62318,"reserved":0,"last_update":"0001-01-01T00:00:00Z","name_a2s":"Uncletopia | Chicago | 1 | All Maps","protocol":17,"map":"pl_snowycoast","folder":"tf","game":"Team Fortress","app_id":440,"player_count":24,"max_players":24,"Bots":0,"server_type":"Dedicated","server_os":"Linux","password":true,"vac":true,"version":"7961495","steam_id":85568392924469984,"keywords":["nocrits","nodmgspread","payload","uncletopia"],"game_id":440,"stv_port":27016,"stv_name":"Uncletopia | Chicago | 1 | All Maps | STV","players":[{"user_id":706,"name":"Wonderwall","steam_id":76561198080757197,"connected_time":610000000000,"state":"active","ping":91},{"user_id":698,"name":"Baka!‚ë®‚ë®‚ë®‚ë®","steam_id":76561198152948254,"connected_time":2015000000000,"state":"active","ping":61},{"user_id":670,"name":"cotton candy testament","steam_id":76561198058998371,"connected_time":3005000000000,"state":"active","ping":70},{"user_id":707,"name":"Hogman","steam_id":76561198088935064,"connected_time":583000000000,"state":"active","ping":104},{"user_id":704,"name":"wetto","steam_id":76561198224811504,"connected_time":1116000000000,"state":"active","ping":60},{"user_id":508,"name":"vga cable","steam_id":76561198217402847,"connected_time":7971000000000,"state":"active","ping":105},{"user_id":690,"name":"Captain Crunch","steam_id":76561199141538581,"connected_time":2554000000000,"state":"active","ping":115},{"user_id":697,"name":"Kola ‚úß","steam_id":76561198049995341,"connected_time":2019000000000,"state":"active","ping":64},{"user_id":699,"name":"The_Man","steam_id":76561199194890696,"connected_time":2010000000000,"state":"active","ping":83},{"user_id":708,"name":"babylon","steam_id":76561198170642407,"connected_time":556000000000,"state":"active","ping":75},{"user_id":664,"name":"agless","steam_id":76561198045248344,"connected_time":4923000000000,"state":"active","ping":59},{"user_id":695,"name":"Nexusuxen","steam_id":76561198117547131,"connected_time":2391000000000,"state":"active","ping":72},{"user_id":673,"name":"Butteryback","steam_id":76561198049642485,"connected_time":2982000000000,"state":"active","ping":59},{"user_id":701,"name":"SandHanitizer","steam_id":76561198234676500,"connected_time":1986000000000,"state":"active","ping":77},{"user_id":705,"name":"Kilphax","steam_id":76561197993814144,"connected_time":805000000000,"state":"active","ping":59},{"user_id":507,"name":"‡∏∏","steam_id":76561198170624701,"connected_time":8030000000000,"state":"active","ping":83},{"user_id":696,"name":"‚∏∏ gaige ‚õß","steam_id":76561198090576796,"connected_time":2025000000000,"state":"active","ping":57},{"user_id":709,"name":"Stapler","steam_id":76561198099295077,"connected_time":552000000000,"state":"active","ping":101},{"user_id":710,"name":"black tar estrogen","steam_id":76561198043911582,"connected_time":549000000000,"state":"active","ping":60},{"user_id":711,"name":"Private Sloppy","steam_id":76561198019861196,"connected_time":547000000000,"state":"active","ping":70},{"user_id":459,"name":"loser","steam_id":76561198259380127,"connected_time":12556000000000,"state":"active","ping":54},{"user_id":691,"name":"player4","steam_id":76561197985140870,"connected_time":2505000000000,"state":"active","ping":114},{"user_id":512,"name":"lobster","steam_id":76561198147417707,"connected_time":7539000000000,"state":"active","ping":84},{"user_id":671,"name":"dunk","steam_id":76561198132476501,"connected_time":2997000000000,"state":"active","ping":56}]},{"server_id":106,"name":"Uncletopia | Chicago | 2 | All Maps","name_short":"chi-2","host":"chi-1.us.uncletopia.com","port":27025,"enabled":true,"region":"us-central","cc":"us","latitude":41.881832,"longitude":-87.62318,"reserved":0,"last_update":"0001-01-01T00:00:00Z","name_a2s":"Uncletopia | Chicago | 2 | All Maps","protocol":17,"map":"koth_harvest_final","folder":"tf","game":"Team Fortress","app_id":440,"player_count":20,"max_players":24,"Bots":0,"server_type":"Dedicated","server_os":"Linux","password":true,"vac":true,"version":"7961495","steam_id":85568392924469985,"keywords":["cp","nocrits","nodmgspread","uncletopia"],"game_id":440,"stv_port":27026,"stv_name":"Uncletopia | Chicago | 2 | All Maps | STV","players":[{"user_id":294,"name":"Fightin Cow","steam_id":76561198080941486,"connected_time":1682000000000,"state":"active","ping":79},{"user_id":301,"name":"quadraspazzed on a lifeglug","steam_id":76561198025514255,"connected_time":1378000000000,"state":"active","ping":71},{"user_id":248,"name":"Jambo","steam_id":76561198281754022,"connected_time":4080000000000,"state":"active","ping":47},{"user_id":306,"name":"Reed the Flame Shadow","steam_id":76561198348354629,"connected_time":1136000000000,"state":"active","ping":97},{"user_id":249,"name":"Goblin","steam_id":76561198338245497,"connected_time":4057000000000,"state":"active","ping":49},{"user_id":313,"name":"Lost","steam_id":76561198025933206,"connected_time":53000000000,"state":"active","ping":54},{"user_id":314,"name":"pontiff #zenmode","steam_id":76561198304265800,"connected_time":21000000000,"state":"active","ping":83},{"user_id":283,"name":"KYLE KYLESON","steam_id":76561198021920887,"connected_time":2597000000000,"state":"active","ping":31},{"user_id":308,"name":"My hands are cold","steam_id":76561198029216569,"connected_time":418000000000,"state":"active","ping":65},{"user_id":254,"name":"Some_Arse","steam_id":76561198039095394,"connected_time":3907000000000,"state":"active","ping":63},{"user_id":270,"name":"TheWorstSpeedRunner","steam_id":76561199075273861,"connected_time":3116000000000,"state":"active","ping":70},{"user_id":271,"name":"Space Lizard","steam_id":76561198056798193,"connected_time":3071000000000,"state":"active","ping":72},{"user_id":284,"name":"pipebombrater","steam_id":76561199029030831,"connected_time":2585000000000,"state":"active","ping":77},{"user_id":311,"name":"rabbitactual","steam_id":76561198091791089,"connected_time":111000000000,"state":"active","ping":34},{"user_id":285,"name":"üçíbutaüçí","steam_id":76561198135538212,"connected_time":2581000000000,"state":"active","ping":47},{"user_id":309,"name":"Salt Dragon","steam_id":76561198331207987,"connected_time":363000000000,"state":"spawning","ping":47},{"user_id":278,"name":"Jest","steam_id":76561198170173062,"connected_time":2923000000000,"state":"active","ping":103},{"user_id":307,"name":"sedna24","steam_id":76561198310789338,"connected_time":425000000000,"state":"active","ping":102},{"user_id":310,"name":"GiraffeMan","steam_id":76561198042104084,"connected_time":299000000000,"state":"active","ping":70},{"user_id":305,"name":"Ace Chromatica","steam_id":76561198042211131,"connected_time":1230000000000,"state":"active","ping":70}]},{"server_id":402,"name":"Uncletopia | Chicago | 3 | All Maps","name_short":"chi-3","host":"chi-1.us.uncletopia.com","port":27035,"enabled":true,"region":"us-central","cc":"us","latitude":41.881832,"longitude":-87.62318,"reserved":0,"last_update":"0001-01-01T00:00:00Z","name_a2s":"Uncletopia | Chicago | 3 | All Maps","protocol":17,"map":"pl_borneo","folder":"tf","game":"Team Fortress","app_id":440,"player_count":12,"max_players":24,"Bots":0,"server_type":"Dedicated","server_os":"Linux","password":true,"vac":true,"version":"7961495","steam_id":85568392924515191,"keywords":["nocrits","nodmgspread","payload","uncletopia"],"game_id":440,"stv_port":27036,"stv_name":"Uncletopia | Chicago | 3 | All Maps | STV","players":[{"user_id":435,"name":"psi","steam_id":76561198061497429,"connected_time":2610000000000,"state":"active","ping":59},{"user_id":444,"name":"crookedspinalcord","steam_id":76561198833269144,"connected_time":1267000000000,"state":"active","ping":68},{"user_id":466,"name":"joyeuxnoelle","steam_id":76561198062423120,"connected_time":441000000000,"state":"active","ping":68},{"user_id":448,"name":"Cthulhu's Malewife","steam_id":76561198085888959,"connected_time":1019000000000,"state":"active","ping":52},{"user_id":447,"name":"INP","steam_id":76561198097879637,"connected_time":1049000000000,"state":"active","ping":48},{"user_id":468,"name":"TTV/YT hunter","steam_id":76561198115812405,"connected_time":343000000000,"state":"active","ping":74},{"user_id":407,"name":"Get Fucked","steam_id":76561198043797702,"connected_time":4877000000000,"state":"active","ping":60},{"user_id":470,"name":"Mr.Silver","steam_id":76561198156382508,"connected_time":192000000000,"state":"connecting","ping":0},{"user_id":471,"name":"Vaude","steam_id":76561198369187511,"connected_time":51000000000,"state":"active","ping":69},{"user_id":453,"name":"basilberry","steam_id":76561198145275937,"connected_time":920000000000,"state":"active","ping":89},{"user_id":454,"name":"lesbian jolyne cujoh","steam_id":76561198988918229,"connected_time":882000000000,"state":"active","ping":82},{"user_id":419,"name":"trackball triops","steam_id":76561198059041027,"connected_time":3546000000000,"state":"active","ping":101}]},{"server_id":403,"name":"Uncletopia | Chicago | 4 | All Maps","name_short":"chi-4","host":"chi-1.us.uncletopia.com","port":27045,"enabled":true,"region":"us-central","cc":"us","latitude":41.881832,"longitude":-87.62318,"reserved":0,"last_update":"0001-01-01T00:00:00Z","name_a2s":"Uncletopia | Chicago | 4 | All Maps","protocol":17,"map":"pl_frontier_final","folder":"tf","game":"Team Fortress","app_id":440,"player_count":24,"max_players":24,"Bots":0,"server_type":"Dedicated","server_os":"Linux","password":true,"vac":true,"version":"7961495","steam_id":85568392924515193,"keywords":["nocrits","nodmgspread","payload","uncletopia"],"game_id":440,"stv_port":27046,"stv_name":"Uncletopia | Chicago | 4 | All Maps | STV","players":[{"user_id":585,"name":"wiiblob","steam_id":76561198109106242,"connected_time":844000000000,"state":"active","ping":124},{"user_id":562,"name":"Cheese","steam_id":76561199207081299,"connected_time":2751000000000,"state":"active","ping":96},{"user_id":586,"name":"Phee","steam_id":76561198014317211,"connected_time":812000000000,"state":"active","ping":160},{"user_id":531,"name":"Reaganomics","steam_id":76561199106877333,"connected_time":4441000000000,"state":"active","ping":106},{"user_id":544,"name":"gps","steam_id":76561198067492304,"connected_time":4023000000000,"state":"active","ping":80},{"user_id":533,"name":"JakeK","steam_id":76561198149375504,"connected_time":4331000000000,"state":"active","ping":67},{"user_id":582,"name":"Drapph","steam_id":76561199384213314,"connected_time":1184000000000,"state":"active","ping":66},{"user_id":563,"name":"It's pronounced GIF.","steam_id":76561197993151595,"connected_time":2742000000000,"state":"active","ping":69},{"user_id":497,"name":"Dragus","steam_id":76561198032967285,"connected_time":6352000000000,"state":"active","ping":45},{"user_id":572,"name":"Headshotsnake","steam_id":76561198067130248,"connected_time":2067000000000,"state":"active","ping":50},{"user_id":578,"name":"astrobob911","steam_id":76561199099110654,"connected_time":1648000000000,"state":"active","ping":77},{"user_id":576,"name":"clavin_","steam_id":76561198046398447,"connected_time":1740000000000,"state":"active","ping":60},{"user_id":569,"name":"Poyo Boyo","steam_id":76561198010201227,"connected_time":2200000000000,"state":"active","ping":72},{"user_id":570,"name":"Protato","steam_id":76561198061182563,"connected_time":2147000000000,"state":"active","ping":77},{"user_id":580,"name":"Shoeshocker","steam_id":76561198174302467,"connected_time":1519000000000,"state":"active","ping":100},{"user_id":571,"name":"Sauce","steam_id":76561198398722419,"connected_time":2123000000000,"state":"active","ping":96},{"user_id":567,"name":"El Dorito","steam_id":76561198044544789,"connected_time":2465000000000,"state":"active","ping":67},{"user_id":587,"name":"Wallem","steam_id":76561198052361822,"connected_time":540000000000,"state":"active","ping":78},{"user_id":588,"name":"King De","steam_id":76561198194427422,"connected_time":520000000000,"state":"active","ping":65},{"user_id":577,"name":"kookiestkookaburra","steam_id":76561197972601902,"connected_time":1719000000000,"state":"active","ping":117},{"user_id":515,"name":"dog","steam_id":76561198263873491,"connected_time":5469000000000,"state":"active","ping":49},{"user_id":584,"name":"on that zaza?","steam_id":76561198038713198,"connected_time":1103000000000,"state":"active","ping":64},{"user_id":560,"name":"Metal Witch","steam_id":76561198138560080,"connected_time":3104000000000,"state":"active","ping":94},{"user_id":542,"name":"Sonico167","steam_id":76561199135588265,"connected_time":4176000000000,"state":"active","ping":56}]},{"server_id":36,"name":"Uncletopia | Chicago | 5 | All Maps","name_short":"chi-5","host":"chi-2.us.uncletopia.com","port":27015,"enabled":true,"region":"us-central","cc":"us","latitude":41.881832,"longitude":-87.62318,"reserved":0,"last_update":"0001-01-01T00:00:00Z","name_a2s":"Uncletopia | Chicago | 5 | All Maps","protocol":17,"map":"pl_pier","folder":"tf","game":"Team Fortress","app_id":440,"player_count":24,"max_players":24,"Bots":0,"server_type":"Dedicated","server_os":"Linux","password":true,"vac":true,"version":"7961495","steam_id":85568392924866362,"keywords":["nocrits","nodmgspread","payload","uncletopia"],"game_id":440,"stv_port":27016,"stv_name":"Uncletopia | Chicago | 5 | All Maps | STV","players":[{"user_id":286,"name":"Autizmo_08","steam_id":76561199130339892,"connected_time":2117000000000,"state":"active","ping":64},{"user_id":243,"name":"Ninetees","steam_id":76561198119483989,"connected_time":6330000000000,"state":"active","ping":82},{"user_id":287,"name":"Ze_√úber_Nerd","steam_id":76561198091148675,"connected_time":1972000000000,"state":"active","ping":69},{"user_id":288,"name":"StudioMania (#SAVETF2)","steam_id":76561198211315795,"connected_time":1935000000000,"state":"active","ping":67},{"user_id":301,"name":"Synergy","steam_id":76561198098630198,"connected_time":866000000000,"state":"active","ping":101},{"user_id":258,"name":"Obersteuermann","steam_id":76561198044468707,"connected_time":4948000000000,"state":"active","ping":100},{"user_id":300,"name":"Scribble","steam_id":76561198046115675,"connected_time":949000000000,"state":"active","ping":74},{"user_id":306,"name":"Bad Hombre","steam_id":76561198046559176,"connected_time":419000000000,"state":"active","ping":50},{"user_id":274,"name":"squart guy","steam_id":76561199411560141,"connected_time":4017000000000,"state":"active","ping":94},{"user_id":307,"name":"slep.py","steam_id":76561197988287144,"connected_time":267000000000,"state":"active","ping":58},{"user_id":253,"name":"Chickenhalf21","steam_id":76561198966588372,"connected_time":5366000000000,"state":"active","ping":66},{"user_id":298,"name":"poggerchamp","steam_id":76561199145124973,"connected_time":1147000000000,"state":"active","ping":82},{"user_id":291,"name":"Skyline","steam_id":76561198018382060,"connected_time":1513000000000,"state":"active","ping":57},{"user_id":292,"name":"Steve Jobs' cousin Hand Jobs","steam_id":76561198282766831,"connected_time":1494000000000,"state":"active","ping":50},{"user_id":293,"name":"kritik","steam_id":76561198075216115,"connected_time":1425000000000,"state":"active","ping":145},{"user_id":294,"name":"Btalsin","steam_id":76561199364352461,"connected_time":1397000000000,"state":"active","ping":85},{"user_id":237,"name":"c00kie","steam_id":76561198418178297,"connected_time":6795000000000,"state":"active","ping":56},{"user_id":295,"name":"MantisToboggan","steam_id":76561197969447887,"connected_time":1382000000000,"state":"active","ping":159},{"user_id":302,"name":"WILDF1RE","steam_id":76561198050098483,"connected_time":838000000000,"state":"active","ping":87},{"user_id":247,"name":"‚òëJuanaco is dead","steam_id":76561198029895630,"connected_time":6302000000000,"state":"active","ping":82},{"user_id":305,"name":"gamerlegend47","steam_id":76561198122776598,"connected_time":636000000000,"state":"active","ping":76},{"user_id":304,"name":"OrangeSodaMachine","steam_id":76561198079230156,"connected_time":775000000000,"state":"active","ping":106},{"user_id":308,"name":"lianna la havas","steam_id":76561198280093539,"connected_time":253000000000,"state":"active","ping":59},{"user_id":236,"name":"graham crackr","steam_id":76561199072720886,"connected_time":6957000000000,"state":"active","ping":68}]},{"server_id":37,"name":"Uncletopia | Chicago | 6 | All Maps","name_short":"chi-6","host":"chi-2.us.uncletopia.com","port":27025,"enabled":true,"region":"us-central","cc":"us","latitude":41.881832,"longitude":-87.62318,"reserved":0,"last_update":"0001-01-01T00:00:00Z","name_a2s":"Uncletopia | Chicago | 6 | All Maps","protocol":17,"map":"koth_highpass","folder":"tf","game":"Team Fortress","app_id":440,"player_count":0,"max_players":24,"Bots":0,"server_type":"Dedicated","server_os":"Linux","password":true,"vac":true,"version":"7961495","steam_id":85568392924866363,"keywords":["cp","nocrits","nodmgspread","uncletopia"],"game_id":440,"stv_port":27026,"stv_name":"Uncletopia | Chicago | 6 | All Maps | STV","players":null},{"server_id":38,"name":"Uncletopia | Chicago | 7 | Stopwatch","name_short":"chi-7","host":"chi-2.us.uncletopia.com","port":27035,"enabled":true,"region":"us-central","cc":"us","latitude":41.881832,"longitude":-87.62318,"reserved":0,"last_update":"0001-01-01T00:00:00Z","name_a2s":"Uncletopia | Chicago | 7 | Stopwatch","protocol":17,"map":"pl_badwater","folder":"tf","game":"Team Fortress","app_id":440,"player_count":0,"max_players":24,"Bots":0,"server_type":"Dedicated","server_os":"Linux","password":true,"vac":true,"version":"7961495","steam_id":85568392924866364,"keywords":["nocrits","nodmgspread","payload","uncletopia"],"game_id":440,"stv_port":27036,"stv_name":"Uncletopia | Chicago | 7 | Stopwatch | STV","players":null},{"server_id":39,"name":"Uncletopia | Chicago | 8 | Community","name_short":"chi-8","host":"chi-2.us.uncletopia.com","port":27045,"enabled":true,"region":"us-central","cc":"us","latitude":41.881832,"longitude":-87.62318,"reserved":0,"last_update":"0001-01-01T00:00:00Z","name_a2s":"Uncletopia | Chicago | 8 | Community","protocol":17,"map":"workshop/cp_coilblaze_rc7.ugc1272700588","folder":"tf","game":"Team Fortress","app_id":440,"player_count":0,"max_players":24,"Bots":0,"server_type":"Dedicated","server_os":"Linux","password":true,"vac":true,"version":"7961495","steam_id":85568392924866365,"keywords":["cp","nocrits","nodmgspread","uncletopia"],"game_id":440,"stv_port":27046,"stv_name":"Uncletopia | Chicago | 8 | Community | STV","players":null},{"server_id":8,"name":"Uncletopia | Dallas | 1 | All Maps","name_short":"dal-1","host":"dal-1.us.uncletopia.com","port":27015,"enabled":true,"region":"us-central","cc":"us","latitude":32.779167,"longitude":-96.80889,"reserved":0,"last_update":"0001-01-01T00:00:00Z","name_a2s":"Uncletopia | Dallas | 1 | All Maps","protocol":17,"map":"pl_swiftwater_final1","folder":"tf","game":"Team Fortress","app_id":440,"player_count":24,"max_players":24,"Bots":0,"server_type":"Dedicated","server_os":"Linux","password":true,"vac":true,"version":"7961495","steam_id":85568392924469986,"keywords":["nocrits","nodmgspread","payload","uncletopia"],"game_id":440,"stv_port":27016,"stv_name":"Uncletopia | Dallas | 1 | All Maps | STV","players":[{"user_id":508,"name":"the meat man","steam_id":76561198037921140,"connected_time":490000000000,"state":"active","ping":73},{"user_id":491,"name":"Fredrick","steam_id":76561197981419964,"connected_time":1649000000000,"state":"active","ping":89},{"user_id":421,"name":"Zykron","steam_id":76561199056400800,"connected_time":6362000000000,"state":"active","ping":81},{"user_id":487,"name":"Erodplayer","steam_id":76561198183840185,"connected_time":1822000000000,"state":"active","ping":51},{"user_id":499,"name":"Transgender Guy Fieri","steam_id":76561198801467075,"connected_time":1210000000000,"state":"active","ping":53},{"user_id":446,"name":"Vintage TV","steam_id":76561198800334545,"connected_time":4566000000000,"state":"active","ping":74},{"user_id":485,"name":"lettuce, ground beef, tomatoes","steam_id":76561198046948758,"connected_time":2148000000000,"state":"active","ping":67},{"user_id":509,"name":"love sosa","steam_id":76561198345528370,"connected_time":484000000000,"state":"active","ping":76},{"user_id":510,"name":"GoodleShoes/ttv","steam_id":76561198030993521,"connected_time":456000000000,"state":"active","ping":91},{"user_id":501,"name":"chilis baby back ribs","steam_id":76561198813516435,"connected_time":1058000000000,"state":"active","ping":75},{"user_id":482,"name":"Monte","steam_id":76561198097499917,"connected_time":2383000000000,"state":"active","ping":73},{"user_id":507,"name":"Kronk","steam_id":76561198063092125,"connected_time":516000000000,"state":"active","ping":90},{"user_id":505,"name":"SubZeroDestruction","steam_id":76561198145082209,"connected_time":533000000000,"state":"active","ping":76},{"user_id":493,"name":"King Cotton","steam_id":76561198292444376,"connected_time":1391000000000,"state":"active","ping":70},{"user_id":511,"name":"lament","steam_id":76561198408747483,"connected_time":434000000000,"state":"active","ping":59},{"user_id":503,"name":"Cresant Ape","steam_id":76561198127425559,"connected_time":690000000000,"state":"active","ping":52},{"user_id":453,"name":"Snoogs","steam_id":76561198444880931,"connected_time":4378000000000,"state":"active","ping":96},{"user_id":506,"name":"Open Mailbox","steam_id":76561198051933580,"connected_time":526000000000,"state":"active","ping":109},{"user_id":512,"name":"Kanye Asada","steam_id":76561198186678831,"connected_time":427000000000,"state":"active","ping":86},{"user_id":514,"name":"SCUBADIVER88","steam_id":76561197998389506,"connected_time":302000000000,"state":"active","ping":118},{"user_id":513,"name":"i think...","steam_id":76561198294258002,"connected_time":425000000000,"state":"active","ping":80},{"user_id":480,"name":"Brody Yukin","steam_id":76561198084712019,"connected_time":2491000000000,"state":"active","ping":83},{"user_id":454,"name":"mccrispy","steam_id":76561198418172095,"connected_time":4352000000000,"state":"active","ping":94},{"user_id":500,"name":"Liver stealer","steam_id":76561199029954287,"connected_time":1192000000000,"state":"active","ping":155}]},{"server_id":108,"name":"Uncletopia | Dallas | 2 | All Maps","name_short":"dal-2","host":"dal-1.us.uncletopia.com","port":27025,"enabled":true,"region":"us-central","cc":"us","latitude":32.779167,"longitude":-96.80889,"reserved":0,"last_update":"0001-01-01T00:00:00Z","name_a2s":"Uncletopia | Dallas | 2 | All Maps","protocol":17,"map":"pl_badwater","folder":"tf","game":"Team Fortress","app_id":440,"player_count":24,"max_players":24,"Bots":0,"server_type":"Dedicated","server_os":"Linux","password":true,"vac":true,"version":"7961495","steam_id":85568392924469988,"keywords":["nocrits","nodmgspread","payload","uncletopia"],"game_id":440,"stv_port":27026,"stv_name":"Uncletopia | Dallas | 2 | All Maps | STV","players":[{"user_id":644,"name":"Firedust19","steam_id":76561198153238631,"connected_time":510000000000,"state":"active","ping":88},{"user_id":646,"name":"the keebler","steam_id":76561199486326945,"connected_time":322000000000,"state":"active","ping":79},{"user_id":636,"name":"Sarbanes-Oxley","steam_id":76561197975898479,"connected_time":1470000000000,"state":"active","ping":50},{"user_id":602,"name":"Yippe!!!","steam_id":76561199151545966,"connected_time":3946000000000,"state":"active","ping":59},{"user_id":630,"name":"SAGE(‡§∏‡§ó‡•á*)","steam_id":76561198811114074,"connected_time":1655000000000,"state":"active","ping":59},{"user_id":610,"name":"Leon","steam_id":76561198950938712,"connected_time":3351000000000,"state":"active","ping":125},{"user_id":616,"name":"Gamer1243","steam_id":76561199073760355,"connected_time":2631000000000,"state":"active","ping":72},{"user_id":645,"name":"raccocooon","steam_id":76561199138602425,"connected_time":342000000000,"state":"active","ping":85},{"user_id":647,"name":"GreenApples","steam_id":76561198120559543,"connected_time":305000000000,"state":"active","ping":106},{"user_id":629,"name":"Russell","steam_id":76561198024159373,"connected_time":1681000000000,"state":"active","ping":84},{"user_id":606,"name":"Drakon","steam_id":76561198078210822,"connected_time":3863000000000,"state":"active","ping":98},{"user_id":638,"name":"Lee?","steam_id":76561199060892634,"connected_time":1015000000000,"state":"active","ping":66},{"user_id":624,"name":"Dillon","steam_id":76561198191469611,"connected_time":2265000000000,"state":"active","ping":95},{"user_id":625,"name":"arse77","steam_id":76561198169613105,"connected_time":2250000000000,"state":"active","ping":90},{"user_id":642,"name":"37 septillion tapeworms","steam_id":76561198186128723,"connected_time":908000000000,"state":"active","ping":51},{"user_id":628,"name":"Coolcat","steam_id":76561198180933957,"connected_time":1809000000000,"state":"active","ping":52},{"user_id":648,"name":"The Horselords and Animal Gods","steam_id":76561197975094050,"connected_time":288000000000,"state":"active","ping":95},{"user_id":632,"name":"tsz","steam_id":76561199246231090,"connected_time":1628000000000,"state":"active","ping":85},{"user_id":633,"name":"Drake from State Farm","steam_id":76561199069029812,"connected_time":1534000000000,"state":"active","ping":103},{"user_id":650,"name":"skrt","steam_id":76561198233984300,"connected_time":209000000000,"state":"active","ping":75},{"user_id":634,"name":"AXELORDX","steam_id":76561198136639581,"connected_time":1493000000000,"state":"active","ping":71},{"user_id":656,"name":"Squatter1","steam_id":76561198078987734,"connected_time":164000000000,"state":"active","ping":87},{"user_id":611,"name":"Casey","steam_id":76561198068810896,"connected_time":3335000000000,"state":"active","ping":71},{"user_id":613,"name":"RAWRWAFL","steam_id":76561198032118386,"connected_time":3089000000000,"state":"active","ping":72}]},{"server_id":404,"name":"Uncletopia | Dallas | 3 | All Maps","name_short":"dal-3","host":"dal-1.us.uncletopia.com","port":27035,"enabled":true,"region":"us-central","cc":"us","latitude":32.779167,"longitude":-96.80889,"reserved":0,"last_update":"0001-01-01T00:00:00Z","name_a2s":"Uncletopia | Dallas | 3 | All Maps","protocol":17,"map":"pl_badwater","folder":"tf","game":"Team Fortress","app_id":440,"player_count":24,"max_players":24,"Bots":0,"server_type":"Dedicated","server_os":"Linux","password":true,"vac":true,"version":"7961495","steam_id":85568392924515219,"keywords":["nocrits","nodmgspread","payload","uncletopia"],"game_id":440,"stv_port":27036,"stv_name":"Uncletopia | Dallas | 3 | All Maps | STV","players":[{"user_id":220,"name":"Dullahan","steam_id":76561198119668908,"connected_time":23000000000,"state":"active","ping":103},{"user_id":202,"name":"TJ","steam_id":76561198045177514,"connected_time":1254000000000,"state":"active","ping":62},{"user_id":167,"name":"Femboy Wrangler","steam_id":76561199057899661,"connected_time":3509000000000,"state":"active","ping":84},{"user_id":205,"name":"Ok then","steam_id":76561198891914787,"connected_time":1224000000000,"state":"active","ping":87},{"user_id":149,"name":"Light-Work","steam_id":76561198084263001,"connected_time":4342000000000,"state":"active","ping":52},{"user_id":177,"name":"Friendzone \u003c3","steam_id":76561198115386740,"connected_time":2575000000000,"state":"active","ping":75},{"user_id":217,"name":"El Duderino","steam_id":76561198084404539,"connected_time":98000000000,"state":"active","ping":115},{"user_id":221,"name":"Glitchy","steam_id":76561198101925500,"connected_time":4000000000,"state":"spawning","ping":105},{"user_id":197,"name":"FROYO cina_red","steam_id":76561198070266530,"connected_time":1781000000000,"state":"active","ping":62},{"user_id":211,"name":"+","steam_id":76561198262422184,"connected_time":533000000000,"state":"active","ping":69},{"user_id":203,"name":"Arimos","steam_id":76561198063891860,"connected_time":1250000000000,"state":"active","ping":67},{"user_id":162,"name":"mrpineapple070","steam_id":76561199088278757,"connected_time":3678000000000,"state":"active","ping":72},{"user_id":183,"name":"ichster killed","steam_id":76561198011675372,"connected_time":2281000000000,"state":"active","ping":116},{"user_id":189,"name":"Hunter","steam_id":76561198041932384,"connected_time":2072000000000,"state":"active","ping":100},{"user_id":204,"name":"Oof Owie","steam_id":76561198027925247,"connected_time":1245000000000,"state":"active","ping":68},{"user_id":185,"name":"souljaboytellem.com","steam_id":76561198095824426,"connected_time":2211000000000,"state":"active","ping":70},{"user_id":213,"name":"Jane the Rocketeer","steam_id":76561198022399714,"connected_time":305000000000,"state":"active","ping":89},{"user_id":214,"name":"Rurigade Towers","steam_id":76561198148598905,"connected_time":195000000000,"state":"active","ping":86},{"user_id":209,"name":"Colonel Knacker","steam_id":76561198151578423,"connected_time":833000000000,"state":"active","ping":56},{"user_id":212,"name":"The Freshman of Bel Air","steam_id":76561198027412463,"connected_time":445000000000,"state":"active","ping":89},{"user_id":82,"name":"Jesse Bear","steam_id":76561198217075305,"connected_time":10276000000000,"state":"active","ping":100},{"user_id":194,"name":"John Xina","steam_id":76561198350649871,"connected_time":1985000000000,"state":"active","ping":80},{"user_id":171,"name":"Dr Oshawott","steam_id":76561198042021629,"connected_time":3352000000000,"state":"active","ping":86},{"user_id":219,"name":"Adawnby","steam_id":76561198103057295,"connected_time":95000000000,"state":"active","ping":57}]},{"server_id":405,"name":"Uncletopia | Dallas | 4 | Community","name_short":"dal-4","host":"dal-1.us.uncletopia.com","port":27045,"enabled":true,"region":"us-central","cc":"us","latitude":32.779167,"longitude":-96.80889,"reserved":0,"last_update":"0001-01-01T00:00:00Z","name_a2s":"Uncletopia | Dallas | 4 | Community","protocol":17,"map":"workshop/pl_divulgence_b4b.ugc2884808746","folder":"tf","game":"Team Fortress","app_id":440,"player_count":0,"max_players":24,"Bots":0,"server_type":"Dedicated","server_os":"Linux","password":true,"vac":true,"version":"7961495","steam_id":85568392924515220,"keywords":["nocrits","nodmgspread","payload","uncletopia"],"game_id":440,"stv_port":27046,"stv_name":"Uncletopia | Dallas | 4 | Community | STV","players":null},{"server_id":5,"name":"Uncletopia | Frankfurt | 1 | All Maps","name_short":"frk-1","host":"frk-1.de.uncletopia.com","port":27015,"enabled":true,"region":"eu","cc":"de","latitude":50.110924,"longitude":8.682127,"reserved":0,"last_update":"0001-01-01T00:00:00Z","name_a2s":"Uncletopia | Frankfurt | 1 | All Maps","protocol":17,"map":"koth_highpass","folder":"tf","game":"Team Fortress","app_id":440,"player_count":0,"max_players":24,"Bots":0,"server_type":"Dedicated","server_os":"Linux","password":true,"vac":true,"version":"7961495","steam_id":85568392924469989,"keywords":["cp","nocrits","nodmgspread","uncletopia"],"game_id":440,"stv_port":27016,"stv_name":"Uncletopia | Frankfurt | 1 | All Maps | STV","players":null},{"server_id":110,"name":"Uncletopia | Frankfurt | 2 | All Maps","name_short":"frk-2","host":"frk-1.de.uncletopia.com","port":27025,"enabled":true,"region":"eu","cc":"de","latitude":50.110924,"longitude":8.682127,"reserved":0,"last_update":"0001-01-01T00:00:00Z","name_a2s":"Uncletopia | Frankfurt | 2 | All Maps","protocol":17,"map":"cp_dustbowl","folder":"tf","game":"Team Fortress","app_id":440,"player_count":0,"max_players":24,"Bots":0,"server_type":"Dedicated","server_os":"Linux","password":true,"vac":true,"version":"7961495","steam_id":85568392924469990,"keywords":["cp","nocrits","nodmgspread","uncletopia"],"game_id":440,"stv_port":27026,"stv_name":"Uncletopia | Frankfurt | 2 | All Maps | STV","players":null},{"server_id":308,"name":"Uncletopia | Frankfurt | 3 | All Maps","name_short":"frk-3","host":"frk-1.de.uncletopia.com","port":27035,"enabled":true,"region":"eu","cc":"de","latitude":50.110924,"longitude":8.682127,"reserved":0,"last_update":"0001-01-01T00:00:00Z","name_a2s":"Uncletopia | Frankfurt | 3 | All Maps","protocol":17,"map":"pl_barnblitz","folder":"tf","game":"Team Fortress","app_id":440,"player_count":0,"max_players":24,"Bots":0,"server_type":"Dedicated","server_os":"Linux","password":true,"vac":true,"version":"7961495","steam_id":85568392924504274,"keywords":["nocrits","nodmgspread","payload","uncletopia"],"game_id":440,"stv_port":27036,"stv_name":"Uncletopia | Frankfurt | 3 | All Maps | STV","players":null},{"server_id":309,"name":"Uncletopia | Frankfurt | 4 | All Maps","name_short":"frk-4","host":"frk-1.de.uncletopia.com","port":27045,"enabled":true,"region":"eu","cc":"de","latitude":50.110924,"longitude":8.682127,"reserved":0,"last_update":"0001-01-01T00:00:00Z","name_a2s":"Uncletopia | Frankfurt | 4 | All Maps","protocol":17,"map":"koth_highpass","folder":"tf","game":"Team Fortress","app_id":440,"player_count":0,"max_players":24,"Bots":0,"server_type":"Dedicated","server_os":"Linux","password":true,"vac":true,"version":"7961495","steam_id":85568392924504275,"keywords":["cp","nocrits","nodmgspread","uncletopia"],"game_id":440,"stv_port":27046,"stv_name":"Uncletopia | Frankfurt | 4 | All Maps | STV","players":null},{"server_id":310,"name":"Uncletopia | Frankfurt | 5 | All Maps","name_short":"frk-5","host":"frk-1.de.uncletopia.com","port":27055,"enabled":true,"region":"eu","cc":"de","latitude":50.110924,"longitude":8.682127,"reserved":0,"last_update":"0001-01-01T00:00:00Z","name_a2s":"Uncletopia | Frankfurt | 5 | All Maps","protocol":17,"map":"pl_badwater","folder":"tf","game":"Team Fortress","app_id":440,"player_count":0,"max_players":24,"Bots":0,"server_type":"Dedicated","server_os":"Linux","password":true,"vac":true,"version":"7961495","steam_id":85568392924504277,"keywords":["nocrits","nodmgspread","payload","uncletopia"],"game_id":440,"stv_port":27056,"stv_name":"Uncletopia | Frankfurt | 5 | All Maps | STV","players":null},{"server_id":311,"name":"Uncletopia | Frankfurt | 6 | All Maps","name_short":"frk-6","host":"frk-1.de.uncletopia.com","port":27065,"enabled":true,"region":"eu","cc":"de","latitude":50.110924,"longitude":8.682127,"reserved":0,"last_update":"0001-01-01T00:00:00Z","name_a2s":"Uncletopia | Frankfurt | 6 | All Maps","protocol":17,"map":"cp_altitude","folder":"tf","game":"Team Fortress","app_id":440,"player_count":0,"max_players":24,"Bots":0,"server_type":"Dedicated","server_os":"Linux","password":true,"vac":true,"version":"7961495","steam_id":85568392924504278,"keywords":["cp","nocrits","nodmgspread","uncletopia"],"game_id":440,"stv_port":27066,"stv_name":"Uncletopia | Frankfurt | 6 | All Maps | STV","players":null},{"server_id":23,"name":"Uncletopia | Frankfurt | 7 | Stopwatch","name_short":"frk-7","host":"frk-1.de.uncletopia.com","port":27075,"enabled":true,"region":"eu","cc":"de","latitude":50.110924,"longitude":8.682127,"reserved":0,"last_update":"0001-01-01T00:00:00Z","name_a2s":"Uncletopia | Frankfurt | 7 | Stopwatch","protocol":17,"map":"pl_frontier_final","folder":"tf","game":"Team Fortress","app_id":440,"player_count":0,"max_players":24,"Bots":0,"server_type":"Dedicated","server_os":"Linux","password":true,"vac":true,"version":"7961495","steam_id":85568392924742827,"keywords":["nocrits","nodmgspread","payload","uncletopia"],"game_id":440,"stv_port":27076,"stv_name":"Uncletopia | Frankfurt | 7 | Stopwatch | STV","players":null},{"server_id":24,"name":"Uncletopia | Frankfurt | 8 | Community","name_short":"frk-8","host":"frk-1.de.uncletopia.com","port":27085,"enabled":true,"region":"eu","cc":"de","latitude":50.110924,"longitude":8.682127,"reserved":0,"last_update":"0001-01-01T00:00:00Z","name_a2s":"Uncletopia | Frankfurt | 8 | Community","protocol":17,"map":"cp_mountainlab","folder":"tf","game":"Team Fortress","app_id":440,"player_count":0,"max_players":24,"Bots":0,"server_type":"Dedicated","server_os":"Linux","password":true,"vac":true,"version":"7961495","steam_id":85568392924742828,"keywords":["cp","nocrits","nodmgspread","uncletopia"],"game_id":440,"stv_port":27086,"stv_name":"Uncletopia | Frankfurt | 8 | Community | STV","players":null},{"server_id":202,"name":"Uncletopia | Hong Kong | 1 | All Maps","name_short":"hgk-1","host":"hgk-1.hk.uncletopia.com","port":27015,"enabled":true,"region":"asia","cc":"hk","latitude":22.302711,"longitude":114.177216,"reserved":0,"last_update":"0001-01-01T00:00:00Z","name_a2s":"Uncletopia | Hong Kong | 1 | All Maps","protocol":17,"map":"pl_badwater","folder":"tf","game":"Team Fortress","app_id":440,"player_count":0,"max_players":24,"Bots":0,"server_type":"Dedicated","server_os":"Linux","password":true,"vac":true,"version":"7961495","steam_id":85568392924494504,"keywords":["nocrits","nodmgspread","payload","uncletopia"],"game_id":440,"stv_port":27016,"stv_name":"Uncletopia | Hong Kong | 1 | All Maps | STV","players":null},{"server_id":1,"name":"Uncletopia | Los Angeles | 1 | All Maps","name_short":"lax-1","host":"lax-1.us.uncletopia.com","port":27015,"enabled":true,"region":"us-west","cc":"us","latitude":33.94279,"longitude":-118.41004,"reserved":0,"last_update":"0001-01-01T00:00:00Z","name_a2s":"Uncletopia | Los Angeles | 1 | All Maps","protocol":17,"map":"cp_powerhouse","folder":"tf","game":"Team Fortress","app_id":440,"player_count":24,"max_players":24,"Bots":0,"server_type":"Dedicated","server_os":"Linux","password":true,"vac":true,"version":"7961495","steam_id":85568392924469991,"keywords":["cp","nocrits","nodmgspread","uncletopia"],"game_id":440,"stv_port":27016,"stv_name":"Uncletopia | Los Angeles | 1 | All Maps | STV","players":[{"user_id":37,"name":"Eugene Thaddeus Hinkle V","steam_id":76561198821535846,"connected_time":3999000000000,"state":"active","ping":107},{"user_id":41,"name":"Mr. Noodle","steam_id":76561198025280658,"connected_time":3039000000000,"state":"active","ping":51},{"user_id":39,"name":"Lysander Crow","steam_id":76561198214659356,"connected_time":3292000000000,"state":"active","ping":48},{"user_id":78,"name":"MayKay","steam_id":76561199016092265,"connected_time":691000000000,"state":"active","ping":64},{"user_id":54,"name":"They could be ********","steam_id":76561198441020995,"connected_time":2225000000000,"state":"active","ping":46},{"user_id":45,"name":"Velgrauder","steam_id":76561198848526938,"connected_time":2720000000000,"state":"active","ping":101},{"user_id":75,"name":"don't get mad","steam_id":76561198064662875,"connected_time":714000000000,"state":"active","ping":52},{"user_id":76,"name":"_cza","steam_id":76561198079793576,"connected_time":709000000000,"state":"active","ping":74},{"user_id":74,"name":"Max","steam_id":76561197961272955,"connected_time":726000000000,"state":"active","ping":33},{"user_id":52,"name":"squibonacci","steam_id":76561198305870184,"connected_time":2241000000000,"state":"active","ping":68},{"user_id":53,"name":"walrooos","steam_id":76561198024521839,"connected_time":2225000000000,"state":"active","ping":46},{"user_id":79,"name":"lol","steam_id":76561198026491738,"connected_time":659000000000,"state":"active","ping":72},{"user_id":56,"name":"HeHedron","steam_id":76561199199667164,"connected_time":2166000000000,"state":"active","ping":82},{"user_id":69,"name":"bengineer","steam_id":76561198171912174,"connected_time":1737000000000,"state":"active","ping":72},{"user_id":58,"name":"r u guys going trick or treatin","steam_id":76561199074585110,"connected_time":2083000000000,"state":"active","ping":34},{"user_id":80,"name":"KaosInfinite","steam_id":76561198009126350,"connected_time":657000000000,"state":"active","ping":50},{"user_id":82,"name":"beefgames","steam_id":76561198355628238,"connected_time":613000000000,"state":"active","ping":69},{"user_id":81,"name":"IMPROBABLE FLIPPING","steam_id":76561198045964573,"connected_time":656000000000,"state":"active","ping":53},{"user_id":63,"name":"Igrium","steam_id":76561198119549811,"connected_time":1985000000000,"state":"active","ping":65},{"user_id":64,"name":"Humble Learner","steam_id":76561198066091050,"connected_time":1982000000000,"state":"active","ping":76},{"user_id":65,"name":"dewey","steam_id":76561198132791511,"connected_time":1915000000000,"state":"active","ping":59},{"user_id":66,"name":"Potatobreeder","steam_id":76561199077867000,"connected_time":1907000000000,"state":"active","ping":162},{"user_id":83,"name":"Silverkeys","steam_id":76561197986012496,"connected_time":440000000000,"state":"active","ping":101},{"user_id":77,"name":"Dr. Juvenal","steam_id":76561198114553453,"connected_time":706000000000,"state":"active","ping":45}]},{"server_id":112,"name":"Uncletopia | Los Angeles | 2 | All Maps","name_short":"lax-2","host":"lax-1.us.uncletopia.com","port":27025,"enabled":true,"region":"us-west","cc":"us","latitude":33.94279,"longitude":-118.41004,"reserved":0,"last_update":"0001-01-01T00:00:00Z","name_a2s":"Uncletopia | Los Angeles | 2 | All Maps","protocol":17,"map":"koth_viaduct","folder":"tf","game":"Team Fortress","app_id":440,"player_count":0,"max_players":24,"Bots":0,"server_type":"Dedicated","server_os":"Linux","password":true,"vac":true,"version":"7961495","steam_id":85568392924469992,"keywords":["cp","nocrits","nodmgspread","uncletopia"],"game_id":440,"stv_port":27026,"stv_name":"Uncletopia | Los Angeles | 2 | All Maps | STV","players":null},{"server_id":324,"name":"Uncletopia | Los Angeles | 3 | All Maps","name_short":"lax-3","host":"lax-1.us.uncletopia.com","port":27035,"enabled":true,"region":"us-west","cc":"us","latitude":33.94279,"longitude":-118.41004,"reserved":0,"last_update":"0001-01-01T00:00:00Z","name_a2s":"Uncletopia | Los Angeles | 3 | All Maps","protocol":17,"map":"koth_viaduct","folder":"tf","game":"Team Fortress","app_id":440,"player_count":0,"max_players":24,"Bots":0,"server_type":"Dedicated","server_os":"Linux","password":true,"vac":true,"version":"7961495","steam_id":85568392924510198,"keywords":["cp","nocrits","nodmgspread","uncletopia"],"game_id":440,"stv_port":27036,"stv_name":"Uncletopia | Los Angeles | 3 | All Maps | STV","players":null},{"server_id":25,"name":"Uncletopia | Los Angeles | 4 | Stopwatch","name_short":"lax-4","host":"lax-1.us.uncletopia.com","port":27045,"enabled":true,"region":"us-west","cc":"us","latitude":33.94279,"longitude":-118.41004,"reserved":0,"last_update":"0001-01-01T00:00:00Z","name_a2s":"Uncletopia | Los Angeles | 4 | Stopwatch","protocol":17,"map":"cp_metalworks","folder":"tf","game":"Team Fortress","app_id":440,"player_count":0,"max_players":24,"Bots":0,"server_type":"Dedicated","server_os":"Linux","password":true,"vac":true,"version":"7961495","steam_id":85568392924510199,"keywords":["cp","nocrits","nodmgspread","uncletopia"],"game_id":440,"stv_port":27046,"stv_name":"Uncletopia | Los Angeles | 4 | Stopwatch | STV","players":null},{"server_id":11,"name":"Uncletopia | London | 1 | All Maps","name_short":"lon-1","host":"lon-1.uk.uncletopia.com","port":27015,"enabled":true,"region":"eu","cc":"gb","latitude":51.509865,"longitude":-0.118092,"reserved":0,"last_update":"0001-01-01T00:00:00Z","name_a2s":"Uncletopia | London | 1 | All Maps","protocol":17,"map":"cp_mountainlab","folder":"tf","game":"Team Fortress","app_id":440,"player_count":21,"max_players":24,"Bots":0,"server_type":"Dedicated","server_os":"Linux","password":true,"vac":true,"version":"7961495","steam_id":85568392924367362,"keywords":["cp","nocrits","nodmgspread","uncletopia"],"game_id":440,"stv_port":27016,"stv_name":"Uncletopia | London | 1 | All Maps | STV","players":[{"user_id":1138,"name":"ne,dange","steam_id":76561198044189114,"connected_time":2670000000000,"state":"active","ping":62},{"user_id":1158,"name":"Ruzgar","steam_id":76561198115842834,"connected_time":621000000000,"state":"active","ping":86},{"user_id":1143,"name":"Jack \"Hee Ho\" Frost","steam_id":76561198353395198,"connected_time":2180000000000,"state":"active","ping":151},{"user_id":1135,"name":"H","steam_id":76561198158608309,"connected_time":2926000000000,"state":"active","ping":63},{"user_id":1122,"name":"Eidolon","steam_id":76561198043919565,"connected_time":4327000000000,"state":"active","ping":52},{"user_id":1148,"name":"Relativity92","steam_id":76561198167075182,"connected_time":1485000000000,"state":"active","ping":148},{"user_id":1139,"name":"Mingo","steam_id":76561198281639166,"connected_time":2602000000000,"state":"active","ping":90},{"user_id":1149,"name":"ElElliot","steam_id":76561198842278840,"connected_time":1262000000000,"state":"active","ping":132},{"user_id":1150,"name":"Skarp","steam_id":76561198034398376,"connected_time":1232000000000,"state":"active","ping":55},{"user_id":1140,"name":"Aliss‚ù§","steam_id":76561198129509399,"connected_time":2484000000000,"state":"active","ping":86},{"user_id":1159,"name":"Visphiric - Ping Comms Only","steam_id":76561198071938027,"connected_time":314000000000,"state":"active","ping":32},{"user_id":1166,"name":"Oxy{action}mirone","steam_id":76561198159671756,"connected_time":1000000000,"state":"spawning","ping":100},{"user_id":1165,"name":"saul goodmen","steam_id":76561199395002401,"connected_time":17000000000,"state":"spawning","ping":135},{"user_id":1160,"name":"jonbob","steam_id":76561197963506620,"connected_time":293000000000,"state":"active","ping":51},{"user_id":1093,"name":"BONK","steam_id":76561199120275042,"connected_time":7863000000000,"state":"active","ping":66},{"user_id":1162,"name":"CaWaKes","steam_id":76561199276868938,"connected_time":168000000000,"state":"active","ping":112},{"user_id":1163,"name":"howdy","steam_id":76561199070752810,"connected_time":136000000000,"state":"active","ping":63},{"user_id":1147,"name":"Rocket Queen's consort","steam_id":76561198092995429,"connected_time":1614000000000,"state":"active","ping":137},{"user_id":1155,"name":"BlueBlueFox","steam_id":76561198053817230,"connected_time":988000000000,"state":"active","ping":72},{"user_id":1156,"name":"Û†Ä°Û†Ä°","steam_id":76561198399390201,"connected_time":954000000000,"state":"active","ping":92},{"user_id":1157,"name":"nigre2024","steam_id":76561198075405811,"connected_time":901000000000,"state":"active","ping":110}]},{"server_id":114,"name":"Uncletopia | London | 2 | All Maps","name_short":"lon-2","host":"lon-1.uk.uncletopia.com","port":27025,"enabled":true,"region":"eu","cc":"gb","latitude":51.509865,"longitude":-0.118092,"reserved":0,"last_update":"0001-01-01T00:00:00Z","name_a2s":"Uncletopia | London | 2 | All Maps","protocol":17,"map":"koth_highpass","folder":"tf","game":"Team Fortress","app_id":440,"player_count":0,"max_players":24,"Bots":0,"server_type":"Dedicated","server_os":"Linux","password":true,"vac":true,"version":"7961495","steam_id":85568392924470941,"keywords":["cp","nocrits","nodmgspread","uncletopia"],"game_id":440,"stv_port":27026,"stv_name":"Uncletopia | London | 2 | All Maps | STV","players":null},{"server_id":320,"name":"Uncletopia | London | 3 | All Maps","name_short":"lon-3","host":"lon-1.uk.uncletopia.com","port":27035,"enabled":true,"region":"eu","cc":"gb","latitude":51.509865,"longitude":-0.118092,"reserved":0,"last_update":"0001-01-01T00:00:00Z","name_a2s":"Uncletopia | London | 3 | All Maps","protocol":17,"map":"koth_highpass","folder":"tf","game":"Team Fortress","app_id":440,"player_count":0,"max_players":24,"Bots":0,"server_type":"Dedicated","server_os":"Linux","password":true,"vac":true,"version":"7961495","steam_id":85568392924510192,"keywords":["cp","nocrits","nodmgspread","uncletopia"],"game_id":440,"stv_port":27036,"stv_name":"Uncletopia | London | 3 | All Maps | STV","players":null},{"server_id":321,"name":"Uncletopia | London | 4 | All Maps","name_short":"lon-4","host":"lon-1.uk.uncletopia.com","port":27045,"enabled":true,"region":"eu","cc":"gb","latitude":51.509865,"longitude":-0.118092,"reserved":0,"last_update":"0001-01-01T00:00:00Z","name_a2s":"Uncletopia | London | 4 | All Maps","protocol":17,"map":"cp_sunshine","folder":"tf","game":"Team Fortress","app_id":440,"player_count":0,"max_players":24,"Bots":0,"server_type":"Dedicated","server_os":"Linux","password":true,"vac":true,"version":"7961495","steam_id":85568392924510193,"keywords":["cp","nocrits","nodmgspread","uncletopia"],"game_id":440,"stv_port":27046,"stv_name":"Uncletopia | London | 4 | All Maps | STV","players":null},{"server_id":21,"name":"Uncletopia | London | 5 | All Maps","name_short":"lon-5","host":"lon-1.uk.uncletopia.com","port":27055,"enabled":true,"region":"eu","cc":"gb","latitude":51.509865,"longitude":-0.118092,"reserved":0,"last_update":"0001-01-01T00:00:00Z","name_a2s":"Uncletopia | London | 5 | All Maps","protocol":17,"map":"plr_bananabay","folder":"tf","game":"Team Fortress","app_id":440,"player_count":0,"max_players":24,"Bots":0,"server_type":"Dedicated","server_os":"Linux","password":true,"vac":true,"version":"7961495","steam_id":85568392924742829,"keywords":["nocrits","nodmgspread","payload","uncletopia"],"game_id":440,"stv_port":27056,"stv_name":"Uncletopia | London | 5 | All Maps | STV","players":null},{"server_id":22,"name":"Uncletopia | London | 6 | All Maps","name_short":"lon-6","host":"lon-1.uk.uncletopia.com","port":27065,"enabled":true,"region":"eu","cc":"gb","latitude":51.509865,"longitude":-0.118092,"reserved":0,"last_update":"0001-01-01T00:00:00Z","name_a2s":"Uncletopia | London | 6 | All Maps","protocol":17,"map":"cp_process_final","folder":"tf","game":"Team Fortress","app_id":440,"player_count":0,"max_players":24,"Bots":0,"server_type":"Dedicated","server_os":"Linux","password":true,"vac":true,"version":"7961495","steam_id":85568392924742830,"keywords":["cp","nocrits","nodmgspread","uncletopia"],"game_id":440,"stv_port":27066,"stv_name":"Uncletopia | London | 6 | All Maps | STV","players":null},{"server_id":40,"name":"Uncletopia | London | 7 | Stopwatch","name_short":"lon-7","host":"lon-1.uk.uncletopia.com","port":27075,"enabled":true,"region":"eu","cc":"gb","latitude":51.509865,"longitude":-0.118092,"reserved":0,"last_update":"0001-01-01T00:00:00Z","name_a2s":"Uncletopia | London | 7 | Stopwatch","protocol":17,"map":"workshop/pl_vigil_rc10.ugc1266210012","folder":"tf","game":"Team Fortress","app_id":440,"player_count":0,"max_players":24,"Bots":0,"server_type":"Dedicated","server_os":"Linux","password":true,"vac":true,"version":"7961495","steam_id":85568392924964314,"keywords":["nocrits","nodmgspread","payload","uncletopia"],"game_id":440,"stv_port":27076,"stv_name":"Uncletopia | London | 7 | Stopwatch | STV","players":null},{"server_id":41,"name":"Uncletopia | London | 8 | Community","name_short":"lon-8","host":"lon-1.uk.uncletopia.com","port":27085,"enabled":true,"region":"eu","cc":"gb","latitude":51.509865,"longitude":-0.118092,"reserved":0,"last_update":"0001-01-01T00:00:00Z","name_a2s":"Uncletopia | London | 8 | Community","protocol":17,"map":"workshop/pl_cactuscanyon_redux_final2.ugc2579644293","folder":"tf","game":"Team Fortress","app_id":440,"player_count":0,"max_players":24,"Bots":0,"server_type":"Dedicated","server_os":"Linux","password":true,"vac":true,"version":"7961495","steam_id":85568392924964315,"keywords":["nocrits","nodmgspread","payload","uncletopia"],"game_id":440,"stv_port":27086,"stv_name":"Uncletopia | London | 8 | Community | STV","players":null},{"server_id":300,"name":"Uncletopia | Montr√©al | 1 | One Thousand Uncles","name_short":"mtl-1","host":"mtl-1.ca.uncletopia.com","port":27015,"enabled":true,"region":"us-east","cc":"ca","latitude":45.50889,"longitude":-73.56167,"reserved":0,"last_update":"0001-01-01T00:00:00Z","name_a2s":"","protocol":0,"map":"","folder":"","game":"","app_id":0,"player_count":8,"max_players":0,"Bots":0,"server_type":"","server_os":"","password":false,"vac":false,"version":"","steam_id":0,"keywords":null,"game_id":0,"stv_port":0,"stv_name":"","players":[{"user_id":367,"name":"Halp!","steam_id":76561198357868383,"connected_time":174000000000,"state":"active","ping":123},{"user_id":318,"name":"Lost CS2 player","steam_id":76561198892387723,"connected_time":2135000000000,"state":"active","ping":59},{"user_id":320,"name":"two tickets to paradise","steam_id":76561197992498834,"connected_time":2040000000000,"state":"active","ping":66},{"user_id":321,"name":"VELOURIA","steam_id":76561198116550170,"connected_time":1967000000000,"state":"active","ping":108},{"user_id":341,"name":"erm... krill yourself?","steam_id":76561198095121758,"connected_time":1617000000000,"state":"active","ping":103},{"user_id":345,"name":"Saturn's Ring","steam_id":76561198173267015,"connected_time":805000000000,"state":"active","ping":94},{"user_id":363,"name":"bay","steam_id":76561198151087213,"connected_time":566000000000,"state":"active","ping":102},{"user_id":366,"name":"***cuppy dog city***","steam_id":76561198073856185,"connected_time":290000000000,"state":"active","ping":135}]},{"server_id":301,"name":"Uncletopia | Montr√©al | 2 | One Thousand Uncles","name_short":"mtl-2","host":"mtl-1.ca.uncletopia.com","port":27025,"enabled":true,"region":"us-east","cc":"ca","latitude":45.50889,"longitude":-73.56167,"reserved":0,"last_update":"0001-01-01T00:00:00Z","name_a2s":"","protocol":0,"map":"","folder":"","game":"","app_id":0,"player_count":0,"max_players":0,"Bots":0,"server_type":"","server_os":"","password":false,"vac":false,"version":"","steam_id":0,"keywords":null,"game_id":0,"stv_port":0,"stv_name":"","players":null},{"server_id":302,"name":"Uncletopia | Montr√©al | 3 | One Thousand Uncles","name_short":"mtl-3","host":"mtl-1.ca.uncletopia.com","port":27035,"enabled":true,"region":"us-east","cc":"ca","latitude":45.50889,"longitude":-73.56167,"reserved":0,"last_update":"0001-01-01T00:00:00Z","name_a2s":"","protocol":0,"map":"","folder":"","game":"","app_id":0,"player_count":0,"max_players":0,"Bots":0,"server_type":"","server_os":"","password":false,"vac":false,"version":"","steam_id":0,"keywords":null,"game_id":0,"stv_port":0,"stv_name":"","players":null},{"server_id":13,"name":"Uncletopia | New York City | 1 | All Maps","name_short":"nyc-1","host":"nyc-1.us.uncletopia.com","port":27015,"enabled":true,"region":"us-east","cc":"us","latitude":40.73061,"longitude":-73.93524,"reserved":0,"last_update":"0001-01-01T00:00:00Z","name_a2s":"Uncletopia | New York City | 1 | All Maps","protocol":17,"map":"pl_pier","folder":"tf","game":"Team Fortress","app_id":440,"player_count":21,"max_players":24,"Bots":0,"server_type":"Dedicated","server_os":"Linux","password":true,"vac":true,"version":"7961495","steam_id":85568392924469993,"keywords":["nocrits","nodmgspread","payload","uncletopia"],"game_id":440,"stv_port":27016,"stv_name":"Uncletopia | New York City | 1 | All Maps | STV","players":[{"user_id":479,"name":"Meet The Taunt","steam_id":76561198253927199,"connected_time":316000000000,"state":"active","ping":169},{"user_id":480,"name":"the12xu","steam_id":76561198197086561,"connected_time":286000000000,"state":"active","ping":53},{"user_id":481,"name":"Juan Pablo Gonzalez 2023","steam_id":76561199197961413,"connected_time":273000000000,"state":"active","ping":32},{"user_id":468,"name":"baklava","steam_id":76561198124591302,"connected_time":1351000000000,"state":"active","ping":46},{"user_id":439,"name":"Werm","steam_id":76561198149601897,"connected_time":3790000000000,"state":"active","ping":56},{"user_id":358,"name":"Brawns","steam_id":76561198045190199,"connected_time":9632000000000,"state":"active","ping":57},{"user_id":476,"name":"hit!","steam_id":76561198045725613,"connected_time":523000000000,"state":"active","ping":73},{"user_id":467,"name":"Sire Salty","steam_id":76561198079639072,"connected_time":1474000000000,"state":"active","ping":51},{"user_id":478,"name":"lu","steam_id":76561198080731872,"connected_time":378000000000,"state":"active","ping":69},{"user_id":455,"name":"ExtraSoap","steam_id":76561198008712409,"connected_time":2587000000000,"state":"active","ping":51},{"user_id":484,"name":"Mr.Silver","steam_id":76561198156382508,"connected_time":185000000000,"state":"active","ping":76},{"user_id":485,"name":"Sydney","steam_id":76561198422048189,"connected_time":137000000000,"state":"active","ping":70},{"user_id":486,"name":"Doug","steam_id":76561198064689660,"connected_time":120000000000,"state":"active","ping":99},{"user_id":487,"name":"AlexLovesYou","steam_id":76561199163263543,"connected_time":113000000000,"state":"active","ping":90},{"user_id":488,"name":"Berb","steam_id":76561198193911899,"connected_time":110000000000,"state":"active","ping":93},{"user_id":461,"name":"Jones","steam_id":76561198046037216,"connected_time":2159000000000,"state":"active","ping":106},{"user_id":489,"name":"Neapolitan(Elysium)","steam_id":76561199093398934,"connected_time":89000000000,"state":"active","ping":59},{"user_id":490,"name":"Da Walrus","steam_id":76561198045190191,"connected_time":55000000000,"state":"active","ping":68},{"user_id":392,"name":"Jeff","steam_id":76561197997564762,"connected_time":7214000000000,"state":"active","ping":94},{"user_id":373,"name":"RealStanzy","steam_id":76561199060261003,"connected_time":8666000000000,"state":"active","ping":58},{"user_id":448,"name":"Sitting Duck","steam_id":76561197980506451,"connected_time":3419000000000,"state":"active","ping":86}]},{"server_id":14,"name":"Uncletopia | New York City | 2 | All Maps","name_short":"nyc-2","host":"nyc-1.us.uncletopia.com","port":27025,"enabled":true,"region":"us-east","cc":"us","latitude":40.73061,"longitude":-73.93524,"reserved":0,"last_update":"0001-01-01T00:00:00Z","name_a2s":"Uncletopia | New York City | 2 | All Maps","protocol":17,"map":"pl_pier","folder":"tf","game":"Team Fortress","app_id":440,"player_count":24,"max_players":24,"Bots":0,"server_type":"Dedicated","server_os":"Linux","password":true,"vac":true,"version":"7961495","steam_id":85568392924469994,"keywords":["nocrits","nodmgspread","payload","uncletopia"],"game_id":440,"stv_port":27026,"stv_name":"Uncletopia | New York City | 2 | All Maps | STV","players":[{"user_id":435,"name":"Darling","steam_id":76561198102959234,"connected_time":3825000000000,"state":"active","ping":86},{"user_id":455,"name":"Bee","steam_id":76561198074681324,"connected_time":1524000000000,"state":"active","ping":47},{"user_id":468,"name":"Fargo","steam_id":76561198044703931,"connected_time":1043000000000,"state":"active","ping":90},{"user_id":457,"name":"Fish Fisherman","steam_id":76561198018656022,"connected_time":1479000000000,"state":"active","ping":58},{"user_id":451,"name":"MilesFireStorm","steam_id":76561198078642820,"connected_time":2150000000000,"state":"active","ping":70},{"user_id":458,"name":"Rudy","steam_id":76561198013456828,"connected_time":1363000000000,"state":"active","ping":54},{"user_id":470,"name":"Dokkibai","steam_id":76561198355935693,"connected_time":822000000000,"state":"active","ping":74},{"user_id":346,"name":"Havok","steam_id":76561198063455003,"connected_time":11818000000000,"state":"active","ping":54},{"user_id":471,"name":"Baron von Whoopsie","steam_id":76561197996691013,"connected_time":564000000000,"state":"active","ping":58},{"user_id":439,"name":"Hydroxianchaos","steam_id":76561198043786828,"connected_time":3786000000000,"state":"active","ping":66},{"user_id":450,"name":"Pomegranate88","steam_id":76561198056385456,"connected_time":2600000000000,"state":"active","ping":60},{"user_id":472,"name":"space creep","steam_id":76561198025668545,"connected_time":246000000000,"state":"active","ping":52},{"user_id":419,"name":"Brook Prime","steam_id":76561198185126222,"connected_time":6510000000000,"state":"active","ping":115},{"user_id":465,"name":"WheelieChopper","steam_id":76561198070980426,"connected_time":1138000000000,"state":"active","ping":105},{"user_id":466,"name":"Evenaris","steam_id":76561198087544319,"connected_time":1136000000000,"state":"active","ping":108},{"user_id":446,"name":"PurPle","steam_id":76561198050393396,"connected_time":3550000000000,"state":"active","ping":59},{"user_id":452,"name":"Depressed Alcoholic Catboy?","steam_id":76561199013544727,"connected_time":1586000000000,"state":"active","ping":91},{"user_id":453,"name":"Lemon Soda","steam_id":76561198140208761,"connected_time":1583000000000,"state":"active","ping":56},{"user_id":467,"name":"GOD of SEX","steam_id":76561198209689295,"connected_time":1115000000000,"state":"active","ping":58},{"user_id":454,"name":"Speed Spell IV","steam_id":76561198298364415,"connected_time":1583000000000,"state":"active","ping":113},{"user_id":447,"name":"ndvr (femboy (REAL))","steam_id":76561199379200102,"connected_time":3541000000000,"state":"active","ping":54},{"user_id":388,"name":"Your Loyal Familiar","steam_id":76561198106476075,"connected_time":8683000000000,"state":"active","ping":80},{"user_id":424,"name":"emotional suppport e-cigarette","steam_id":76561198172120615,"connected_time":5887000000000,"state":"active","ping":39},{"user_id":393,"name":"Farded and shidded","steam_id":76561198844270350,"connected_time":8438000000000,"state":"active","ping":88}]},{"server_id":15,"name":"Uncletopia | New York City | 3 | Stopwatch","name_short":"nyc-3","host":"nyc-1.us.uncletopia.com","port":27035,"enabled":true,"region":"us-east","cc":"us","latitude":40.73061,"longitude":-73.93524,"reserved":0,"last_update":"0001-01-01T00:00:00Z","name_a2s":"Uncletopia | New York City | 3 | Stopwatch","protocol":17,"map":"pl_swiftwater_final1","folder":"tf","game":"Team Fortress","app_id":440,"player_count":0,"max_players":24,"Bots":0,"server_type":"Dedicated","server_os":"Linux","password":true,"vac":true,"version":"7961495","steam_id":85568392924742820,"keywords":["nocrits","nodmgspread","payload","uncletopia"],"game_id":440,"stv_port":27036,"stv_name":"Uncletopia | New York City | 3 | Stopwatch | STV","players":null},{"server_id":16,"name":"Uncletopia | New York City | 4 | Community","name_short":"nyc-4","host":"nyc-1.us.uncletopia.com","port":27045,"enabled":true,"region":"us-east","cc":"us","latitude":40.73061,"longitude":-73.93524,"reserved":0,"last_update":"0001-01-01T00:00:00Z","name_a2s":"Uncletopia | New York City | 4 | Community","protocol":17,"map":"workshop/koth_product_final.ugc454272353","folder":"tf","game":"Team Fortress","app_id":440,"player_count":0,"max_players":24,"Bots":0,"server_type":"Dedicated","server_os":"Linux","password":true,"vac":true,"version":"7961495","steam_id":85568392924742821,"keywords":["cp","nocrits","nodmgspread","uncletopia"],"game_id":440,"stv_port":27046,"stv_name":"Uncletopia | New York City | 4 | Community | STV","players":null},{"server_id":142,"name":"Uncletopia | S√£o Paulo | 1 | All Maps","name_short":"sao-1","host":"sao-1.br.uncletopia.com","port":27015,"enabled":true,"region":"sa","cc":"br","latitude":-23.533773,"longitude":-46.62529,"reserved":0,"last_update":"0001-01-01T00:00:00Z","name_a2s":"Uncletopia | S√£o Paulo | 1 | All Maps","protocol":17,"map":"pl_frontier_final","folder":"tf","game":"Team Fortress","app_id":440,"player_count":0,"max_players":24,"Bots":0,"server_type":"Dedicated","server_os":"Linux","password":true,"vac":true,"version":"7961495","steam_id":85568392924469996,"keywords":["nocrits","nodmgspread","payload","uncletopia"],"game_id":440,"stv_port":27016,"stv_name":"Uncletopia | S√£o Paulo | 1 | All Maps | STV","players":null},{"server_id":143,"name":"Uncletopia | S√£o Paulo | 2 | Community","name_short":"sao-2","host":"sao-2.br.uncletopia.com","port":27015,"enabled":true,"region":"sa","cc":"br","latitude":-23.533773,"longitude":-46.62529,"reserved":0,"last_update":"0001-01-01T00:00:00Z","name_a2s":"Uncletopia | S√£o Paulo | 2 | Community","protocol":17,"map":"workshop/koth_kemptown_rc1.ugc767410655","folder":"tf","game":"Team Fortress","app_id":440,"player_count":0,"max_players":24,"Bots":0,"server_type":"Dedicated","server_os":"Linux","password":true,"vac":true,"version":"7961495","steam_id":85568392924485349,"keywords":["cp","nocrits","nodmgspread","uncletopia"],"game_id":440,"stv_port":27016,"stv_name":"Uncletopia | S√£o Paulo | 2 | Community | STV","players":null},{"server_id":7,"name":"Uncletopia | Seattle | 1 | All Maps","name_short":"sea-1","host":"sea-1.us.uncletopia.com","port":27015,"enabled":true,"region":"us-west","cc":"us","latitude":47.608013,"longitude":-122.33517,"reserved":0,"last_update":"0001-01-01T00:00:00Z","name_a2s":"Uncletopia | Seattle | 1 | All Maps","protocol":17,"map":"pl_goldrush","folder":"tf","game":"Team Fortress","app_id":440,"player_count":24,"max_players":24,"Bots":0,"server_type":"Dedicated","server_os":"Linux","password":true,"vac":true,"version":"7961495","steam_id":85568392924469997,"keywords":["nocrits","nodmgspread","payload","uncletopia"],"game_id":440,"stv_port":27016,"stv_name":"Uncletopia | Seattle | 1 | All Maps | STV","players":[{"user_id":431,"name":"Skabbety","steam_id":76561198168044257,"connected_time":426000000000,"state":"active","ping":40},{"user_id":433,"name":"jorts","steam_id":76561199041179985,"connected_time":314000000000,"state":"active","ping":57},{"user_id":410,"name":"Kelladrin","steam_id":76561198040727880,"connected_time":2654000000000,"state":"active","ping":61},{"user_id":421,"name":"the sneeze of 87","steam_id":76561198062451648,"connected_time":1655000000000,"state":"active","ping":92},{"user_id":419,"name":"Motto tsuyoku, Ani-san","steam_id":76561198851421641,"connected_time":1692000000000,"state":"active","ping":45},{"user_id":427,"name":"Azary56","steam_id":76561198321404617,"connected_time":888000000000,"state":"active","ping":67},{"user_id":413,"name":"50 Cent","steam_id":76561199076902831,"connected_time":2431000000000,"state":"active","ping":65},{"user_id":423,"name":"Chocc-_-","steam_id":76561198068070211,"connected_time":1370000000000,"state":"active","ping":86},{"user_id":397,"name":"NE–ØO","steam_id":76561197965450216,"connected_time":3851000000000,"state":"active","ping":49},{"user_id":422,"name":"Mignyanne :3","steam_id":76561198048754056,"connected_time":1635000000000,"state":"active","ping":68},{"user_id":428,"name":"hart","steam_id":76561198046073848,"connected_time":834000000000,"state":"active","ping":46},{"user_id":429,"name":"there is cum in my ramen","steam_id":76561198059815894,"connected_time":752000000000,"state":"active","ping":90},{"user_id":350,"name":"–ö–æ—Ä–∑–∞–ø","steam_id":76561198086030373,"connected_time":7747000000000,"state":"active","ping":51},{"user_id":415,"name":"Nom Skirrett","steam_id":76561198014600788,"connected_time":2400000000000,"state":"active","ping":61},{"user_id":426,"name":"TROY","steam_id":76561197983852176,"connected_time":958000000000,"state":"active","ping":87},{"user_id":404,"name":"Mii Guest C, From Wii Sports","steam_id":76561198197964803,"connected_time":2790000000000,"state":"active","ping":55},{"user_id":412,"name":"spenca","steam_id":76561198025371154,"connected_time":2473000000000,"state":"active","ping":60},{"user_id":430,"name":"ORANGE","steam_id":76561198000401769,"connected_time":618000000000,"state":"active","ping":51},{"user_id":424,"name":"Meatball Obsessed Demoman","steam_id":76561198253325844,"connected_time":1016000000000,"state":"active","ping":56},{"user_id":432,"name":"Greenwood RN","steam_id":76561198088641060,"connected_time":405000000000,"state":"active","ping":56},{"user_id":353,"name":"Ayayayayayayayayayayayayahuasca","steam_id":76561199002906056,"connected_time":7193000000000,"state":"active","ping":54},{"user_id":406,"name":"sobadorci","steam_id":76561198208627555,"connected_time":2768000000000,"state":"active","ping":94},{"user_id":425,"name":"SibilantSerpent","steam_id":76561198154488754,"connected_time":979000000000,"state":"active","ping":46},{"user_id":382,"name":"Hazel Nutts","steam_id":76561199247095754,"connected_time":4774000000000,"state":"active","ping":65}]},{"server_id":119,"name":"Uncletopia | Seattle | 2 | All Maps","name_short":"sea-2","host":"sea-1.us.uncletopia.com","port":27025,"enabled":true,"region":"us-west","cc":"us","latitude":47.608013,"longitude":-122.33517,"reserved":0,"last_update":"0001-01-01T00:00:00Z","name_a2s":"Uncletopia | Seattle | 2 | All Maps","protocol":17,"map":"pl_swiftwater_final1","folder":"tf","game":"Team Fortress","app_id":440,"player_count":24,"max_players":24,"Bots":0,"server_type":"Dedicated","server_os":"Linux","password":true,"vac":true,"version":"7961495","steam_id":85568392924469998,"keywords":["nocrits","nodmgspread","payload","uncletopia"],"game_id":440,"stv_port":27026,"stv_name":"Uncletopia | Seattle | 2 | All Maps | STV","players":[{"user_id":120,"name":"pIRO_AGUA","steam_id":76561199041880779,"connected_time":2068000000000,"state":"active","ping":48},{"user_id":154,"name":"YupYup","steam_id":76561198126488086,"connected_time":170000000000,"state":"active","ping":100},{"user_id":150,"name":"AT‚ú™MIC","steam_id":76561198100385184,"connected_time":351000000000,"state":"active","ping":87},{"user_id":125,"name":"Naughty Nurses 2","steam_id":76561198083032219,"connected_time":1633000000000,"state":"active","ping":90},{"user_id":139,"name":"Keamy","steam_id":76561199471434875,"connected_time":619000000000,"state":"active","ping":44},{"user_id":136,"name":"MayaBon","steam_id":76561198797968261,"connected_time":1022000000000,"state":"active","ping":58},{"user_id":103,"name":"sun","steam_id":76561198858474714,"connected_time":2898000000000,"state":"active","ping":58},{"user_id":149,"name":"R5-D4","steam_id":76561198025196439,"connected_time":399000000000,"state":"active","ping":64},{"user_id":93,"name":"Tideflat","steam_id":76561198179850851,"connected_time":3961000000000,"state":"active","ping":45},{"user_id":89,"name":"Lunarthrope","steam_id":76561198292132147,"connected_time":4065000000000,"state":"active","ping":78},{"user_id":146,"name":"MyMonkeyBaby","steam_id":76561198046896670,"connected_time":447000000000,"state":"active","ping":45},{"user_id":128,"name":"Tom","steam_id":76561198070630154,"connected_time":1462000000000,"state":"active","ping":68},{"user_id":131,"name":"We Do A Little Buildin'","steam_id":76561198801427404,"connected_time":1344000000000,"state":"active","ping":90},{"user_id":110,"name":"WonkyCow","steam_id":76561198307611953,"connected_time":2516000000000,"state":"active","ping":50},{"user_id":155,"name":"Pistol Engie Monday","steam_id":76561198409907417,"connected_time":53000000000,"state":"active","ping":88},{"user_id":151,"name":"pepsi","steam_id":76561198114655857,"connected_time":319000000000,"state":"active","ping":43},{"user_id":54,"name":"Nick","steam_id":76561198329096986,"connected_time":5889000000000,"state":"active","ping":92},{"user_id":96,"name":"Dextersbrain","steam_id":76561198011831579,"connected_time":3385000000000,"state":"active","ping":63},{"user_id":144,"name":"jetorp_","steam_id":76561199090542457,"connected_time":505000000000,"state":"active","ping":75},{"user_id":121,"name":"Future Tusk","steam_id":76561198199635217,"connected_time":2064000000000,"state":"active","ping":79},{"user_id":152,"name":"MrMiller","steam_id":76561199497141706,"connected_time":225000000000,"state":"active","ping":57},{"user_id":126,"name":"‚Ä∫ We Are You.j2","steam_id":76561197995242200,"connected_time":1572000000000,"state":"active","ping":60},{"user_id":135,"name":"Day Man","steam_id":76561198067154807,"connected_time":1238000000000,"state":"active","ping":54},{"user_id":88,"name":"laughs bigman","steam_id":76561198067714032,"connected_time":4106000000000,"state":"active","ping":84}]},{"server_id":406,"name":"Uncletopia | Seattle | 3 | Stopwatch","name_short":"sea-3","host":"sea-1.us.uncletopia.com","port":27035,"enabled":true,"region":"us-west","cc":"us","latitude":47.608013,"longitude":-122.33517,"reserved":0,"last_update":"0001-01-01T00:00:00Z","name_a2s":"Uncletopia | Seattle | 3 | Stopwatch","protocol":17,"map":"cp_metalworks","folder":"tf","game":"Team Fortress","app_id":440,"player_count":0,"max_players":24,"Bots":0,"server_type":"Dedicated","server_os":"Linux","password":true,"vac":true,"version":"7961495","steam_id":85568392924515217,"keywords":["cp","nocrits","nodmgspread","uncletopia"],"game_id":440,"stv_port":27036,"stv_name":"Uncletopia | Seattle | 3 | Stopwatch | STV","players":null},{"server_id":17,"name":"Uncletopia | San Francisco | 1 | All Maps","name_short":"sfo-1","host":"sfo-1.us.uncletopia.com","port":27015,"enabled":true,"region":"us-west","cc":"us","latitude":37.77397,"longitude":-122.4313,"reserved":0,"last_update":"0001-01-01T00:00:00Z","name_a2s":"Uncletopia | San Francisco | 1 | All Maps","protocol":17,"map":"koth_viaduct","folder":"tf","game":"Team Fortress","app_id":440,"player_count":0,"max_players":24,"Bots":0,"server_type":"Dedicated","server_os":"Linux","password":true,"vac":true,"version":"7961495","steam_id":85568392924469999,"keywords":["cp","nocrits","nodmgspread","uncletopia"],"game_id":440,"stv_port":27016,"stv_name":"Uncletopia | San Francisco | 1 | All Maps | STV","players":null},{"server_id":18,"name":"Uncletopia | San Francisco | 2 | All Maps","name_short":"sfo-2","host":"sfo-1.us.uncletopia.com","port":27025,"enabled":true,"region":"us-west","cc":"us","latitude":37.77397,"longitude":-122.4313,"reserved":0,"last_update":"0001-01-01T00:00:00Z","name_a2s":"Uncletopia | San Francisco | 2 | All Maps","protocol":17,"map":"pl_upward","folder":"tf","game":"Team Fortress","app_id":440,"player_count":22,"max_players":24,"Bots":0,"server_type":"Dedicated","server_os":"Linux","password":true,"vac":true,"version":"7961495","steam_id":85568392924470000,"keywords":["nocrits","nodmgspread","payload","uncletopia"],"game_id":440,"stv_port":27026,"stv_name":"Uncletopia | San Francisco | 2 | All Maps | STV","players":[{"user_id":540,"name":"AilurosMajor88","steam_id":76561198350900640,"connected_time":1519000000000,"state":"active","ping":72},{"user_id":576,"name":"Grimm_Reaper164","steam_id":76561198848333297,"connected_time":121000000000,"state":"active","ping":69},{"user_id":543,"name":"LoganTiberius","steam_id":76561198234174180,"connected_time":1384000000000,"state":"active","ping":98},{"user_id":550,"name":"coWolves","steam_id":76561198171921618,"connected_time":995000000000,"state":"active","ping":74},{"user_id":551,"name":"Mom","steam_id":76561198207936000,"connected_time":961000000000,"state":"active","ping":43},{"user_id":578,"name":"‚ò≠Borris‚ò≠","steam_id":76561198011136886,"connected_time":41000000000,"state":"active","ping":56},{"user_id":556,"name":"Bolbi","steam_id":76561198051811597,"connected_time":763000000000,"state":"active","ping":71},{"user_id":579,"name":"Wavern From Bakugan","steam_id":76561198191536489,"connected_time":17000000000,"state":"active","ping":70},{"user_id":553,"name":"ButteryJack","steam_id":76561198021691102,"connected_time":855000000000,"state":"active","ping":64},{"user_id":547,"name":"Tinaho","steam_id":76561198815585874,"connected_time":1320000000000,"state":"active","ping":65},{"user_id":554,"name":"Alyn","steam_id":76561198072309739,"connected_time":853000000000,"state":"active","ping":68},{"user_id":572,"name":"Dongus","steam_id":76561197979056451,"connected_time":411000000000,"state":"active","ping":66},{"user_id":557,"name":"Axelonemillion15","steam_id":76561198421342282,"connected_time":758000000000,"state":"active","ping":78},{"user_id":562,"name":"nella","steam_id":76561198079349621,"connected_time":619000000000,"state":"active","ping":55},{"user_id":563,"name":"Hyggin","steam_id":76561198045388653,"connected_time":612000000000,"state":"active","ping":79},{"user_id":504,"name":"Just washed","steam_id":76561199030160932,"connected_time":3794000000000,"state":"active","ping":117},{"user_id":564,"name":"omugai_","steam_id":76561198086481768,"connected_time":579000000000,"state":"active","ping":48},{"user_id":568,"name":"Torn Ligma Mint","steam_id":76561198046562161,"connected_time":453000000000,"state":"active","ping":54},{"user_id":566,"name":"bobtheninjaman","steam_id":76561198066424544,"connected_time":491000000000,"state":"active","ping":74},{"user_id":567,"name":"NightmareOhm","steam_id":76561198338853664,"connected_time":465000000000,"state":"active","ping":74},{"user_id":575,"name":"Rustys_Revenge","steam_id":76561198269414024,"connected_time":226000000000,"state":"active","ping":57},{"user_id":570,"name":"hypnotize","steam_id":76561198359634841,"connected_time":450000000000,"state":"active","ping":47}]},{"server_id":19,"name":"Uncletopia | San Francisco | 3 | Stopwatch","name_short":"sfo-3","host":"sfo-1.us.uncletopia.com","port":27035,"enabled":true,"region":"us-west","cc":"us","latitude":37.77397,"longitude":-122.4313,"reserved":0,"last_update":"0001-01-01T00:00:00Z","name_a2s":"Uncletopia | San Francisco | 3 | Stopwatch","protocol":17,"map":"pl_pier","folder":"tf","game":"Team Fortress","app_id":440,"player_count":0,"max_players":24,"Bots":0,"server_type":"Dedicated","server_os":"Linux","password":true,"vac":true,"version":"7961495","steam_id":85568392924742824,"keywords":["nocrits","nodmgspread","payload","uncletopia"],"game_id":440,"stv_port":27036,"stv_name":"Uncletopia | San Francisco | 3 | Stopwatch | STV","players":null},{"server_id":20,"name":"Uncletopia | San Francisco | 4 | Community","name_short":"sfo-4","host":"sfo-1.us.uncletopia.com","port":27045,"enabled":true,"region":"us-west","cc":"us","latitude":37.77397,"longitude":-122.4313,"reserved":0,"last_update":"0001-01-01T00:00:00Z","name_a2s":"Uncletopia | San Francisco | 4 | Community","protocol":17,"map":"workshop/koth_slaughter_rc1.ugc1712845210","folder":"tf","game":"Team Fortress","app_id":440,"player_count":0,"max_players":24,"Bots":0,"server_type":"Dedicated","server_os":"Linux","password":true,"vac":true,"version":"7961495","steam_id":85568392924742826,"keywords":["cp","nocrits","nodmgspread","uncletopia"],"game_id":440,"stv_port":27046,"stv_name":"Uncletopia | San Francisco | 4 | Community | STV","players":null},{"server_id":141,"name":"Uncletopia | Sydney | 1 | All Maps","name_short":"syd-1","host":"syd-1.au.uncletopia.com","port":27015,"enabled":true,"region":"au","cc":"au","latitude":-33.865143,"longitude":151.2099,"reserved":0,"last_update":"0001-01-01T00:00:00Z","name_a2s":"Uncletopia | Sydney | 1 | All Maps","protocol":17,"map":"cp_mountainlab","folder":"tf","game":"Team Fortress","app_id":440,"player_count":0,"max_players":24,"Bots":0,"server_type":"Dedicated","server_os":"Linux","password":true,"vac":true,"version":"7961495","steam_id":85568392924470001,"keywords":["cp","nocrits","nodmgspread","uncletopia"],"game_id":440,"stv_port":27016,"stv_name":"Uncletopia | Sydney | 1 | All Maps | STV","players":null},{"server_id":123,"name":"Uncletopia | Sydney | 2 | All Maps","name_short":"syd-2","host":"syd-1.au.uncletopia.com","port":27025,"enabled":true,"region":"au","cc":"au","latitude":-33.865143,"longitude":151.2099,"reserved":0,"last_update":"0001-01-01T00:00:00Z","name_a2s":"Uncletopia | Sydney | 2 | All Maps","protocol":17,"map":"koth_lakeside_final","folder":"tf","game":"Team Fortress","app_id":440,"player_count":0,"max_players":24,"Bots":0,"server_type":"Dedicated","server_os":"Linux","password":true,"vac":true,"version":"7961495","steam_id":85568392924470002,"keywords":["cp","nocrits","nodmgspread","uncletopia"],"game_id":440,"stv_port":27026,"stv_name":"Uncletopia | Sydney | 2 | All Maps | STV","players":null},{"server_id":395,"name":"Uncletopia | Sydney | 3 | All Maps","name_short":"syd-3","host":"syd-1.au.uncletopia.com","port":27035,"enabled":true,"region":"au","cc":"au","latitude":-33.865143,"longitude":151.2099,"reserved":0,"last_update":"0001-01-01T00:00:00Z","name_a2s":"Uncletopia | Sydney | 3 | All Maps","protocol":17,"map":"pl_frontier_final","folder":"tf","game":"Team Fortress","app_id":440,"player_count":0,"max_players":24,"Bots":0,"server_type":"Dedicated","server_os":"Linux","password":true,"vac":true,"version":"7961495","steam_id":85568392925194467,"keywords":["nocrits","nodmgspread","payload","uncletopia"],"game_id":440,"stv_port":27036,"stv_name":"Uncletopia | Sydney | 3 | All Maps | STV","players":null},{"server_id":396,"name":"Uncletopia | Sydney | 4 | All Maps","name_short":"syd-4","host":"syd-1.au.uncletopia.com","port":27045,"enabled":true,"region":"au","cc":"au","latitude":-33.865143,"longitude":151.2099,"reserved":0,"last_update":"0001-01-01T00:00:00Z","name_a2s":"Uncletopia | Sydney | 4 | All Maps","protocol":17,"map":"cp_process_final","folder":"tf","game":"Team Fortress","app_id":440,"player_count":0,"max_players":24,"Bots":0,"server_type":"Dedicated","server_os":"Linux","password":true,"vac":true,"version":"7961495","steam_id":85568392925397958,"keywords":["cp","nocrits","nodmgspread","uncletopia"],"game_id":440,"stv_port":27046,"stv_name":"Uncletopia | Sydney | 4 | All Maps | STV","players":null},{"server_id":58,"name":"Uncletopia | Sydney | 5 | Stopwatch","name_short":"syd-5","host":"syd-1.au.uncletopia.com","port":27055,"enabled":true,"region":"au","cc":"au","latitude":-33.865143,"longitude":151.2099,"reserved":0,"last_update":"0001-01-01T00:00:00Z","name_a2s":"Uncletopia | Sydney | 5 | Stopwatch","protocol":17,"map":"pl_frontier_final","folder":"tf","game":"Team Fortress","app_id":440,"player_count":0,"max_players":24,"Bots":0,"server_type":"Dedicated","server_os":"Linux","password":true,"vac":true,"version":"7961495","steam_id":85568392925397959,"keywords":["nocrits","nodmgspread","payload","uncletopia"],"game_id":440,"stv_port":27056,"stv_name":"Uncletopia | Sydney | 5 | Stopwatch | STV","players":null},{"server_id":59,"name":"Uncletopia | Sydney | 6 | Community","name_short":"syd-6","host":"syd-1.au.uncletopia.com","port":27065,"enabled":true,"region":"au","cc":"au","latitude":-33.865143,"longitude":151.2099,"reserved":0,"last_update":"0001-01-01T00:00:00Z","name_a2s":"Uncletopia | Sydney | 6 | Community","protocol":17,"map":"cp_sunshine","folder":"tf","game":"Team Fortress","app_id":440,"player_count":0,"max_players":24,"Bots":0,"server_type":"Dedicated","server_os":"Linux","password":true,"vac":true,"version":"7961495","steam_id":85568392925397960,"keywords":["cp","nocrits","nodmgspread","uncletopia"],"game_id":440,"stv_port":27066,"stv_name":"Uncletopia | Sydney | 6 | Community | STV","players":null},{"server_id":49,"name":"Uncletopia | Warsaw | 1 | One Thousand Uncles","name_short":"waw-1","host":"waw-1.pl.uncletopia.com","port":27015,"enabled":true,"region":"eu","cc":"pl","latitude":52.2297,"longitude":21.017532,"reserved":0,"last_update":"0001-01-01T00:00:00Z","name_a2s":"Uncletopia | Warsaw | 1 | One Thousand Uncles","protocol":17,"map":"pl_badwater","folder":"tf","game":"Team Fortress","app_id":440,"player_count":13,"max_players":32,"Bots":10,"server_type":"Dedicated","server_os":"Linux","password":true,"vac":true,"version":"7961495","steam_id":85568392925397850,"keywords":["alltalk","danepve","increased_maxplayers","nocrits","norespawntime","payload","uncletopia"],"game_id":440,"stv_port":0,"stv_name":"","players":[{"user_id":2,"name":"d4efeb","steam_id":76561198148098761,"connected_time":965000000000,"state":"active","ping":173},{"user_id":3,"name":"Its yah monke","steam_id":76561198323869587,"connected_time":957000000000,"state":"active","ping":68},{"user_id":20,"name":"raguspchennai","steam_id":76561199153121364,"connected_time":900000000000,"state":"active","ping":286}]},{"server_id":50,"name":"Uncletopia | Warsaw | 2 | One Thousand Uncles","name_short":"waw-2","host":"waw-1.pl.uncletopia.com","port":27025,"enabled":true,"region":"eu","cc":"pl","latitude":52.2297,"longitude":21.017532,"reserved":0,"last_update":"0001-01-01T00:00:00Z","name_a2s":"Uncletopia | Warsaw | 2 | One Thousand Uncles","protocol":17,"map":"pl_goldrush","folder":"tf","game":"Team Fortress","app_id":440,"player_count":0,"max_players":32,"Bots":0,"server_type":"Dedicated","server_os":"Linux","password":true,"vac":true,"version":"7961495","steam_id":85568392925397851,"keywords":["alltalk","danepve","increased_maxplayers","nocrits","norespawntime","payload","uncletopia"],"game_id":440,"stv_port":0,"stv_name":"","players":null},{"server_id":51,"name":"Uncletopia | Warsaw | 3 | All Maps","name_short":"waw-3","host":"waw-1.pl.uncletopia.com","port":27035,"enabled":true,"region":"eu","cc":"pl","latitude":52.2297,"longitude":21.017532,"reserved":0,"last_update":"0001-01-01T00:00:00Z","name_a2s":"Uncletopia | Warsaw | 3 | All Maps","protocol":17,"map":"plr_pipeline","folder":"tf","game":"Team Fortress","app_id":440,"player_count":0,"max_players":24,"Bots":0,"server_type":"Dedicated","server_os":"Linux","password":true,"vac":true,"version":"7961495","steam_id":85568392925397852,"keywords":["nocrits","nodmgspread","payload","uncletopia"],"game_id":440,"stv_port":27036,"stv_name":"Uncletopia | Warsaw | 3 | All Maps | STV","players":null},{"server_id":52,"name":"Uncletopia | Warsaw | 4 | All Maps","name_short":"waw-4","host":"waw-1.pl.uncletopia.com","port":27045,"enabled":true,"region":"eu","cc":"pl","latitude":52.2297,"longitude":21.017532,"reserved":0,"last_update":"0001-01-01T00:00:00Z","name_a2s":"Uncletopia | Warsaw | 4 | All Maps","protocol":17,"map":"cp_coldfront","folder":"tf","game":"Team Fortress","app_id":440,"player_count":0,"max_players":24,"Bots":0,"server_type":"Dedicated","server_os":"Linux","password":true,"vac":true,"version":"7961495","steam_id":85568392925397853,"keywords":["cp","nocrits","nodmgspread","uncletopia"],"game_id":440,"stv_port":27046,"stv_name":"Uncletopia | Warsaw | 4 | All Maps | STV","players":null},{"server_id":53,"name":"Uncletopia | Warsaw | 5 | Stopwatch","name_short":"waw-5","host":"waw-1.pl.uncletopia.com","port":27055,"enabled":true,"region":"eu","cc":"pl","latitude":52.2297,"longitude":21.017532,"reserved":0,"last_update":"0001-01-01T00:00:00Z","name_a2s":"Uncletopia | Warsaw | 5 | Stopwatch","protocol":17,"map":"workshop/koth_bagel_rc6.ugc2514036946","folder":"tf","game":"Team Fortress","app_id":440,"player_count":0,"max_players":24,"Bots":0,"server_type":"Dedicated","server_os":"Linux","password":true,"vac":true,"version":"7961495","steam_id":85568392925397854,"keywords":["cp","nocrits","nodmgspread","uncletopia"],"game_id":440,"stv_port":27056,"stv_name":"Uncletopia | Warsaw | 5 | Stopwatch | STV","players":null},{"server_id":54,"name":"Uncletopia | Warsaw | 6 | Community","name_short":"waw-6","host":"waw-1.pl.uncletopia.com","port":27065,"enabled":true,"region":"eu","cc":"pl","latitude":52.2297,"longitude":21.017532,"reserved":0,"last_update":"0001-01-01T00:00:00Z","name_a2s":"Uncletopia | Warsaw | 6 | Community","protocol":17,"map":"workshop/pl_badwater_pro_v12.ugc2142942074","folder":"tf","game":"Team Fortress","app_id":440,"player_count":0,"max_players":24,"Bots":0,"server_type":"Dedicated","server_os":"Linux","password":true,"vac":true,"version":"7961495","steam_id":85568392925397856,"keywords":["nocrits","nodmgspread","payload","uncletopia"],"game_id":440,"stv_port":27066,"stv_name":"Uncletopia | Warsaw | 6 | Community | STV","players":null}]}