{"status":true,"message":"","result":[{"server_id":9,"name":"Uncletopia | Atlanta | 1 | All Maps","name_short":"atl-1","host":"atl-1.us.uncletopia.com","port":27015,"enabled":true,"region":"us-east","cc":"us","latitude":33.753746,"longitude":-84.38633,"reserved":0,"last_update":"0001-01-01T00:00:00Z","name_a2s":"Uncletopia | Atlanta | 1 | All Maps","protocol":17,"map":"pl_snowycoast","folder":"tf","game":"Team Fortress","app_id":440,"player_count":24,"max_players":24,"Bots":0,"server_type":"Dedicated","server_os":"Linux","password":true,"vac":true,"version":"7757534","steam_id":85568392924469982,"keywords":["nocrits","nodmgspread","payload","uncletopia"],"game_id":440,"stv_port":27016,"stv_name":"Uncletopia | Atlanta | 1 | All Maps | STV","players":[{"user_id":114,"name":"Nebula","steam_id":76561198795878862,"connected_time":3576000000000,"state":"active","ping":82},{"user_id":140,"name":"Rat Bastard","steam_id":76561198153443658,"connected_time":1027000000000,"state":"active","ping":69},{"user_id":91,"name":"AJsurfer","steam_id":76561198897045252,"connected_time":4358000000000,"state":"active","ping":39},{"user_id":95,"name":"new and improved washing machin","steam_id":76561199160873100,"connected_time":4265000000000,"state":"active","ping":94},{"user_id":139,"name":"HarryjusttHarry","steam_id":76561198982810452,"connected_time":1139000000000,"state":"active","ping":73},{"user_id":92,"name":"I have a dream... mrNiceguy","steam_id":76561198053176402,"connected_time":4332000000000,"state":"active","ping":179},{"user_id":145,"name":"TheSquirrelofHuscurl","steam_id":76561198073379623,"connected_time":566000000000,"state":"active","ping":67},{"user_id":124,"name":"TrashMann","steam_id":76561198040969743,"connected_time":2550000000000,"state":"active","ping":55},{"user_id":103,"name":"Good Horsey","steam_id":76561198237193302,"connected_time":3888000000000,"state":"active","ping":121},{"user_id":142,"name":"CyMeryy","steam_id":76561197984986540,"connected_time":993000000000,"state":"active","ping":69},{"user_id":40,"name":"luxin","steam_id":76561198399383047,"connected_time":8428000000000,"state":"active","ping":51},{"user_id":129,"name":"Ninty","steam_id":76561199364725776,"connected_time":2158000000000,"state":"active","ping":64},{"user_id":148,"name":"superprogamerman2009","steam_id":76561199393831863,"connected_time":163000000000,"state":"active","ping":138},{"user_id":144,"name":"CPUnit","steam_id":76561198162881878,"connected_time":782000000000,"state":"active","ping":61},{"user_id":146,"name":"ShiYor","steam_id":76561199117260032,"connected_time":438000000000,"state":"active","ping":135},{"user_id":120,"name":"Toonice","steam_id":76561198402994885,"connected_time":3081000000000,"state":"active","ping":155},{"user_id":149,"name":"Kiss Master","steam_id":76561198289572271,"connected_time":123000000000,"state":"active","ping":57},{"user_id":137,"name":"The_Stomach_Stone_Surgeon","steam_id":76561198044643725,"connected_time":1150000000000,"state":"active","ping":50},{"user_id":130,"name":"halfpint","steam_id":76561198148217618,"connected_time":2141000000000,"state":"active","ping":64},{"user_id":112,"name":"C.E.O Of Power","steam_id":76561198173051462,"connected_time":3650000000000,"state":"active","ping":117},{"user_id":53,"name":"scuba doo warfare","steam_id":76561198018761740,"connected_time":7360000000000,"state":"active","ping":64},{"user_id":119,"name":"lil hog","steam_id":76561199230929836,"connected_time":3342000000000,"state":"active","ping":91},{"user_id":132,"name":"bob","steam_id":76561198261060542,"connected_time":2092000000000,"state":"active","ping":90},{"user_id":143,"name":"Idiot Prince (They/Them)","steam_id":76561198048205270,"connected_time":966000000000,"state":"active","ping":119}]},{"server_id":104,"name":"Uncletopia | Atlanta | 2 | All Maps","name_short":"atl-2","host":"atl-1.us.uncletopia.com","port":27025,"enabled":true,"region":"us-east","cc":"us","latitude":33.753746,"longitude":-84.38633,"reserved":0,"last_update":"0001-01-01T00:00:00Z","name_a2s":"Uncletopia | Atlanta | 2 | All Maps","protocol":17,"map":"cp_sunshine","folder":"tf","game":"Team Fortress","app_id":440,"player_count":0,"max_players":24,"Bots":0,"server_type":"Dedicated","server_os":"Linux","password":true,"vac":true,"version":"7757534","steam_id":85568392924469983,"keywords":["cp","nocrits","nodmgspread","uncletopia"],"game_id":440,"stv_port":27026,"stv_name":"Uncletopia | Atlanta | 2 | All Maps | STV","players":null},{"server_id":400,"name":"Uncletopia | Atlanta | 3 | Community","name_short":"atl-3","host":"atl-1.us.uncletopia.com","port":27035,"enabled":true,"region":"us-east","cc":"us","latitude":33.753746,"longitude":-84.38633,"reserved":0,"last_update":"0001-01-01T00:00:00Z","name_a2s":"Uncletopia | Atlanta | 3 | Community","protocol":17,"map":"workshop/cp_hazyfort_rc6.ugc1365963729","folder":"tf","game":"Team Fortress","app_id":440,"player_count":0,"max_players":24,"Bots":0,"server_type":"Dedicated","server_os":"Linux","password":true,"vac":true,"version":"7757534","steam_id":85568392924515187,"keywords":["cp","nocrits","nodmgspread","uncletopia"],"game_id":440,"stv_port":27036,"stv_name":"Uncletopia | Atlanta | 3 | Community | STV","players":null},{"server_id":401,"name":"Uncletopia | Atlanta | 4 | No Payload","name_short":"atl-4","host":"atl-1.us.uncletopia.com","port":27045,"enabled":true,"region":"us-east","cc":"us","latitude":33.753746,"longitude":-84.38633,"reserved":0,"last_update":"0001-01-01T00:00:00Z","name_a2s":"","protocol":0,"map":"","folder":"","game":"","app_id":0,"player_count":0,"max_players":0,"Bots":0,"server_type":"","server_os":"","password":false,"vac":false,"version":"","steam_id":0,"keywords":null,"game_id":0,"stv_port":0,"stv_name":"","players":null},{"server_id":2,"name":"Uncletopia | Chicago | 1 | All Maps","name_short":"chi-1","host":"chi-1.us.uncletopia.com","port":27015,"enabled":true,"region":"us-central","cc":"us","latitude":41.881832,"longitude":-87.62318,"reserved":0,"last_update":"0001-01-01T00:00:00Z","name_a2s":"Uncletopia | Chicago | 1 | All Maps","protocol":17,"map":"koth_highpass","folder":"tf","game":"Team Fortress","app_id":440,"player_count":5,"max_players":24,"Bots":0,"server_type":"Dedicated","server_os":"Linux","password":true,"vac":true,"version":"7757534","steam_id":85568392924469984,"keywords":["cp","nocrits","nodmgspread","uncletopia"],"game_id":440,"stv_port":27016,"stv_name":"Uncletopia | Chicago | 1 | All Maps | STV","players":[{"user_id":195,"name":"[يهودي] Bill Clinton [אל","steam_id":76561198163291190,"connected_time":733000000000,"state":"active","ping":80},{"user_id":196,"name":"Yonker","steam_id":76561198079473397,"connected_time":553000000000,"state":"active","ping":53},{"user_id":197,"name":"chipperguy","steam_id":76561199060302023,"connected_time":509000000000,"state":"active","ping":88},{"user_id":206,"name":"coyne","steam_id":76561197997350766,"connected_time":161000000000,"state":"active","ping":55},{"user_id":202,"name":"TheSmolPopato","steam_id":76561199076606348,"connected_time":325000000000,"state":"active","ping":55}]},{"server_id":106,"name":"Uncletopia | Chicago | 2 | All Maps","name_short":"chi-2","host":"chi-1.us.uncletopia.com","port":27025,"enabled":true,"region":"us-central","cc":"us","latitude":41.881832,"longitude":-87.62318,"reserved":0,"last_update":"0001-01-01T00:00:00Z","name_a2s":"Uncletopia | Chicago | 2 | All Maps","protocol":17,"map":"koth_nucleus","folder":"tf","game":"Team Fortress","app_id":440,"player_count":0,"max_players":24,"Bots":0,"server_type":"Dedicated","server_os":"Linux","password":true,"vac":true,"version":"7757534","steam_id":85568392924469985,"keywords":["cp","nocrits","nodmgspread","uncletopia"],"game_id":440,"stv_port":27026,"stv_name":"Uncletopia | Chicago | 2 | All Maps | STV","players":null},{"server_id":402,"name":"Uncletopia | Chicago | 3 | All Maps","name_short":"chi-3","host":"chi-1.us.uncletopia.com","port":27035,"enabled":true,"region":"us-central","cc":"us","latitude":41.881832,"longitude":-87.62318,"reserved":0,"last_update":"0001-01-01T00:00:00Z","name_a2s":"Uncletopia | Chicago | 3 | All Maps","protocol":17,"map":"pl_borneo","folder":"tf","game":"Team Fortress","app_id":440,"player_count":24,"max_players":24,"Bots":0,"server_type":"Dedicated","server_os":"Linux","password":true,"vac":true,"version":"7757534","steam_id":85568392924515191,"keywords":["nocrits","nodmgspread","payload","uncletopia"],"game_id":440,"stv_port":27036,"stv_name":"Uncletopia | Chicago | 3 | All Maps | STV","players":[{"user_id":229,"name":"beans","steam_id":76561198067655341,"connected_time":1361000000000,"state":"active","ping":78},{"user_id":243,"name":"Malikar (fake)","steam_id":76561199037497493,"connected_time":382000000000,"state":"active","ping":54},{"user_id":228,"name":"DarthEthanBoy","steam_id":76561198441643581,"connected_time":1424000000000,"state":"active","ping":66},{"user_id":239,"name":"Hylic","steam_id":76561199051314589,"connected_time":424000000000,"state":"active","ping":59},{"user_id":233,"name":"El Bondin","steam_id":76561198820792434,"connected_time":961000000000,"state":"active","ping":90},{"user_id":187,"name":"bojack from the show bojack hor","steam_id":76561198053006712,"connected_time":3889000000000,"state":"active","ping":59},{"user_id":238,"name":"Chhaam","steam_id":76561198058508132,"connected_time":435000000000,"state":"active","ping":58},{"user_id":237,"name":"TheSnipersHat","steam_id":76561198057684066,"connected_time":451000000000,"state":"active","ping":64},{"user_id":231,"name":"McSmitten","steam_id":76561198022358379,"connected_time":1327000000000,"state":"active","ping":86},{"user_id":235,"name":"Bot Karma","steam_id":76561198422386331,"connected_time":533000000000,"state":"active","ping":144},{"user_id":245,"name":"M4 SOPMOD II Enjoyer","steam_id":76561198155176802,"connected_time":365000000000,"state":"active","ping":75},{"user_id":215,"name":"Hydro","steam_id":76561199060627243,"connected_time":2066000000000,"state":"active","ping":64},{"user_id":210,"name":"Dom","steam_id":76561198043992490,"connected_time":2457000000000,"state":"active","ping":94},{"user_id":222,"name":"Donkski","steam_id":76561198406895347,"connected_time":1668000000000,"state":"active","ping":66},{"user_id":212,"name":"Cousin Corn on the Cob","steam_id":76561198049837377,"connected_time":2338000000000,"state":"active","ping":49},{"user_id":221,"name":"Smoker Lung","steam_id":76561198077167395,"connected_time":1677000000000,"state":"active","ping":48},{"user_id":234,"name":"Egpta","steam_id":76561198237840238,"connected_time":556000000000,"state":"active","ping":84},{"user_id":240,"name":"catrinaisahuman","steam_id":76561198281355729,"connected_time":406000000000,"state":"active","ping":66},{"user_id":241,"name":"quint","steam_id":76561198046797995,"connected_time":402000000000,"state":"active","ping":57},{"user_id":216,"name":"Viokik","steam_id":76561198408846602,"connected_time":2034000000000,"state":"active","ping":71},{"user_id":242,"name":"Lightning Bolt-Action","steam_id":76561198099461216,"connected_time":390000000000,"state":"active","ping":61},{"user_id":220,"name":"sunrisebanana","steam_id":76561198038764622,"connected_time":1688000000000,"state":"active","ping":64},{"user_id":232,"name":"Huey","steam_id":76561198972816386,"connected_time":1232000000000,"state":"active","ping":85},{"user_id":246,"name":"GamingGod (real)","steam_id":76561199103766971,"connected_time":105000000000,"state":"active","ping":81}]},{"server_id":403,"name":"Uncletopia | Chicago | 4 | All Maps","name_short":"chi-4","host":"chi-1.us.uncletopia.com","port":27045,"enabled":true,"region":"us-central","cc":"us","latitude":41.881832,"longitude":-87.62318,"reserved":0,"last_update":"0001-01-01T00:00:00Z","name_a2s":"Uncletopia | Chicago | 4 | All Maps","protocol":17,"map":"pl_badwater","folder":"tf","game":"Team Fortress","app_id":440,"player_count":24,"max_players":24,"Bots":0,"server_type":"Dedicated","server_os":"Linux","password":true,"vac":true,"version":"7757534","steam_id":85568392924515193,"keywords":["nocrits","nodmgspread","payload","uncletopia"],"game_id":440,"stv_port":27046,"stv_name":"Uncletopia | Chicago | 4 | All Maps | STV","players":[{"user_id":430,"name":"lcy13vv","steam_id":76561197995997446,"connected_time":13000000000,"state":"spawning","ping":45},{"user_id":398,"name":"F0restFerret","steam_id":76561199112458876,"connected_time":1630000000000,"state":"active","ping":66},{"user_id":419,"name":"Stagred","steam_id":76561198055973266,"connected_time":863000000000,"state":"active","ping":79},{"user_id":363,"name":"Vegerot","steam_id":76561197997843710,"connected_time":3947000000000,"state":"active","ping":60},{"user_id":421,"name":"mfreyno","steam_id":76561198044503626,"connected_time":807000000000,"state":"active","ping":59},{"user_id":367,"name":"DiscoTraveler","steam_id":76561199240168088,"connected_time":3716000000000,"state":"active","ping":78},{"user_id":372,"name":"Raptor","steam_id":76561198105613110,"connected_time":3446000000000,"state":"active","ping":48},{"user_id":422,"name":"Jaydyn","steam_id":76561198140326797,"connected_time":800000000000,"state":"active","ping":86},{"user_id":423,"name":"mangoface","steam_id":76561199028760996,"connected_time":738000000000,"state":"active","ping":148},{"user_id":364,"name":"kametro4","steam_id":76561198835430429,"connected_time":3914000000000,"state":"active","ping":79},{"user_id":428,"name":"Z4LTte","steam_id":76561198283258068,"connected_time":668000000000,"state":"active","ping":60},{"user_id":373,"name":"Bird","steam_id":76561198247484514,"connected_time":3429000000000,"state":"active","ping":73},{"user_id":425,"name":"bobbyreinman2009","steam_id":76561198804763186,"connected_time":729000000000,"state":"active","ping":60},{"user_id":429,"name":"Kymat","steam_id":76561198056367793,"connected_time":257000000000,"state":"active","ping":75},{"user_id":354,"name":"yahoo.com warrior","steam_id":76561198152818418,"connected_time":4555000000000,"state":"active","ping":86},{"user_id":356,"name":"Yandex.RU Mercenary","steam_id":76561198202254225,"connected_time":4491000000000,"state":"active","ping":90},{"user_id":391,"name":"gallowsCalibrator","steam_id":76561198076388445,"connected_time":1726000000000,"state":"active","ping":81},{"user_id":374,"name":"４０ ＦＰＳ","steam_id":76561198272394965,"connected_time":3423000000000,"state":"active","ping":135},{"user_id":383,"name":"OctopusCrime","steam_id":76561198060141069,"connected_time":2338000000000,"state":"active","ping":82},{"user_id":389,"name":"Garbo","steam_id":76561198192120869,"connected_time":2151000000000,"state":"active","ping":60},{"user_id":426,"name":"uhhhh","steam_id":76561199211193548,"connected_time":717000000000,"state":"active","ping":59},{"user_id":427,"name":"g00bur","steam_id":76561197993622520,"connected_time":700000000000,"state":"active","ping":71},{"user_id":388,"name":"popfulmail","steam_id":76561198865971290,"connected_time":2253000000000,"state":"active","ping":86},{"user_id":417,"name":"DIVIDE AND DISSOLVE","steam_id":76561198138221795,"connected_time":1109000000000,"state":"active","ping":71}]},{"server_id":36,"name":"Uncletopia | Chicago | 5 | All Maps","name_short":"chi-5","host":"chi-2.us.uncletopia.com","port":27015,"enabled":true,"region":"us-central","cc":"us","latitude":41.881832,"longitude":-87.62318,"reserved":0,"last_update":"0001-01-01T00:00:00Z","name_a2s":"Uncletopia | Chicago | 5 | All Maps","protocol":17,"map":"koth_cascade","folder":"tf","game":"Team Fortress","app_id":440,"player_count":0,"max_players":24,"Bots":0,"server_type":"Dedicated","server_os":"Linux","password":true,"vac":true,"version":"7757534","steam_id":85568392924866362,"keywords":["cp","nocrits","nodmgspread","uncletopia"],"game_id":440,"stv_port":27016,"stv_name":"Uncletopia | Chicago | 5 | All Maps | STV","players":null},{"server_id":37,"name":"Uncletopia | Chicago | 6 | All Maps","name_short":"chi-6","host":"chi-2.us.uncletopia.com","port":27025,"enabled":true,"region":"us-central","cc":"us","latitude":41.881832,"longitude":-87.62318,"reserved":0,"last_update":"0001-01-01T00:00:00Z","name_a2s":"Uncletopia | Chicago | 6 | All Maps","protocol":17,"map":"pl_upward","folder":"tf","game":"Team Fortress","app_id":440,"player_count":24,"max_players":24,"Bots":0,"server_type":"Dedicated","server_os":"Linux","password":true,"vac":true,"version":"7757534","steam_id":85568392924866363,"keywords":["nocrits","nodmgspread","payload","uncletopia"],"game_id":440,"stv_port":27026,"stv_name":"Uncletopia | Chicago | 6 | All Maps | STV","players":[{"user_id":276,"name":"Pyro","steam_id":76561198312228050,"connected_time":1342000000000,"state":"active","ping":69},{"user_id":268,"name":"Chief Diggery K.","steam_id":76561198066629137,"connected_time":2213000000000,"state":"active","ping":85},{"user_id":223,"name":"Ben-Shapiro-Gaming","steam_id":76561198133520011,"connected_time":3710000000000,"state":"active","ping":66},{"user_id":277,"name":"Gocel","steam_id":76561198071467515,"connected_time":1339000000000,"state":"active","ping":70},{"user_id":289,"name":"=PB=","steam_id":76561197999146612,"connected_time":148000000000,"state":"active","ping":122},{"user_id":269,"name":"girlpeen supreme","steam_id":76561198031242903,"connected_time":2196000000000,"state":"active","ping":67},{"user_id":287,"name":"omma omma geh","steam_id":76561198339644583,"connected_time":377000000000,"state":"active","ping":51},{"user_id":274,"name":"no thoughts, head empty snake","steam_id":76561198872396820,"connected_time":1598000000000,"state":"active","ping":69},{"user_id":254,"name":"DerrickHenryFan2012","steam_id":76561198254452687,"connected_time":2508000000000,"state":"active","ping":94},{"user_id":286,"name":"slankyfootman","steam_id":76561199062583366,"connected_time":615000000000,"state":"active","ping":57},{"user_id":266,"name":"Kaluka","steam_id":76561198036861445,"connected_time":2231000000000,"state":"active","ping":61},{"user_id":227,"name":"SC|Formuoli","steam_id":76561198254354595,"connected_time":3306000000000,"state":"active","ping":37},{"user_id":231,"name":"A Puppy","steam_id":76561198828184456,"connected_time":3148000000000,"state":"active","ping":59},{"user_id":290,"name":"I Am Alpharius","steam_id":76561198799197135,"connected_time":46000000000,"state":"spawning","ping":64},{"user_id":272,"name":"CaptainKn1ght","steam_id":76561198018979695,"connected_time":1852000000000,"state":"active","ping":89},{"user_id":237,"name":"craf","steam_id":76561198163535075,"connected_time":3017000000000,"state":"active","ping":68},{"user_id":288,"name":"¬‿¬","steam_id":76561198325526945,"connected_time":233000000000,"state":"active","ping":64},{"user_id":283,"name":"Crunchy","steam_id":76561199065412274,"connected_time":1087000000000,"state":"active","ping":72},{"user_id":267,"name":"Big kahuna","steam_id":76561198142024812,"connected_time":2222000000000,"state":"active","ping":78},{"user_id":292,"name":"Missing Minus","steam_id":76561198120822928,"connected_time":4000000000,"state":"spawning","ping":53},{"user_id":258,"name":"Peter Popoff","steam_id":76561198027171160,"connected_time":2446000000000,"state":"active","ping":53},{"user_id":291,"name":"Hippieranger","steam_id":76561198051958589,"connected_time":46000000000,"state":"spawning","ping":74},{"user_id":259,"name":"debin","steam_id":76561198070711217,"connected_time":2441000000000,"state":"active","ping":46},{"user_id":271,"name":"BroBuck3","steam_id":76561198119436987,"connected_time":2003000000000,"state":"active","ping":65}]},{"server_id":38,"name":"Uncletopia | Chicago | 7 | Stopwatch Beta","name_short":"chi-7","host":"chi-2.us.uncletopia.com","port":27035,"enabled":true,"region":"us-central","cc":"us","latitude":41.881832,"longitude":-87.62318,"reserved":0,"last_update":"0001-01-01T00:00:00Z","name_a2s":"Uncletopia | Chicago | 7 | Stopwatch Beta","protocol":17,"map":"pl_barnblitz","folder":"tf","game":"Team Fortress","app_id":440,"player_count":0,"max_players":24,"Bots":0,"server_type":"Dedicated","server_os":"Linux","password":true,"vac":true,"version":"7757534","steam_id":85568392924866364,"keywords":["nocrits","nodmgspread","payload","uncletopia"],"game_id":440,"stv_port":27036,"stv_name":"Uncletopia | Chicago | 7 | Stopwatch Beta | STV","players":null},{"server_id":39,"name":"Uncletopia | Chicago | 8 | Community","name_short":"chi-8","host":"chi-2.us.uncletopia.com","port":27045,"enabled":true,"region":"us-central","cc":"us","latitude":41.881832,"longitude":-87.62318,"reserved":0,"last_update":"0001-01-01T00:00:00Z","name_a2s":"Uncletopia | Chicago | 8 | Community","protocol":17,"map":"koth_cascade","folder":"tf","game":"Team Fortress","app_id":440,"player_count":0,"max_players":24,"Bots":0,"server_type":"Dedicated","server_os":"Linux","password":true,"vac":true,"version":"7757534","steam_id":85568392924866365,"keywords":["cp","nocrits","nodmgspread","uncletopia"],"game_id":440,"stv_port":27046,"stv_name":"Uncletopia | Chicago | 8 | Community | STV","players":null},{"server_id":8,"name":"Uncletopia | Dallas | 1 | All Maps","name_short":"dal-1","host":"dal-1.us.uncletopia.com","port":27015,"enabled":true,"region":"us-central","cc":"us","latitude":32.779167,"longitude":-96.80889,"reserved":0,"last_update":"0001-01-01T00:00:00Z","name_a2s":"Uncletopia | Dallas | 1 | All Maps","protocol":17,"map":"pl_badwater","folder":"tf","game":"Team Fortress","app_id":440,"player_count":24,"max_players":24,"Bots":0,"server_type":"Dedicated","server_os":"Linux","password":true,"vac":true,"version":"7757534","steam_id":85568392924469986,"keywords":["nocrits","nodmgspread","payload","uncletopia"],"game_id":440,"stv_port":27016,"stv_name":"Uncletopia | Dallas | 1 | All Maps | STV","players":[{"user_id":14,"name":"Baby gaming","steam_id":76561198867319323,"connected_time":5261000000000,"state":"active","ping":86},{"user_id":16,"name":"thetroupegang","steam_id":76561198340510098,"connected_time":5216000000000,"state":"active","ping":37},{"user_id":65,"name":"Nutz On Yo Chin","steam_id":76561197962978554,"connected_time":198000000000,"state":"active","ping":148},{"user_id":29,"name":"icm2008","steam_id":76561199277408836,"connected_time":2245000000000,"state":"active","ping":77},{"user_id":28,"name":"Bobby Zimmeruski","steam_id":76561198171428589,"connected_time":2338000000000,"state":"active","ping":41},{"user_id":27,"name":"BatJet","steam_id":76561198147738441,"connected_time":2352000000000,"state":"active","ping":88},{"user_id":63,"name":"Waffle Wannabe","steam_id":76561198064510650,"connected_time":318000000000,"state":"active","ping":84},{"user_id":36,"name":"D3RPYN00B101","steam_id":76561198864191308,"connected_time":1958000000000,"state":"active","ping":72},{"user_id":55,"name":"Dips","steam_id":76561198251975850,"connected_time":1453000000000,"state":"active","ping":103},{"user_id":34,"name":"andyiscolorless","steam_id":76561199239870921,"connected_time":1974000000000,"state":"active","ping":136},{"user_id":64,"name":"♥ PsychicCellar ♥","steam_id":76561198045923020,"connected_time":261000000000,"state":"active","ping":58},{"user_id":38,"name":"John16Mark","steam_id":76561198119445407,"connected_time":1869000000000,"state":"active","ping":86},{"user_id":54,"name":"Tanner The Fish Man","steam_id":76561198372696640,"connected_time":1485000000000,"state":"active","ping":68},{"user_id":59,"name":"Goose of Wisdom","steam_id":76561198233465044,"connected_time":677000000000,"state":"active","ping":107},{"user_id":66,"name":"BLACK RANGER","steam_id":76561198117825609,"connected_time":167000000000,"state":"active","ping":91},{"user_id":42,"name":"cacti","steam_id":76561198041607299,"connected_time":1806000000000,"state":"active","ping":66},{"user_id":57,"name":"Dr.Soda","steam_id":76561198034549694,"connected_time":1399000000000,"state":"active","ping":93},{"user_id":44,"name":"I am a mooshroom","steam_id":76561198104198295,"connected_time":1737000000000,"state":"active","ping":61},{"user_id":60,"name":"minly","steam_id":76561199078991134,"connected_time":645000000000,"state":"active","ping":77},{"user_id":47,"name":"poompis","steam_id":76561198160850933,"connected_time":1717000000000,"state":"active","ping":75},{"user_id":52,"name":"BayanTheBear","steam_id":76561198134537476,"connected_time":1603000000000,"state":"active","ping":86},{"user_id":61,"name":"Butman902","steam_id":76561198190200054,"connected_time":638000000000,"state":"active","ping":71},{"user_id":62,"name":"♥ JUNE ♥","steam_id":76561198975039481,"connected_time":627000000000,"state":"active","ping":80},{"user_id":68,"name":"Pybro Gameing","steam_id":76561199229852473,"connected_time":43000000000,"state":"active","ping":153}]},{"server_id":108,"name":"Uncletopia | Dallas | 2 | All Maps","name_short":"dal-2","host":"dal-1.us.uncletopia.com","port":27025,"enabled":true,"region":"us-central","cc":"us","latitude":32.779167,"longitude":-96.80889,"reserved":0,"last_update":"0001-01-01T00:00:00Z","name_a2s":"Uncletopia | Dallas | 2 | All Maps","protocol":17,"map":"pl_snowycoast","folder":"tf","game":"Team Fortress","app_id":440,"player_count":24,"max_players":24,"Bots":0,"server_type":"Dedicated","server_os":"Linux","password":true,"vac":true,"version":"7757534","steam_id":85568392924469988,"keywords":["nocrits","nodmgspread","payload","uncletopia"],"game_id":440,"stv_port":27026,"stv_name":"Uncletopia | Dallas | 2 | All Maps | STV","players":[{"user_id":307,"name":"ice spice wormhole","steam_id":76561198061497429,"connected_time":2492000000000,"state":"active","ping":50},{"user_id":306,"name":"adam0o0","steam_id":76561198052250279,"connected_time":2566000000000,"state":"active","ping":73},{"user_id":288,"name":"Female Gamer","steam_id":76561199366482682,"connected_time":4019000000000,"state":"active","ping":122},{"user_id":317,"name":"Natascha Gaming","steam_id":76561198400058665,"connected_time":1569000000000,"state":"active","ping":86},{"user_id":285,"name":"Brown_Dream","steam_id":76561198975766145,"connected_time":4367000000000,"state":"active","ping":83},{"user_id":322,"name":"MrrPickle","steam_id":76561198122046514,"connected_time":912000000000,"state":"active","ping":88},{"user_id":198,"name":"Cinnifox","steam_id":76561198068773971,"connected_time":9806000000000,"state":"active","ping":75},{"user_id":119,"name":"Romanian Officer B Dingling","steam_id":76561198831997540,"connected_time":13759000000000,"state":"active","ping":62},{"user_id":323,"name":"Dragonofponies","steam_id":76561199016800803,"connected_time":885000000000,"state":"active","ping":57},{"user_id":310,"name":"VixianUwU","steam_id":76561198948815060,"connected_time":2387000000000,"state":"active","ping":77},{"user_id":329,"name":"Pinder","steam_id":76561198176708643,"connected_time":555000000000,"state":"active","ping":102},{"user_id":324,"name":"Gaminglast","steam_id":76561198362927765,"connected_time":787000000000,"state":"active","ping":125},{"user_id":292,"name":"carol in HR","steam_id":76561198071775268,"connected_time":3920000000000,"state":"active","ping":88},{"user_id":315,"name":"h20verdrive","steam_id":76561198115957085,"connected_time":2214000000000,"state":"active","ping":75},{"user_id":320,"name":"a chicken","steam_id":76561198313121580,"connected_time":962000000000,"state":"active","ping":75},{"user_id":332,"name":"Horse","steam_id":76561198004583631,"connected_time":338000000000,"state":"active","ping":101},{"user_id":107,"name":"Joe Swanson","steam_id":76561199089907740,"connected_time":15099000000000,"state":"active","ping":73},{"user_id":330,"name":"test","steam_id":76561198197388678,"connected_time":531000000000,"state":"active","ping":76},{"user_id":333,"name":"borzier","steam_id":76561198069190432,"connected_time":330000000000,"state":"active","ping":74},{"user_id":286,"name":"nothing happened in Venice","steam_id":76561198936412406,"connected_time":4155000000000,"state":"active","ping":80},{"user_id":316,"name":"Shylo","steam_id":76561199276858045,"connected_time":1592000000000,"state":"active","ping":56},{"user_id":326,"name":"Cocksneed Fartin","steam_id":76561198126675787,"connected_time":737000000000,"state":"active","ping":57},{"user_id":300,"name":"Mediarch","steam_id":76561198050765729,"connected_time":3687000000000,"state":"active","ping":106},{"user_id":314,"name":"Training Arc","steam_id":76561198038832034,"connected_time":2289000000000,"state":"active","ping":112}]},{"server_id":5,"name":"Uncletopia | Frankfurt | 1 | All Maps","name_short":"frk-1","host":"frk-1.de.uncletopia.com","port":27015,"enabled":true,"region":"eu","cc":"de","latitude":50.110924,"longitude":8.682127,"reserved":0,"last_update":"0001-01-01T00:00:00Z","name_a2s":"Uncletopia | Frankfurt | 1 | All Maps","protocol":17,"map":"pl_borneo","folder":"tf","game":"Team Fortress","app_id":440,"player_count":24,"max_players":24,"Bots":0,"server_type":"Dedicated","server_os":"Linux","password":true,"vac":true,"version":"7757534","steam_id":85568392924469989,"keywords":["nocrits","nodmgspread","payload","uncletopia"],"game_id":440,"stv_port":27016,"stv_name":"Uncletopia | Frankfurt | 1 | All Maps | STV","players":[{"user_id":749,"name":"Weenie Hut Jr's","steam_id":76561198050515739,"connected_time":1294000000000,"state":"active","ping":60},{"user_id":685,"name":"Walle","steam_id":76561197995148937,"connected_time":6797000000000,"state":"active","ping":68},{"user_id":755,"name":"Lemon","steam_id":76561198188535947,"connected_time":608000000000,"state":"active","ping":74},{"user_id":742,"name":"Minimi","steam_id":76561198873850443,"connected_time":1866000000000,"state":"active","ping":54},{"user_id":746,"name":"Fenidokh","steam_id":76561198856093893,"connected_time":1371000000000,"state":"active","ping":78},{"user_id":756,"name":"Yelowchy","steam_id":76561198199416121,"connected_time":584000000000,"state":"active","ping":61},{"user_id":759,"name":"FoOzTV","steam_id":76561197998636728,"connected_time":564000000000,"state":"active","ping":73},{"user_id":758,"name":"Gołęmbiarz","steam_id":76561198072625627,"connected_time":569000000000,"state":"active","ping":70},{"user_id":740,"name":"Somesadkid","steam_id":76561198432663499,"connected_time":1995000000000,"state":"active","ping":54},{"user_id":760,"name":"miche.","steam_id":76561198161449703,"connected_time":554000000000,"state":"active","ping":93},{"user_id":763,"name":"Man Made Mad","steam_id":76561198808819694,"connected_time":410000000000,"state":"active","ping":48},{"user_id":412,"name":"grandpa's post-mortem photo","steam_id":76561198130116078,"connected_time":24954000000000,"state":"active","ping":92},{"user_id":728,"name":"Selmu (She/Her)","steam_id":76561198119496209,"connected_time":3016000000000,"state":"active","ping":60},{"user_id":761,"name":"Luxiite","steam_id":76561198111759526,"connected_time":552000000000,"state":"active","ping":53},{"user_id":712,"name":"flappi","steam_id":76561198072892783,"connected_time":3794000000000,"state":"active","ping":51},{"user_id":708,"name":"Arti","steam_id":76561197983352845,"connected_time":4515000000000,"state":"active","ping":70},{"user_id":750,"name":"Dispenser","steam_id":76561198130195469,"connected_time":1273000000000,"state":"active","ping":74},{"user_id":754,"name":"GoudAI","steam_id":76561198103391197,"connected_time":801000000000,"state":"active","ping":92},{"user_id":762,"name":"smk","steam_id":76561198068027379,"connected_time":536000000000,"state":"active","ping":84},{"user_id":730,"name":"Fran","steam_id":76561199070516960,"connected_time":2476000000000,"state":"active","ping":67},{"user_id":744,"name":"TidB","steam_id":76561198055342304,"connected_time":1571000000000,"state":"active","ping":56},{"user_id":752,"name":"Vufffle","steam_id":76561198269500258,"connected_time":1150000000000,"state":"active","ping":74},{"user_id":732,"name":"Seron-Lowell","steam_id":76561198070291347,"connected_time":2232000000000,"state":"active","ping":53},{"user_id":738,"name":"Hannü","steam_id":76561197969886128,"connected_time":2123000000000,"state":"active","ping":72}]},{"server_id":110,"name":"Uncletopia | Frankfurt | 2 | All Maps","name_short":"frk-2","host":"frk-1.de.uncletopia.com","port":27025,"enabled":true,"region":"eu","cc":"de","latitude":50.110924,"longitude":8.682127,"reserved":0,"last_update":"0001-01-01T00:00:00Z","name_a2s":"Uncletopia | Frankfurt | 2 | All Maps","protocol":17,"map":"pl_swiftwater_final1","folder":"tf","game":"Team Fortress","app_id":440,"player_count":23,"max_players":24,"Bots":0,"server_type":"Dedicated","server_os":"Linux","password":true,"vac":true,"version":"7757534","steam_id":85568392924469990,"keywords":["nocrits","nodmgspread","payload","uncletopia"],"game_id":440,"stv_port":27026,"stv_name":"Uncletopia | Frankfurt | 2 | All Maps | STV","players":[{"user_id":469,"name":"sandvich demolisher","steam_id":76561198192343263,"connected_time":1034000000000,"state":"active","ping":52},{"user_id":414,"name":"kamikaze bat enjoyer","steam_id":76561198865364180,"connected_time":4373000000000,"state":"active","ping":60},{"user_id":470,"name":"Vitamin Weee","steam_id":76561199183937747,"connected_time":991000000000,"state":"active","ping":84},{"user_id":466,"name":"Kvicha Kvaratskhelia","steam_id":76561198179339326,"connected_time":1461000000000,"state":"active","ping":75},{"user_id":454,"name":"Lyell","steam_id":76561198350329389,"connected_time":2054000000000,"state":"active","ping":80},{"user_id":467,"name":"malinký","steam_id":76561198048683488,"connected_time":1225000000000,"state":"active","ping":58},{"user_id":476,"name":"ScarredPixel123","steam_id":76561199165112703,"connected_time":182000000000,"state":"active","ping":82},{"user_id":379,"name":"Mor'du","steam_id":76561198274105878,"connected_time":7315000000000,"state":"active","ping":94},{"user_id":381,"name":"zek","steam_id":76561198862763731,"connected_time":7168000000000,"state":"active","ping":59},{"user_id":457,"name":"Mi Manchi","steam_id":76561198171573129,"connected_time":1953000000000,"state":"active","ping":59},{"user_id":472,"name":"Miolen","steam_id":76561198083366424,"connected_time":973000000000,"state":"active","ping":103},{"user_id":424,"name":"David \"Crash\" Murphy","steam_id":76561198292845505,"connected_time":3807000000000,"state":"active","ping":83},{"user_id":465,"name":"wiping theorist","steam_id":76561198058012525,"connected_time":1543000000000,"state":"active","ping":72},{"user_id":473,"name":"Robs","steam_id":76561198078355830,"connected_time":953000000000,"state":"active","ping":75},{"user_id":433,"name":"medicinal man","steam_id":76561198202668788,"connected_time":3303000000000,"state":"active","ping":59},{"user_id":438,"name":"Latgaul","steam_id":76561199009145544,"connected_time":3152000000000,"state":"active","ping":94},{"user_id":406,"name":"FluffyFoxxo69","steam_id":76561198254582506,"connected_time":4980000000000,"state":"active","ping":59},{"user_id":459,"name":"Step back","steam_id":76561198063855616,"connected_time":1933000000000,"state":"active","ping":74},{"user_id":464,"name":"united chunk","steam_id":76561199017850298,"connected_time":1705000000000,"state":"active","ping":69},{"user_id":475,"name":"Uncle Owen","steam_id":76561198157999291,"connected_time":255000000000,"state":"active","ping":87},{"user_id":461,"name":"pfear","steam_id":76561197999207328,"connected_time":1924000000000,"state":"active","ping":75},{"user_id":462,"name":"Charrky","steam_id":76561198054398642,"connected_time":1911000000000,"state":"active","ping":49},{"user_id":474,"name":"Foonguz","steam_id":76561198834610534,"connected_time":889000000000,"state":"active","ping":59}]},{"server_id":308,"name":"Uncletopia | Frankfurt | 3 | All Maps","name_short":"frk-3","host":"frk-1.de.uncletopia.com","port":27035,"enabled":true,"region":"eu","cc":"de","latitude":50.110924,"longitude":8.682127,"reserved":0,"last_update":"0001-01-01T00:00:00Z","name_a2s":"Uncletopia | Frankfurt | 3 | All Maps","protocol":17,"map":"pl_barnblitz","folder":"tf","game":"Team Fortress","app_id":440,"player_count":0,"max_players":24,"Bots":0,"server_type":"Dedicated","server_os":"Linux","password":true,"vac":true,"version":"7757534","steam_id":85568392924504274,"keywords":["nocrits","nodmgspread","payload","uncletopia"],"game_id":440,"stv_port":27036,"stv_name":"Uncletopia | Frankfurt | 3 | All Maps | STV","players":null},{"server_id":309,"name":"Uncletopia | Frankfurt | 4 | All Maps","name_short":"frk-4","host":"frk-1.de.uncletopia.com","port":27045,"enabled":true,"region":"eu","cc":"de","latitude":50.110924,"longitude":8.682127,"reserved":0,"last_update":"0001-01-01T00:00:00Z","name_a2s":"Uncletopia | Frankfurt | 4 | All Maps","protocol":17,"map":"pl_barnblitz","folder":"tf","game":"Team Fortress","app_id":440,"player_count":20,"max_players":24,"Bots":0,"server_type":"Dedicated","server_os":"Linux","password":true,"vac":true,"version":"7757534","steam_id":85568392924504275,"keywords":["nocrits","nodmgspread","payload","uncletopia"],"game_id":440,"stv_port":27046,"stv_name":"Uncletopia | Frankfurt | 4 | All Maps | STV","players":[{"user_id":353,"name":"Cornelius Shacklebart","steam_id":76561198000735878,"connected_time":1231000000000,"state":"active","ping":60},{"user_id":335,"name":"Syd","steam_id":76561198020515027,"connected_time":1806000000000,"state":"active","ping":59},{"user_id":333,"name":"Mertozt","steam_id":76561199027023555,"connected_time":1815000000000,"state":"active","ping":89},{"user_id":354,"name":"the indomitable human spirit","steam_id":76561199444971686,"connected_time":1205000000000,"state":"active","ping":60},{"user_id":367,"name":"Akane","steam_id":76561197990407312,"connected_time":200000000000,"state":"active","ping":70},{"user_id":355,"name":"mały #tf2pickup.pl","steam_id":76561198074409147,"connected_time":1194000000000,"state":"active","ping":60},{"user_id":306,"name":"jo","steam_id":76561198109074418,"connected_time":3621000000000,"state":"active","ping":62},{"user_id":368,"name":"True Blue Glue","steam_id":76561198410598772,"connected_time":125000000000,"state":"active","ping":62},{"user_id":277,"name":"Surplus Rice","steam_id":76561198181097561,"connected_time":6464000000000,"state":"active","ping":62},{"user_id":369,"name":"Segra blw.tf","steam_id":76561198441974031,"connected_time":122000000000,"state":"active","ping":79},{"user_id":356,"name":"Lowy","steam_id":76561198031470048,"connected_time":1173000000000,"state":"active","ping":68},{"user_id":276,"name":"Wyro","steam_id":76561199176835169,"connected_time":6624000000000,"state":"active","ping":65},{"user_id":373,"name":"The Irish Eejit","steam_id":76561198027738057,"connected_time":13000000000,"state":"spawning","ping":108},{"user_id":370,"name":"D_Ink","steam_id":76561198267716662,"connected_time":111000000000,"state":"active","ping":49},{"user_id":350,"name":"a Regurar Barroon","steam_id":76561198834913692,"connected_time":1541000000000,"state":"active","ping":71},{"user_id":351,"name":"Pats","steam_id":76561198418538887,"connected_time":1371000000000,"state":"active","ping":97},{"user_id":372,"name":"Brian Dog","steam_id":76561198048213112,"connected_time":43000000000,"state":"active","ping":49},{"user_id":361,"name":"balinter","steam_id":76561198103408801,"connected_time":1027000000000,"state":"active","ping":82},{"user_id":294,"name":"Hendriks","steam_id":76561198446347617,"connected_time":4645000000000,"state":"active","ping":48},{"user_id":365,"name":"Ambrósio","steam_id":76561198170020311,"connected_time":247000000000,"state":"active","ping":87}]},{"server_id":310,"name":"Uncletopia | Frankfurt | 5 | All Maps","name_short":"frk-5","host":"frk-1.de.uncletopia.com","port":27055,"enabled":true,"region":"eu","cc":"de","latitude":50.110924,"longitude":8.682127,"reserved":0,"last_update":"0001-01-01T00:00:00Z","name_a2s":"Uncletopia | Frankfurt | 5 | All Maps","protocol":17,"map":"pl_upward","folder":"tf","game":"Team Fortress","app_id":440,"player_count":24,"max_players":24,"Bots":0,"server_type":"Dedicated","server_os":"Linux","password":true,"vac":true,"version":"7757534","steam_id":85568392924504277,"keywords":["nocrits","nodmgspread","payload","uncletopia"],"game_id":440,"stv_port":27056,"stv_name":"Uncletopia | Frankfurt | 5 | All Maps | STV","players":[{"user_id":166,"name":"k","steam_id":76561198089342103,"connected_time":755000000000,"state":"active","ping":76},{"user_id":162,"name":"ja","steam_id":76561199228540618,"connected_time":1143000000000,"state":"active","ping":79},{"user_id":176,"name":"fénix","steam_id":76561198083199151,"connected_time":103000000000,"state":"active","ping":60},{"user_id":177,"name":"Fish","steam_id":76561198182278770,"connected_time":93000000000,"state":"active","ping":74},{"user_id":178,"name":"Maximilian1359","steam_id":76561198152439608,"connected_time":8000000000,"state":"active","ping":209},{"user_id":172,"name":"CreepyChocolate","steam_id":76561198133541741,"connected_time":432000000000,"state":"active","ping":59},{"user_id":155,"name":"1990 mazda miata mx-5","steam_id":76561198272809526,"connected_time":1364000000000,"state":"active","ping":66},{"user_id":156,"name":"Mistress of the universe","steam_id":76561198115988477,"connected_time":1362000000000,"state":"active","ping":60},{"user_id":157,"name":"meriones","steam_id":76561198034234373,"connected_time":1320000000000,"state":"active","ping":60},{"user_id":158,"name":"true","steam_id":76561198031145243,"connected_time":1307000000000,"state":"active","ping":75},{"user_id":123,"name":"Cuthbert","steam_id":76561198204649481,"connected_time":3874000000000,"state":"active","ping":96},{"user_id":143,"name":"zak","steam_id":76561197998895428,"connected_time":2155000000000,"state":"active","ping":59},{"user_id":167,"name":"Shynii","steam_id":76561198194682105,"connected_time":718000000000,"state":"active","ping":63},{"user_id":173,"name":"dylanm0909","steam_id":76561198042433442,"connected_time":412000000000,"state":"active","ping":89},{"user_id":169,"name":"Seail_M","steam_id":76561198002405605,"connected_time":699000000000,"state":"active","ping":52},{"user_id":142,"name":"MeowMaster","steam_id":76561198284605819,"connected_time":2199000000000,"state":"active","ping":84},{"user_id":161,"name":"mp1mp2mp3","steam_id":76561198088967665,"connected_time":1207000000000,"state":"active","ping":91},{"user_id":163,"name":"ChPerette","steam_id":76561198060004887,"connected_time":1117000000000,"state":"active","ping":46},{"user_id":144,"name":"milan","steam_id":76561198858509678,"connected_time":2152000000000,"state":"active","ping":62},{"user_id":174,"name":"OneLocalHero","steam_id":76561198075302482,"connected_time":362000000000,"state":"active","ping":66},{"user_id":175,"name":"Purplenoogie","steam_id":76561198081872160,"connected_time":267000000000,"state":"active","ping":51},{"user_id":134,"name":"X_Gabrieloff_X","steam_id":76561198978979440,"connected_time":2579000000000,"state":"active","ping":91},{"user_id":145,"name":"Luuk","steam_id":76561198088266026,"connected_time":2147000000000,"state":"active","ping":55},{"user_id":164,"name":"Raisin","steam_id":76561198116295334,"connected_time":772000000000,"state":"active","ping":152}]},{"server_id":311,"name":"Uncletopia | Frankfurt | 6 | All Maps","name_short":"frk-6","host":"frk-1.de.uncletopia.com","port":27065,"enabled":true,"region":"eu","cc":"de","latitude":50.110924,"longitude":8.682127,"reserved":0,"last_update":"0001-01-01T00:00:00Z","name_a2s":"Uncletopia | Frankfurt | 6 | All Maps","protocol":17,"map":"plr_nightfall_final","folder":"tf","game":"Team Fortress","app_id":440,"player_count":0,"max_players":24,"Bots":0,"server_type":"Dedicated","server_os":"Linux","password":true,"vac":true,"version":"7757534","steam_id":85568392924504278,"keywords":["nocrits","nodmgspread","payload","uncletopia"],"game_id":440,"stv_port":27066,"stv_name":"Uncletopia | Frankfurt | 6 | All Maps | STV","players":null},{"server_id":23,"name":"Uncletopia | Frankfurt | 7 | Stopwatch Beta","name_short":"frk-7","host":"frk-1.de.uncletopia.com","port":27075,"enabled":true,"region":"eu","cc":"de","latitude":50.110924,"longitude":8.682127,"reserved":0,"last_update":"0001-01-01T00:00:00Z","name_a2s":"Uncletopia | Frankfurt | 7 | Stopwatch Beta","protocol":17,"map":"workshop/koth_clearcut_b15.ugc2107050255","folder":"tf","game":"Team Fortress","app_id":440,"player_count":0,"max_players":24,"Bots":0,"server_type":"Dedicated","server_os":"Linux","password":true,"vac":true,"version":"7757534","steam_id":85568392924742827,"keywords":["cp","nocrits","nodmgspread","uncletopia"],"game_id":440,"stv_port":27076,"stv_name":"Uncletopia | Frankfurt | 7 | Stopwatch Beta | STV","players":null},{"server_id":24,"name":"Uncletopia | Frankfurt | 8 | Community","name_short":"frk-8","host":"frk-1.de.uncletopia.com","port":27085,"enabled":true,"region":"eu","cc":"de","latitude":50.110924,"longitude":8.682127,"reserved":0,"last_update":"0001-01-01T00:00:00Z","name_a2s":"Uncletopia | Frankfurt | 8 | Community","protocol":17,"map":"workshop/cp_croissant_final.ugc458840209","folder":"tf","game":"Team Fortress","app_id":440,"player_count":7,"max_players":24,"Bots":0,"server_type":"Dedicated","server_os":"Linux","password":true,"vac":true,"version":"7757534","steam_id":85568392924742828,"keywords":["cp","nocrits","nodmgspread","uncletopia"],"game_id":440,"stv_port":27086,"stv_name":"Uncletopia | Frankfurt | 8 | Community | STV","players":[{"user_id":291,"name":"Anti_Dragon","steam_id":76561198969060607,"connected_time":2099000000000,"state":"active","ping":100},{"user_id":306,"name":"Miku","steam_id":76561198041717890,"connected_time":932000000000,"state":"active","ping":76},{"user_id":304,"name":"✪ m_br3","steam_id":76561198044981990,"connected_time":1236000000000,"state":"active","ping":74},{"user_id":303,"name":"Yisl","steam_id":76561198379536082,"connected_time":1381000000000,"state":"active","ping":84},{"user_id":280,"name":"boss of the lgbtq+","steam_id":76561198106079915,"connected_time":3709000000000,"state":"active","ping":58},{"user_id":307,"name":"Grumtsior","steam_id":76561198043563111,"connected_time":932000000000,"state":"active","ping":69},{"user_id":305,"name":"Simoh The Swoob","steam_id":76561198058078322,"connected_time":956000000000,"state":"active","ping":78}]},{"server_id":202,"name":"Uncletopia | Hong Kong | 1 | All Maps","name_short":"hgk-1","host":"hgk-1.hk.uncletopia.com","port":27015,"enabled":true,"region":"asia","cc":"hk","latitude":22.302711,"longitude":114.177216,"reserved":0,"last_update":"0001-01-01T00:00:00Z","name_a2s":"Uncletopia | Hong Kong | 1 | All Maps","protocol":17,"map":"koth_lakeside_final","folder":"tf","game":"Team Fortress","app_id":440,"player_count":0,"max_players":24,"Bots":0,"server_type":"Dedicated","server_os":"Linux","password":true,"vac":true,"version":"7757534","steam_id":85568392924494504,"keywords":["cp","nocrits","nodmgspread","uncletopia"],"game_id":440,"stv_port":27016,"stv_name":"Uncletopia | Hong Kong | 1 | All Maps | STV","players":null},{"server_id":1,"name":"Uncletopia | Los Angeles | 1 | All Maps","name_short":"lax-1","host":"lax-1.us.uncletopia.com","port":27015,"enabled":true,"region":"us-west","cc":"us","latitude":33.94279,"longitude":-118.41004,"reserved":0,"last_update":"0001-01-01T00:00:00Z","name_a2s":"Uncletopia | Los Angeles | 1 | All Maps","protocol":17,"map":"koth_lakeside_final","folder":"tf","game":"Team Fortress","app_id":440,"player_count":0,"max_players":24,"Bots":0,"server_type":"Dedicated","server_os":"Linux","password":true,"vac":true,"version":"7757534","steam_id":85568392924469991,"keywords":["cp","nocrits","nodmgspread","uncletopia"],"game_id":440,"stv_port":27016,"stv_name":"Uncletopia | Los Angeles | 1 | All Maps | STV","players":null},{"server_id":112,"name":"Uncletopia | Los Angeles | 2 | All Maps","name_short":"lax-2","host":"lax-1.us.uncletopia.com","port":27025,"enabled":true,"region":"us-west","cc":"us","latitude":33.94279,"longitude":-118.41004,"reserved":0,"last_update":"0001-01-01T00:00:00Z","name_a2s":"Uncletopia | Los Angeles | 2 | All Maps","protocol":17,"map":"pl_badwater","folder":"tf","game":"Team Fortress","app_id":440,"player_count":0,"max_players":24,"Bots":0,"server_type":"Dedicated","server_os":"Linux","password":true,"vac":true,"version":"7757534","steam_id":85568392924469992,"keywords":["nocrits","nodmgspread","payload","uncletopia"],"game_id":440,"stv_port":27026,"stv_name":"Uncletopia | Los Angeles | 2 | All Maps | STV","players":null},{"server_id":324,"name":"Uncletopia | Los Angeles | 3 | All Maps","name_short":"lax-3","host":"lax-1.us.uncletopia.com","port":27035,"enabled":true,"region":"us-west","cc":"us","latitude":33.94279,"longitude":-118.41004,"reserved":0,"last_update":"0001-01-01T00:00:00Z","name_a2s":"Uncletopia | Los Angeles | 3 | All Maps","protocol":17,"map":"pl_barnblitz","folder":"tf","game":"Team Fortress","app_id":440,"player_count":0,"max_players":24,"Bots":0,"server_type":"Dedicated","server_os":"Linux","password":true,"vac":true,"version":"7757534","steam_id":85568392924510198,"keywords":["nocrits","nodmgspread","payload","uncletopia"],"game_id":440,"stv_port":27036,"stv_name":"Uncletopia | Los Angeles | 3 | All Maps | STV","players":null},{"server_id":25,"name":"Uncletopia | Los Angeles | 4 | Stopwatch Beta","name_short":"lax-4","host":"lax-1.us.uncletopia.com","port":27045,"enabled":true,"region":"us-west","cc":"us","latitude":33.94279,"longitude":-118.41004,"reserved":0,"last_update":"0001-01-01T00:00:00Z","name_a2s":"Uncletopia | Los Angeles | 4 | Stopwatch Beta","protocol":17,"map":"pl_swiftwater_final1","folder":"tf","game":"Team Fortress","app_id":440,"player_count":0,"max_players":24,"Bots":0,"server_type":"Dedicated","server_os":"Linux","password":true,"vac":true,"version":"7757534","steam_id":85568392924510199,"keywords":["nocrits","nodmgspread","payload","uncletopia"],"game_id":440,"stv_port":27046,"stv_name":"Uncletopia | Los Angeles | 4 | Stopwatch Beta | STV","players":null},{"server_id":11,"name":"Uncletopia | London | 1 | All Maps","name_short":"lon-1","host":"lon-1.uk.uncletopia.com","port":27015,"enabled":true,"region":"eu","cc":"gb","latitude":51.509865,"longitude":-0.118092,"reserved":0,"last_update":"0001-01-01T00:00:00Z","name_a2s":"Uncletopia | London | 1 | All Maps","protocol":17,"map":"cp_steel","folder":"tf","game":"Team Fortress","app_id":440,"player_count":24,"max_players":24,"Bots":0,"server_type":"Dedicated","server_os":"Linux","password":true,"vac":true,"version":"7757534","steam_id":85568392924367362,"keywords":["cp","nocrits","nodmgspread","uncletopia"],"game_id":440,"stv_port":27016,"stv_name":"Uncletopia | London | 1 | All Maps | STV","players":[{"user_id":528,"name":"mt","steam_id":76561197961319303,"connected_time":4424000000000,"state":"active","ping":60},{"user_id":543,"name":"Son Goku","steam_id":76561199383437138,"connected_time":3632000000000,"state":"active","ping":129},{"user_id":551,"name":"thespe","steam_id":76561198088225107,"connected_time":2626000000000,"state":"active","ping":68},{"user_id":513,"name":"Lewylow","steam_id":76561198005425686,"connected_time":6520000000000,"state":"active","ping":51},{"user_id":552,"name":"silicon based life form","steam_id":76561199127121346,"connected_time":2625000000000,"state":"active","ping":58},{"user_id":575,"name":"BreadBubbles","steam_id":76561198174332826,"connected_time":163000000000,"state":"active","ping":56},{"user_id":544,"name":"Fwebbie","steam_id":76561199006875621,"connected_time":3613000000000,"state":"active","ping":60},{"user_id":526,"name":"shooer","steam_id":76561198110531281,"connected_time":5357000000000,"state":"active","ping":73},{"user_id":550,"name":"General Petrov","steam_id":76561198027204104,"connected_time":2638000000000,"state":"active","ping":82},{"user_id":546,"name":"Prome","steam_id":76561199050383942,"connected_time":3201000000000,"state":"active","ping":66},{"user_id":567,"name":"random_player691","steam_id":76561199209946306,"connected_time":663000000000,"state":"active","ping":53},{"user_id":574,"name":"unrik76","steam_id":76561198147134386,"connected_time":213000000000,"state":"active","ping":80},{"user_id":558,"name":"SirSangoor","steam_id":76561198044462559,"connected_time":1408000000000,"state":"active","ping":112},{"user_id":549,"name":"Seaney","steam_id":76561198059138839,"connected_time":2645000000000,"state":"active","ping":61},{"user_id":562,"name":"Neytan","steam_id":76561198027024747,"connected_time":1127000000000,"state":"active","ping":185},{"user_id":556,"name":"gnarly business","steam_id":76561198832688767,"connected_time":1419000000000,"state":"active","ping":49},{"user_id":538,"name":"dec","steam_id":76561198009660168,"connected_time":4243000000000,"state":"active","ping":57},{"user_id":569,"name":"Ooze","steam_id":76561198039642637,"connected_time":463000000000,"state":"active","ping":87},{"user_id":563,"name":"Warlord Zira","steam_id":76561198044174757,"connected_time":1068000000000,"state":"active","ping":98},{"user_id":566,"name":"♦Silvia♦","steam_id":76561198373039444,"connected_time":935000000000,"state":"active","ping":106},{"user_id":577,"name":"harryhux","steam_id":76561198228052940,"connected_time":57000000000,"state":"active","ping":39},{"user_id":557,"name":"regimiro","steam_id":76561198120457008,"connected_time":1419000000000,"state":"active","ping":50},{"user_id":548,"name":"Majsco","steam_id":76561197988710485,"connected_time":2930000000000,"state":"active","ping":45},{"user_id":565,"name":"Night Fury","steam_id":76561197995207032,"connected_time":1049000000000,"state":"active","ping":86}]},{"server_id":114,"name":"Uncletopia | London | 2 | All Maps","name_short":"lon-2","host":"lon-1.uk.uncletopia.com","port":27025,"enabled":true,"region":"eu","cc":"gb","latitude":51.509865,"longitude":-0.118092,"reserved":0,"last_update":"0001-01-01T00:00:00Z","name_a2s":"Uncletopia | London | 2 | All Maps","protocol":17,"map":"pl_pier","folder":"tf","game":"Team Fortress","app_id":440,"player_count":24,"max_players":24,"Bots":0,"server_type":"Dedicated","server_os":"Linux","password":true,"vac":true,"version":"7757534","steam_id":85568392924470941,"keywords":["nocrits","nodmgspread","payload","uncletopia"],"game_id":440,"stv_port":27026,"stv_name":"Uncletopia | London | 2 | All Maps | STV","players":[{"user_id":141,"name":"kojitori","steam_id":76561198838072150,"connected_time":2032000000000,"state":"active","ping":45},{"user_id":146,"name":"rosepinkyfuzz","steam_id":76561198018546334,"connected_time":472000000000,"state":"active","ping":74},{"user_id":147,"name":"Chlorine","steam_id":76561198995993972,"connected_time":445000000000,"state":"active","ping":56},{"user_id":109,"name":"Proto-arc","steam_id":76561198012776747,"connected_time":4280000000000,"state":"active","ping":59},{"user_id":148,"name":"Rune","steam_id":76561198012822726,"connected_time":432000000000,"state":"active","ping":93},{"user_id":159,"name":"nyanezt","steam_id":76561198253734265,"connected_time":180000000000,"state":"active","ping":106},{"user_id":112,"name":"gRUBY","steam_id":76561198040429367,"connected_time":4163000000000,"state":"active","ping":92},{"user_id":158,"name":"Insain Bolt!","steam_id":76561198025687726,"connected_time":263000000000,"state":"active","ping":78},{"user_id":150,"name":"Raldow","steam_id":76561198021389301,"connected_time":401000000000,"state":"active","ping":59},{"user_id":74,"name":"Harpenden, Harpenden, Harpenden","steam_id":76561198118138546,"connected_time":5031000000000,"state":"active","ping":43},{"user_id":156,"name":"Lukas","steam_id":76561198009118452,"connected_time":284000000000,"state":"active","ping":67},{"user_id":152,"name":"Brallerin","steam_id":76561198060026189,"connected_time":394000000000,"state":"active","ping":55},{"user_id":153,"name":"medium rare chicken enjoyer","steam_id":76561198050214002,"connected_time":377000000000,"state":"active","ping":60},{"user_id":144,"name":"Chad Slav","steam_id":76561198160103841,"connected_time":1246000000000,"state":"active","ping":74},{"user_id":160,"name":"Demoknight tf2","steam_id":76561198133041874,"connected_time":37000000000,"state":"active","ping":60},{"user_id":121,"name":"Twisted Logic ∞","steam_id":76561198002245428,"connected_time":4028000000000,"state":"active","ping":39},{"user_id":122,"name":"eeeeee","steam_id":76561198017786875,"connected_time":4019000000000,"state":"active","ping":73},{"user_id":123,"name":"Carrotcracker","steam_id":76561198034862396,"connected_time":4012000000000,"state":"active","ping":104},{"user_id":124,"name":"Piellino","steam_id":76561198156873276,"connected_time":3987000000000,"state":"active","ping":108},{"user_id":145,"name":"Dwevy","steam_id":76561198090379437,"connected_time":929000000000,"state":"active","ping":53},{"user_id":154,"name":"Saint","steam_id":76561198003296382,"connected_time":369000000000,"state":"active","ping":77},{"user_id":138,"name":"FeminineAtom [LOS]","steam_id":76561198311208470,"connected_time":3413000000000,"state":"active","ping":60},{"user_id":128,"name":"Penis Contortionist","steam_id":76561198073663784,"connected_time":3935000000000,"state":"active","ping":40},{"user_id":155,"name":"Erior","steam_id":76561198039462080,"connected_time":360000000000,"state":"active","ping":85}]},{"server_id":320,"name":"Uncletopia | London | 3 | All Maps","name_short":"lon-3","host":"lon-1.uk.uncletopia.com","port":27035,"enabled":true,"region":"eu","cc":"gb","latitude":51.509865,"longitude":-0.118092,"reserved":0,"last_update":"0001-01-01T00:00:00Z","name_a2s":"Uncletopia | London | 3 | All Maps","protocol":17,"map":"pl_badwater","folder":"tf","game":"Team Fortress","app_id":440,"player_count":24,"max_players":24,"Bots":0,"server_type":"Dedicated","server_os":"Linux","password":true,"vac":true,"version":"7757534","steam_id":85568392924510192,"keywords":["nocrits","nodmgspread","payload","uncletopia"],"game_id":440,"stv_port":27036,"stv_name":"Uncletopia | London | 3 | All Maps | STV","players":[{"user_id":561,"name":"Kurage","steam_id":76561198021221288,"connected_time":590000000000,"state":"active","ping":69},{"user_id":528,"name":"pansexual","steam_id":76561198047778351,"connected_time":2765000000000,"state":"active","ping":45},{"user_id":538,"name":"PizzaPete123","steam_id":76561198089478290,"connected_time":2303000000000,"state":"active","ping":35},{"user_id":555,"name":"Welder","steam_id":76561198355300561,"connected_time":1067000000000,"state":"active","ping":73},{"user_id":554,"name":"MAKENTAKEN","steam_id":76561199127359587,"connected_time":1218000000000,"state":"active","ping":102},{"user_id":516,"name":"X-tis","steam_id":76561198043837480,"connected_time":2934000000000,"state":"active","ping":72},{"user_id":552,"name":"Egor Pomidor","steam_id":76561199175688390,"connected_time":1297000000000,"state":"active","ping":80},{"user_id":543,"name":"LarsInABox","steam_id":76561198028329262,"connected_time":1732000000000,"state":"active","ping":71},{"user_id":542,"name":"EdSuedi","steam_id":76561199387956486,"connected_time":1944000000000,"state":"active","ping":134},{"user_id":565,"name":"Scutchy","steam_id":76561198104431220,"connected_time":305000000000,"state":"active","ping":56},{"user_id":556,"name":"jackchan37","steam_id":76561199084555750,"connected_time":1065000000000,"state":"active","ping":46},{"user_id":527,"name":"nirakya","steam_id":76561198024488584,"connected_time":2774000000000,"state":"active","ping":48},{"user_id":529,"name":"morgan","steam_id":76561198322124999,"connected_time":2756000000000,"state":"active","ping":67},{"user_id":519,"name":"NitPig","steam_id":76561198212991935,"connected_time":2850000000000,"state":"active","ping":95},{"user_id":530,"name":"ohmiclaser","steam_id":76561198356393376,"connected_time":2736000000000,"state":"active","ping":42},{"user_id":566,"name":"washed up","steam_id":76561198275742101,"connected_time":226000000000,"state":"active","ping":72},{"user_id":509,"name":"Nope.avi","steam_id":76561198396687651,"connected_time":3075000000000,"state":"active","ping":91},{"user_id":541,"name":"WhoIsFrosty","steam_id":76561198880588117,"connected_time":2001000000000,"state":"active","ping":145},{"user_id":563,"name":"addicted","steam_id":76561199129801006,"connected_time":331000000000,"state":"active","ping":60},{"user_id":564,"name":"big t","steam_id":76561198067179454,"connected_time":328000000000,"state":"active","ping":34},{"user_id":553,"name":"explosive diarrhea","steam_id":76561198133145899,"connected_time":1289000000000,"state":"active","ping":139},{"user_id":500,"name":"Fat Pigeon","steam_id":76561198817940142,"connected_time":3475000000000,"state":"active","ping":45},{"user_id":550,"name":"LawrenceFishdom","steam_id":76561199190918059,"connected_time":1456000000000,"state":"active","ping":57},{"user_id":567,"name":"Udinese Dion","steam_id":76561198067931573,"connected_time":226000000000,"state":"active","ping":61}]},{"server_id":321,"name":"Uncletopia | London | 4 | All Maps","name_short":"lon-4","host":"lon-1.uk.uncletopia.com","port":27045,"enabled":true,"region":"eu","cc":"gb","latitude":51.509865,"longitude":-0.118092,"reserved":0,"last_update":"0001-01-01T00:00:00Z","name_a2s":"Uncletopia | London | 4 | All Maps","protocol":17,"map":"cp_snakewater_final1","folder":"tf","game":"Team Fortress","app_id":440,"player_count":23,"max_players":24,"Bots":0,"server_type":"Dedicated","server_os":"Linux","password":true,"vac":true,"version":"7757534","steam_id":85568392924510193,"keywords":["cp","nocrits","nodmgspread","uncletopia"],"game_id":440,"stv_port":27046,"stv_name":"Uncletopia | London | 4 | All Maps | STV","players":[{"user_id":94,"name":"Plague Marine","steam_id":76561198843167121,"connected_time":481000000000,"state":"active","ping":52},{"user_id":46,"name":"Azury","steam_id":76561198321669372,"connected_time":3695000000000,"state":"active","ping":52},{"user_id":98,"name":"Lag","steam_id":76561198159360376,"connected_time":85000000000,"state":"active","ping":51},{"user_id":99,"name":"e36 1.8","steam_id":76561198134203031,"connected_time":39000000000,"state":"active","ping":64},{"user_id":49,"name":"Ritz","steam_id":76561198222317440,"connected_time":3667000000000,"state":"active","ping":55},{"user_id":50,"name":"Vanille™","steam_id":76561198008102959,"connected_time":3663000000000,"state":"active","ping":56},{"user_id":52,"name":"Davey","steam_id":76561198256879107,"connected_time":3200000000000,"state":"active","ping":76},{"user_id":84,"name":"cherry coal","steam_id":76561198822725169,"connected_time":815000000000,"state":"active","ping":59},{"user_id":88,"name":"Carol Olston","steam_id":76561198080257273,"connected_time":539000000000,"state":"active","ping":42},{"user_id":63,"name":"Gregsticles","steam_id":76561198805480191,"connected_time":1945000000000,"state":"active","ping":56},{"user_id":58,"name":"H2n9","steam_id":76561198055811259,"connected_time":2180000000000,"state":"active","ping":51},{"user_id":92,"name":"Bulkyrock340","steam_id":76561198850197444,"connected_time":521000000000,"state":"active","ping":69},{"user_id":62,"name":"Intruder","steam_id":76561198156128173,"connected_time":1961000000000,"state":"active","ping":75},{"user_id":61,"name":"Illegally Legal","steam_id":76561198982674420,"connected_time":2098000000000,"state":"active","ping":37},{"user_id":64,"name":"Qwerty (Kiwee)","steam_id":76561198991043855,"connected_time":1918000000000,"state":"active","ping":141},{"user_id":65,"name":"Silly Billy","steam_id":76561199079002507,"connected_time":1909000000000,"state":"active","ping":49},{"user_id":96,"name":"Sparrow","steam_id":76561199289555797,"connected_time":215000000000,"state":"active","ping":70},{"user_id":68,"name":"SomaZ","steam_id":76561198034694581,"connected_time":1883000000000,"state":"active","ping":65},{"user_id":90,"name":"jj","steam_id":76561198079200985,"connected_time":534000000000,"state":"active","ping":53},{"user_id":91,"name":"LegitACarWithAGun","steam_id":76561198081742337,"connected_time":529000000000,"state":"active","ping":95},{"user_id":97,"name":"coldwar121947","steam_id":76561199387219377,"connected_time":116000000000,"state":"active","ping":172},{"user_id":93,"name":"game","steam_id":76561199111169960,"connected_time":517000000000,"state":"active","ping":65},{"user_id":95,"name":"Kleiner Engel","steam_id":76561198009922500,"connected_time":427000000000,"state":"active","ping":73}]},{"server_id":21,"name":"Uncletopia | London | 5 | All Maps","name_short":"lon-5","host":"lon-1.uk.uncletopia.com","port":27055,"enabled":true,"region":"eu","cc":"gb","latitude":51.509865,"longitude":-0.118092,"reserved":0,"last_update":"0001-01-01T00:00:00Z","name_a2s":"Uncletopia | London | 5 | All Maps","protocol":17,"map":"pl_thundermountain","folder":"tf","game":"Team Fortress","app_id":440,"player_count":14,"max_players":24,"Bots":0,"server_type":"Dedicated","server_os":"Linux","password":true,"vac":true,"version":"7757534","steam_id":85568392924742829,"keywords":["nocrits","nodmgspread","payload","uncletopia"],"game_id":440,"stv_port":27056,"stv_name":"Uncletopia | London | 5 | All Maps | STV","players":[{"user_id":249,"name":"♥ Hurt Me Plenty ♥ | P.U.R.","steam_id":76561198965998351,"connected_time":750000000000,"state":"active","ping":88},{"user_id":263,"name":"Mango-Man","steam_id":76561198840558687,"connected_time":14000000000,"state":"spawning","ping":61},{"user_id":234,"name":"Tea","steam_id":76561198799243030,"connected_time":2377000000000,"state":"active","ping":57},{"user_id":250,"name":"Painkiller (real)☑","steam_id":76561199036837091,"connected_time":724000000000,"state":"active","ping":92},{"user_id":227,"name":"DjinnKinn","steam_id":76561198029913860,"connected_time":3157000000000,"state":"active","ping":65},{"user_id":251,"name":"stork","steam_id":76561198051585851,"connected_time":673000000000,"state":"active","ping":50},{"user_id":252,"name":"Paton","steam_id":76561198874669052,"connected_time":646000000000,"state":"active","ping":82},{"user_id":254,"name":"Sleepyguy","steam_id":76561198008520542,"connected_time":462000000000,"state":"active","ping":74},{"user_id":258,"name":"omnibombulator","steam_id":76561198025858897,"connected_time":90000000000,"state":"active","ping":48},{"user_id":259,"name":"Summ","steam_id":76561198181125175,"connected_time":87000000000,"state":"active","ping":58},{"user_id":260,"name":"chocolate flavoured femboy","steam_id":76561198819353867,"connected_time":86000000000,"state":"active","ping":36},{"user_id":261,"name":"Dewotter","steam_id":76561198007653168,"connected_time":80000000000,"state":"active","ping":53},{"user_id":235,"name":"Creamy","steam_id":76561198063907478,"connected_time":1907000000000,"state":"active","ping":62},{"user_id":217,"name":"kilo","steam_id":76561198015641339,"connected_time":3469000000000,"state":"active","ping":80}]},{"server_id":22,"name":"Uncletopia | London | 6 | All Maps","name_short":"lon-6","host":"lon-1.uk.uncletopia.com","port":27065,"enabled":true,"region":"eu","cc":"gb","latitude":51.509865,"longitude":-0.118092,"reserved":0,"last_update":"0001-01-01T00:00:00Z","name_a2s":"Uncletopia | London | 6 | All Maps","protocol":17,"map":"koth_highpass","folder":"tf","game":"Team Fortress","app_id":440,"player_count":0,"max_players":24,"Bots":0,"server_type":"Dedicated","server_os":"Linux","password":true,"vac":true,"version":"7757534","steam_id":85568392924742830,"keywords":["cp","nocrits","nodmgspread","uncletopia"],"game_id":440,"stv_port":27066,"stv_name":"Uncletopia | London | 6 | All Maps | STV","players":null},{"server_id":40,"name":"Uncletopia | London | 7 | No Payload","name_short":"lon-7","host":"lon-1.uk.uncletopia.com","port":27075,"enabled":true,"region":"eu","cc":"gb","latitude":51.509865,"longitude":-0.118092,"reserved":0,"last_update":"0001-01-01T00:00:00Z","name_a2s":"Uncletopia | London | 7 | No Payload","protocol":17,"map":"cp_process_final","folder":"tf","game":"Team Fortress","app_id":440,"player_count":0,"max_players":24,"Bots":0,"server_type":"Dedicated","server_os":"Linux","password":true,"vac":true,"version":"7757534","steam_id":85568392924964314,"keywords":["cp","nocrits","nodmgspread","uncletopia"],"game_id":440,"stv_port":27076,"stv_name":"Uncletopia | London | 7 | No Payload | STV","players":null},{"server_id":41,"name":"Uncletopia | London | 8 | Community","name_short":"lon-8","host":"lon-1.uk.uncletopia.com","port":27085,"enabled":true,"region":"eu","cc":"gb","latitude":51.509865,"longitude":-0.118092,"reserved":0,"last_update":"0001-01-01T00:00:00Z","name_a2s":"Uncletopia | London | 8 | Community","protocol":17,"map":"workshop/koth_trenchfoot_b1a.ugc731436616","folder":"tf","game":"Team Fortress","app_id":440,"player_count":3,"max_players":24,"Bots":0,"server_type":"Dedicated","server_os":"Linux","password":true,"vac":true,"version":"7757534","steam_id":85568392924964315,"keywords":["cp","nocrits","nodmgspread","uncletopia"],"game_id":440,"stv_port":27086,"stv_name":"Uncletopia | London | 8 | Community | STV","players":[{"user_id":30,"name":"Jack.Orlando","steam_id":76561198802400236,"connected_time":4405000000000,"state":"active","ping":79},{"user_id":33,"name":"Funny gaming","steam_id":76561199235640948,"connected_time":1273000000000,"state":"active","ping":30},{"user_id":11,"name":"fried","steam_id":76561198307522022,"connected_time":9174000000000,"state":"active","ping":47}]},{"server_id":300,"name":"Uncletopia | Montréal | 1 | All Maps","name_short":"mtl-1","host":"mtl-1.ca.uncletopia.com","port":27015,"enabled":true,"region":"us-east","cc":"ca","latitude":45.50889,"longitude":-73.56167,"reserved":0,"last_update":"0001-01-01T00:00:00Z","name_a2s":"Uncletopia | Montréal | 1 | All Maps","protocol":17,"map":"koth_cascade","folder":"tf","game":"Team Fortress","app_id":440,"player_count":0,"max_players":24,"Bots":0,"server_type":"Dedicated","server_os":"Linux","password":true,"vac":true,"version":"7757534","steam_id":85568392924500087,"keywords":["cp","nocrits","nodmgspread","uncletopia"],"game_id":440,"stv_port":27016,"stv_name":"Uncletopia | Montréal | 1 | All Maps | STV","players":null},{"server_id":301,"name":"Uncletopia | Montréal | 2 | All Maps","name_short":"mtl-2","host":"mtl-1.ca.uncletopia.com","port":27025,"enabled":true,"region":"us-east","cc":"ca","latitude":45.50889,"longitude":-73.56167,"reserved":0,"last_update":"0001-01-01T00:00:00Z","name_a2s":"Uncletopia | Montréal | 2 | All Maps","protocol":17,"map":"pl_snowycoast","folder":"tf","game":"Team Fortress","app_id":440,"player_count":0,"max_players":24,"Bots":0,"server_type":"Dedicated","server_os":"Linux","password":true,"vac":true,"version":"7757534","steam_id":85568392924500088,"keywords":["nocrits","nodmgspread","payload","uncletopia"],"game_id":440,"stv_port":27026,"stv_name":"Uncletopia | Montréal | 2 | All Maps | STV","players":null},{"server_id":302,"name":"Uncletopia | Montréal | 3 | All Maps","name_short":"mtl-3","host":"mtl-1.ca.uncletopia.com","port":27035,"enabled":true,"region":"us-east","cc":"ca","latitude":45.50889,"longitude":-73.56167,"reserved":0,"last_update":"0001-01-01T00:00:00Z","name_a2s":"Uncletopia | Montréal | 3 | All Maps","protocol":17,"map":"pl_swiftwater_final1","folder":"tf","game":"Team Fortress","app_id":440,"player_count":0,"max_players":24,"Bots":0,"server_type":"Dedicated","server_os":"Linux","password":true,"vac":true,"version":"7757534","steam_id":85568392924500089,"keywords":["nocrits","nodmgspread","payload","uncletopia"],"game_id":440,"stv_port":27036,"stv_name":"Uncletopia | Montréal | 3 | All Maps | STV","players":null},{"server_id":303,"name":"Uncletopia | Montréal | 4 | No Payload","name_short":"mtl-4","host":"mtl-1.ca.uncletopia.com","port":27045,"enabled":true,"region":"us-east","cc":"ca","latitude":45.50889,"longitude":-73.56167,"reserved":0,"last_update":"0001-01-01T00:00:00Z","name_a2s":"Uncletopia | Montréal | 4 | No Payload","protocol":17,"map":"cp_mercenarypark","folder":"tf","game":"Team Fortress","app_id":440,"player_count":0,"max_players":24,"Bots":0,"server_type":"Dedicated","server_os":"Linux","password":true,"vac":true,"version":"7757534","steam_id":85568392924500090,"keywords":["cp","nocrits","nodmgspread","uncletopia"],"game_id":440,"stv_port":27046,"stv_name":"Uncletopia | Montréal | 4 | No Payload | STV","players":null},{"server_id":13,"name":"Uncletopia | New York City | 1 | All Maps","name_short":"nyc-1","host":"nyc-1.us.uncletopia.com","port":27015,"enabled":true,"region":"us-east","cc":"us","latitude":40.73061,"longitude":-73.93524,"reserved":0,"last_update":"0001-01-01T00:00:00Z","name_a2s":"Uncletopia | New York City | 1 | All Maps","protocol":17,"map":"koth_viaduct","folder":"tf","game":"Team Fortress","app_id":440,"player_count":0,"max_players":24,"Bots":0,"server_type":"Dedicated","server_os":"Linux","password":true,"vac":true,"version":"7757534","steam_id":85568392924469993,"keywords":["cp","nocrits","nodmgspread","uncletopia"],"game_id":440,"stv_port":27016,"stv_name":"Uncletopia | New York City | 1 | All Maps | STV","players":null},{"server_id":14,"name":"Uncletopia | New York City | 2 | All Maps","name_short":"nyc-2","host":"nyc-1.us.uncletopia.com","port":27025,"enabled":true,"region":"us-east","cc":"us","latitude":40.73061,"longitude":-73.93524,"reserved":0,"last_update":"0001-01-01T00:00:00Z","name_a2s":"Uncletopia | New York City | 2 | All Maps","protocol":17,"map":"koth_lakeside_final","folder":"tf","game":"Team Fortress","app_id":440,"player_count":1,"max_players":24,"Bots":0,"server_type":"Dedicated","server_os":"Linux","password":true,"vac":true,"version":"7757534","steam_id":85568392924469994,"keywords":["cp","nocrits","nodmgspread","uncletopia"],"game_id":440,"stv_port":27026,"stv_name":"Uncletopia | New York City | 2 | All Maps | STV","players":[{"user_id":20,"name":"The Man Of Sex","steam_id":76561198988487621,"connected_time":181000000000,"state":"active","ping":59}]},{"server_id":15,"name":"Uncletopia | New York City | 3 | Stopwatch Beta","name_short":"nyc-3","host":"nyc-1.us.uncletopia.com","port":27035,"enabled":true,"region":"us-east","cc":"us","latitude":40.73061,"longitude":-73.93524,"reserved":0,"last_update":"0001-01-01T00:00:00Z","name_a2s":"Uncletopia | New York City | 3 | Stopwatch Beta","protocol":17,"map":"pl_upward","folder":"tf","game":"Team Fortress","app_id":440,"player_count":0,"max_players":24,"Bots":0,"server_type":"Dedicated","server_os":"Linux","password":true,"vac":true,"version":"7757534","steam_id":85568392924742820,"keywords":["nocrits","nodmgspread","payload","uncletopia"],"game_id":440,"stv_port":27036,"stv_name":"Uncletopia | New York City | 3 | Stopwatch Beta | STV","players":null},{"server_id":16,"name":"Uncletopia | New York City | 4 | Community","name_short":"nyc-4","host":"nyc-1.us.uncletopia.com","port":27045,"enabled":true,"region":"us-east","cc":"us","latitude":40.73061,"longitude":-73.93524,"reserved":0,"last_update":"0001-01-01T00:00:00Z","name_a2s":"Uncletopia | New York City | 4 | Community","protocol":17,"map":"workshop/koth_kemptown_rc1.ugc767410655","folder":"tf","game":"Team Fortress","app_id":440,"player_count":1,"max_players":24,"Bots":0,"server_type":"Dedicated","server_os":"Linux","password":true,"vac":true,"version":"7757534","steam_id":85568392924742821,"keywords":["cp","nocrits","nodmgspread","uncletopia"],"game_id":440,"stv_port":27046,"stv_name":"Uncletopia | New York City | 4 | Community | STV","players":[{"user_id":13,"name":"tamara_s42","steam_id":76561198995039584,"connected_time":302000000000,"state":"active","ping":76}]},{"server_id":142,"name":"Uncletopia | São Paulo | 1 | All Maps","name_short":"sao-1","host":"sao-1.br.uncletopia.com","port":27015,"enabled":true,"region":"sa","cc":"br","latitude":-23.533773,"longitude":-46.62529,"reserved":0,"last_update":"0001-01-01T00:00:00Z","name_a2s":"Uncletopia | São Paulo | 1 | All Maps","protocol":17,"map":"koth_lakeside_final","folder":"tf","game":"Team Fortress","app_id":440,"player_count":0,"max_players":24,"Bots":0,"server_type":"Dedicated","server_os":"Linux","password":true,"vac":true,"version":"7757534","steam_id":85568392924469996,"keywords":["cp","nocrits","nodmgspread","uncletopia"],"game_id":440,"stv_port":27016,"stv_name":"Uncletopia | São Paulo | 1 | All Maps | STV","players":null},{"server_id":143,"name":"Uncletopia | São Paulo | 2 | All Maps","name_short":"sao-2","host":"sao-2.br.uncletopia.com","port":27015,"enabled":true,"region":"sa","cc":"br","latitude":-23.533773,"longitude":-46.62529,"reserved":0,"last_update":"0001-01-01T00:00:00Z","name_a2s":"Uncletopia | São Paulo | 2 | All Maps","protocol":17,"map":"koth_viaduct","folder":"tf","game":"Team Fortress","app_id":440,"player_count":0,"max_players":24,"Bots":0,"server_type":"Dedicated","server_os":"Linux","password":true,"vac":true,"version":"7757534","steam_id":85568392924485349,"keywords":["cp","nocrits","nodmgspread","uncletopia"],"game_id":440,"stv_port":27016,"stv_name":"Uncletopia | São Paulo | 2 | All Maps | STV","players":null},{"server_id":7,"name":"Uncletopia | Seattle | 1 | All Maps","name_short":"sea-1","host":"sea-1.us.uncletopia.com","port":27015,"enabled":true,"region":"us-west","cc":"us","latitude":47.608013,"longitude":-122.33517,"reserved":0,"last_update":"0001-01-01T00:00:00Z","name_a2s":"Uncletopia | Seattle | 1 | All Maps","protocol":17,"map":"cp_process_final","folder":"tf","game":"Team Fortress","app_id":440,"player_count":21,"max_players":24,"Bots":0,"server_type":"Dedicated","server_os":"Linux","password":true,"vac":true,"version":"7757534","steam_id":85568392924469997,"keywords":["cp","nocrits","nodmgspread","uncletopia"],"game_id":440,"stv_port":27016,"stv_name":"Uncletopia | Seattle | 1 | All Maps | STV","players":[{"user_id":384,"name":"OctillionaireSigmaMale","steam_id":76561198816005207,"connected_time":34000000000,"state":"active","ping":111},{"user_id":370,"name":"Imitation Caucasian","steam_id":76561198320536166,"connected_time":691000000000,"state":"active","ping":93},{"user_id":383,"name":"silly goose","steam_id":76561198274536610,"connected_time":191000000000,"state":"active","ping":56},{"user_id":334,"name":"panpanpanpanpan","steam_id":76561198277478746,"connected_time":3167000000000,"state":"active","ping":89},{"user_id":385,"name":"my monitor is off","steam_id":76561198074499537,"connected_time":25000000000,"state":"active","ping":92},{"user_id":368,"name":"Sev","steam_id":76561198053971248,"connected_time":968000000000,"state":"active","ping":49},{"user_id":386,"name":"neph","steam_id":76561198962318010,"connected_time":4000000000,"state":"spawning","ping":129},{"user_id":358,"name":"Confirmed Bachelor","steam_id":76561198441041496,"connected_time":1572000000000,"state":"active","ping":57},{"user_id":295,"name":"cool beans","steam_id":76561198045758072,"connected_time":6632000000000,"state":"active","ping":65},{"user_id":363,"name":"Blitzy","steam_id":76561198149472890,"connected_time":1381000000000,"state":"active","ping":60},{"user_id":380,"name":"D34dR4bbit","steam_id":76561198167411455,"connected_time":413000000000,"state":"active","ping":60},{"user_id":381,"name":"🅜🅔🅔🅚🅢🅣🅔\ufffd\ufffd\ufffd","steam_id":76561197999748343,"connected_time":349000000000,"state":"active","ping":90},{"user_id":247,"name":"MORE BOUNCE TO THE OUNCE","steam_id":76561198243399336,"connected_time":10297000000000,"state":"active","ping":75},{"user_id":379,"name":"mega","steam_id":76561198089520959,"connected_time":444000000000,"state":"active","ping":90},{"user_id":338,"name":"Jovo","steam_id":76561197993265970,"connected_time":3034000000000,"state":"active","ping":38},{"user_id":367,"name":"SwoopShoot","steam_id":76561199024079388,"connected_time":1037000000000,"state":"active","ping":44},{"user_id":369,"name":"Delicate Steve","steam_id":76561198063582381,"connected_time":830000000000,"state":"active","ping":72},{"user_id":321,"name":"ratie","steam_id":76561198059399661,"connected_time":4355000000000,"state":"active","ping":86},{"user_id":376,"name":"❄ Alice ♥","steam_id":76561198869945051,"connected_time":569000000000,"state":"active","ping":96},{"user_id":349,"name":"jop.p.ing","steam_id":76561197999150236,"connected_time":2426000000000,"state":"active","ping":31},{"user_id":348,"name":"Elongated Muskrat","steam_id":76561198314501346,"connected_time":2538000000000,"state":"active","ping":51}]},{"server_id":119,"name":"Uncletopia | Seattle | 2 | All Maps","name_short":"sea-2","host":"sea-1.us.uncletopia.com","port":27025,"enabled":true,"region":"us-west","cc":"us","latitude":47.608013,"longitude":-122.33517,"reserved":0,"last_update":"0001-01-01T00:00:00Z","name_a2s":"Uncletopia | Seattle | 2 | All Maps","protocol":17,"map":"cp_dustbowl","folder":"tf","game":"Team Fortress","app_id":440,"player_count":24,"max_players":24,"Bots":0,"server_type":"Dedicated","server_os":"Linux","password":true,"vac":true,"version":"7757534","steam_id":85568392924469998,"keywords":["cp","nocrits","nodmgspread","uncletopia"],"game_id":440,"stv_port":27026,"stv_name":"Uncletopia | Seattle | 2 | All Maps | STV","players":[{"user_id":107,"name":"FlamingManiac","steam_id":76561198361996837,"connected_time":968000000000,"state":"active","ping":126},{"user_id":104,"name":"FuegoGeneral","steam_id":76561198880454101,"connected_time":1349000000000,"state":"active","ping":100},{"user_id":95,"name":"89","steam_id":76561198106308056,"connected_time":1938000000000,"state":"active","ping":164},{"user_id":99,"name":"Bobbeh","steam_id":76561198131601160,"connected_time":1701000000000,"state":"active","ping":42},{"user_id":111,"name":"Large Charles","steam_id":76561197999663001,"connected_time":394000000000,"state":"active","ping":70},{"user_id":110,"name":"moerty","steam_id":76561198010055085,"connected_time":503000000000,"state":"active","ping":45},{"user_id":67,"name":"roanoke›","steam_id":76561198048007844,"connected_time":3349000000000,"state":"active","ping":69},{"user_id":68,"name":"fire retarded","steam_id":76561198383636396,"connected_time":3287000000000,"state":"active","ping":108},{"user_id":93,"name":"Mary Poppins","steam_id":76561199040141750,"connected_time":2077000000000,"state":"active","ping":141},{"user_id":108,"name":"yup","steam_id":76561199190800520,"connected_time":888000000000,"state":"active","ping":40},{"user_id":87,"name":"TTV.Saphire_Gifz","steam_id":76561199229537891,"connected_time":2120000000000,"state":"active","ping":109},{"user_id":90,"name":"Sky","steam_id":76561198853245153,"connected_time":2091000000000,"state":"active","ping":51},{"user_id":106,"name":"i cant aim","steam_id":76561198065873462,"connected_time":1050000000000,"state":"active","ping":77},{"user_id":71,"name":"HeisenBurger","steam_id":76561198040632080,"connected_time":3131000000000,"state":"active","ping":102},{"user_id":97,"name":"grillbyssisoloeso","steam_id":76561199105132740,"connected_time":1814000000000,"state":"active","ping":101},{"user_id":100,"name":"defcon","steam_id":76561198100656328,"connected_time":1698000000000,"state":"active","ping":128},{"user_id":102,"name":"THIRDPIERCE","steam_id":76561198405366314,"connected_time":1582000000000,"state":"active","ping":114},{"user_id":113,"name":"Aircraft Carrier Princess","steam_id":76561198348354629,"connected_time":93000000000,"state":"active","ping":63},{"user_id":103,"name":"Mr. Dick™","steam_id":76561198047309044,"connected_time":1573000000000,"state":"active","ping":107},{"user_id":35,"name":"box","steam_id":76561198049531483,"connected_time":4918000000000,"state":"active","ping":109},{"user_id":112,"name":"keithykeithers","steam_id":76561197995552615,"connected_time":273000000000,"state":"active","ping":48},{"user_id":75,"name":"Red","steam_id":76561198001939529,"connected_time":2781000000000,"state":"active","ping":136},{"user_id":43,"name":"old birb man","steam_id":76561199410269097,"connected_time":4628000000000,"state":"active","ping":83},{"user_id":105,"name":"Els (F2P)","steam_id":76561199129761684,"connected_time":1331000000000,"state":"active","ping":128}]},{"server_id":406,"name":"Uncletopia | Seattle | 3 | Stopwatch Beta","name_short":"sea-3","host":"sea-1.us.uncletopia.com","port":27035,"enabled":true,"region":"us-west","cc":"us","latitude":47.608013,"longitude":-122.33517,"reserved":0,"last_update":"0001-01-01T00:00:00Z","name_a2s":"Uncletopia | Seattle | 3 | Stopwatch Beta","protocol":17,"map":"cp_dustbowl","folder":"tf","game":"Team Fortress","app_id":440,"player_count":0,"max_players":24,"Bots":0,"server_type":"Dedicated","server_os":"Linux","password":true,"vac":true,"version":"7757534","steam_id":85568392924515217,"keywords":["cp","nocrits","nodmgspread","uncletopia"],"game_id":440,"stv_port":27036,"stv_name":"Uncletopia | Seattle | 3 | Stopwatch Beta | STV","players":null},{"server_id":17,"name":"Uncletopia | San Francisco | 1 | All Maps","name_short":"sfo-1","host":"sfo-1.us.uncletopia.com","port":27015,"enabled":true,"region":"us-west","cc":"us","latitude":37.77397,"longitude":-122.4313,"reserved":0,"last_update":"0001-01-01T00:00:00Z","name_a2s":"Uncletopia | San Francisco | 1 | All Maps","protocol":17,"map":"cp_process_final","folder":"tf","game":"Team Fortress","app_id":440,"player_count":0,"max_players":24,"Bots":0,"server_type":"Dedicated","server_os":"Linux","password":true,"vac":true,"version":"7757534","steam_id":85568392924469999,"keywords":["cp","nocrits","nodmgspread","uncletopia"],"game_id":440,"stv_port":27016,"stv_name":"Uncletopia | San Francisco | 1 | All Maps | STV","players":null},{"server_id":18,"name":"Uncletopia | San Francisco | 2 | All Maps","name_short":"sfo-2","host":"sfo-1.us.uncletopia.com","port":27025,"enabled":true,"region":"us-west","cc":"us","latitude":37.77397,"longitude":-122.4313,"reserved":0,"last_update":"0001-01-01T00:00:00Z","name_a2s":"Uncletopia | San Francisco | 2 | All Maps","protocol":17,"map":"pl_frontier_final","folder":"tf","game":"Team Fortress","app_id":440,"player_count":24,"max_players":24,"Bots":0,"server_type":"Dedicated","server_os":"Linux","password":true,"vac":true,"version":"7757534","steam_id":85568392924470000,"keywords":["nocrits","nodmgspread","payload","uncletopia"],"game_id":440,"stv_port":27026,"stv_name":"Uncletopia | San Francisco | 2 | All Maps | STV","players":[{"user_id":75,"name":"jubb","steam_id":76561198186865526,"connected_time":554000000000,"state":"active","ping":78},{"user_id":65,"name":"salad","steam_id":76561198199055635,"connected_time":1190000000000,"state":"active","ping":59},{"user_id":85,"name":"gnome_Chompski","steam_id":76561198962543984,"connected_time":165000000000,"state":"active","ping":121},{"user_id":66,"name":"XxChocola20xX","steam_id":76561199108579557,"connected_time":1185000000000,"state":"active","ping":80},{"user_id":14,"name":"GRIM GAMING","steam_id":76561198107491637,"connected_time":3584000000000,"state":"active","ping":93},{"user_id":71,"name":"uzr","steam_id":76561198799343084,"connected_time":871000000000,"state":"active","ping":59},{"user_id":91,"name":"TimeCalm","steam_id":76561197991345488,"connected_time":20000000000,"state":"active","ping":116},{"user_id":60,"name":"Loleo","steam_id":76561198348132374,"connected_time":1520000000000,"state":"active","ping":96},{"user_id":47,"name":"Joseph Joestar","steam_id":76561198195420449,"connected_time":2028000000000,"state":"active","ping":92},{"user_id":44,"name":"Green/Black Weezer CD#36","steam_id":76561198851520459,"connected_time":2341000000000,"state":"active","ping":115},{"user_id":78,"name":"Mr. Mane T.S.H.A.","steam_id":76561198056728986,"connected_time":370000000000,"state":"active","ping":104},{"user_id":89,"name":"Keywest","steam_id":76561198266508363,"connected_time":64000000000,"state":"active","ping":68},{"user_id":74,"name":"advent","steam_id":76561198136475311,"connected_time":592000000000,"state":"active","ping":92},{"user_id":76,"name":"autumnal.messenger","steam_id":76561199345816635,"connected_time":502000000000,"state":"active","ping":73},{"user_id":77,"name":"Thequirka","steam_id":76561198968058652,"connected_time":464000000000,"state":"active","ping":67},{"user_id":80,"name":"laszlo","steam_id":76561198141198352,"connected_time":363000000000,"state":"active","ping":93},{"user_id":81,"name":"△","steam_id":76561198060642242,"connected_time":346000000000,"state":"active","ping":130},{"user_id":83,"name":"The Big Iron","steam_id":76561198117276391,"connected_time":320000000000,"state":"active","ping":84},{"user_id":26,"name":"A Aron","steam_id":76561198044701629,"connected_time":2739000000000,"state":"active","ping":66},{"user_id":84,"name":"Hello1001","steam_id":76561199468109337,"connected_time":319000000000,"state":"active","ping":119},{"user_id":28,"name":"Sir_DankToast","steam_id":76561198385093022,"connected_time":2721000000000,"state":"active","ping":61},{"user_id":92,"name":"Squiliam","steam_id":76561198025278006,"connected_time":20000000000,"state":"spawning","ping":98},{"user_id":87,"name":"Rainy","steam_id":76561198310972287,"connected_time":129000000000,"state":"active","ping":35},{"user_id":90,"name":"i love tf2!","steam_id":76561198050220225,"connected_time":53000000000,"state":"active","ping":110}]},{"server_id":19,"name":"Uncletopia | San Francisco | 3 | Stopwatch Beta","name_short":"sfo-3","host":"sfo-1.us.uncletopia.com","port":27035,"enabled":true,"region":"us-west","cc":"us","latitude":37.77397,"longitude":-122.4313,"reserved":0,"last_update":"0001-01-01T00:00:00Z","name_a2s":"Uncletopia | San Francisco | 3 | Stopwatch Beta","protocol":17,"map":"koth_lakeside_final","folder":"tf","game":"Team Fortress","app_id":440,"player_count":0,"max_players":24,"Bots":0,"server_type":"Dedicated","server_os":"Linux","password":true,"vac":true,"version":"7757534","steam_id":85568392924742824,"keywords":["cp","nocrits","nodmgspread","uncletopia"],"game_id":440,"stv_port":27036,"stv_name":"Uncletopia | San Francisco | 3 | Stopwatch Beta | STV","players":null},{"server_id":20,"name":"Uncletopia | San Francisco | 4 | Community","name_short":"sfo-4","host":"sfo-1.us.uncletopia.com","port":27045,"enabled":true,"region":"us-west","cc":"us","latitude":37.77397,"longitude":-122.4313,"reserved":0,"last_update":"0001-01-01T00:00:00Z","name_a2s":"Uncletopia | San Francisco | 4 | Community","protocol":17,"map":"workshop/cp_propaganda_b18.ugc1603743849","folder":"tf","game":"Team Fortress","app_id":440,"player_count":23,"max_players":24,"Bots":0,"server_type":"Dedicated","server_os":"Linux","password":true,"vac":true,"version":"7757534","steam_id":85568392924742826,"keywords":["cp","nocrits","nodmgspread","uncletopia"],"game_id":440,"stv_port":27046,"stv_name":"Uncletopia | San Francisco | 4 | Community | STV","players":[{"user_id":3,"name":"G.bo","steam_id":76561198085176270,"connected_time":7936000000000,"state":"active","ping":58},{"user_id":64,"name":"OrangeBee","steam_id":76561198862058602,"connected_time":1083000000000,"state":"active","ping":56},{"user_id":39,"name":"Jeck","steam_id":76561198012275276,"connected_time":2916000000000,"state":"active","ping":52},{"user_id":81,"name":"dP | I'm in a Wookie Suit","steam_id":76561198083307644,"connected_time":309000000000,"state":"active","ping":72},{"user_id":59,"name":"Paul Blart","steam_id":76561198068110623,"connected_time":1279000000000,"state":"active","ping":66},{"user_id":83,"name":"Crack Addict","steam_id":76561198166681494,"connected_time":237000000000,"state":"active","ping":84},{"user_id":62,"name":"Rended_","steam_id":76561199067091873,"connected_time":1205000000000,"state":"active","ping":133},{"user_id":43,"name":"stoned jester","steam_id":76561198079609974,"connected_time":2328000000000,"state":"active","ping":60},{"user_id":37,"name":"big fish","steam_id":76561198186479818,"connected_time":3408000000000,"state":"active","ping":69},{"user_id":75,"name":"dog","steam_id":76561198090737207,"connected_time":709000000000,"state":"active","ping":62},{"user_id":85,"name":"Shin","steam_id":76561198149886500,"connected_time":105000000000,"state":"active","ping":129},{"user_id":86,"name":"SHIT_AND_ASS","steam_id":76561198981791496,"connected_time":69000000000,"state":"active","ping":119},{"user_id":56,"name":"land0","steam_id":76561198321264704,"connected_time":1708000000000,"state":"active","ping":69},{"user_id":46,"name":"The Rock Man with the Rock Plan","steam_id":76561198157926451,"connected_time":2246000000000,"state":"active","ping":128},{"user_id":65,"name":"TrustyGun","steam_id":76561198022854020,"connected_time":1023000000000,"state":"active","ping":111},{"user_id":66,"name":"schnedwob","steam_id":76561197999146588,"connected_time":944000000000,"state":"active","ping":86},{"user_id":51,"name":"chanoc","steam_id":76561198026734746,"connected_time":2001000000000,"state":"active","ping":46},{"user_id":88,"name":"carrion goat she/it","steam_id":76561198262064871,"connected_time":27000000000,"state":"active","ping":168},{"user_id":77,"name":"supernova1241","steam_id":76561198325215872,"connected_time":609000000000,"state":"active","ping":129},{"user_id":70,"name":"lukamine","steam_id":76561198166827208,"connected_time":832000000000,"state":"active","ping":62},{"user_id":71,"name":"Dad","steam_id":76561199091290729,"connected_time":803000000000,"state":"active","ping":96},{"user_id":73,"name":"Rickysuper_52","steam_id":76561198067865179,"connected_time":750000000000,"state":"active","ping":77},{"user_id":74,"name":"HE’S IN THE GODDAMN WALLS","steam_id":76561198363267009,"connected_time":750000000000,"state":"active","ping":127}]},{"server_id":141,"name":"Uncletopia | Sydney | 1 | All Maps","name_short":"syd-1","host":"syd-1.au.uncletopia.com","port":27015,"enabled":true,"region":"au","cc":"au","latitude":-33.865143,"longitude":151.2099,"reserved":0,"last_update":"0001-01-01T00:00:00Z","name_a2s":"Uncletopia | Sydney | 1 | All Maps","protocol":17,"map":"koth_viaduct","folder":"tf","game":"Team Fortress","app_id":440,"player_count":1,"max_players":24,"Bots":0,"server_type":"Dedicated","server_os":"Linux","password":true,"vac":true,"version":"7757534","steam_id":85568392924470001,"keywords":["cp","nocrits","nodmgspread","uncletopia"],"game_id":440,"stv_port":27016,"stv_name":"Uncletopia | Sydney | 1 | All Maps | STV","players":[{"user_id":5,"name":"therealllamait","steam_id":76561198841226950,"connected_time":33000000000,"state":"active","ping":76}]},{"server_id":123,"name":"Uncletopia | Sydney | 2 | All Maps","name_short":"syd-2","host":"syd-1.au.uncletopia.com","port":27025,"enabled":true,"region":"au","cc":"au","latitude":-33.865143,"longitude":151.2099,"reserved":0,"last_update":"0001-01-01T00:00:00Z","name_a2s":"Uncletopia | Sydney | 2 | All Maps","protocol":17,"map":"cp_process_final","folder":"tf","game":"Team Fortress","app_id":440,"player_count":0,"max_players":24,"Bots":0,"server_type":"Dedicated","server_os":"Linux","password":true,"vac":true,"version":"7757534","steam_id":85568392924470002,"keywords":["cp","nocrits","nodmgspread","uncletopia"],"game_id":440,"stv_port":27026,"stv_name":"Uncletopia | Sydney | 2 | All Maps | STV","players":null},{"server_id":395,"name":"Uncletopia | Sydney | 3 | All Maps","name_short":"syd-3","host":"syd-1.au.uncletopia.com","port":27035,"enabled":true,"region":"au","cc":"au","latitude":-33.865143,"longitude":151.2099,"reserved":0,"last_update":"0001-01-01T00:00:00Z","name_a2s":"Uncletopia | Sydney | 3 | All Maps","protocol":17,"map":"pl_swiftwater_final1","folder":"tf","game":"Team Fortress","app_id":440,"player_count":0,"max_players":24,"Bots":0,"server_type":"Dedicated","server_os":"Linux","password":true,"vac":true,"version":"7757534","steam_id":85568392925194467,"keywords":["nocrits","nodmgspread","payload","uncletopia"],"game_id":440,"stv_port":27036,"stv_name":"Uncletopia | Sydney | 3 | All Maps | STV","players":null},{"server_id":396,"name":"Uncletopia | Sydney | 4 | All Maps","name_short":"syd-4","host":"syd-1.au.uncletopia.com","port":27045,"enabled":true,"region":"au","cc":"au","latitude":-33.865143,"longitude":151.2099,"reserved":0,"last_update":"0001-01-01T00:00:00Z","name_a2s":"Uncletopia | Sydney | 4 | All Maps","protocol":17,"map":"koth_highpass","folder":"tf","game":"Team Fortress","app_id":440,"player_count":0,"max_players":24,"Bots":0,"server_type":"Dedicated","server_os":"Linux","password":true,"vac":true,"version":"7757534","steam_id":85568392925397958,"keywords":["cp","nocrits","nodmgspread","uncletopia"],"game_id":440,"stv_port":27046,"stv_name":"Uncletopia | Sydney | 4 | All Maps | STV","players":null},{"server_id":58,"name":"Uncletopia | Sydney | 5 | Stopwatch Beta","name_short":"syd-5","host":"syd-1.au.uncletopia.com","port":27055,"enabled":true,"region":"au","cc":"au","latitude":-33.865143,"longitude":151.2099,"reserved":0,"last_update":"0001-01-01T00:00:00Z","name_a2s":"Uncletopia | Sydney | 5 | Stopwatch Beta","protocol":17,"map":"koth_cascade","folder":"tf","game":"Team Fortress","app_id":440,"player_count":0,"max_players":24,"Bots":0,"server_type":"Dedicated","server_os":"Linux","password":true,"vac":true,"version":"7757534","steam_id":85568392925397959,"keywords":["cp","nocrits","nodmgspread","uncletopia"],"game_id":440,"stv_port":27056,"stv_name":"Uncletopia | Sydney | 5 | Stopwatch Beta | STV","players":null},{"server_id":59,"name":"Uncletopia | Sydney | 6 | Community","name_short":"syd-6","host":"syd-1.au.uncletopia.com","port":27065,"enabled":true,"region":"au","cc":"au","latitude":-33.865143,"longitude":151.2099,"reserved":0,"last_update":"0001-01-01T00:00:00Z","name_a2s":"Uncletopia | Sydney | 6 | Community","protocol":17,"map":"cp_snakewater_final1","folder":"tf","game":"Team Fortress","app_id":440,"player_count":0,"max_players":24,"Bots":0,"server_type":"Dedicated","server_os":"Linux","password":true,"vac":true,"version":"7757534","steam_id":85568392925397960,"keywords":["cp","nocrits","nodmgspread","uncletopia"],"game_id":440,"stv_port":27066,"stv_name":"Uncletopia | Sydney | 6 | Community | STV","players":null},{"server_id":49,"name":"Uncletopia | Warsaw | 1 | All Maps","name_short":"waw-1","host":"waw-1.pl.uncletopia.com","port":27015,"enabled":true,"region":"eu","cc":"pl","latitude":52.2297,"longitude":21.017532,"reserved":0,"last_update":"0001-01-01T00:00:00Z","name_a2s":"","protocol":0,"map":"","folder":"","game":"","app_id":0,"player_count":0,"max_players":0,"Bots":0,"server_type":"","server_os":"","password":false,"vac":false,"version":"","steam_id":0,"keywords":null,"game_id":0,"stv_port":0,"stv_name":"","players":null},{"server_id":50,"name":"Uncletopia | Warsaw | 2 | All Maps","name_short":"waw-2","host":"waw-1.pl.uncletopia.com","port":27025,"enabled":true,"region":"eu","cc":"pl","latitude":52.2297,"longitude":21.017532,"reserved":0,"last_update":"0001-01-01T00:00:00Z","name_a2s":"Uncletopia | Warsaw | 2 | All Maps","protocol":17,"map":"pl_barnblitz","folder":"tf","game":"Team Fortress","app_id":440,"player_count":0,"max_players":24,"Bots":0,"server_type":"Dedicated","server_os":"Linux","password":true,"vac":true,"version":"7757534","steam_id":85568392925397851,"keywords":["nocrits","nodmgspread","payload","uncletopia"],"game_id":440,"stv_port":27026,"stv_name":"Uncletopia | Warsaw | 2 | All Maps | STV","players":null},{"server_id":51,"name":"Uncletopia | Warsaw | 3 | All Maps","name_short":"waw-3","host":"waw-1.pl.uncletopia.com","port":27035,"enabled":true,"region":"eu","cc":"pl","latitude":52.2297,"longitude":21.017532,"reserved":0,"last_update":"0001-01-01T00:00:00Z","name_a2s":"Uncletopia | Warsaw | 3 | All Maps","protocol":17,"map":"koth_lakeside_final","folder":"tf","game":"Team Fortress","app_id":440,"player_count":0,"max_players":24,"Bots":0,"server_type":"Dedicated","server_os":"Linux","password":true,"vac":true,"version":"7757534","steam_id":85568392925397852,"keywords":["cp","nocrits","nodmgspread","uncletopia"],"game_id":440,"stv_port":27036,"stv_name":"Uncletopia | Warsaw | 3 | All Maps | STV","players":null},{"server_id":52,"name":"Uncletopia | Warsaw | 4 | All Maps","name_short":"waw-4","host":"waw-1.pl.uncletopia.com","port":27045,"enabled":true,"region":"eu","cc":"pl","latitude":52.2297,"longitude":21.017532,"reserved":0,"last_update":"0001-01-01T00:00:00Z","name_a2s":"Uncletopia | Warsaw | 4 | All Maps","protocol":17,"map":"koth_lakeside_final","folder":"tf","game":"Team Fortress","app_id":440,"player_count":0,"max_players":24,"Bots":0,"server_type":"Dedicated","server_os":"Linux","password":true,"vac":true,"version":"7757534","steam_id":85568392925397853,"keywords":["cp","nocrits","nodmgspread","uncletopia"],"game_id":440,"stv_port":27046,"stv_name":"Uncletopia | Warsaw | 4 | All Maps | STV","players":null},{"server_id":53,"name":"Uncletopia | Warsaw | 5 | Stopwatch Beta","name_short":"waw-5","host":"waw-1.pl.uncletopia.com","port":27055,"enabled":true,"region":"eu","cc":"pl","latitude":52.2297,"longitude":21.017532,"reserved":0,"last_update":"0001-01-01T00:00:00Z","name_a2s":"Uncletopia | Warsaw | 5 | Stopwatch Beta","protocol":17,"map":"pl_borneo","folder":"tf","game":"Team Fortress","app_id":440,"player_count":0,"max_players":24,"Bots":0,"server_type":"Dedicated","server_os":"Linux","password":true,"vac":true,"version":"7757534","steam_id":85568392925397854,"keywords":["nocrits","nodmgspread","payload","uncletopia"],"game_id":440,"stv_port":27056,"stv_name":"Uncletopia | Warsaw | 5 | Stopwatch Beta | STV","players":null},{"server_id":54,"name":"Uncletopia | Warsaw | 6 | Community","name_short":"waw-6","host":"waw-1.pl.uncletopia.com","port":27065,"enabled":true,"region":"eu","cc":"pl","latitude":52.2297,"longitude":21.017532,"reserved":0,"last_update":"0001-01-01T00:00:00Z","name_a2s":"Uncletopia | Warsaw | 6 | Community","protocol":17,"map":"koth_lakeside_final","folder":"tf","game":"Team Fortress","app_id":440,"player_count":0,"max_players":24,"Bots":0,"server_type":"Dedicated","server_os":"Linux","password":true,"vac":true,"version":"7757534","steam_id":85568392925397856,"keywords":["cp","nocrits","nodmgspread","uncletopia"],"game_id":440,"stv_port":27066,"stv_name":"Uncletopia | Warsaw | 6 | Community | STV","players":null}]}