{"status":true,"message":"","result":[{"server_id":9,"name":"Uncletopia | Atlanta | 1 | All Maps","name_short":"atl-1","host":"atl-1.us.uncletopia.com","port":27015,"enabled":true,"region":"us-east","cc":"us","latitude":33.753746,"longitude":-84.38633,"reserved":0,"last_update":"0001-01-01T00:00:00Z","name_a2s":"Uncletopia | Atlanta | 1 | All Maps","protocol":17,"map":"pl_upward","folder":"tf","game":"Team Fortress","app_id":440,"player_count":21,"max_players":24,"Bots":0,"server_type":"Dedicated","server_os":"Linux","password":true,"vac":true,"version":"7757534","steam_id":85568392924469982,"keywords":["nocrits","nodmgspread","payload","uncletopia"],"game_id":440,"stv_port":27016,"stv_name":"Uncletopia | Atlanta | 1 | All Maps | STV","players":[{"user_id":114,"name":"Nebula","steam_id":76561198795878862,"connected_time":70000000000,"state":"active","ping":86},{"user_id":64,"name":"ClericsRose","steam_id":76561198011013806,"connected_time":3388000000000,"state":"active","ping":64},{"user_id":91,"name":"AJsurfer","steam_id":76561198897045252,"connected_time":853000000000,"state":"active","ping":34},{"user_id":95,"name":"new and improved washing machin","steam_id":76561199160873100,"connected_time":759000000000,"state":"active","ping":90},{"user_id":106,"name":"tulpa","steam_id":76561198013253513,"connected_time":281000000000,"state":"active","ping":55},{"user_id":92,"name":"I have a dream... mrNiceguy","steam_id":76561198053176402,"connected_time":826000000000,"state":"active","ping":172},{"user_id":93,"name":"hatchetax","steam_id":76561199013337543,"connected_time":792000000000,"state":"active","ping":47},{"user_id":100,"name":"Octovaitor","steam_id":76561198004658451,"connected_time":478000000000,"state":"active","ping":49},{"user_id":103,"name":"Good Horsey","steam_id":76561198237193302,"connected_time":383000000000,"state":"active","ping":119},{"user_id":101,"name":"cheeser","steam_id":76561198281772700,"connected_time":455000000000,"state":"active","ping":51},{"user_id":40,"name":"luxin","steam_id":76561198399383047,"connected_time":4922000000000,"state":"active","ping":48},{"user_id":115,"name":"RarestGuide","steam_id":76561198050338923,"connected_time":0,"state":"spawning","ping":26},{"user_id":84,"name":"superprogamerman2009","steam_id":76561199393831863,"connected_time":1750000000000,"state":"active","ping":137},{"user_id":63,"name":"CPUnit","steam_id":76561198162881878,"connected_time":3411000000000,"state":"active","ping":63},{"user_id":113,"name":"NBOMe","steam_id":76561198321899976,"connected_time":105000000000,"state":"active","ping":69},{"user_id":104,"name":"Mukbang Mercy Killing","steam_id":76561198043988179,"connected_time":365000000000,"state":"active","ping":164},{"user_id":108,"name":"ted twenty-two ( Triple T )","steam_id":76561198121316868,"connected_time":244000000000,"state":"active","ping":72},{"user_id":110,"name":"TheSquirrelofHuscurl","steam_id":76561198073379623,"connected_time":184000000000,"state":"active","ping":69},{"user_id":112,"name":"C.E.O Of Power","steam_id":76561198173051462,"connected_time":144000000000,"state":"active","ping":113},{"user_id":53,"name":"scuba doo warfare","steam_id":76561198018761740,"connected_time":3854000000000,"state":"active","ping":74},{"user_id":78,"name":"Oopsie Daisy ‚ùã","steam_id":76561198042144492,"connected_time":2209000000000,"state":"active","ping":56}]},{"server_id":104,"name":"Uncletopia | Atlanta | 2 | All Maps","name_short":"atl-2","host":"atl-1.us.uncletopia.com","port":27025,"enabled":true,"region":"us-east","cc":"us","latitude":33.753746,"longitude":-84.38633,"reserved":0,"last_update":"0001-01-01T00:00:00Z","name_a2s":"Uncletopia | Atlanta | 2 | All Maps","protocol":17,"map":"pl_barnblitz","folder":"tf","game":"Team Fortress","app_id":440,"player_count":0,"max_players":24,"Bots":0,"server_type":"Dedicated","server_os":"Linux","password":true,"vac":true,"version":"7757534","steam_id":85568392924469983,"keywords":["nocrits","nodmgspread","payload","uncletopia"],"game_id":440,"stv_port":27026,"stv_name":"Uncletopia | Atlanta | 2 | All Maps | STV","players":null},{"server_id":400,"name":"Uncletopia | Atlanta | 3 | Community","name_short":"atl-3","host":"atl-1.us.uncletopia.com","port":27035,"enabled":true,"region":"us-east","cc":"us","latitude":33.753746,"longitude":-84.38633,"reserved":0,"last_update":"0001-01-01T00:00:00Z","name_a2s":"Uncletopia | Atlanta | 3 | Community","protocol":17,"map":"workshop/cp_hazyfort_rc6.ugc1365963729","folder":"tf","game":"Team Fortress","app_id":440,"player_count":0,"max_players":24,"Bots":0,"server_type":"Dedicated","server_os":"Linux","password":true,"vac":true,"version":"7757534","steam_id":85568392924515187,"keywords":["cp","nocrits","nodmgspread","uncletopia"],"game_id":440,"stv_port":27036,"stv_name":"Uncletopia | Atlanta | 3 | Community | STV","players":null},{"server_id":401,"name":"Uncletopia | Atlanta | 4 | No Payload","name_short":"atl-4","host":"atl-1.us.uncletopia.com","port":27045,"enabled":true,"region":"us-east","cc":"us","latitude":33.753746,"longitude":-84.38633,"reserved":0,"last_update":"0001-01-01T00:00:00Z","name_a2s":"","protocol":0,"map":"","folder":"","game":"","app_id":0,"player_count":0,"max_players":0,"Bots":0,"server_type":"","server_os":"","password":false,"vac":false,"version":"","steam_id":0,"keywords":null,"game_id":0,"stv_port":0,"stv_name":"","players":null},{"server_id":2,"name":"Uncletopia | Chicago | 1 | All Maps","name_short":"chi-1","host":"chi-1.us.uncletopia.com","port":27015,"enabled":true,"region":"us-central","cc":"us","latitude":41.881832,"longitude":-87.62318,"reserved":0,"last_update":"0001-01-01T00:00:00Z","name_a2s":"Uncletopia | Chicago | 1 | All Maps","protocol":17,"map":"koth_highpass","folder":"tf","game":"Team Fortress","app_id":440,"player_count":0,"max_players":24,"Bots":0,"server_type":"Dedicated","server_os":"Linux","password":true,"vac":true,"version":"7757534","steam_id":85568392924469984,"keywords":["cp","nocrits","nodmgspread","uncletopia"],"game_id":440,"stv_port":27016,"stv_name":"Uncletopia | Chicago | 1 | All Maps | STV","players":null},{"server_id":106,"name":"Uncletopia | Chicago | 2 | All Maps","name_short":"chi-2","host":"chi-1.us.uncletopia.com","port":27025,"enabled":true,"region":"us-central","cc":"us","latitude":41.881832,"longitude":-87.62318,"reserved":0,"last_update":"0001-01-01T00:00:00Z","name_a2s":"Uncletopia | Chicago | 2 | All Maps","protocol":17,"map":"koth_nucleus","folder":"tf","game":"Team Fortress","app_id":440,"player_count":0,"max_players":24,"Bots":0,"server_type":"Dedicated","server_os":"Linux","password":true,"vac":true,"version":"7757534","steam_id":85568392924469985,"keywords":["cp","nocrits","nodmgspread","uncletopia"],"game_id":440,"stv_port":27026,"stv_name":"Uncletopia | Chicago | 2 | All Maps | STV","players":null},{"server_id":402,"name":"Uncletopia | Chicago | 3 | All Maps","name_short":"chi-3","host":"chi-1.us.uncletopia.com","port":27035,"enabled":true,"region":"us-central","cc":"us","latitude":41.881832,"longitude":-87.62318,"reserved":0,"last_update":"0001-01-01T00:00:00Z","name_a2s":"Uncletopia | Chicago | 3 | All Maps","protocol":17,"map":"pl_frontier_final","folder":"tf","game":"Team Fortress","app_id":440,"player_count":24,"max_players":24,"Bots":0,"server_type":"Dedicated","server_os":"Linux","password":true,"vac":true,"version":"7757534","steam_id":85568392924515191,"keywords":["nocrits","nodmgspread","payload","uncletopia"],"game_id":440,"stv_port":27036,"stv_name":"Uncletopia | Chicago | 3 | All Maps | STV","players":[{"user_id":156,"name":"Subway Fan","steam_id":76561198336372790,"connected_time":2597000000000,"state":"active","ping":46},{"user_id":144,"name":"illious","steam_id":76561198169925494,"connected_time":3515000000000,"state":"active","ping":62},{"user_id":96,"name":"Shamrock Shake Oct.10.2020 @8pm","steam_id":76561198833313201,"connected_time":7462000000000,"state":"active","ping":109},{"user_id":180,"name":"im here to frag","steam_id":76561198392539722,"connected_time":777000000000,"state":"active","ping":76},{"user_id":181,"name":"DOMO_MR_ROBOTO","steam_id":76561198077108345,"connected_time":765000000000,"state":"active","ping":94},{"user_id":187,"name":"bojack from the show bojack hor","steam_id":76561198053006712,"connected_time":385000000000,"state":"active","ping":56},{"user_id":182,"name":"Legit_Jaxer","steam_id":76561198172234053,"connected_time":738000000000,"state":"active","ping":106},{"user_id":186,"name":"quint","steam_id":76561198046797995,"connected_time":466000000000,"state":"active","ping":57},{"user_id":163,"name":"pepsibobby","steam_id":76561198853864511,"connected_time":2357000000000,"state":"active","ping":77},{"user_id":165,"name":"nnobi","steam_id":76561198878729277,"connected_time":1846000000000,"state":"active","ping":74},{"user_id":150,"name":"¬¨‚Äø¬¨","steam_id":76561198325526945,"connected_time":3010000000000,"state":"active","ping":73},{"user_id":183,"name":"Joshua31704","steam_id":76561198125898714,"connected_time":731000000000,"state":"active","ping":74},{"user_id":178,"name":"Craig Isonychia","steam_id":76561198272013678,"connected_time":825000000000,"state":"active","ping":71},{"user_id":109,"name":"Suns","steam_id":76561198272323195,"connected_time":6511000000000,"state":"active","ping":99},{"user_id":192,"name":"Highground","steam_id":76561199197544789,"connected_time":25000000000,"state":"spawning","ping":107},{"user_id":188,"name":"Yam Jazzy Jim","steam_id":76561198000788950,"connected_time":362000000000,"state":"active","ping":68},{"user_id":155,"name":"!! BRO IS FLABBERGASTED !!","steam_id":76561198135036396,"connected_time":2708000000000,"state":"active","ping":79},{"user_id":185,"name":"The Land Admiral","steam_id":76561198159356609,"connected_time":529000000000,"state":"active","ping":79},{"user_id":174,"name":"Sir Galahad","steam_id":76561198195999859,"connected_time":1189000000000,"state":"active","ping":116},{"user_id":167,"name":"pinglefingle","steam_id":76561198216580197,"connected_time":1709000000000,"state":"active","ping":84},{"user_id":130,"name":"m√•lingen","steam_id":76561198035014807,"connected_time":4878000000000,"state":"active","ping":117},{"user_id":189,"name":"Decs","steam_id":76561198825197974,"connected_time":328000000000,"state":"active","ping":129},{"user_id":190,"name":"guess","steam_id":76561198140846580,"connected_time":280000000000,"state":"active","ping":63},{"user_id":166,"name":"Ejaculation Zach","steam_id":76561198203765200,"connected_time":1846000000000,"state":"active","ping":60}]},{"server_id":403,"name":"Uncletopia | Chicago | 4 | All Maps","name_short":"chi-4","host":"chi-1.us.uncletopia.com","port":27045,"enabled":true,"region":"us-central","cc":"us","latitude":41.881832,"longitude":-87.62318,"reserved":0,"last_update":"0001-01-01T00:00:00Z","name_a2s":"Uncletopia | Chicago | 4 | All Maps","protocol":17,"map":"pl_borneo","folder":"tf","game":"Team Fortress","app_id":440,"player_count":20,"max_players":24,"Bots":0,"server_type":"Dedicated","server_os":"Linux","password":true,"vac":true,"version":"7757534","steam_id":85568392924515193,"keywords":["nocrits","nodmgspread","payload","uncletopia"],"game_id":440,"stv_port":27046,"stv_name":"Uncletopia | Chicago | 4 | All Maps | STV","players":[{"user_id":369,"name":"Loogey03","steam_id":76561198155483586,"connected_time":88000000000,"state":"active","ping":55},{"user_id":333,"name":"PeopleOrderOurPatties","steam_id":76561198323144922,"connected_time":2228000000000,"state":"active","ping":77},{"user_id":363,"name":"Vegerot","steam_id":76561197997843710,"connected_time":429000000000,"state":"active","ping":60},{"user_id":370,"name":"Dad","steam_id":76561199091290729,"connected_time":45000000000,"state":"active","ping":76},{"user_id":367,"name":"DiscoTraveler","steam_id":76561199240168088,"connected_time":198000000000,"state":"active","ping":87},{"user_id":368,"name":"mio","steam_id":76561198239286750,"connected_time":137000000000,"state":"active","ping":62},{"user_id":362,"name":"6t26j","steam_id":76561198278282836,"connected_time":480000000000,"state":"active","ping":45},{"user_id":364,"name":"kametro4","steam_id":76561198835430429,"connected_time":396000000000,"state":"active","ping":83},{"user_id":334,"name":"Foreskin Reattachment service","steam_id":76561198060342804,"connected_time":2227000000000,"state":"active","ping":69},{"user_id":340,"name":"merge without looking","steam_id":76561198056702628,"connected_time":2149000000000,"state":"active","ping":61},{"user_id":313,"name":"Sprit ‚ô•","steam_id":76561198268780781,"connected_time":3868000000000,"state":"active","ping":45},{"user_id":365,"name":"GAPE GOD","steam_id":76561198371235800,"connected_time":378000000000,"state":"active","ping":80},{"user_id":354,"name":"yahoo.com warrior","steam_id":76561198152818418,"connected_time":1036000000000,"state":"active","ping":83},{"user_id":356,"name":"Yandex.RU Mercenary","steam_id":76561198202254225,"connected_time":973000000000,"state":"active","ping":90},{"user_id":361,"name":"avantime","steam_id":76561199203175541,"connected_time":640000000000,"state":"active","ping":83},{"user_id":315,"name":"Goldensliv","steam_id":76561198161673891,"connected_time":3848000000000,"state":"active","ping":98},{"user_id":322,"name":"maze","steam_id":76561198068443860,"connected_time":3593000000000,"state":"active","ping":31},{"user_id":366,"name":"HavocGDI","steam_id":76561199388371914,"connected_time":292000000000,"state":"active","ping":86},{"user_id":342,"name":"tesagi","steam_id":76561198026664629,"connected_time":2140000000000,"state":"active","ping":45},{"user_id":303,"name":"Kaluka","steam_id":76561198036861445,"connected_time":5203000000000,"state":"active","ping":60}]},{"server_id":36,"name":"Uncletopia | Chicago | 5 | All Maps","name_short":"chi-5","host":"chi-2.us.uncletopia.com","port":27015,"enabled":true,"region":"us-central","cc":"us","latitude":41.881832,"longitude":-87.62318,"reserved":0,"last_update":"0001-01-01T00:00:00Z","name_a2s":"Uncletopia | Chicago | 5 | All Maps","protocol":17,"map":"koth_cascade","folder":"tf","game":"Team Fortress","app_id":440,"player_count":0,"max_players":24,"Bots":0,"server_type":"Dedicated","server_os":"Linux","password":true,"vac":true,"version":"7757534","steam_id":85568392924866362,"keywords":["cp","nocrits","nodmgspread","uncletopia"],"game_id":440,"stv_port":27016,"stv_name":"Uncletopia | Chicago | 5 | All Maps | STV","players":null},{"server_id":37,"name":"Uncletopia | Chicago | 6 | All Maps","name_short":"chi-6","host":"chi-2.us.uncletopia.com","port":27025,"enabled":true,"region":"us-central","cc":"us","latitude":41.881832,"longitude":-87.62318,"reserved":0,"last_update":"0001-01-01T00:00:00Z","name_a2s":"Uncletopia | Chicago | 6 | All Maps","protocol":17,"map":"pl_borneo","folder":"tf","game":"Team Fortress","app_id":440,"player_count":14,"max_players":24,"Bots":0,"server_type":"Dedicated","server_os":"Linux","password":true,"vac":true,"version":"7757534","steam_id":85568392924866363,"keywords":["nocrits","nodmgspread","payload","uncletopia"],"game_id":440,"stv_port":27026,"stv_name":"Uncletopia | Chicago | 6 | All Maps | STV","players":[{"user_id":147,"name":"MF LerN","steam_id":76561198083463877,"connected_time":5443000000000,"state":"active","ping":36},{"user_id":211,"name":"Plain Toast","steam_id":76561198451580251,"connected_time":939000000000,"state":"active","ping":74},{"user_id":223,"name":"Ben-Shapiro-Gaming","steam_id":76561198133520011,"connected_time":213000000000,"state":"active","ping":75},{"user_id":165,"name":"joethefool","steam_id":76561199015436319,"connected_time":3804000000000,"state":"active","ping":61},{"user_id":157,"name":"TFBot(1)","steam_id":76561198105538929,"connected_time":4174000000000,"state":"active","ping":45},{"user_id":198,"name":"Red Samms","steam_id":76561198324626131,"connected_time":1431000000000,"state":"active","ping":66},{"user_id":162,"name":"MontellWilliams","steam_id":76561198172143015,"connected_time":4124000000000,"state":"active","ping":50},{"user_id":196,"name":"TFBot(2)","steam_id":76561198061284371,"connected_time":1772000000000,"state":"active","ping":30},{"user_id":222,"name":"Zatch","steam_id":76561198156327678,"connected_time":235000000000,"state":"active","ping":64},{"user_id":218,"name":"kaleb.","steam_id":76561198064509964,"connected_time":526000000000,"state":"active","ping":49},{"user_id":190,"name":"Wolverine Fingerblaster","steam_id":76561198095394582,"connected_time":2253000000000,"state":"active","ping":74},{"user_id":206,"name":"Prison Sal","steam_id":76561198355553673,"connected_time":1163000000000,"state":"active","ping":48},{"user_id":215,"name":"pluto","steam_id":76561198199079731,"connected_time":915000000000,"state":"active","ping":70},{"user_id":216,"name":"The magic doo bus","steam_id":76561198243387974,"connected_time":911000000000,"state":"active","ping":70}]},{"server_id":38,"name":"Uncletopia | Chicago | 7 | Stopwatch Beta","name_short":"chi-7","host":"chi-2.us.uncletopia.com","port":27035,"enabled":true,"region":"us-central","cc":"us","latitude":41.881832,"longitude":-87.62318,"reserved":0,"last_update":"0001-01-01T00:00:00Z","name_a2s":"Uncletopia | Chicago | 7 | Stopwatch Beta","protocol":17,"map":"pl_barnblitz","folder":"tf","game":"Team Fortress","app_id":440,"player_count":0,"max_players":24,"Bots":0,"server_type":"Dedicated","server_os":"Linux","password":true,"vac":true,"version":"7757534","steam_id":85568392924866364,"keywords":["nocrits","nodmgspread","payload","uncletopia"],"game_id":440,"stv_port":27036,"stv_name":"Uncletopia | Chicago | 7 | Stopwatch Beta | STV","players":null},{"server_id":39,"name":"Uncletopia | Chicago | 8 | Community","name_short":"chi-8","host":"chi-2.us.uncletopia.com","port":27045,"enabled":true,"region":"us-central","cc":"us","latitude":41.881832,"longitude":-87.62318,"reserved":0,"last_update":"0001-01-01T00:00:00Z","name_a2s":"Uncletopia | Chicago | 8 | Community","protocol":17,"map":"koth_cascade","folder":"tf","game":"Team Fortress","app_id":440,"player_count":1,"max_players":24,"Bots":0,"server_type":"Dedicated","server_os":"Linux","password":true,"vac":true,"version":"7757534","steam_id":85568392924866365,"keywords":["cp","nocrits","nodmgspread","uncletopia"],"game_id":440,"stv_port":27046,"stv_name":"Uncletopia | Chicago | 8 | Community | STV","players":[{"user_id":4,"name":"Antknee","steam_id":76561198263793809,"connected_time":56000000000,"state":"active","ping":61}]},{"server_id":8,"name":"Uncletopia | Dallas | 1 | All Maps","name_short":"dal-1","host":"dal-1.us.uncletopia.com","port":27015,"enabled":true,"region":"us-central","cc":"us","latitude":32.779167,"longitude":-96.80889,"reserved":0,"last_update":"0001-01-01T00:00:00Z","name_a2s":"Uncletopia | Dallas | 1 | All Maps","protocol":17,"map":"koth_cascade","folder":"tf","game":"Team Fortress","app_id":440,"player_count":2,"max_players":24,"Bots":0,"server_type":"Dedicated","server_os":"Linux","password":true,"vac":true,"version":"7757534","steam_id":85568392924469986,"keywords":["cp","nocrits","nodmgspread","uncletopia"],"game_id":440,"stv_port":27016,"stv_name":"Uncletopia | Dallas | 1 | All Maps | STV","players":[{"user_id":14,"name":"Baby gaming","steam_id":76561198867319323,"connected_time":1756000000000,"state":"active","ping":77},{"user_id":16,"name":"thetroupegang","steam_id":76561198340510098,"connected_time":1711000000000,"state":"active","ping":45}]},{"server_id":108,"name":"Uncletopia | Dallas | 2 | All Maps","name_short":"dal-2","host":"dal-1.us.uncletopia.com","port":27025,"enabled":true,"region":"us-central","cc":"us","latitude":32.779167,"longitude":-96.80889,"reserved":0,"last_update":"0001-01-01T00:00:00Z","name_a2s":"Uncletopia | Dallas | 2 | All Maps","protocol":17,"map":"pl_badwater","folder":"tf","game":"Team Fortress","app_id":440,"player_count":24,"max_players":24,"Bots":0,"server_type":"Dedicated","server_os":"Linux","password":true,"vac":true,"version":"7757534","steam_id":85568392924469988,"keywords":["nocrits","nodmgspread","payload","uncletopia"],"game_id":440,"stv_port":27026,"stv_name":"Uncletopia | Dallas | 2 | All Maps | STV","players":[{"user_id":282,"name":"Breadn","steam_id":76561199478078821,"connected_time":1115000000000,"state":"active","ping":76},{"user_id":272,"name":"Zetta","steam_id":76561198045710113,"connected_time":1627000000000,"state":"active","ping":82},{"user_id":288,"name":"Female Gamer","steam_id":76561199366482682,"connected_time":505000000000,"state":"active","ping":117},{"user_id":294,"name":"discord kitten","steam_id":76561197997961542,"connected_time":340000000000,"state":"active","ping":90},{"user_id":285,"name":"Brown_Dream","steam_id":76561198975766145,"connected_time":853000000000,"state":"active","ping":85},{"user_id":295,"name":"VioletChan She/Her","steam_id":76561198074713124,"connected_time":264000000000,"state":"active","ping":36},{"user_id":198,"name":"Cinnifox","steam_id":76561198068773971,"connected_time":6291000000000,"state":"active","ping":72},{"user_id":119,"name":"Romanian Officer B Dingling","steam_id":76561198831997540,"connected_time":10245000000000,"state":"active","ping":70},{"user_id":290,"name":"roanoke‚Ä∫","steam_id":76561198048007844,"connected_time":488000000000,"state":"active","ping":74},{"user_id":284,"name":"her","steam_id":76561198868600487,"connected_time":942000000000,"state":"active","ping":137},{"user_id":248,"name":"mkl","steam_id":76561197986401685,"connected_time":3797000000000,"state":"active","ping":56},{"user_id":242,"name":"Tyler\u0026Fingers","steam_id":76561198085154485,"connected_time":4134000000000,"state":"active","ping":86},{"user_id":292,"name":"carol in HR","steam_id":76561198071775268,"connected_time":406000000000,"state":"active","ping":100},{"user_id":281,"name":"Damiano","steam_id":76561198065585796,"connected_time":1287000000000,"state":"active","ping":79},{"user_id":296,"name":"vividbot","steam_id":76561198158980015,"connected_time":254000000000,"state":"active","ping":79},{"user_id":280,"name":"DocLucky","steam_id":76561199093899249,"connected_time":1346000000000,"state":"active","ping":168},{"user_id":107,"name":"Joe Swanson","steam_id":76561199089907740,"connected_time":11585000000000,"state":"active","ping":71},{"user_id":297,"name":"Squatter1","steam_id":76561198078987734,"connected_time":243000000000,"state":"active","ping":87},{"user_id":298,"name":"BladeeFann","steam_id":76561198164439110,"connected_time":218000000000,"state":"active","ping":82},{"user_id":286,"name":"nothing happened in Venice","steam_id":76561198936412406,"connected_time":640000000000,"state":"active","ping":80},{"user_id":213,"name":"weebloser","steam_id":76561198155571316,"connected_time":5740000000000,"state":"active","ping":74},{"user_id":299,"name":"Thibedapro","steam_id":76561199236986064,"connected_time":177000000000,"state":"active","ping":175},{"user_id":300,"name":"Mediarch","steam_id":76561198050765729,"connected_time":172000000000,"state":"active","ping":105},{"user_id":301,"name":"TrashMann","steam_id":76561198040969743,"connected_time":140000000000,"state":"active","ping":73}]},{"server_id":5,"name":"Uncletopia | Frankfurt | 1 | All Maps","name_short":"frk-1","host":"frk-1.de.uncletopia.com","port":27015,"enabled":true,"region":"eu","cc":"de","latitude":50.110924,"longitude":8.682127,"reserved":0,"last_update":"0001-01-01T00:00:00Z","name_a2s":"Uncletopia | Frankfurt | 1 | All Maps","protocol":17,"map":"pl_pier","folder":"tf","game":"Team Fortress","app_id":440,"player_count":24,"max_players":24,"Bots":0,"server_type":"Dedicated","server_os":"Linux","password":true,"vac":true,"version":"7757534","steam_id":85568392924469989,"keywords":["nocrits","nodmgspread","payload","uncletopia"],"game_id":440,"stv_port":27016,"stv_name":"Uncletopia | Frankfurt | 1 | All Maps | STV","players":[{"user_id":682,"name":"Piox","steam_id":76561198125689157,"connected_time":3867000000000,"state":"active","ping":77},{"user_id":685,"name":"Walle","steam_id":76561197995148937,"connected_time":3282000000000,"state":"active","ping":67},{"user_id":690,"name":"Er Pomata","steam_id":76561198133085347,"connected_time":1743000000000,"state":"active","ping":56},{"user_id":711,"name":"General Petrov","steam_id":76561198027204104,"connected_time":704000000000,"state":"active","ping":90},{"user_id":709,"name":"Pats","steam_id":76561198418538887,"connected_time":979000000000,"state":"active","ping":91},{"user_id":666,"name":"Datenegassie","steam_id":76561198089417032,"connected_time":4551000000000,"state":"active","ping":70},{"user_id":629,"name":"Trebox78","steam_id":76561198071963357,"connected_time":7265000000000,"state":"active","ping":85},{"user_id":714,"name":"Ducky[WADZ]","steam_id":76561198060341245,"connected_time":135000000000,"state":"active","ping":53},{"user_id":667,"name":"Miolen","steam_id":76561198083366424,"connected_time":4532000000000,"state":"active","ping":117},{"user_id":710,"name":"Thors","steam_id":76561197968739075,"connected_time":718000000000,"state":"active","ping":50},{"user_id":679,"name":"Svilar","steam_id":76561198828348612,"connected_time":3981000000000,"state":"active","ping":95},{"user_id":412,"name":"grandpa's post-mortem photo","steam_id":76561198130116078,"connected_time":21439000000000,"state":"active","ping":93},{"user_id":621,"name":"decommandpro","steam_id":76561198971647041,"connected_time":7928000000000,"state":"active","ping":99},{"user_id":699,"name":"gwa≈Çt wƒÖtroby 0,7 i 5 piw","steam_id":76561199038973360,"connected_time":1326000000000,"state":"active","ping":125},{"user_id":712,"name":"flappi","steam_id":76561198072892783,"connected_time":279000000000,"state":"active","ping":59},{"user_id":708,"name":"Arti","steam_id":76561197983352845,"connected_time":1000000000000,"state":"active","ping":74},{"user_id":687,"name":"Seeker","steam_id":76561198873052772,"connected_time":3045000000000,"state":"active","ping":68},{"user_id":713,"name":"‚ô• Aura ‚ô•","steam_id":76561198066258544,"connected_time":210000000000,"state":"active","ping":53},{"user_id":701,"name":"‚ô• Emma ‚ô•","steam_id":76561198046796406,"connected_time":1126000000000,"state":"active","ping":57},{"user_id":674,"name":"Skuld","steam_id":76561198064734905,"connected_time":4268000000000,"state":"active","ping":93},{"user_id":689,"name":"Myrmodion","steam_id":76561198054746247,"connected_time":2066000000000,"state":"active","ping":65},{"user_id":688,"name":"yung arzneimittel","steam_id":76561198044165284,"connected_time":2615000000000,"state":"active","ping":45},{"user_id":704,"name":"redddz","steam_id":76561198065593840,"connected_time":1049000000000,"state":"active","ping":87},{"user_id":681,"name":"‚òÖpoyo‚òÖ","steam_id":76561198150078959,"connected_time":3930000000000,"state":"active","ping":70}]},{"server_id":110,"name":"Uncletopia | Frankfurt | 2 | All Maps","name_short":"frk-2","host":"frk-1.de.uncletopia.com","port":27025,"enabled":true,"region":"eu","cc":"de","latitude":50.110924,"longitude":8.682127,"reserved":0,"last_update":"0001-01-01T00:00:00Z","name_a2s":"Uncletopia | Frankfurt | 2 | All Maps","protocol":17,"map":"pl_snowycoast","folder":"tf","game":"Team Fortress","app_id":440,"player_count":24,"max_players":24,"Bots":0,"server_type":"Dedicated","server_os":"Linux","password":true,"vac":true,"version":"7757534","steam_id":85568392924469990,"keywords":["nocrits","nodmgspread","payload","uncletopia"],"game_id":440,"stv_port":27026,"stv_name":"Uncletopia | Frankfurt | 2 | All Maps | STV","players":[{"user_id":394,"name":"etc","steam_id":76561197998394797,"connected_time":3090000000000,"state":"active","ping":61},{"user_id":414,"name":"kamikaze bat enjoyer","steam_id":76561198865364180,"connected_time":858000000000,"state":"active","ping":60},{"user_id":427,"name":"FJADL","steam_id":76561198237008214,"connected_time":181000000000,"state":"active","ping":63},{"user_id":400,"name":"weed fairy","steam_id":76561197998843096,"connected_time":1842000000000,"state":"active","ping":72},{"user_id":415,"name":"a Regurar Barroon","steam_id":76561198834913692,"connected_time":820000000000,"state":"active","ping":70},{"user_id":401,"name":"riseroy","steam_id":76561199010842709,"connected_time":1725000000000,"state":"active","ping":89},{"user_id":378,"name":"Solymr ibn Wali Barad","steam_id":76561198044008976,"connected_time":3807000000000,"state":"active","ping":73},{"user_id":379,"name":"Mor'du","steam_id":76561198274105878,"connected_time":3801000000000,"state":"active","ping":97},{"user_id":381,"name":"zek","steam_id":76561198862763731,"connected_time":3653000000000,"state":"active","ping":54},{"user_id":425,"name":"Flint","steam_id":76561197995920776,"connected_time":270000000000,"state":"active","ping":42},{"user_id":347,"name":"The pusheen cat","steam_id":76561199002462516,"connected_time":6130000000000,"state":"active","ping":86},{"user_id":424,"name":"David \"Crash\" Murphy","steam_id":76561198292845505,"connected_time":292000000000,"state":"active","ping":97},{"user_id":426,"name":"Per√§miehen√§","steam_id":76561197968945306,"connected_time":237000000000,"state":"active","ping":68},{"user_id":428,"name":"God's drunkest driver","steam_id":76561198157406151,"connected_time":131000000000,"state":"active","ping":60},{"user_id":395,"name":"laser","steam_id":76561198036030697,"connected_time":2969000000000,"state":"active","ping":63},{"user_id":419,"name":"S√§yu","steam_id":76561199275368237,"connected_time":750000000000,"state":"active","ping":85},{"user_id":406,"name":"FluffyFoxxo69","steam_id":76561198254582506,"connected_time":1465000000000,"state":"active","ping":63},{"user_id":368,"name":"S_ApplePie","steam_id":76561198106947669,"connected_time":4685000000000,"state":"active","ping":87},{"user_id":407,"name":"Tort","steam_id":76561198329646769,"connected_time":1452000000000,"state":"active","ping":72},{"user_id":413,"name":"Bone Photogarapher","steam_id":76561198799953945,"connected_time":1025000000000,"state":"active","ping":60},{"user_id":418,"name":"Merc","steam_id":76561198044864067,"connected_time":775000000000,"state":"active","ping":71},{"user_id":423,"name":"Carrot","steam_id":76561198119340863,"connected_time":382000000000,"state":"active","ping":57},{"user_id":410,"name":"Cobb Salads","steam_id":76561197971140507,"connected_time":1395000000000,"state":"active","ping":62},{"user_id":416,"name":"ChPerette","steam_id":76561198060004887,"connected_time":820000000000,"state":"active","ping":46}]},{"server_id":308,"name":"Uncletopia | Frankfurt | 3 | All Maps","name_short":"frk-3","host":"frk-1.de.uncletopia.com","port":27035,"enabled":true,"region":"eu","cc":"de","latitude":50.110924,"longitude":8.682127,"reserved":0,"last_update":"0001-01-01T00:00:00Z","name_a2s":"Uncletopia | Frankfurt | 3 | All Maps","protocol":17,"map":"pl_barnblitz","folder":"tf","game":"Team Fortress","app_id":440,"player_count":0,"max_players":24,"Bots":0,"server_type":"Dedicated","server_os":"Linux","password":true,"vac":true,"version":"7757534","steam_id":85568392924504274,"keywords":["nocrits","nodmgspread","payload","uncletopia"],"game_id":440,"stv_port":27036,"stv_name":"Uncletopia | Frankfurt | 3 | All Maps | STV","players":null},{"server_id":309,"name":"Uncletopia | Frankfurt | 4 | All Maps","name_short":"frk-4","host":"frk-1.de.uncletopia.com","port":27045,"enabled":true,"region":"eu","cc":"de","latitude":50.110924,"longitude":8.682127,"reserved":0,"last_update":"0001-01-01T00:00:00Z","name_a2s":"Uncletopia | Frankfurt | 4 | All Maps","protocol":17,"map":"cp_5gorge","folder":"tf","game":"Team Fortress","app_id":440,"player_count":24,"max_players":24,"Bots":0,"server_type":"Dedicated","server_os":"Linux","password":true,"vac":true,"version":"7757534","steam_id":85568392924504275,"keywords":["cp","nocrits","nodmgspread","uncletopia"],"game_id":440,"stv_port":27046,"stv_name":"Uncletopia | Frankfurt | 4 | All Maps | STV","players":[{"user_id":249,"name":"thuurs","steam_id":76561198095850568,"connected_time":4369000000000,"state":"active","ping":51},{"user_id":298,"name":"Bonduelle#Savetf2","steam_id":76561199041992422,"connected_time":680000000000,"state":"active","ping":150},{"user_id":281,"name":"W√ºstenfuchs","steam_id":76561198453885708,"connected_time":2578000000000,"state":"active","ping":67},{"user_id":196,"name":"–ü–µ–Ω—å","steam_id":76561198103127918,"connected_time":8702000000000,"state":"active","ping":95},{"user_id":300,"name":"LoLo","steam_id":76561199403387863,"connected_time":599000000000,"state":"active","ping":57},{"user_id":235,"name":"InariTPG (They Them)","steam_id":76561198872670782,"connected_time":5495000000000,"state":"active","ping":72},{"user_id":259,"name":"diam","steam_id":76561198015364262,"connected_time":3897000000000,"state":"active","ping":55},{"user_id":301,"name":"ÊàëÂñúÊ¨¢ÊàëÂ±ÅËÇ°‰∏äÁöÑÂ§ßÈªë","steam_id":76561198419323571,"connected_time":282000000000,"state":"active","ping":107},{"user_id":306,"name":"jo","steam_id":76561198109074418,"connected_time":105000000000,"state":"active","ping":62},{"user_id":302,"name":"ASAP","steam_id":76561198322078500,"connected_time":280000000000,"state":"active","ping":90},{"user_id":277,"name":"Surplus Rice","steam_id":76561198181097561,"connected_time":2948000000000,"state":"active","ping":61},{"user_id":278,"name":"bonehead","steam_id":76561198261870384,"connected_time":2659000000000,"state":"active","ping":65},{"user_id":299,"name":"randompixel","steam_id":76561198003941207,"connected_time":667000000000,"state":"active","ping":70},{"user_id":297,"name":"Blobbaz","steam_id":76561198031076278,"connected_time":729000000000,"state":"active","ping":69},{"user_id":276,"name":"Wyro","steam_id":76561199176835169,"connected_time":3109000000000,"state":"active","ping":61},{"user_id":293,"name":"Dr PeePee Jortson","steam_id":76561198800757829,"connected_time":1572000000000,"state":"active","ping":69},{"user_id":303,"name":"le big mac #queue4passtime","steam_id":76561199026378253,"connected_time":268000000000,"state":"active","ping":51},{"user_id":262,"name":"Baki ‡∂û","steam_id":76561198193615529,"connected_time":3843000000000,"state":"active","ping":59},{"user_id":290,"name":"JohnnyRakieta","steam_id":76561198855789287,"connected_time":1857000000000,"state":"active","ping":61},{"user_id":268,"name":"roblan11","steam_id":76561198066839258,"connected_time":3453000000000,"state":"active","ping":45},{"user_id":304,"name":"Matael","steam_id":76561198452200894,"connected_time":265000000000,"state":"active","ping":62},{"user_id":294,"name":"Hendriks","steam_id":76561198446347617,"connected_time":1130000000000,"state":"active","ping":46},{"user_id":291,"name":"Kleiner Engel","steam_id":76561198009922500,"connected_time":1767000000000,"state":"active","ping":95},{"user_id":305,"name":"WatchingTriple/Twitch.tv","steam_id":76561198189375493,"connected_time":242000000000,"state":"active","ping":90}]},{"server_id":310,"name":"Uncletopia | Frankfurt | 5 | All Maps","name_short":"frk-5","host":"frk-1.de.uncletopia.com","port":27055,"enabled":true,"region":"eu","cc":"de","latitude":50.110924,"longitude":8.682127,"reserved":0,"last_update":"0001-01-01T00:00:00Z","name_a2s":"Uncletopia | Frankfurt | 5 | All Maps","protocol":17,"map":"pl_swiftwater_final1","folder":"tf","game":"Team Fortress","app_id":440,"player_count":24,"max_players":24,"Bots":0,"server_type":"Dedicated","server_os":"Linux","password":true,"vac":true,"version":"7757534","steam_id":85568392924504277,"keywords":["nocrits","nodmgspread","payload","uncletopia"],"game_id":440,"stv_port":27056,"stv_name":"Uncletopia | Frankfurt | 5 | All Maps | STV","players":[{"user_id":124,"name":"RIFT","steam_id":76561198991622379,"connected_time":97000000000,"state":"active","ping":61},{"user_id":83,"name":"Renard pos4","steam_id":76561197998908594,"connected_time":2375000000000,"state":"active","ping":70},{"user_id":77,"name":"Chucky.","steam_id":76561197969361063,"connected_time":2579000000000,"state":"active","ping":90},{"user_id":118,"name":"w presser","steam_id":76561197994600818,"connected_time":843000000000,"state":"active","ping":48},{"user_id":90,"name":"EGirlGang","steam_id":76561198257435792,"connected_time":2283000000000,"state":"active","ping":73},{"user_id":112,"name":"THE TUNNEL IS INCOMPLETE","steam_id":76561198183949987,"connected_time":1308000000000,"state":"active","ping":64},{"user_id":125,"name":"possiblename","steam_id":76561199064350902,"connected_time":76000000000,"state":"active","ping":104},{"user_id":97,"name":"Walter Griffin","steam_id":76561199415989636,"connected_time":2040000000000,"state":"active","ping":105},{"user_id":114,"name":"LeviJudd69","steam_id":76561198848834104,"connected_time":1285000000000,"state":"active","ping":192},{"user_id":126,"name":"Shelk0","steam_id":76561198153349968,"connected_time":76000000000,"state":"active","ping":91},{"user_id":123,"name":"Cuthbert","steam_id":76561198204649481,"connected_time":358000000000,"state":"active","ping":98},{"user_id":48,"name":"Flying skyhigh","steam_id":76561198372971096,"connected_time":4056000000000,"state":"active","ping":73},{"user_id":116,"name":"cringey d","steam_id":76561197991829888,"connected_time":1197000000000,"state":"active","ping":84},{"user_id":84,"name":"Minimi","steam_id":76561198873850443,"connected_time":2354000000000,"state":"active","ping":58},{"user_id":111,"name":"Nobody","steam_id":76561198157416665,"connected_time":1353000000000,"state":"active","ping":86},{"user_id":95,"name":"Fifourche","steam_id":76561198078209480,"connected_time":2124000000000,"state":"active","ping":60},{"user_id":94,"name":"Junebug","steam_id":76561198021846845,"connected_time":2195000000000,"state":"active","ping":96},{"user_id":107,"name":"Certified Hood pybro (ua)","steam_id":76561198970562699,"connected_time":1387000000000,"state":"active","ping":57},{"user_id":108,"name":"Laxslow","steam_id":76561198065361846,"connected_time":1374000000000,"state":"active","ping":53},{"user_id":51,"name":"Nyhde","steam_id":76561198012771416,"connected_time":3974000000000,"state":"active","ping":89},{"user_id":109,"name":"üç≠ùí¶ùëíùìÅùìÅùìéüç≠‚ù§","steam_id":76561198092156531,"connected_time":1359000000000,"state":"active","ping":63},{"user_id":119,"name":"Pinkchup","steam_id":76561198106802803,"connected_time":823000000000,"state":"active","ping":76},{"user_id":62,"name":"[HOL] Solringen","steam_id":76561198003584681,"connected_time":3434000000000,"state":"active","ping":65},{"user_id":113,"name":"goblinninja110","steam_id":76561198269159354,"connected_time":1308000000000,"state":"active","ping":73}]},{"server_id":311,"name":"Uncletopia | Frankfurt | 6 | All Maps","name_short":"frk-6","host":"frk-1.de.uncletopia.com","port":27065,"enabled":true,"region":"eu","cc":"de","latitude":50.110924,"longitude":8.682127,"reserved":0,"last_update":"0001-01-01T00:00:00Z","name_a2s":"Uncletopia | Frankfurt | 6 | All Maps","protocol":17,"map":"pl_frontier_final","folder":"tf","game":"Team Fortress","app_id":440,"player_count":21,"max_players":24,"Bots":0,"server_type":"Dedicated","server_os":"Linux","password":true,"vac":true,"version":"7757534","steam_id":85568392924504278,"keywords":["nocrits","nodmgspread","payload","uncletopia"],"game_id":440,"stv_port":27066,"stv_name":"Uncletopia | Frankfurt | 6 | All Maps | STV","players":[{"user_id":216,"name":"zak","steam_id":76561197998895428,"connected_time":55000000000,"state":"active","ping":49},{"user_id":207,"name":"Carrot Arc","steam_id":76561198164957006,"connected_time":1249000000000,"state":"active","ping":87},{"user_id":217,"name":"day","steam_id":76561198260265302,"connected_time":22000000000,"state":"active","ping":47},{"user_id":179,"name":"Sirzen","steam_id":76561198170155434,"connected_time":2976000000000,"state":"active","ping":45},{"user_id":189,"name":"t.tv/pkblizzard","steam_id":76561198039836567,"connected_time":2130000000000,"state":"active","ping":59},{"user_id":176,"name":"Ross from F.R.I.E.N.D.S.","steam_id":76561198008511665,"connected_time":3321000000000,"state":"active","ping":59},{"user_id":119,"name":"After8","steam_id":76561198090750865,"connected_time":6211000000000,"state":"active","ping":60},{"user_id":127,"name":"Fran","steam_id":76561199070516960,"connected_time":5869000000000,"state":"active","ping":61},{"user_id":213,"name":"Ecton","steam_id":76561198025103720,"connected_time":641000000000,"state":"active","ping":62},{"user_id":197,"name":"‚úà","steam_id":76561198296214683,"connected_time":1894000000000,"state":"active","ping":69},{"user_id":150,"name":"Egor Pomidor","steam_id":76561199175688390,"connected_time":4765000000000,"state":"active","ping":75},{"user_id":193,"name":"Yuzu","steam_id":76561198121694613,"connected_time":1998000000000,"state":"active","ping":54},{"user_id":109,"name":"Soyboy","steam_id":76561198053885716,"connected_time":6712000000000,"state":"active","ping":84},{"user_id":209,"name":"FrostKnight","steam_id":76561199174561702,"connected_time":1166000000000,"state":"active","ping":65},{"user_id":215,"name":"ohio.lottery.contestant4004","steam_id":76561198051852765,"connected_time":93000000000,"state":"active","ping":65},{"user_id":195,"name":"Well, off to hang myself","steam_id":76561198053374944,"connected_time":1979000000000,"state":"active","ping":71},{"user_id":199,"name":"Spicemanishere","steam_id":76561199237231482,"connected_time":1818000000000,"state":"active","ping":71},{"user_id":200,"name":"Chinese censorship Bureau","steam_id":76561198397898616,"connected_time":1780000000000,"state":"active","ping":52},{"user_id":214,"name":"My left foot itches","steam_id":76561198078411001,"connected_time":214000000000,"state":"active","ping":77},{"user_id":208,"name":"NitPig","steam_id":76561198212991935,"connected_time":1227000000000,"state":"active","ping":108},{"user_id":210,"name":"4","steam_id":76561197964945192,"connected_time":1116000000000,"state":"active","ping":51}]},{"server_id":23,"name":"Uncletopia | Frankfurt | 7 | Stopwatch Beta","name_short":"frk-7","host":"frk-1.de.uncletopia.com","port":27075,"enabled":true,"region":"eu","cc":"de","latitude":50.110924,"longitude":8.682127,"reserved":0,"last_update":"0001-01-01T00:00:00Z","name_a2s":"Uncletopia | Frankfurt | 7 | Stopwatch Beta","protocol":17,"map":"workshop/koth_clearcut_b15.ugc2107050255","folder":"tf","game":"Team Fortress","app_id":440,"player_count":0,"max_players":24,"Bots":0,"server_type":"Dedicated","server_os":"Linux","password":true,"vac":true,"version":"7757534","steam_id":85568392924742827,"keywords":["cp","nocrits","nodmgspread","uncletopia"],"game_id":440,"stv_port":27076,"stv_name":"Uncletopia | Frankfurt | 7 | Stopwatch Beta | STV","players":null},{"server_id":24,"name":"Uncletopia | Frankfurt | 8 | Community","name_short":"frk-8","host":"frk-1.de.uncletopia.com","port":27085,"enabled":true,"region":"eu","cc":"de","latitude":50.110924,"longitude":8.682127,"reserved":0,"last_update":"0001-01-01T00:00:00Z","name_a2s":"Uncletopia | Frankfurt | 8 | Community","protocol":17,"map":"workshop/rd_asteroid_redux_b1.ugc2154902912","folder":"tf","game":"Team Fortress","app_id":440,"player_count":11,"max_players":24,"Bots":0,"server_type":"Dedicated","server_os":"Linux","password":true,"vac":true,"version":"7757534","steam_id":85568392924742828,"keywords":["beta","nocrits","nodmgspread","rd","uncletopia"],"game_id":440,"stv_port":27086,"stv_name":"Uncletopia | Frankfurt | 8 | Community | STV","players":[{"user_id":273,"name":"El Goblino","steam_id":76561198232877396,"connected_time":878000000000,"state":"active","ping":103},{"user_id":274,"name":"GamliRaudur1","steam_id":76561199179181105,"connected_time":869000000000,"state":"active","ping":99},{"user_id":275,"name":"Brainfart08","steam_id":76561198170156079,"connected_time":745000000000,"state":"active","ping":99},{"user_id":276,"name":"Larynx","steam_id":76561199425162651,"connected_time":414000000000,"state":"active","ping":74},{"user_id":280,"name":"boss of the lgbtq+","steam_id":76561198106079915,"connected_time":198000000000,"state":"active","ping":83},{"user_id":278,"name":"RT_ratatuj","steam_id":76561199149578671,"connected_time":323000000000,"state":"active","ping":93},{"user_id":281,"name":"Dickkickem","steam_id":76561198425505206,"connected_time":28000000000,"state":"active","ping":75},{"user_id":282,"name":"Monsieur Monk√©","steam_id":76561198130288819,"connected_time":1000000000,"state":"spawning","ping":57},{"user_id":271,"name":"PickleNL","steam_id":76561199280652636,"connected_time":1879000000000,"state":"active","ping":72},{"user_id":229,"name":"KonehoChicken.","steam_id":76561198167116467,"connected_time":4272000000000,"state":"active","ping":94},{"user_id":243,"name":"Ymi","steam_id":76561198070039615,"connected_time":3858000000000,"state":"active","ping":87}]},{"server_id":202,"name":"Uncletopia | Hong Kong | 1 | All Maps","name_short":"hgk-1","host":"hgk-1.hk.uncletopia.com","port":27015,"enabled":true,"region":"asia","cc":"hk","latitude":22.302711,"longitude":114.177216,"reserved":0,"last_update":"0001-01-01T00:00:00Z","name_a2s":"Uncletopia | Hong Kong | 1 | All Maps","protocol":17,"map":"koth_lakeside_final","folder":"tf","game":"Team Fortress","app_id":440,"player_count":0,"max_players":24,"Bots":0,"server_type":"Dedicated","server_os":"Linux","password":true,"vac":true,"version":"7757534","steam_id":85568392924494504,"keywords":["cp","nocrits","nodmgspread","uncletopia"],"game_id":440,"stv_port":27016,"stv_name":"Uncletopia | Hong Kong | 1 | All Maps | STV","players":null},{"server_id":1,"name":"Uncletopia | Los Angeles | 1 | All Maps","name_short":"lax-1","host":"lax-1.us.uncletopia.com","port":27015,"enabled":true,"region":"us-west","cc":"us","latitude":33.94279,"longitude":-118.41004,"reserved":0,"last_update":"0001-01-01T00:00:00Z","name_a2s":"Uncletopia | Los Angeles | 1 | All Maps","protocol":17,"map":"koth_lakeside_final","folder":"tf","game":"Team Fortress","app_id":440,"player_count":0,"max_players":24,"Bots":0,"server_type":"Dedicated","server_os":"Linux","password":true,"vac":true,"version":"7757534","steam_id":85568392924469991,"keywords":["cp","nocrits","nodmgspread","uncletopia"],"game_id":440,"stv_port":27016,"stv_name":"Uncletopia | Los Angeles | 1 | All Maps | STV","players":null},{"server_id":112,"name":"Uncletopia | Los Angeles | 2 | All Maps","name_short":"lax-2","host":"lax-1.us.uncletopia.com","port":27025,"enabled":true,"region":"us-west","cc":"us","latitude":33.94279,"longitude":-118.41004,"reserved":0,"last_update":"0001-01-01T00:00:00Z","name_a2s":"Uncletopia | Los Angeles | 2 | All Maps","protocol":17,"map":"pl_badwater","folder":"tf","game":"Team Fortress","app_id":440,"player_count":0,"max_players":24,"Bots":0,"server_type":"Dedicated","server_os":"Linux","password":true,"vac":true,"version":"7757534","steam_id":85568392924469992,"keywords":["nocrits","nodmgspread","payload","uncletopia"],"game_id":440,"stv_port":27026,"stv_name":"Uncletopia | Los Angeles | 2 | All Maps | STV","players":null},{"server_id":324,"name":"Uncletopia | Los Angeles | 3 | All Maps","name_short":"lax-3","host":"lax-1.us.uncletopia.com","port":27035,"enabled":true,"region":"us-west","cc":"us","latitude":33.94279,"longitude":-118.41004,"reserved":0,"last_update":"0001-01-01T00:00:00Z","name_a2s":"Uncletopia | Los Angeles | 3 | All Maps","protocol":17,"map":"pl_barnblitz","folder":"tf","game":"Team Fortress","app_id":440,"player_count":0,"max_players":24,"Bots":0,"server_type":"Dedicated","server_os":"Linux","password":true,"vac":true,"version":"7757534","steam_id":85568392924510198,"keywords":["nocrits","nodmgspread","payload","uncletopia"],"game_id":440,"stv_port":27036,"stv_name":"Uncletopia | Los Angeles | 3 | All Maps | STV","players":null},{"server_id":25,"name":"Uncletopia | Los Angeles | 4 | Stopwatch Beta","name_short":"lax-4","host":"lax-1.us.uncletopia.com","port":27045,"enabled":true,"region":"us-west","cc":"us","latitude":33.94279,"longitude":-118.41004,"reserved":0,"last_update":"0001-01-01T00:00:00Z","name_a2s":"Uncletopia | Los Angeles | 4 | Stopwatch Beta","protocol":17,"map":"pl_swiftwater_final1","folder":"tf","game":"Team Fortress","app_id":440,"player_count":0,"max_players":24,"Bots":0,"server_type":"Dedicated","server_os":"Linux","password":true,"vac":true,"version":"7757534","steam_id":85568392924510199,"keywords":["nocrits","nodmgspread","payload","uncletopia"],"game_id":440,"stv_port":27046,"stv_name":"Uncletopia | Los Angeles | 4 | Stopwatch Beta | STV","players":null},{"server_id":11,"name":"Uncletopia | London | 1 | All Maps","name_short":"lon-1","host":"lon-1.uk.uncletopia.com","port":27015,"enabled":true,"region":"eu","cc":"gb","latitude":51.509865,"longitude":-0.118092,"reserved":0,"last_update":"0001-01-01T00:00:00Z","name_a2s":"Uncletopia | London | 1 | All Maps","protocol":17,"map":"pl_barnblitz","folder":"tf","game":"Team Fortress","app_id":440,"player_count":24,"max_players":24,"Bots":0,"server_type":"Dedicated","server_os":"Linux","password":true,"vac":true,"version":"7757534","steam_id":85568392924367362,"keywords":["nocrits","nodmgspread","payload","uncletopia"],"game_id":440,"stv_port":27016,"stv_name":"Uncletopia | London | 1 | All Maps | STV","players":[{"user_id":528,"name":"mt","steam_id":76561197961319303,"connected_time":907000000000,"state":"active","ping":61},{"user_id":543,"name":"Son Goku","steam_id":76561199383437138,"connected_time":115000000000,"state":"active","ping":131},{"user_id":508,"name":"Pancakes","steam_id":76561198196259989,"connected_time":3234000000000,"state":"active","ping":52},{"user_id":513,"name":"Lewylow","steam_id":76561198005425686,"connected_time":3002000000000,"state":"active","ping":53},{"user_id":488,"name":"jimmy bob","steam_id":76561198319583692,"connected_time":4398000000000,"state":"active","ping":58},{"user_id":525,"name":"Bob Burger","steam_id":76561197996149548,"connected_time":2152000000000,"state":"active","ping":50},{"user_id":544,"name":"Fwebbie","steam_id":76561199006875621,"connected_time":95000000000,"state":"active","ping":63},{"user_id":526,"name":"shooer","steam_id":76561198110531281,"connected_time":1839000000000,"state":"active","ping":82},{"user_id":523,"name":"ghenios","steam_id":76561198030011207,"connected_time":2367000000000,"state":"active","ping":90},{"user_id":535,"name":"Dylan","steam_id":76561199199740800,"connected_time":843000000000,"state":"active","ping":48},{"user_id":542,"name":"Koli","steam_id":76561197992428783,"connected_time":440000000000,"state":"active","ping":60},{"user_id":545,"name":"Tryrex","steam_id":76561198157824042,"connected_time":93000000000,"state":"active","ping":41},{"user_id":533,"name":"Chad","steam_id":76561198037309490,"connected_time":894000000000,"state":"active","ping":76},{"user_id":530,"name":"X-tis","steam_id":76561198043837480,"connected_time":905000000000,"state":"active","ping":76},{"user_id":477,"name":"willus212","steam_id":76561199182615246,"connected_time":4586000000000,"state":"active","ping":76},{"user_id":531,"name":"Cosmoraptor","steam_id":76561198127852173,"connected_time":902000000000,"state":"active","ping":61},{"user_id":538,"name":"dec","steam_id":76561198009660168,"connected_time":725000000000,"state":"active","ping":46},{"user_id":534,"name":"Dwevy","steam_id":76561198090379437,"connected_time":894000000000,"state":"active","ping":56},{"user_id":498,"name":"Toodlesnoot","steam_id":76561198036543689,"connected_time":3759000000000,"state":"active","ping":58},{"user_id":506,"name":"Kretur","steam_id":76561198161086266,"connected_time":3314000000000,"state":"active","ping":104},{"user_id":540,"name":"red‚ãÜmits","steam_id":76561198015590113,"connected_time":637000000000,"state":"active","ping":45},{"user_id":516,"name":"FoOzTV","steam_id":76561197998636728,"connected_time":2973000000000,"state":"active","ping":71},{"user_id":495,"name":"NonProphet","steam_id":76561198280149820,"connected_time":4218000000000,"state":"active","ping":66},{"user_id":527,"name":"Azi ‚ò¢","steam_id":76561198124563460,"connected_time":918000000000,"state":"active","ping":50}]},{"server_id":114,"name":"Uncletopia | London | 2 | All Maps","name_short":"lon-2","host":"lon-1.uk.uncletopia.com","port":27025,"enabled":true,"region":"eu","cc":"gb","latitude":51.509865,"longitude":-0.118092,"reserved":0,"last_update":"0001-01-01T00:00:00Z","name_a2s":"Uncletopia | London | 2 | All Maps","protocol":17,"map":"pl_thundermountain","folder":"tf","game":"Team Fortress","app_id":440,"player_count":24,"max_players":24,"Bots":0,"server_type":"Dedicated","server_os":"Linux","password":true,"vac":true,"version":"7757534","steam_id":85568392924470941,"keywords":["nocrits","nodmgspread","payload","uncletopia"],"game_id":440,"stv_port":27026,"stv_name":"Uncletopia | London | 2 | All Maps | STV","players":[{"user_id":27,"name":"Ixsus\u003c3","steam_id":76561198094756869,"connected_time":2679000000000,"state":"active","ping":65},{"user_id":130,"name":"Raldow","steam_id":76561198021389301,"connected_time":367000000000,"state":"active","ping":59},{"user_id":132,"name":"worm","steam_id":76561198345744589,"connected_time":226000000000,"state":"active","ping":58},{"user_id":109,"name":"Proto-arc","steam_id":76561198012776747,"connected_time":758000000000,"state":"active","ping":47},{"user_id":118,"name":"Iswak","steam_id":76561198234784568,"connected_time":551000000000,"state":"active","ping":74},{"user_id":135,"name":"Cynosure","steam_id":76561198121286517,"connected_time":29000000000,"state":"active","ping":44},{"user_id":112,"name":"gRUBY","steam_id":76561198040429367,"connected_time":642000000000,"state":"active","ping":89},{"user_id":84,"name":"nyanezt","steam_id":76561198253734265,"connected_time":1314000000000,"state":"active","ping":105},{"user_id":119,"name":"Een schaap zonder slaap","steam_id":76561198084808410,"connected_time":536000000000,"state":"active","ping":57},{"user_id":74,"name":"Harpenden, Harpenden, Harpenden","steam_id":76561198118138546,"connected_time":1510000000000,"state":"active","ping":41},{"user_id":115,"name":"Cornmac","steam_id":76561198104780569,"connected_time":616000000000,"state":"active","ping":67},{"user_id":116,"name":"Grumtsior","steam_id":76561198043563111,"connected_time":595000000000,"state":"active","ping":75},{"user_id":131,"name":"melter","steam_id":76561199303622823,"connected_time":289000000000,"state":"active","ping":57},{"user_id":48,"name":"Pershing[GER]","steam_id":76561197970330818,"connected_time":2091000000000,"state":"active","ping":69},{"user_id":125,"name":"dotdotdot","steam_id":76561198057628751,"connected_time":432000000000,"state":"active","ping":59},{"user_id":121,"name":"Twisted Logic ‚àû","steam_id":76561198002245428,"connected_time":506000000000,"state":"active","ping":40},{"user_id":122,"name":"eeeeee","steam_id":76561198017786875,"connected_time":497000000000,"state":"active","ping":67},{"user_id":123,"name":"Carrotcracker","steam_id":76561198034862396,"connected_time":490000000000,"state":"active","ping":82},{"user_id":124,"name":"Piellino","steam_id":76561198156873276,"connected_time":465000000000,"state":"active","ping":106},{"user_id":126,"name":"noodlehairronaldoprime","steam_id":76561199471954402,"connected_time":424000000000,"state":"active","ping":74},{"user_id":68,"name":"„Åà„Å™„Å™„Çì","steam_id":76561199427679148,"connected_time":1645000000000,"state":"active","ping":107},{"user_id":133,"name":"Engie","steam_id":76561199013368332,"connected_time":212000000000,"state":"active","ping":80},{"user_id":128,"name":"Penis Contortionist","steam_id":76561198073663784,"connected_time":413000000000,"state":"active","ping":37},{"user_id":129,"name":"Lil' Oil Spill","steam_id":76561198102361237,"connected_time":413000000000,"state":"active","ping":53}]},{"server_id":320,"name":"Uncletopia | London | 3 | All Maps","name_short":"lon-3","host":"lon-1.uk.uncletopia.com","port":27035,"enabled":true,"region":"eu","cc":"gb","latitude":51.509865,"longitude":-0.118092,"reserved":0,"last_update":"0001-01-01T00:00:00Z","name_a2s":"Uncletopia | London | 3 | All Maps","protocol":17,"map":"cp_process_final","folder":"tf","game":"Team Fortress","app_id":440,"player_count":24,"max_players":24,"Bots":0,"server_type":"Dedicated","server_os":"Linux","password":true,"vac":true,"version":"7757534","steam_id":85568392924510192,"keywords":["cp","nocrits","nodmgspread","uncletopia"],"game_id":440,"stv_port":27036,"stv_name":"Uncletopia | London | 3 | All Maps | STV","players":[{"user_id":488,"name":"ST4F","steam_id":76561198262924022,"connected_time":914000000000,"state":"active","ping":59},{"user_id":476,"name":"I.C. Wiener","steam_id":76561197999912254,"connected_time":2161000000000,"state":"active","ping":91},{"user_id":483,"name":"Nithle","steam_id":76561198025372740,"connected_time":1480000000000,"state":"active","ping":30},{"user_id":478,"name":"Excessive Clownery","steam_id":76561198130404188,"connected_time":2070000000000,"state":"active","ping":54},{"user_id":497,"name":"scott steiners strongest warrio","steam_id":76561198148888622,"connected_time":591000000000,"state":"active","ping":58},{"user_id":462,"name":"Dispenser(Dispenser)","steam_id":76561199211831658,"connected_time":2981000000000,"state":"active","ping":62},{"user_id":482,"name":"Dr Sex","steam_id":76561198029044617,"connected_time":1507000000000,"state":"active","ping":46},{"user_id":498,"name":"Wonder of U","steam_id":76561198099433856,"connected_time":136000000000,"state":"active","ping":60},{"user_id":486,"name":"static","steam_id":76561198836825741,"connected_time":1105000000000,"state":"active","ping":44},{"user_id":491,"name":"Misctek","steam_id":76561199037541925,"connected_time":855000000000,"state":"active","ping":64},{"user_id":475,"name":"The_Jaystone","steam_id":76561198126280691,"connected_time":2242000000000,"state":"active","ping":45},{"user_id":494,"name":"skulling person","steam_id":76561198423803012,"connected_time":829000000000,"state":"active","ping":45},{"user_id":499,"name":"FUKTARD2005","steam_id":76561198839121591,"connected_time":80000000000,"state":"active","ping":62},{"user_id":457,"name":"tm","steam_id":76561198256619964,"connected_time":3197000000000,"state":"active","ping":81},{"user_id":492,"name":"Superiumentarius","steam_id":76561198081642249,"connected_time":849000000000,"state":"active","ping":71},{"user_id":445,"name":"e","steam_id":76561198803089656,"connected_time":3663000000000,"state":"active","ping":69},{"user_id":479,"name":"schmick","steam_id":76561198039537958,"connected_time":1710000000000,"state":"active","ping":45},{"user_id":471,"name":"He could be any one of us","steam_id":76561198320506848,"connected_time":2686000000000,"state":"active","ping":38},{"user_id":467,"name":"Puh","steam_id":76561198144888879,"connected_time":2863000000000,"state":"active","ping":69},{"user_id":425,"name":"johnny dorito","steam_id":76561198148074472,"connected_time":5176000000000,"state":"active","ping":45},{"user_id":484,"name":"Warlord Zira","steam_id":76561198044174757,"connected_time":1473000000000,"state":"active","ping":88},{"user_id":495,"name":"donkey kong","steam_id":76561198132922827,"connected_time":826000000000,"state":"active","ping":30},{"user_id":426,"name":"worst feeling ever","steam_id":76561198147277460,"connected_time":5170000000000,"state":"active","ping":63},{"user_id":473,"name":"A Featherless Biped","steam_id":76561198307904901,"connected_time":2594000000000,"state":"active","ping":46}]},{"server_id":321,"name":"Uncletopia | London | 4 | All Maps","name_short":"lon-4","host":"lon-1.uk.uncletopia.com","port":27045,"enabled":true,"region":"eu","cc":"gb","latitude":51.509865,"longitude":-0.118092,"reserved":0,"last_update":"0001-01-01T00:00:00Z","name_a2s":"Uncletopia | London | 4 | All Maps","protocol":17,"map":"pl_frontier_final","folder":"tf","game":"Team Fortress","app_id":440,"player_count":7,"max_players":24,"Bots":0,"server_type":"Dedicated","server_os":"Linux","password":true,"vac":true,"version":"7757534","steam_id":85568392924510193,"keywords":["nocrits","nodmgspread","payload","uncletopia"],"game_id":440,"stv_port":27046,"stv_name":"Uncletopia | London | 4 | All Maps | STV","players":[{"user_id":45,"name":"Dudu58lc","steam_id":76561199192216191,"connected_time":201000000000,"state":"active","ping":90},{"user_id":46,"name":"Azury","steam_id":76561198321669372,"connected_time":176000000000,"state":"active","ping":52},{"user_id":47,"name":"Ins@nity621","steam_id":76561198030799865,"connected_time":171000000000,"state":"active","ping":63},{"user_id":48,"name":"Doctor Sniper","steam_id":76561198299578884,"connected_time":168000000000,"state":"active","ping":48},{"user_id":49,"name":"Ritz","steam_id":76561198222317440,"connected_time":148000000000,"state":"active","ping":55},{"user_id":50,"name":"Vanille‚Ñ¢","steam_id":76561198008102959,"connected_time":144000000000,"state":"active","ping":50},{"user_id":51,"name":"kilo","steam_id":76561198015641339,"connected_time":32000000000,"state":"spawning","ping":75}]},{"server_id":21,"name":"Uncletopia | London | 5 | All Maps","name_short":"lon-5","host":"lon-1.uk.uncletopia.com","port":27055,"enabled":true,"region":"eu","cc":"gb","latitude":51.509865,"longitude":-0.118092,"reserved":0,"last_update":"0001-01-01T00:00:00Z","name_a2s":"Uncletopia | London | 5 | All Maps","protocol":17,"map":"cp_snakewater_final1","folder":"tf","game":"Team Fortress","app_id":440,"player_count":20,"max_players":24,"Bots":0,"server_type":"Dedicated","server_os":"Linux","password":true,"vac":true,"version":"7757534","steam_id":85568392924742829,"keywords":["cp","nocrits","nodmgspread","uncletopia"],"game_id":440,"stv_port":27056,"stv_name":"Uncletopia | London | 5 | All Maps | STV","players":[{"user_id":207,"name":"xepnfogon","steam_id":76561198107127340,"connected_time":608000000000,"state":"active","ping":61},{"user_id":156,"name":"Oga","steam_id":76561197999060660,"connected_time":3332000000000,"state":"active","ping":84},{"user_id":132,"name":"New","steam_id":76561198402195911,"connected_time":4445000000000,"state":"active","ping":115},{"user_id":189,"name":"fshfkr","steam_id":76561198095979282,"connected_time":1381000000000,"state":"active","ping":37},{"user_id":208,"name":"Jesus Enjoyer","steam_id":76561198840259819,"connected_time":216000000000,"state":"active","ping":50},{"user_id":209,"name":"monke","steam_id":76561199098819786,"connected_time":168000000000,"state":"active","ping":46},{"user_id":210,"name":"SirSangoor","steam_id":76561198044462559,"connected_time":163000000000,"state":"active","ping":107},{"user_id":212,"name":"Typical","steam_id":76561199009805172,"connected_time":68000000000,"state":"active","ping":55},{"user_id":213,"name":"BingusDingus","steam_id":76561198310983903,"connected_time":66000000000,"state":"active","ping":45},{"user_id":192,"name":"Oak","steam_id":76561198067315672,"connected_time":1309000000000,"state":"active","ping":45},{"user_id":191,"name":"‚ô• Hurt Me Plenty ‚ô• | P.U.R.","steam_id":76561198965998351,"connected_time":1331000000000,"state":"active","ping":80},{"user_id":193,"name":"RLCrazyCat3","steam_id":76561197983757878,"connected_time":1271000000000,"state":"active","ping":68},{"user_id":214,"name":"k","steam_id":76561198089342103,"connected_time":32000000000,"state":"active","ping":84},{"user_id":203,"name":"Big Al","steam_id":76561198079585198,"connected_time":923000000000,"state":"active","ping":54},{"user_id":196,"name":"meatsoupcube","steam_id":76561198276802249,"connected_time":1217000000000,"state":"active","ping":74},{"user_id":215,"name":"Noku","steam_id":76561198064158697,"connected_time":16000000000,"state":"spawning","ping":78},{"user_id":177,"name":"Ôº¥rendyÔº¨emon","steam_id":76561198158957324,"connected_time":2318000000000,"state":"active","ping":55},{"user_id":198,"name":"Spliffendor","steam_id":76561198144020209,"connected_time":1159000000000,"state":"active","ping":48},{"user_id":199,"name":"Roe Jogan","steam_id":76561198871991529,"connected_time":1156000000000,"state":"active","ping":67},{"user_id":204,"name":"gabagool","steam_id":76561198307111838,"connected_time":740000000000,"state":"active","ping":49}]},{"server_id":22,"name":"Uncletopia | London | 6 | All Maps","name_short":"lon-6","host":"lon-1.uk.uncletopia.com","port":27065,"enabled":true,"region":"eu","cc":"gb","latitude":51.509865,"longitude":-0.118092,"reserved":0,"last_update":"0001-01-01T00:00:00Z","name_a2s":"Uncletopia | London | 6 | All Maps","protocol":17,"map":"koth_highpass","folder":"tf","game":"Team Fortress","app_id":440,"player_count":0,"max_players":24,"Bots":0,"server_type":"Dedicated","server_os":"Linux","password":true,"vac":true,"version":"7757534","steam_id":85568392924742830,"keywords":["cp","nocrits","nodmgspread","uncletopia"],"game_id":440,"stv_port":27066,"stv_name":"Uncletopia | London | 6 | All Maps | STV","players":null},{"server_id":40,"name":"Uncletopia | London | 7 | No Payload","name_short":"lon-7","host":"lon-1.uk.uncletopia.com","port":27075,"enabled":true,"region":"eu","cc":"gb","latitude":51.509865,"longitude":-0.118092,"reserved":0,"last_update":"0001-01-01T00:00:00Z","name_a2s":"Uncletopia | London | 7 | No Payload","protocol":17,"map":"cp_5gorge","folder":"tf","game":"Team Fortress","app_id":440,"player_count":0,"max_players":24,"Bots":0,"server_type":"Dedicated","server_os":"Linux","password":true,"vac":true,"version":"7757534","steam_id":85568392924964314,"keywords":["cp","nocrits","nodmgspread","uncletopia"],"game_id":440,"stv_port":27076,"stv_name":"Uncletopia | London | 7 | No Payload | STV","players":null},{"server_id":41,"name":"Uncletopia | London | 8 | Community","name_short":"lon-8","host":"lon-1.uk.uncletopia.com","port":27085,"enabled":true,"region":"eu","cc":"gb","latitude":51.509865,"longitude":-0.118092,"reserved":0,"last_update":"0001-01-01T00:00:00Z","name_a2s":"Uncletopia | London | 8 | Community","protocol":17,"map":"workshop/pl_cactuscanyon_redux_final1.ugc2579644293","folder":"tf","game":"Team Fortress","app_id":440,"player_count":2,"max_players":24,"Bots":0,"server_type":"Dedicated","server_os":"Linux","password":true,"vac":true,"version":"7757534","steam_id":85568392924964315,"keywords":["nocrits","nodmgspread","payload","uncletopia"],"game_id":440,"stv_port":27086,"stv_name":"Uncletopia | London | 8 | Community | STV","players":[{"user_id":30,"name":"Jack.Orlando","steam_id":76561198802400236,"connected_time":887000000000,"state":"active","ping":75},{"user_id":11,"name":"fried","steam_id":76561198307522022,"connected_time":5656000000000,"state":"active","ping":45}]},{"server_id":300,"name":"Uncletopia | Montr√©al | 1 | All Maps","name_short":"mtl-1","host":"mtl-1.ca.uncletopia.com","port":27015,"enabled":true,"region":"us-east","cc":"ca","latitude":45.50889,"longitude":-73.56167,"reserved":0,"last_update":"0001-01-01T00:00:00Z","name_a2s":"Uncletopia | Montr√©al | 1 | All Maps","protocol":17,"map":"pl_upward","folder":"tf","game":"Team Fortress","app_id":440,"player_count":0,"max_players":24,"Bots":0,"server_type":"Dedicated","server_os":"Linux","password":true,"vac":true,"version":"7757534","steam_id":85568392924500087,"keywords":["nocrits","nodmgspread","payload","uncletopia"],"game_id":440,"stv_port":27016,"stv_name":"Uncletopia | Montr√©al | 1 | All Maps | STV","players":null},{"server_id":301,"name":"Uncletopia | Montr√©al | 2 | All Maps","name_short":"mtl-2","host":"mtl-1.ca.uncletopia.com","port":27025,"enabled":true,"region":"us-east","cc":"ca","latitude":45.50889,"longitude":-73.56167,"reserved":0,"last_update":"0001-01-01T00:00:00Z","name_a2s":"Uncletopia | Montr√©al | 2 | All Maps","protocol":17,"map":"pl_snowycoast","folder":"tf","game":"Team Fortress","app_id":440,"player_count":0,"max_players":24,"Bots":0,"server_type":"Dedicated","server_os":"Linux","password":true,"vac":true,"version":"7757534","steam_id":85568392924500088,"keywords":["nocrits","nodmgspread","payload","uncletopia"],"game_id":440,"stv_port":27026,"stv_name":"Uncletopia | Montr√©al | 2 | All Maps | STV","players":null},{"server_id":302,"name":"Uncletopia | Montr√©al | 3 | All Maps","name_short":"mtl-3","host":"mtl-1.ca.uncletopia.com","port":27035,"enabled":true,"region":"us-east","cc":"ca","latitude":45.50889,"longitude":-73.56167,"reserved":0,"last_update":"0001-01-01T00:00:00Z","name_a2s":"Uncletopia | Montr√©al | 3 | All Maps","protocol":17,"map":"pl_swiftwater_final1","folder":"tf","game":"Team Fortress","app_id":440,"player_count":0,"max_players":24,"Bots":0,"server_type":"Dedicated","server_os":"Linux","password":true,"vac":true,"version":"7757534","steam_id":85568392924500089,"keywords":["nocrits","nodmgspread","payload","uncletopia"],"game_id":440,"stv_port":27036,"stv_name":"Uncletopia | Montr√©al | 3 | All Maps | STV","players":null},{"server_id":303,"name":"Uncletopia | Montr√©al | 4 | No Payload","name_short":"mtl-4","host":"mtl-1.ca.uncletopia.com","port":27045,"enabled":true,"region":"us-east","cc":"ca","latitude":45.50889,"longitude":-73.56167,"reserved":0,"last_update":"0001-01-01T00:00:00Z","name_a2s":"Uncletopia | Montr√©al | 4 | No Payload","protocol":17,"map":"cp_mercenarypark","folder":"tf","game":"Team Fortress","app_id":440,"player_count":0,"max_players":24,"Bots":0,"server_type":"Dedicated","server_os":"Linux","password":true,"vac":true,"version":"7757534","steam_id":85568392924500090,"keywords":["cp","nocrits","nodmgspread","uncletopia"],"game_id":440,"stv_port":27046,"stv_name":"Uncletopia | Montr√©al | 4 | No Payload | STV","players":null},{"server_id":13,"name":"Uncletopia | New York City | 1 | All Maps","name_short":"nyc-1","host":"nyc-1.us.uncletopia.com","port":27015,"enabled":true,"region":"us-east","cc":"us","latitude":40.73061,"longitude":-73.93524,"reserved":0,"last_update":"0001-01-01T00:00:00Z","name_a2s":"Uncletopia | New York City | 1 | All Maps","protocol":17,"map":"koth_viaduct","folder":"tf","game":"Team Fortress","app_id":440,"player_count":0,"max_players":24,"Bots":0,"server_type":"Dedicated","server_os":"Linux","password":true,"vac":true,"version":"7757534","steam_id":85568392924469993,"keywords":["cp","nocrits","nodmgspread","uncletopia"],"game_id":440,"stv_port":27016,"stv_name":"Uncletopia | New York City | 1 | All Maps | STV","players":null},{"server_id":14,"name":"Uncletopia | New York City | 2 | All Maps","name_short":"nyc-2","host":"nyc-1.us.uncletopia.com","port":27025,"enabled":true,"region":"us-east","cc":"us","latitude":40.73061,"longitude":-73.93524,"reserved":0,"last_update":"0001-01-01T00:00:00Z","name_a2s":"Uncletopia | New York City | 2 | All Maps","protocol":17,"map":"koth_lakeside_final","folder":"tf","game":"Team Fortress","app_id":440,"player_count":0,"max_players":24,"Bots":0,"server_type":"Dedicated","server_os":"Linux","password":true,"vac":true,"version":"7757534","steam_id":85568392924469994,"keywords":["cp","nocrits","nodmgspread","uncletopia"],"game_id":440,"stv_port":27026,"stv_name":"Uncletopia | New York City | 2 | All Maps | STV","players":null},{"server_id":15,"name":"Uncletopia | New York City | 3 | Stopwatch Beta","name_short":"nyc-3","host":"nyc-1.us.uncletopia.com","port":27035,"enabled":true,"region":"us-east","cc":"us","latitude":40.73061,"longitude":-73.93524,"reserved":0,"last_update":"0001-01-01T00:00:00Z","name_a2s":"Uncletopia | New York City | 3 | Stopwatch Beta","protocol":17,"map":"pl_upward","folder":"tf","game":"Team Fortress","app_id":440,"player_count":0,"max_players":24,"Bots":0,"server_type":"Dedicated","server_os":"Linux","password":true,"vac":true,"version":"7757534","steam_id":85568392924742820,"keywords":["nocrits","nodmgspread","payload","uncletopia"],"game_id":440,"stv_port":27036,"stv_name":"Uncletopia | New York City | 3 | Stopwatch Beta | STV","players":null},{"server_id":16,"name":"Uncletopia | New York City | 4 | Community","name_short":"nyc-4","host":"nyc-1.us.uncletopia.com","port":27045,"enabled":true,"region":"us-east","cc":"us","latitude":40.73061,"longitude":-73.93524,"reserved":0,"last_update":"0001-01-01T00:00:00Z","name_a2s":"Uncletopia | New York City | 4 | Community","protocol":17,"map":"workshop/koth_kemptown_rc1.ugc767410655","folder":"tf","game":"Team Fortress","app_id":440,"player_count":0,"max_players":24,"Bots":0,"server_type":"Dedicated","server_os":"Linux","password":true,"vac":true,"version":"7757534","steam_id":85568392924742821,"keywords":["cp","nocrits","nodmgspread","uncletopia"],"game_id":440,"stv_port":27046,"stv_name":"Uncletopia | New York City | 4 | Community | STV","players":null},{"server_id":142,"name":"Uncletopia | S√£o Paulo | 1 | All Maps","name_short":"sao-1","host":"sao-1.br.uncletopia.com","port":27015,"enabled":true,"region":"sa","cc":"br","latitude":-23.533773,"longitude":-46.62529,"reserved":0,"last_update":"0001-01-01T00:00:00Z","name_a2s":"Uncletopia | S√£o Paulo | 1 | All Maps","protocol":17,"map":"koth_lakeside_final","folder":"tf","game":"Team Fortress","app_id":440,"player_count":0,"max_players":24,"Bots":0,"server_type":"Dedicated","server_os":"Linux","password":true,"vac":true,"version":"7757534","steam_id":85568392924469996,"keywords":["cp","nocrits","nodmgspread","uncletopia"],"game_id":440,"stv_port":27016,"stv_name":"Uncletopia | S√£o Paulo | 1 | All Maps | STV","players":null},{"server_id":143,"name":"Uncletopia | S√£o Paulo | 2 | All Maps","name_short":"sao-2","host":"sao-2.br.uncletopia.com","port":27015,"enabled":true,"region":"sa","cc":"br","latitude":-23.533773,"longitude":-46.62529,"reserved":0,"last_update":"0001-01-01T00:00:00Z","name_a2s":"Uncletopia | S√£o Paulo | 2 | All Maps","protocol":17,"map":"koth_viaduct","folder":"tf","game":"Team Fortress","app_id":440,"player_count":0,"max_players":24,"Bots":0,"server_type":"Dedicated","server_os":"Linux","password":true,"vac":true,"version":"7757534","steam_id":85568392924485349,"keywords":["cp","nocrits","nodmgspread","uncletopia"],"game_id":440,"stv_port":27016,"stv_name":"Uncletopia | S√£o Paulo | 2 | All Maps | STV","players":null},{"server_id":7,"name":"Uncletopia | Seattle | 1 | All Maps","name_short":"sea-1","host":"sea-1.us.uncletopia.com","port":27015,"enabled":true,"region":"us-west","cc":"us","latitude":47.608013,"longitude":-122.33517,"reserved":0,"last_update":"0001-01-01T00:00:00Z","name_a2s":"Uncletopia | Seattle | 1 | All Maps","protocol":17,"map":"pl_upward","folder":"tf","game":"Team Fortress","app_id":440,"player_count":23,"max_players":24,"Bots":0,"server_type":"Dedicated","server_os":"Linux","password":true,"vac":true,"version":"7757534","steam_id":85568392924469997,"keywords":["nocrits","nodmgspread","payload","uncletopia"],"game_id":440,"stv_port":27016,"stv_name":"Uncletopia | Seattle | 1 | All Maps | STV","players":[{"user_id":304,"name":"Piogre","steam_id":76561198006182258,"connected_time":2573000000000,"state":"active","ping":96},{"user_id":329,"name":"Maid 'n' China","steam_id":76561198423392976,"connected_time":271000000000,"state":"active","ping":62},{"user_id":301,"name":"o o o o o o o o o","steam_id":76561197993757506,"connected_time":2814000000000,"state":"active","ping":67},{"user_id":199,"name":"Neo Kojiro","steam_id":76561198000967076,"connected_time":10515000000000,"state":"active","ping":128},{"user_id":312,"name":"monkey squirts","steam_id":76561197983101644,"connected_time":1498000000000,"state":"active","ping":75},{"user_id":316,"name":"LeTonzy","steam_id":76561198005806699,"connected_time":1323000000000,"state":"active","ping":90},{"user_id":287,"name":"Aqua Tofana","steam_id":76561198351183381,"connected_time":3686000000000,"state":"active","ping":56},{"user_id":295,"name":"cool beans","steam_id":76561198045758072,"connected_time":3135000000000,"state":"active","ping":65},{"user_id":289,"name":"shy guy","steam_id":76561198151246059,"connected_time":3567000000000,"state":"active","ping":81},{"user_id":254,"name":"Blitzy","steam_id":76561198149472890,"connected_time":6289000000000,"state":"active","ping":60},{"user_id":328,"name":"SÃ∏ÃÄÕî ÃµÃãÃòCÃµÕóÃ± ÃµÃçÃßUÃ¥","steam_id":76561198135662712,"connected_time":535000000000,"state":"active","ping":100},{"user_id":324,"name":"John16Mark","steam_id":76561198119445407,"connected_time":720000000000,"state":"active","ping":120},{"user_id":247,"name":"MORE BOUNCE TO THE OUNCE","steam_id":76561198243399336,"connected_time":6801000000000,"state":"active","ping":81},{"user_id":255,"name":"üÖúüÖîüÖîüÖöüÖ¢üÖ£üÖî\ufffd\ufffd\ufffd","steam_id":76561197999748343,"connected_time":6274000000000,"state":"active","ping":90},{"user_id":325,"name":"Heatseeker","steam_id":76561198084093538,"connected_time":714000000000,"state":"active","ping":90},{"user_id":326,"name":"Gilgamesh","steam_id":76561198317113179,"connected_time":683000000000,"state":"active","ping":95},{"user_id":315,"name":"bear1boss fan","steam_id":76561198047850813,"connected_time":1411000000000,"state":"active","ping":50},{"user_id":327,"name":"chrome 2008 (she/they)","steam_id":76561198321277216,"connected_time":627000000000,"state":"active","ping":72},{"user_id":321,"name":"ratie","steam_id":76561198059399661,"connected_time":859000000000,"state":"active","ping":87},{"user_id":300,"name":"The Pepsi¬Æ Superbowl¬Æ!","steam_id":76561198080828981,"connected_time":2896000000000,"state":"active","ping":75},{"user_id":320,"name":"AmyPercent","steam_id":76561198071896932,"connected_time":927000000000,"state":"active","ping":77},{"user_id":330,"name":"Derpyisautistic","steam_id":76561198194891642,"connected_time":47000000000,"state":"active","ping":263},{"user_id":206,"name":"Dob Bole","steam_id":76561198056367220,"connected_time":10241000000000,"state":"active","ping":79}]},{"server_id":119,"name":"Uncletopia | Seattle | 2 | All Maps","name_short":"sea-2","host":"sea-1.us.uncletopia.com","port":27025,"enabled":true,"region":"us-west","cc":"us","latitude":47.608013,"longitude":-122.33517,"reserved":0,"last_update":"0001-01-01T00:00:00Z","name_a2s":"Uncletopia | Seattle | 2 | All Maps","protocol":17,"map":"pl_upward","folder":"tf","game":"Team Fortress","app_id":440,"player_count":22,"max_players":24,"Bots":0,"server_type":"Dedicated","server_os":"Linux","password":true,"vac":true,"version":"7757534","steam_id":85568392924469998,"keywords":["nocrits","nodmgspread","payload","uncletopia"],"game_id":440,"stv_port":27026,"stv_name":"Uncletopia | Seattle | 2 | All Maps | STV","players":[{"user_id":41,"name":"K2f","steam_id":76561198049600563,"connected_time":1169000000000,"state":"active","ping":78},{"user_id":16,"name":"Len","steam_id":76561199141913673,"connected_time":2634000000000,"state":"active","ping":53},{"user_id":14,"name":"Mr. Dick‚Ñ¢","steam_id":76561198047309044,"connected_time":3228000000000,"state":"active","ping":106},{"user_id":54,"name":"Goog","steam_id":76561198212777924,"connected_time":666000000000,"state":"active","ping":83},{"user_id":44,"name":"triph","steam_id":76561198067196509,"connected_time":1104000000000,"state":"active","ping":59},{"user_id":58,"name":"yogi","steam_id":76561198067986753,"connected_time":435000000000,"state":"active","ping":63},{"user_id":62,"name":"SneekiCheekiQbone","steam_id":76561198045077980,"connected_time":316000000000,"state":"active","ping":79},{"user_id":52,"name":"jackhillard83","steam_id":76561199057098390,"connected_time":813000000000,"state":"active","ping":121},{"user_id":51,"name":"H4V0C","steam_id":76561199129350925,"connected_time":824000000000,"state":"active","ping":55},{"user_id":61,"name":"Sakisano","steam_id":76561198245814880,"connected_time":346000000000,"state":"active","ping":78},{"user_id":53,"name":"Banzai","steam_id":76561198196503877,"connected_time":785000000000,"state":"active","ping":46},{"user_id":28,"name":"420blzItM8","steam_id":76561198137983285,"connected_time":1543000000000,"state":"active","ping":76},{"user_id":50,"name":"ghostFireGloom","steam_id":76561198385231745,"connected_time":836000000000,"state":"active","ping":51},{"user_id":31,"name":"Tanner The Fish Man","steam_id":76561198372696640,"connected_time":1510000000000,"state":"active","ping":78},{"user_id":32,"name":"A Glazed Donut","steam_id":76561198297536267,"connected_time":1487000000000,"state":"active","ping":82},{"user_id":63,"name":"Titocheeto","steam_id":76561198994684924,"connected_time":256000000000,"state":"active","ping":81},{"user_id":34,"name":"Randy Butternubs","steam_id":76561197983738629,"connected_time":1429000000000,"state":"active","ping":107},{"user_id":35,"name":"box","steam_id":76561198049531483,"connected_time":1402000000000,"state":"active","ping":108},{"user_id":49,"name":"Boyaredeen","steam_id":76561198880492636,"connected_time":863000000000,"state":"active","ping":49},{"user_id":60,"name":"defcon","steam_id":76561198100656328,"connected_time":397000000000,"state":"active","ping":123},{"user_id":43,"name":"old birb man","steam_id":76561199410269097,"connected_time":1113000000000,"state":"active","ping":81},{"user_id":47,"name":"PL0T0","steam_id":76561198157481171,"connected_time":968000000000,"state":"active","ping":39}]},{"server_id":406,"name":"Uncletopia | Seattle | 3 | Stopwatch Beta","name_short":"sea-3","host":"sea-1.us.uncletopia.com","port":27035,"enabled":true,"region":"us-west","cc":"us","latitude":47.608013,"longitude":-122.33517,"reserved":0,"last_update":"0001-01-01T00:00:00Z","name_a2s":"Uncletopia | Seattle | 3 | Stopwatch Beta","protocol":17,"map":"cp_dustbowl","folder":"tf","game":"Team Fortress","app_id":440,"player_count":0,"max_players":24,"Bots":0,"server_type":"Dedicated","server_os":"Linux","password":true,"vac":true,"version":"7757534","steam_id":85568392924515217,"keywords":["cp","nocrits","nodmgspread","uncletopia"],"game_id":440,"stv_port":27036,"stv_name":"Uncletopia | Seattle | 3 | Stopwatch Beta | STV","players":null},{"server_id":17,"name":"Uncletopia | San Francisco | 1 | All Maps","name_short":"sfo-1","host":"sfo-1.us.uncletopia.com","port":27015,"enabled":true,"region":"us-west","cc":"us","latitude":37.77397,"longitude":-122.4313,"reserved":0,"last_update":"0001-01-01T00:00:00Z","name_a2s":"Uncletopia | San Francisco | 1 | All Maps","protocol":17,"map":"cp_process_final","folder":"tf","game":"Team Fortress","app_id":440,"player_count":0,"max_players":24,"Bots":0,"server_type":"Dedicated","server_os":"Linux","password":true,"vac":true,"version":"7757534","steam_id":85568392924469999,"keywords":["cp","nocrits","nodmgspread","uncletopia"],"game_id":440,"stv_port":27016,"stv_name":"Uncletopia | San Francisco | 1 | All Maps | STV","players":null},{"server_id":18,"name":"Uncletopia | San Francisco | 2 | All Maps","name_short":"sfo-2","host":"sfo-1.us.uncletopia.com","port":27025,"enabled":true,"region":"us-west","cc":"us","latitude":37.77397,"longitude":-122.4313,"reserved":0,"last_update":"0001-01-01T00:00:00Z","name_a2s":"Uncletopia | San Francisco | 2 | All Maps","protocol":17,"map":"koth_highpass","folder":"tf","game":"Team Fortress","app_id":440,"player_count":10,"max_players":24,"Bots":0,"server_type":"Dedicated","server_os":"Linux","password":true,"vac":true,"version":"7757534","steam_id":85568392924470000,"keywords":["cp","nocrits","nodmgspread","uncletopia"],"game_id":440,"stv_port":27026,"stv_name":"Uncletopia | San Francisco | 2 | All Maps | STV","players":[{"user_id":5,"name":"Harmful Opinions","steam_id":76561197988602648,"connected_time":676000000000,"state":"active","ping":195},{"user_id":6,"name":"Sniffalus","steam_id":76561198056014613,"connected_time":660000000000,"state":"active","ping":79},{"user_id":7,"name":"ausrad","steam_id":76561199478402120,"connected_time":658000000000,"state":"active","ping":237},{"user_id":8,"name":"P4rty","steam_id":76561197968203129,"connected_time":656000000000,"state":"active","ping":84},{"user_id":14,"name":"GRIM GAMING","steam_id":76561198107491637,"connected_time":73000000000,"state":"active","ping":92},{"user_id":10,"name":"Robofrend","steam_id":76561199181222098,"connected_time":513000000000,"state":"active","ping":196},{"user_id":11,"name":"Revenant","steam_id":76561198010234486,"connected_time":466000000000,"state":"active","ping":115},{"user_id":12,"name":"(1)ausrad","steam_id":76561198041256113,"connected_time":358000000000,"state":"active","ping":216},{"user_id":13,"name":"dead eye","steam_id":76561199082433078,"connected_time":295000000000,"state":"active","ping":213},{"user_id":15,"name":"Blades_87","steam_id":76561198150870338,"connected_time":60000000000,"state":"active","ping":91}]},{"server_id":19,"name":"Uncletopia | San Francisco | 3 | Stopwatch Beta","name_short":"sfo-3","host":"sfo-1.us.uncletopia.com","port":27035,"enabled":true,"region":"us-west","cc":"us","latitude":37.77397,"longitude":-122.4313,"reserved":0,"last_update":"0001-01-01T00:00:00Z","name_a2s":"Uncletopia | San Francisco | 3 | Stopwatch Beta","protocol":17,"map":"koth_lakeside_final","folder":"tf","game":"Team Fortress","app_id":440,"player_count":0,"max_players":24,"Bots":0,"server_type":"Dedicated","server_os":"Linux","password":true,"vac":true,"version":"7757534","steam_id":85568392924742824,"keywords":["cp","nocrits","nodmgspread","uncletopia"],"game_id":440,"stv_port":27036,"stv_name":"Uncletopia | San Francisco | 3 | Stopwatch Beta | STV","players":null},{"server_id":20,"name":"Uncletopia | San Francisco | 4 | Community","name_short":"sfo-4","host":"sfo-1.us.uncletopia.com","port":27045,"enabled":true,"region":"us-west","cc":"us","latitude":37.77397,"longitude":-122.4313,"reserved":0,"last_update":"0001-01-01T00:00:00Z","name_a2s":"Uncletopia | San Francisco | 4 | Community","protocol":17,"map":"workshop/cp_croissant_final.ugc458840209","folder":"tf","game":"Team Fortress","app_id":440,"player_count":12,"max_players":24,"Bots":0,"server_type":"Dedicated","server_os":"Linux","password":true,"vac":true,"version":"7757534","steam_id":85568392924742826,"keywords":["cp","nocrits","nodmgspread","uncletopia"],"game_id":440,"stv_port":27046,"stv_name":"Uncletopia | San Francisco | 4 | Community | STV","players":[{"user_id":3,"name":"G.bo","steam_id":76561198085176270,"connected_time":4434000000000,"state":"active","ping":59},{"user_id":27,"name":"family jewels","steam_id":76561198355068405,"connected_time":1079000000000,"state":"active","ping":120},{"user_id":24,"name":"bigman_boi556, lollichop enjoye","steam_id":76561199383012156,"connected_time":1625000000000,"state":"active","ping":74},{"user_id":14,"name":"Frosty","steam_id":76561198301526305,"connected_time":2698000000000,"state":"active","ping":81},{"user_id":26,"name":"coopercoon","steam_id":76561199400961529,"connected_time":1319000000000,"state":"active","ping":85},{"user_id":29,"name":"Dr. FeelGoose","steam_id":76561198029496191,"connected_time":656000000000,"state":"active","ping":102},{"user_id":28,"name":"BIGGEST MAC","steam_id":76561198847517098,"connected_time":1060000000000,"state":"active","ping":138},{"user_id":31,"name":"stoned jester","steam_id":76561198079609974,"connected_time":408000000000,"state":"active","ping":60},{"user_id":32,"name":"big fish","steam_id":76561198186479818,"connected_time":315000000000,"state":"active","ping":66},{"user_id":33,"name":"Boasta' Berry","steam_id":76561198029015179,"connected_time":297000000000,"state":"active","ping":115},{"user_id":34,"name":"Buswolley","steam_id":76561197995205571,"connected_time":244000000000,"state":"active","ping":40},{"user_id":35,"name":"Shark Sandwich","steam_id":76561198025007938,"connected_time":170000000000,"state":"active","ping":72}]},{"server_id":141,"name":"Uncletopia | Sydney | 1 | All Maps","name_short":"syd-1","host":"syd-1.au.uncletopia.com","port":27015,"enabled":true,"region":"au","cc":"au","latitude":-33.865143,"longitude":151.2099,"reserved":0,"last_update":"0001-01-01T00:00:00Z","name_a2s":"Uncletopia | Sydney | 1 | All Maps","protocol":17,"map":"koth_viaduct","folder":"tf","game":"Team Fortress","app_id":440,"player_count":0,"max_players":24,"Bots":0,"server_type":"Dedicated","server_os":"Linux","password":true,"vac":true,"version":"7757534","steam_id":85568392924470001,"keywords":["cp","nocrits","nodmgspread","uncletopia"],"game_id":440,"stv_port":27016,"stv_name":"Uncletopia | Sydney | 1 | All Maps | STV","players":null},{"server_id":123,"name":"Uncletopia | Sydney | 2 | All Maps","name_short":"syd-2","host":"syd-1.au.uncletopia.com","port":27025,"enabled":true,"region":"au","cc":"au","latitude":-33.865143,"longitude":151.2099,"reserved":0,"last_update":"0001-01-01T00:00:00Z","name_a2s":"Uncletopia | Sydney | 2 | All Maps","protocol":17,"map":"cp_process_final","folder":"tf","game":"Team Fortress","app_id":440,"player_count":0,"max_players":24,"Bots":0,"server_type":"Dedicated","server_os":"Linux","password":true,"vac":true,"version":"7757534","steam_id":85568392924470002,"keywords":["cp","nocrits","nodmgspread","uncletopia"],"game_id":440,"stv_port":27026,"stv_name":"Uncletopia | Sydney | 2 | All Maps | STV","players":null},{"server_id":395,"name":"Uncletopia | Sydney | 3 | All Maps","name_short":"syd-3","host":"syd-1.au.uncletopia.com","port":27035,"enabled":true,"region":"au","cc":"au","latitude":-33.865143,"longitude":151.2099,"reserved":0,"last_update":"0001-01-01T00:00:00Z","name_a2s":"Uncletopia | Sydney | 3 | All Maps","protocol":17,"map":"pl_swiftwater_final1","folder":"tf","game":"Team Fortress","app_id":440,"player_count":0,"max_players":24,"Bots":0,"server_type":"Dedicated","server_os":"Linux","password":true,"vac":true,"version":"7757534","steam_id":85568392925194467,"keywords":["nocrits","nodmgspread","payload","uncletopia"],"game_id":440,"stv_port":27036,"stv_name":"Uncletopia | Sydney | 3 | All Maps | STV","players":null},{"server_id":396,"name":"Uncletopia | Sydney | 4 | All Maps","name_short":"syd-4","host":"syd-1.au.uncletopia.com","port":27045,"enabled":true,"region":"au","cc":"au","latitude":-33.865143,"longitude":151.2099,"reserved":0,"last_update":"0001-01-01T00:00:00Z","name_a2s":"Uncletopia | Sydney | 4 | All Maps","protocol":17,"map":"koth_highpass","folder":"tf","game":"Team Fortress","app_id":440,"player_count":0,"max_players":24,"Bots":0,"server_type":"Dedicated","server_os":"Linux","password":true,"vac":true,"version":"7757534","steam_id":85568392925397958,"keywords":["cp","nocrits","nodmgspread","uncletopia"],"game_id":440,"stv_port":27046,"stv_name":"Uncletopia | Sydney | 4 | All Maps | STV","players":null},{"server_id":58,"name":"Uncletopia | Sydney | 5 | Stopwatch Beta","name_short":"syd-5","host":"syd-1.au.uncletopia.com","port":27055,"enabled":true,"region":"au","cc":"au","latitude":-33.865143,"longitude":151.2099,"reserved":0,"last_update":"0001-01-01T00:00:00Z","name_a2s":"Uncletopia | Sydney | 5 | Stopwatch Beta","protocol":17,"map":"koth_cascade","folder":"tf","game":"Team Fortress","app_id":440,"player_count":0,"max_players":24,"Bots":0,"server_type":"Dedicated","server_os":"Linux","password":true,"vac":true,"version":"7757534","steam_id":85568392925397959,"keywords":["cp","nocrits","nodmgspread","uncletopia"],"game_id":440,"stv_port":27056,"stv_name":"Uncletopia | Sydney | 5 | Stopwatch Beta | STV","players":null},{"server_id":59,"name":"Uncletopia | Sydney | 6 | Community","name_short":"syd-6","host":"syd-1.au.uncletopia.com","port":27065,"enabled":true,"region":"au","cc":"au","latitude":-33.865143,"longitude":151.2099,"reserved":0,"last_update":"0001-01-01T00:00:00Z","name_a2s":"Uncletopia | Sydney | 6 | Community","protocol":17,"map":"cp_snakewater_final1","folder":"tf","game":"Team Fortress","app_id":440,"player_count":0,"max_players":24,"Bots":0,"server_type":"Dedicated","server_os":"Linux","password":true,"vac":true,"version":"7757534","steam_id":85568392925397960,"keywords":["cp","nocrits","nodmgspread","uncletopia"],"game_id":440,"stv_port":27066,"stv_name":"Uncletopia | Sydney | 6 | Community | STV","players":null},{"server_id":49,"name":"Uncletopia | Warsaw | 1 | All Maps","name_short":"waw-1","host":"waw-1.pl.uncletopia.com","port":27015,"enabled":true,"region":"eu","cc":"pl","latitude":52.2297,"longitude":21.017532,"reserved":0,"last_update":"0001-01-01T00:00:00Z","name_a2s":"","protocol":0,"map":"","folder":"","game":"","app_id":0,"player_count":0,"max_players":0,"Bots":0,"server_type":"","server_os":"","password":false,"vac":false,"version":"","steam_id":0,"keywords":null,"game_id":0,"stv_port":0,"stv_name":"","players":null},{"server_id":50,"name":"Uncletopia | Warsaw | 2 | All Maps","name_short":"waw-2","host":"waw-1.pl.uncletopia.com","port":27025,"enabled":true,"region":"eu","cc":"pl","latitude":52.2297,"longitude":21.017532,"reserved":0,"last_update":"0001-01-01T00:00:00Z","name_a2s":"Uncletopia | Warsaw | 2 | All Maps","protocol":17,"map":"pl_barnblitz","folder":"tf","game":"Team Fortress","app_id":440,"player_count":0,"max_players":24,"Bots":0,"server_type":"Dedicated","server_os":"Linux","password":true,"vac":true,"version":"7757534","steam_id":85568392925397851,"keywords":["nocrits","nodmgspread","payload","uncletopia"],"game_id":440,"stv_port":27026,"stv_name":"Uncletopia | Warsaw | 2 | All Maps | STV","players":null},{"server_id":51,"name":"Uncletopia | Warsaw | 3 | All Maps","name_short":"waw-3","host":"waw-1.pl.uncletopia.com","port":27035,"enabled":true,"region":"eu","cc":"pl","latitude":52.2297,"longitude":21.017532,"reserved":0,"last_update":"0001-01-01T00:00:00Z","name_a2s":"Uncletopia | Warsaw | 3 | All Maps","protocol":17,"map":"koth_lakeside_final","folder":"tf","game":"Team Fortress","app_id":440,"player_count":0,"max_players":24,"Bots":0,"server_type":"Dedicated","server_os":"Linux","password":true,"vac":true,"version":"7757534","steam_id":85568392925397852,"keywords":["cp","nocrits","nodmgspread","uncletopia"],"game_id":440,"stv_port":27036,"stv_name":"Uncletopia | Warsaw | 3 | All Maps | STV","players":null},{"server_id":52,"name":"Uncletopia | Warsaw | 4 | All Maps","name_short":"waw-4","host":"waw-1.pl.uncletopia.com","port":27045,"enabled":true,"region":"eu","cc":"pl","latitude":52.2297,"longitude":21.017532,"reserved":0,"last_update":"0001-01-01T00:00:00Z","name_a2s":"Uncletopia | Warsaw | 4 | All Maps","protocol":17,"map":"koth_lakeside_final","folder":"tf","game":"Team Fortress","app_id":440,"player_count":0,"max_players":24,"Bots":0,"server_type":"Dedicated","server_os":"Linux","password":true,"vac":true,"version":"7757534","steam_id":85568392925397853,"keywords":["cp","nocrits","nodmgspread","uncletopia"],"game_id":440,"stv_port":27046,"stv_name":"Uncletopia | Warsaw | 4 | All Maps | STV","players":null},{"server_id":53,"name":"Uncletopia | Warsaw | 5 | Stopwatch Beta","name_short":"waw-5","host":"waw-1.pl.uncletopia.com","port":27055,"enabled":true,"region":"eu","cc":"pl","latitude":52.2297,"longitude":21.017532,"reserved":0,"last_update":"0001-01-01T00:00:00Z","name_a2s":"Uncletopia | Warsaw | 5 | Stopwatch Beta","protocol":17,"map":"pl_borneo","folder":"tf","game":"Team Fortress","app_id":440,"player_count":0,"max_players":24,"Bots":0,"server_type":"Dedicated","server_os":"Linux","password":true,"vac":true,"version":"7757534","steam_id":85568392925397854,"keywords":["nocrits","nodmgspread","payload","uncletopia"],"game_id":440,"stv_port":27056,"stv_name":"Uncletopia | Warsaw | 5 | Stopwatch Beta | STV","players":null},{"server_id":54,"name":"Uncletopia | Warsaw | 6 | Community","name_short":"waw-6","host":"waw-1.pl.uncletopia.com","port":27065,"enabled":true,"region":"eu","cc":"pl","latitude":52.2297,"longitude":21.017532,"reserved":0,"last_update":"0001-01-01T00:00:00Z","name_a2s":"Uncletopia | Warsaw | 6 | Community","protocol":17,"map":"koth_lakeside_final","folder":"tf","game":"Team Fortress","app_id":440,"player_count":0,"max_players":24,"Bots":0,"server_type":"Dedicated","server_os":"Linux","password":true,"vac":true,"version":"7757534","steam_id":85568392925397856,"keywords":["cp","nocrits","nodmgspread","uncletopia"],"game_id":440,"stv_port":27066,"stv_name":"Uncletopia | Warsaw | 6 | Community | STV","players":null}]}