{"status":true,"message":"","result":[{"server_id":9,"name":"Uncletopia | Atlanta | 1 | All Maps","name_short":"atl-1","host":"atl-1.us.uncletopia.com","port":27015,"enabled":true,"region":"us-east","cc":"us","latitude":33.753746,"longitude":-84.38633,"reserved":0,"last_update":"0001-01-01T00:00:00Z","name_a2s":"Uncletopia | Atlanta | 1 | All Maps","protocol":17,"map":"cp_dustbowl","folder":"tf","game":"Team Fortress","app_id":440,"player_count":13,"max_players":24,"Bots":0,"server_type":"Dedicated","server_os":"Linux","password":true,"vac":true,"version":"7757534","steam_id":85568392924469982,"keywords":["cp","nocrits","nodmgspread","uncletopia"],"game_id":440,"stv_port":27016,"stv_name":"Uncletopia | Atlanta | 1 | All Maps | STV","players":[{"user_id":244,"name":"Laz","steam_id":76561197990879167,"connected_time":37000000000,"state":"active","ping":76},{"user_id":235,"name":"duck_quackrs","steam_id":76561198354971054,"connected_time":1443000000000,"state":"active","ping":35},{"user_id":228,"name":"heimdall","steam_id":76561198069380992,"connected_time":1798000000000,"state":"active","ping":79},{"user_id":241,"name":"G_Bob","steam_id":76561198098133233,"connected_time":56000000000,"state":"active","ping":56},{"user_id":223,"name":"Spy_Is_Pye","steam_id":76561199439622967,"connected_time":2201000000000,"state":"active","ping":72},{"user_id":239,"name":"Largelad","steam_id":76561198024042970,"connected_time":525000000000,"state":"active","ping":72},{"user_id":229,"name":"Hydnhof","steam_id":76561198120989805,"connected_time":1769000000000,"state":"active","ping":149},{"user_id":240,"name":"Audiphon","steam_id":76561198051340300,"connected_time":506000000000,"state":"spawning","ping":107},{"user_id":48,"name":"RED1 | eish","steam_id":76561198089463603,"connected_time":17993000000000,"state":"active","ping":118},{"user_id":242,"name":"Sweet Baby Zain","steam_id":76561198046392267,"connected_time":54000000000,"state":"connecting","ping":89},{"user_id":243,"name":"RED1 | Le4n!!!","steam_id":76561198045522596,"connected_time":44000000000,"state":"active","ping":72},{"user_id":210,"name":"BLU1 | Flint","steam_id":76561198066547582,"connected_time":2930000000000,"state":"active","ping":103},{"user_id":207,"name":"demoknight tf2","steam_id":76561198384098648,"connected_time":3448000000000,"state":"active","ping":63}]},{"server_id":400,"name":"Uncletopia | Atlanta | 3 | Community","name_short":"atl-3","host":"atl-1.us.uncletopia.com","port":27035,"enabled":true,"region":"us-east","cc":"us","latitude":33.753746,"longitude":-84.38633,"reserved":0,"last_update":"0001-01-01T00:00:00Z","name_a2s":"Uncletopia | Atlanta | 3 | Community","protocol":17,"map":"workshop/koth_ashville_final.ugc2130459942","folder":"tf","game":"Team Fortress","app_id":440,"player_count":14,"max_players":24,"Bots":0,"server_type":"Dedicated","server_os":"Linux","password":true,"vac":true,"version":"7757534","steam_id":85568392924515187,"keywords":["cp","nocrits","nodmgspread","uncletopia"],"game_id":440,"stv_port":27036,"stv_name":"Uncletopia | Atlanta | 3 | Community | STV","players":[{"user_id":163,"name":"kreito","steam_id":76561198041168780,"connected_time":256000000000,"state":"active","ping":159},{"user_id":164,"name":"Violet, The Battle Ready Doll","steam_id":76561199076710885,"connected_time":211000000000,"state":"active","ping":73},{"user_id":126,"name":"miner","steam_id":76561198073035221,"connected_time":2784000000000,"state":"active","ping":62},{"user_id":165,"name":"\u003e:3 Muiramme Œµ—ó–∑","steam_id":76561197994458543,"connected_time":174000000000,"state":"active","ping":120},{"user_id":166,"name":"Armpit!","steam_id":76561197978095727,"connected_time":172000000000,"state":"active","ping":118},{"user_id":144,"name":"Nightshade","steam_id":76561198064659549,"connected_time":1559000000000,"state":"active","ping":72},{"user_id":167,"name":"Munky","steam_id":76561197993491054,"connected_time":116000000000,"state":"active","ping":99},{"user_id":168,"name":"Inevitable","steam_id":76561198210050169,"connected_time":77000000000,"state":"active","ping":60},{"user_id":169,"name":"chen","steam_id":76561198278879575,"connected_time":67000000000,"state":"active","ping":54},{"user_id":150,"name":"Game Of Life","steam_id":76561198262361438,"connected_time":1348000000000,"state":"active","ping":57},{"user_id":131,"name":"Egyptian amogus","steam_id":76561198320353510,"connected_time":2380000000000,"state":"active","ping":127},{"user_id":132,"name":"UsingXbox360Controller","steam_id":76561198258253304,"connected_time":2345000000000,"state":"active","ping":79},{"user_id":161,"name":"Avem","steam_id":76561198058763710,"connected_time":643000000000,"state":"active","ping":90},{"user_id":134,"name":"Creed_","steam_id":76561198044668296,"connected_time":2283000000000,"state":"active","ping":59}]},{"server_id":401,"name":"Uncletopia | Atlanta | 4 | No Payload","name_short":"atl-4","host":"atl-1.us.uncletopia.com","port":27045,"enabled":true,"region":"us-east","cc":"us","latitude":33.753746,"longitude":-84.38633,"reserved":0,"last_update":"0001-01-01T00:00:00Z","name_a2s":"","protocol":0,"map":"","folder":"","game":"","app_id":0,"player_count":0,"max_players":0,"Bots":0,"server_type":"","server_os":"","password":false,"vac":false,"version":"","steam_id":0,"keywords":null,"game_id":0,"stv_port":0,"stv_name":"","players":null},{"server_id":2,"name":"Uncletopia | Chicago | 1 | All Maps","name_short":"chi-1","host":"chi-1.us.uncletopia.com","port":27015,"enabled":true,"region":"us-central","cc":"us","latitude":41.881832,"longitude":-87.62318,"reserved":0,"last_update":"0001-01-01T00:00:00Z","name_a2s":"Uncletopia | Chicago | 1 | All Maps","protocol":17,"map":"koth_viaduct","folder":"tf","game":"Team Fortress","app_id":440,"player_count":23,"max_players":24,"Bots":0,"server_type":"Dedicated","server_os":"Linux","password":true,"vac":true,"version":"7757534","steam_id":85568392924469984,"keywords":["cp","nocrits","nodmgspread","uncletopia"],"game_id":440,"stv_port":27016,"stv_name":"Uncletopia | Chicago | 1 | All Maps | STV","players":[{"user_id":804,"name":"Mister Frank","steam_id":76561198161473385,"connected_time":80000000000,"state":"active","ping":62},{"user_id":785,"name":"Nigel","steam_id":76561198115574712,"connected_time":1233000000000,"state":"active","ping":51},{"user_id":781,"name":"Censing Auto, The Challenger","steam_id":76561198060926681,"connected_time":1973000000000,"state":"active","ping":61},{"user_id":761,"name":"hej","steam_id":76561197996366940,"connected_time":3748000000000,"state":"active","ping":60},{"user_id":786,"name":"Juneau","steam_id":76561198048056421,"connected_time":1223000000000,"state":"active","ping":76},{"user_id":710,"name":"YungChefMingus","steam_id":76561198087122048,"connected_time":9241000000000,"state":"active","ping":42},{"user_id":739,"name":"Astoriae!","steam_id":76561199090168858,"connected_time":5576000000000,"state":"active","ping":72},{"user_id":787,"name":"NateDawg","steam_id":76561198085336835,"connected_time":1103000000000,"state":"active","ping":79},{"user_id":788,"name":"YUNG QUIMBIS","steam_id":76561198882485028,"connected_time":1052000000000,"state":"active","ping":63},{"user_id":778,"name":"Gredc100","steam_id":76561198398494357,"connected_time":2429000000000,"state":"active","ping":73},{"user_id":801,"name":"FitzyBear","steam_id":76561198409189585,"connected_time":547000000000,"state":"active","ping":67},{"user_id":802,"name":"superbad","steam_id":76561198065913973,"connected_time":507000000000,"state":"active","ping":97},{"user_id":791,"name":"lil bro","steam_id":76561198031675881,"connected_time":996000000000,"state":"active","ping":45},{"user_id":799,"name":"drinkos","steam_id":76561198261556166,"connected_time":722000000000,"state":"active","ping":38},{"user_id":800,"name":"Dzhoshua","steam_id":76561198071915251,"connected_time":714000000000,"state":"active","ping":62},{"user_id":795,"name":"woul","steam_id":76561199134296565,"connected_time":881000000000,"state":"active","ping":82},{"user_id":762,"name":"MedRed‚Ñ¢ #IATAH","steam_id":76561198002962970,"connected_time":3555000000000,"state":"active","ping":100},{"user_id":796,"name":"toastman","steam_id":76561198207073088,"connected_time":881000000000,"state":"active","ping":72},{"user_id":803,"name":"Esue Ijae","steam_id":76561199268519057,"connected_time":483000000000,"state":"active","ping":95},{"user_id":797,"name":"24 oz. Ocean Spray Craisins","steam_id":76561198209208644,"connected_time":881000000000,"state":"active","ping":74},{"user_id":776,"name":"Danzuniverse","steam_id":76561198179817943,"connected_time":2746000000000,"state":"active","ping":96},{"user_id":798,"name":"Tako","steam_id":76561199264073138,"connected_time":871000000000,"state":"active","ping":79},{"user_id":738,"name":"Ademar","steam_id":76561199391802581,"connected_time":5913000000000,"state":"active","ping":56}]},{"server_id":106,"name":"Uncletopia | Chicago | 2 | All Maps","name_short":"chi-2","host":"chi-1.us.uncletopia.com","port":27025,"enabled":true,"region":"us-central","cc":"us","latitude":41.881832,"longitude":-87.62318,"reserved":0,"last_update":"0001-01-01T00:00:00Z","name_a2s":"Uncletopia | Chicago | 2 | All Maps","protocol":17,"map":"koth_lakeside_final","folder":"tf","game":"Team Fortress","app_id":440,"player_count":24,"max_players":24,"Bots":0,"server_type":"Dedicated","server_os":"Linux","password":true,"vac":true,"version":"7757534","steam_id":85568392924469985,"keywords":["cp","nocrits","nodmgspread","uncletopia"],"game_id":440,"stv_port":27026,"stv_name":"Uncletopia | Chicago | 2 | All Maps | STV","players":[{"user_id":615,"name":"Gimlet","steam_id":76561198197168697,"connected_time":4293000000000,"state":"active","ping":104},{"user_id":669,"name":"aversa","steam_id":76561198840460101,"connected_time":1309000000000,"state":"active","ping":66},{"user_id":652,"name":"Nephs","steam_id":76561198136763403,"connected_time":2270000000000,"state":"active","ping":77},{"user_id":673,"name":"TheOnlyItchy","steam_id":76561198964202303,"connected_time":856000000000,"state":"active","ping":103},{"user_id":667,"name":"wongo","steam_id":76561198064420072,"connected_time":1472000000000,"state":"active","ping":60},{"user_id":656,"name":"good morning people","steam_id":76561198293673616,"connected_time":2001000000000,"state":"active","ping":73},{"user_id":674,"name":"clown","steam_id":76561199150424471,"connected_time":745000000000,"state":"active","ping":115},{"user_id":675,"name":"ALC Gryphon","steam_id":76561198123039286,"connected_time":623000000000,"state":"active","ping":45},{"user_id":670,"name":"TokyoJade","steam_id":76561198136297393,"connected_time":1199000000000,"state":"active","ping":86},{"user_id":676,"name":"awsomeeevee1","steam_id":76561199012905300,"connected_time":555000000000,"state":"active","ping":97},{"user_id":661,"name":"OY!","steam_id":76561198044189319,"connected_time":1724000000000,"state":"active","ping":98},{"user_id":682,"name":"keffers","steam_id":76561198202338796,"connected_time":23000000000,"state":"active","ping":68},{"user_id":641,"name":"^5HCDefies","steam_id":76561198068749260,"connected_time":2877000000000,"state":"active","ping":59},{"user_id":681,"name":"flora","steam_id":76561197994492154,"connected_time":377000000000,"state":"active","ping":172},{"user_id":651,"name":"lemon","steam_id":76561198282764599,"connected_time":2411000000000,"state":"active","ping":45},{"user_id":625,"name":"Bad Medic Buddy","steam_id":76561198093222632,"connected_time":4124000000000,"state":"active","ping":79},{"user_id":665,"name":"Its Dr.Stoned","steam_id":76561198079622791,"connected_time":1583000000000,"state":"active","ping":78},{"user_id":672,"name":"a crazy hobo","steam_id":76561198289650060,"connected_time":963000000000,"state":"active","ping":84},{"user_id":645,"name":"eryn üó∫","steam_id":76561198004433070,"connected_time":2712000000000,"state":"active","ping":84},{"user_id":541,"name":"starfungus","steam_id":76561198158312789,"connected_time":12306000000000,"state":"active","ping":86},{"user_id":680,"name":"lyraaaaaaaaaaa","steam_id":76561198259331758,"connected_time":386000000000,"state":"active","ping":93},{"user_id":668,"name":"porz","steam_id":76561198195711453,"connected_time":1344000000000,"state":"active","ping":75},{"user_id":666,"name":"roller_ramb0","steam_id":76561198084578847,"connected_time":1530000000000,"state":"active","ping":75}]},{"server_id":402,"name":"Uncletopia | Chicago | 3 | All Maps","name_short":"chi-3","host":"chi-1.us.uncletopia.com","port":27035,"enabled":true,"region":"us-central","cc":"us","latitude":41.881832,"longitude":-87.62318,"reserved":0,"last_update":"0001-01-01T00:00:00Z","name_a2s":"Uncletopia | Chicago | 3 | All Maps","protocol":17,"map":"koth_viaduct","folder":"tf","game":"Team Fortress","app_id":440,"player_count":24,"max_players":24,"Bots":0,"server_type":"Dedicated","server_os":"Linux","password":true,"vac":true,"version":"7757534","steam_id":85568392924515191,"keywords":["cp","nocrits","nodmgspread","uncletopia"],"game_id":440,"stv_port":27036,"stv_name":"Uncletopia | Chicago | 3 | All Maps | STV","players":[{"user_id":413,"name":"Suburban Sasquatch","steam_id":76561198023628300,"connected_time":1990000000000,"state":"active","ping":62},{"user_id":416,"name":"SexySpectacles","steam_id":76561198211449103,"connected_time":1881000000000,"state":"active","ping":60},{"user_id":412,"name":"AJones97","steam_id":76561198028973438,"connected_time":2025000000000,"state":"active","ping":73},{"user_id":391,"name":"gaylittlemouse","steam_id":76561198819562111,"connected_time":3088000000000,"state":"active","ping":70},{"user_id":435,"name":"Slippy Goku","steam_id":76561199468745116,"connected_time":772000000000,"state":"active","ping":83},{"user_id":401,"name":"joyeuxnoelle","steam_id":76561198062423120,"connected_time":3000000000000,"state":"active","ping":73},{"user_id":441,"name":"TimTam Tom","steam_id":76561198045988062,"connected_time":278000000000,"state":"active","ping":76},{"user_id":443,"name":"bary","steam_id":76561197988317087,"connected_time":173000000000,"state":"active","ping":63},{"user_id":438,"name":"Cloudman","steam_id":76561198041389138,"connected_time":529000000000,"state":"active","ping":78},{"user_id":442,"name":"Bluedot","steam_id":76561198019909639,"connected_time":278000000000,"state":"active","ping":64},{"user_id":415,"name":"FlexFan420","steam_id":76561198322663988,"connected_time":1900000000000,"state":"active","ping":62},{"user_id":429,"name":"Estradiol Cypionate (40mg/mL)","steam_id":76561198029794558,"connected_time":1459000000000,"state":"active","ping":65},{"user_id":396,"name":"Buttons :)","steam_id":76561198139478534,"connected_time":3038000000000,"state":"active","ping":107},{"user_id":439,"name":"Slippery","steam_id":76561199469441947,"connected_time":366000000000,"state":"active","ping":59},{"user_id":420,"name":"StarryKosmic","steam_id":76561198041330642,"connected_time":1686000000000,"state":"active","ping":101},{"user_id":422,"name":"kprt.Nmbvale","steam_id":76561198025034421,"connected_time":1565000000000,"state":"active","ping":99},{"user_id":440,"name":"merge without looking","steam_id":76561198056702628,"connected_time":365000000000,"state":"active","ping":61},{"user_id":424,"name":"Bill9780.bat","steam_id":76561198023185245,"connected_time":1512000000000,"state":"active","ping":90},{"user_id":430,"name":"Mumbles The Pyro!!","steam_id":76561198200716207,"connected_time":1397000000000,"state":"active","ping":100},{"user_id":411,"name":"Ze_√úber_Nerd","steam_id":76561198091148675,"connected_time":2121000000000,"state":"active","ping":74},{"user_id":426,"name":"Walmart Employee","steam_id":76561198840373909,"connected_time":1490000000000,"state":"active","ping":94},{"user_id":434,"name":"totally not a pile of beans","steam_id":76561198119851931,"connected_time":1280000000000,"state":"active","ping":81},{"user_id":428,"name":"Anxiousink","steam_id":76561198264013890,"connected_time":1489000000000,"state":"active","ping":91},{"user_id":432,"name":"Kretim","steam_id":76561199204273483,"connected_time":1390000000000,"state":"active","ping":74}]},{"server_id":403,"name":"Uncletopia | Chicago | 4 | All Maps","name_short":"chi-4","host":"chi-1.us.uncletopia.com","port":27045,"enabled":true,"region":"us-central","cc":"us","latitude":41.881832,"longitude":-87.62318,"reserved":0,"last_update":"0001-01-01T00:00:00Z","name_a2s":"Uncletopia | Chicago | 4 | All Maps","protocol":17,"map":"pl_frontier_final","folder":"tf","game":"Team Fortress","app_id":440,"player_count":24,"max_players":24,"Bots":0,"server_type":"Dedicated","server_os":"Linux","password":true,"vac":true,"version":"7757534","steam_id":85568392924515193,"keywords":["nocrits","nodmgspread","payload","uncletopia"],"game_id":440,"stv_port":27046,"stv_name":"Uncletopia | Chicago | 4 | All Maps | STV","players":[{"user_id":341,"name":"f0xh0le 0ne","steam_id":76561199471269566,"connected_time":11644000000000,"state":"active","ping":75},{"user_id":412,"name":"Stargriefer190","steam_id":76561198996425356,"connected_time":6473000000000,"state":"active","ping":94},{"user_id":497,"name":"mepng","steam_id":76561199018758598,"connected_time":1507000000000,"state":"active","ping":96},{"user_id":502,"name":"Raniel Dicciardo","steam_id":76561198053859538,"connected_time":1075000000000,"state":"active","ping":72},{"user_id":467,"name":"pipebombrater","steam_id":76561199029030831,"connected_time":2791000000000,"state":"active","ping":70},{"user_id":511,"name":"deskmedic","steam_id":76561198295640486,"connected_time":379000000000,"state":"active","ping":101},{"user_id":416,"name":"Watatsuki no Yorihime","steam_id":76561198063315650,"connected_time":6367000000000,"state":"active","ping":82},{"user_id":469,"name":"Snake","steam_id":76561197994894487,"connected_time":2728000000000,"state":"active","ping":86},{"user_id":504,"name":"anipe10","steam_id":76561199084698417,"connected_time":517000000000,"state":"active","ping":124},{"user_id":489,"name":"Animal Slices","steam_id":76561198137545511,"connected_time":2262000000000,"state":"active","ping":61},{"user_id":500,"name":"917-258-3609","steam_id":76561198174436329,"connected_time":1188000000000,"state":"active","ping":76},{"user_id":444,"name":"Baz","steam_id":76561197965032027,"connected_time":4695000000000,"state":"active","ping":86},{"user_id":505,"name":"Grave Shifter15","steam_id":76561198036381323,"connected_time":515000000000,"state":"active","ping":60},{"user_id":506,"name":"Jerkface","steam_id":76561198130815383,"connected_time":474000000000,"state":"active","ping":80},{"user_id":499,"name":"BuddyMocha","steam_id":76561198054654515,"connected_time":1491000000000,"state":"active","ping":45},{"user_id":507,"name":"reymundo","steam_id":76561197989412830,"connected_time":474000000000,"state":"active","ping":111},{"user_id":512,"name":"Sarbanes-Oxley","steam_id":76561197975898479,"connected_time":356000000000,"state":"active","ping":86},{"user_id":495,"name":"the door heavy","steam_id":76561199033233448,"connected_time":1793000000000,"state":"active","ping":105},{"user_id":340,"name":"kangaroo wife","steam_id":76561198040455711,"connected_time":11646000000000,"state":"active","ping":91},{"user_id":516,"name":"Glory","steam_id":76561198013975080,"connected_time":177000000000,"state":"active","ping":76},{"user_id":513,"name":"Blades_87","steam_id":76561198150870338,"connected_time":354000000000,"state":"active","ping":50},{"user_id":509,"name":"Aifx #ForQuirka","steam_id":76561198398268649,"connected_time":448000000000,"state":"active","ping":79},{"user_id":519,"name":"T√ñZI","steam_id":76561198045268695,"connected_time":115000000000,"state":"active","ping":63},{"user_id":515,"name":"MikeWaChubski","steam_id":76561198368151490,"connected_time":316000000000,"state":"active","ping":75}]},{"server_id":36,"name":"Uncletopia | Chicago | 5 | All Maps","name_short":"chi-5","host":"chi-2.us.uncletopia.com","port":27015,"enabled":true,"region":"us-central","cc":"us","latitude":41.881832,"longitude":-87.62318,"reserved":0,"last_update":"0001-01-01T00:00:00Z","name_a2s":"Uncletopia | Chicago | 5 | All Maps","protocol":17,"map":"pl_swiftwater_final1","folder":"tf","game":"Team Fortress","app_id":440,"player_count":24,"max_players":24,"Bots":0,"server_type":"Dedicated","server_os":"Linux","password":true,"vac":true,"version":"7757534","steam_id":85568392924866362,"keywords":["nocrits","nodmgspread","payload","uncletopia"],"game_id":440,"stv_port":27016,"stv_name":"Uncletopia | Chicago | 5 | All Maps | STV","players":[{"user_id":544,"name":"C papi","steam_id":76561198027779564,"connected_time":3525000000000,"state":"active","ping":55},{"user_id":536,"name":"johnny depp","steam_id":76561198161199653,"connected_time":4733000000000,"state":"active","ping":63},{"user_id":580,"name":"teruh","steam_id":76561198044842961,"connected_time":1078000000000,"state":"active","ping":48},{"user_id":532,"name":"Semyr","steam_id":76561198125655939,"connected_time":4883000000000,"state":"active","ping":61},{"user_id":563,"name":"Dr. Dick","steam_id":76561198138011922,"connected_time":2009000000000,"state":"active","ping":76},{"user_id":567,"name":"dzcreeper","steam_id":76561198072250723,"connected_time":1502000000000,"state":"active","ping":70},{"user_id":566,"name":"three whole rats","steam_id":76561198354564001,"connected_time":1535000000000,"state":"active","ping":68},{"user_id":568,"name":"Thequirka","steam_id":76561198968058652,"connected_time":1419000000000,"state":"active","ping":103},{"user_id":533,"name":"Ducktator","steam_id":76561198102343726,"connected_time":4859000000000,"state":"active","ping":84},{"user_id":538,"name":"gamer of the female kind","steam_id":76561198277163301,"connected_time":4489000000000,"state":"active","ping":64},{"user_id":569,"name":"Frosty","steam_id":76561198301526305,"connected_time":1374000000000,"state":"active","ping":82},{"user_id":543,"name":"SkyJett","steam_id":76561198040719249,"connected_time":4281000000000,"state":"active","ping":59},{"user_id":570,"name":"glugglejug","steam_id":76561198062046854,"connected_time":1366000000000,"state":"active","ping":88},{"user_id":571,"name":"Ace Chromatica","steam_id":76561198042211131,"connected_time":1344000000000,"state":"active","ping":60},{"user_id":459,"name":"trappy (showered)","steam_id":76561198402801140,"connected_time":11113000000000,"state":"active","ping":60},{"user_id":572,"name":"North","steam_id":76561199173696836,"connected_time":1319000000000,"state":"active","ping":84},{"user_id":573,"name":"joelthetroll","steam_id":76561198026605788,"connected_time":1289000000000,"state":"active","ping":79},{"user_id":582,"name":"Frosti","steam_id":76561198332850064,"connected_time":379000000000,"state":"active","ping":67},{"user_id":576,"name":"Snoogs","steam_id":76561198444880931,"connected_time":1222000000000,"state":"active","ping":78},{"user_id":577,"name":"josh","steam_id":76561198110063909,"connected_time":1202000000000,"state":"active","ping":92},{"user_id":581,"name":"jamn","steam_id":76561198082668526,"connected_time":1066000000000,"state":"active","ping":71},{"user_id":578,"name":"Foxy","steam_id":76561198999963096,"connected_time":1199000000000,"state":"active","ping":89},{"user_id":560,"name":"Vladikr1","steam_id":76561198401495362,"connected_time":2224000000000,"state":"active","ping":77},{"user_id":561,"name":"ham bone","steam_id":76561198351143785,"connected_time":2224000000000,"state":"active","ping":79}]},{"server_id":37,"name":"Uncletopia | Chicago | 6 | All Maps","name_short":"chi-6","host":"chi-2.us.uncletopia.com","port":27025,"enabled":true,"region":"us-central","cc":"us","latitude":41.881832,"longitude":-87.62318,"reserved":0,"last_update":"0001-01-01T00:00:00Z","name_a2s":"Uncletopia | Chicago | 6 | All Maps","protocol":17,"map":"pl_frontier_final","folder":"tf","game":"Team Fortress","app_id":440,"player_count":19,"max_players":24,"Bots":0,"server_type":"Dedicated","server_os":"Linux","password":true,"vac":true,"version":"7757534","steam_id":85568392924866363,"keywords":["nocrits","nodmgspread","payload","uncletopia"],"game_id":440,"stv_port":27026,"stv_name":"Uncletopia | Chicago | 6 | All Maps | STV","players":[{"user_id":637,"name":"ToughGuy311","steam_id":76561198131458027,"connected_time":305000000000,"state":"active","ping":71},{"user_id":638,"name":"Inspecteur Spie","steam_id":76561198082825407,"connected_time":302000000000,"state":"active","ping":88},{"user_id":647,"name":"hud_saytext_time 0","steam_id":76561198010327228,"connected_time":105000000000,"state":"active","ping":164},{"user_id":646,"name":"VinylHabooski","steam_id":76561198154472375,"connected_time":148000000000,"state":"active","ping":51},{"user_id":648,"name":"An Actual Princess","steam_id":76561198125853495,"connected_time":96000000000,"state":"active","ping":59},{"user_id":634,"name":"kingofTOAST/ttv","steam_id":76561198079994110,"connected_time":565000000000,"state":"active","ping":106},{"user_id":623,"name":"Vapid_Potato","steam_id":76561198931447952,"connected_time":2444000000000,"state":"active","ping":56},{"user_id":624,"name":"Synergy","steam_id":76561198098630198,"connected_time":2396000000000,"state":"active","ping":90},{"user_id":640,"name":"catrinaisahuman","steam_id":76561198281355729,"connected_time":281000000000,"state":"active","ping":75},{"user_id":641,"name":"Minerkid2004","steam_id":76561198044262827,"connected_time":272000000000,"state":"active","ping":99},{"user_id":649,"name":"SomeFuckingGuy","steam_id":76561199239165015,"connected_time":92000000000,"state":"active","ping":75},{"user_id":650,"name":"Glow","steam_id":76561199360481336,"connected_time":70000000000,"state":"active","ping":45},{"user_id":651,"name":"Coolman3214","steam_id":76561198443366140,"connected_time":69000000000,"state":"active","ping":82},{"user_id":652,"name":"Vince Offer","steam_id":76561198991008825,"connected_time":47000000000,"state":"active","ping":85},{"user_id":653,"name":"pathulhu","steam_id":76561198323941614,"connected_time":38000000000,"state":"active","ping":67},{"user_id":627,"name":"Artzaint","steam_id":76561198152410570,"connected_time":1357000000000,"state":"active","ping":113},{"user_id":635,"name":"supcupman","steam_id":76561198051513866,"connected_time":447000000000,"state":"active","ping":102},{"user_id":633,"name":"The Fie","steam_id":76561198342312409,"connected_time":746000000000,"state":"active","ping":71},{"user_id":622,"name":"rude boi","steam_id":76561198006783260,"connected_time":2458000000000,"state":"active","ping":60}]},{"server_id":38,"name":"Uncletopia | Chicago | 7 | Stopwatch Beta","name_short":"chi-7","host":"chi-2.us.uncletopia.com","port":27035,"enabled":true,"region":"us-central","cc":"us","latitude":41.881832,"longitude":-87.62318,"reserved":0,"last_update":"0001-01-01T00:00:00Z","name_a2s":"Uncletopia | Chicago | 7 | Stopwatch Beta","protocol":17,"map":"workshop/pl_barnblitz_pro7.ugc582280235","folder":"tf","game":"Team Fortress","app_id":440,"player_count":0,"max_players":24,"Bots":0,"server_type":"Dedicated","server_os":"Linux","password":true,"vac":true,"version":"7757534","steam_id":85568392924866364,"keywords":["nocrits","nodmgspread","payload","uncletopia"],"game_id":440,"stv_port":27036,"stv_name":"Uncletopia | Chicago | 7 | Stopwatch Beta | STV","players":null},{"server_id":39,"name":"Uncletopia | Chicago | 8 | Community","name_short":"chi-8","host":"chi-2.us.uncletopia.com","port":27045,"enabled":true,"region":"us-central","cc":"us","latitude":41.881832,"longitude":-87.62318,"reserved":0,"last_update":"0001-01-01T00:00:00Z","name_a2s":"Uncletopia | Chicago | 8 | Community","protocol":17,"map":"workshop/koth_product_final.ugc454272353","folder":"tf","game":"Team Fortress","app_id":440,"player_count":1,"max_players":24,"Bots":0,"server_type":"Dedicated","server_os":"Linux","password":true,"vac":true,"version":"7757534","steam_id":85568392924866365,"keywords":["cp","nocrits","nodmgspread","uncletopia"],"game_id":440,"stv_port":27046,"stv_name":"Uncletopia | Chicago | 8 | Community | STV","players":[{"user_id":453,"name":"Chaos_Initiate","steam_id":76561198242222516,"connected_time":99000000000,"state":"active","ping":67}]},{"server_id":8,"name":"Uncletopia | Dallas | 1 | All Maps","name_short":"dal-1","host":"dal-1.us.uncletopia.com","port":27015,"enabled":true,"region":"us-central","cc":"us","latitude":32.779167,"longitude":-96.80889,"reserved":0,"last_update":"0001-01-01T00:00:00Z","name_a2s":"Uncletopia | Dallas | 1 | All Maps","protocol":17,"map":"pl_snowycoast","folder":"tf","game":"Team Fortress","app_id":440,"player_count":24,"max_players":24,"Bots":0,"server_type":"Dedicated","server_os":"Linux","password":true,"vac":true,"version":"7757534","steam_id":85568392924469986,"keywords":["nocrits","nodmgspread","payload","uncletopia"],"game_id":440,"stv_port":27016,"stv_name":"Uncletopia | Dallas | 1 | All Maps | STV","players":[{"user_id":579,"name":"Room","steam_id":76561199174579733,"connected_time":693000000000,"state":"active","ping":111},{"user_id":518,"name":"Bullwinkle J. Moose","steam_id":76561198075977196,"connected_time":4493000000000,"state":"active","ping":59},{"user_id":539,"name":"dollDreamer","steam_id":76561198131221488,"connected_time":2889000000000,"state":"active","ping":60},{"user_id":540,"name":"Kingsnake","steam_id":76561198033203389,"connected_time":2877000000000,"state":"active","ping":95},{"user_id":573,"name":"sara, boylady","steam_id":76561198283462369,"connected_time":1118000000000,"state":"active","ping":86},{"user_id":581,"name":"UUUURT","steam_id":76561198047468140,"connected_time":459000000000,"state":"active","ping":115},{"user_id":544,"name":"Pornelius Hubert","steam_id":76561198186128723,"connected_time":2801000000000,"state":"active","ping":52},{"user_id":583,"name":"Sydney","steam_id":76561198797603297,"connected_time":181000000000,"state":"active","ping":46},{"user_id":562,"name":"Batso","steam_id":76561198106589452,"connected_time":2156000000000,"state":"active","ping":89},{"user_id":584,"name":"M2 Paragon","steam_id":76561198803419058,"connected_time":154000000000,"state":"active","ping":100},{"user_id":587,"name":"‚ù§ Ashley ‚ù§","steam_id":76561198056428303,"connected_time":117000000000,"state":"active","ping":76},{"user_id":533,"name":"A Fruit","steam_id":76561198951830050,"connected_time":2964000000000,"state":"active","ping":45},{"user_id":554,"name":"Stapler","steam_id":76561198099295077,"connected_time":2394000000000,"state":"active","ping":84},{"user_id":588,"name":"Beeveelution","steam_id":76561198331526301,"connected_time":69000000000,"state":"active","ping":97},{"user_id":550,"name":"Emma","steam_id":76561198318093783,"connected_time":2545000000000,"state":"active","ping":60},{"user_id":589,"name":"yeyoi","steam_id":76561198069821885,"connected_time":45000000000,"state":"active","ping":49},{"user_id":534,"name":"tj3002rocks","steam_id":76561199017921546,"connected_time":2960000000000,"state":"active","ping":53},{"user_id":582,"name":"Sixrow","steam_id":76561198269289716,"connected_time":341000000000,"state":"active","ping":34},{"user_id":590,"name":"probablykovac","steam_id":76561198066032157,"connected_time":33000000000,"state":"active","ping":112},{"user_id":557,"name":"DrBenjas","steam_id":76561198345883103,"connected_time":2306000000000,"state":"active","ping":107},{"user_id":568,"name":"Socialism Enjoyer","steam_id":76561197991817974,"connected_time":1364000000000,"state":"active","ping":99},{"user_id":559,"name":"gaming","steam_id":76561198338610196,"connected_time":2298000000000,"state":"active","ping":103},{"user_id":563,"name":"TheTruthOfTheCessationOfDukkha","steam_id":76561198214370515,"connected_time":2127000000000,"state":"active","ping":77},{"user_id":564,"name":"Underwear Monster","steam_id":76561198175742775,"connected_time":2125000000000,"state":"active","ping":81}]},{"server_id":108,"name":"Uncletopia | Dallas | 2 | All Maps","name_short":"dal-2","host":"dal-1.us.uncletopia.com","port":27025,"enabled":true,"region":"us-central","cc":"us","latitude":32.779167,"longitude":-96.80889,"reserved":0,"last_update":"0001-01-01T00:00:00Z","name_a2s":"Uncletopia | Dallas | 2 | All Maps","protocol":17,"map":"pl_swiftwater_final1","folder":"tf","game":"Team Fortress","app_id":440,"player_count":20,"max_players":24,"Bots":0,"server_type":"Dedicated","server_os":"Linux","password":true,"vac":true,"version":"7757534","steam_id":85568392924469988,"keywords":["nocrits","nodmgspread","payload","uncletopia"],"game_id":440,"stv_port":27026,"stv_name":"Uncletopia | Dallas | 2 | All Maps | STV","players":[{"user_id":781,"name":"heisenberg","steam_id":76561198075341060,"connected_time":181000000000,"state":"active","ping":89},{"user_id":782,"name":"old slimey ichabod","steam_id":76561198043900518,"connected_time":178000000000,"state":"active","ping":78},{"user_id":784,"name":"[chef] iron","steam_id":76561197970888616,"connected_time":20000000000,"state":"active","ping":54},{"user_id":783,"name":"guy","steam_id":76561198196443262,"connected_time":123000000000,"state":"active","ping":97},{"user_id":742,"name":"she dont care if i die","steam_id":76561198138221795,"connected_time":1619000000000,"state":"active","ping":86},{"user_id":743,"name":"Cinderace:)","steam_id":76561198132899671,"connected_time":1614000000000,"state":"active","ping":74},{"user_id":744,"name":"faded than a ho","steam_id":76561198087200115,"connected_time":1612000000000,"state":"active","ping":83},{"user_id":751,"name":"Garbo","steam_id":76561198192120869,"connected_time":1444000000000,"state":"active","ping":30},{"user_id":774,"name":"ark","steam_id":76561198041066271,"connected_time":345000000000,"state":"active","ping":67},{"user_id":747,"name":"thepopeofshame","steam_id":76561199047823974,"connected_time":1598000000000,"state":"active","ping":77},{"user_id":748,"name":"Spazz","steam_id":76561198036167494,"connected_time":1595000000000,"state":"active","ping":46},{"user_id":780,"name":"PoltergussyLordoftheAsstralVoid","steam_id":76561199195004708,"connected_time":267000000000,"state":"active","ping":81},{"user_id":761,"name":"Lemonade Juice","steam_id":76561198402892608,"connected_time":1196000000000,"state":"active","ping":70},{"user_id":772,"name":"jandajanda","steam_id":76561198235722476,"connected_time":393000000000,"state":"active","ping":64},{"user_id":753,"name":"Mellou","steam_id":76561198212048740,"connected_time":1427000000000,"state":"active","ping":54},{"user_id":776,"name":"FAC","steam_id":76561198009818412,"connected_time":343000000000,"state":"active","ping":63},{"user_id":762,"name":"Stomp","steam_id":76561198167765748,"connected_time":1019000000000,"state":"active","ping":74},{"user_id":777,"name":"kiko","steam_id":76561198018564445,"connected_time":337000000000,"state":"active","ping":59},{"user_id":757,"name":"DanklyMoist","steam_id":76561198062187821,"connected_time":1400000000000,"state":"active","ping":57},{"user_id":779,"name":"0xFUL","steam_id":76561198081684676,"connected_time":277000000000,"state":"active","ping":117}]},{"server_id":5,"name":"Uncletopia | Frankfurt | 1 | All Maps","name_short":"frk-1","host":"frk-1.de.uncletopia.com","port":27015,"enabled":true,"region":"eu","cc":"de","latitude":50.110924,"longitude":8.682127,"reserved":0,"last_update":"0001-01-01T00:00:00Z","name_a2s":"Uncletopia | Frankfurt | 1 | All Maps","protocol":17,"map":"koth_highpass","folder":"tf","game":"Team Fortress","app_id":440,"player_count":0,"max_players":24,"Bots":0,"server_type":"Dedicated","server_os":"Linux","password":true,"vac":true,"version":"7757534","steam_id":85568392924469989,"keywords":["cp","nocrits","nodmgspread","uncletopia"],"game_id":440,"stv_port":27016,"stv_name":"Uncletopia | Frankfurt | 1 | All Maps | STV","players":null},{"server_id":110,"name":"Uncletopia | Frankfurt | 2 | All Maps","name_short":"frk-2","host":"frk-1.de.uncletopia.com","port":27025,"enabled":true,"region":"eu","cc":"de","latitude":50.110924,"longitude":8.682127,"reserved":0,"last_update":"0001-01-01T00:00:00Z","name_a2s":"Uncletopia | Frankfurt | 2 | All Maps","protocol":17,"map":"koth_lakeside_final","folder":"tf","game":"Team Fortress","app_id":440,"player_count":0,"max_players":24,"Bots":0,"server_type":"Dedicated","server_os":"Linux","password":true,"vac":true,"version":"7757534","steam_id":85568392924469990,"keywords":["cp","nocrits","nodmgspread","uncletopia"],"game_id":440,"stv_port":27026,"stv_name":"Uncletopia | Frankfurt | 2 | All Maps | STV","players":null},{"server_id":308,"name":"Uncletopia | Frankfurt | 3 | All Maps","name_short":"frk-3","host":"frk-1.de.uncletopia.com","port":27035,"enabled":true,"region":"eu","cc":"de","latitude":50.110924,"longitude":8.682127,"reserved":0,"last_update":"0001-01-01T00:00:00Z","name_a2s":"Uncletopia | Frankfurt | 3 | All Maps","protocol":17,"map":"pl_swiftwater_final1","folder":"tf","game":"Team Fortress","app_id":440,"player_count":0,"max_players":24,"Bots":0,"server_type":"Dedicated","server_os":"Linux","password":true,"vac":true,"version":"7757534","steam_id":85568392924504274,"keywords":["nocrits","nodmgspread","payload","uncletopia"],"game_id":440,"stv_port":27036,"stv_name":"Uncletopia | Frankfurt | 3 | All Maps | STV","players":null},{"server_id":309,"name":"Uncletopia | Frankfurt | 4 | All Maps","name_short":"frk-4","host":"frk-1.de.uncletopia.com","port":27045,"enabled":true,"region":"eu","cc":"de","latitude":50.110924,"longitude":8.682127,"reserved":0,"last_update":"0001-01-01T00:00:00Z","name_a2s":"Uncletopia | Frankfurt | 4 | All Maps","protocol":17,"map":"pl_swiftwater_final1","folder":"tf","game":"Team Fortress","app_id":440,"player_count":0,"max_players":24,"Bots":0,"server_type":"Dedicated","server_os":"Linux","password":true,"vac":true,"version":"7757534","steam_id":85568392924504275,"keywords":["nocrits","nodmgspread","payload","uncletopia"],"game_id":440,"stv_port":27046,"stv_name":"Uncletopia | Frankfurt | 4 | All Maps | STV","players":null},{"server_id":310,"name":"Uncletopia | Frankfurt | 5 | All Maps","name_short":"frk-5","host":"frk-1.de.uncletopia.com","port":27055,"enabled":true,"region":"eu","cc":"de","latitude":50.110924,"longitude":8.682127,"reserved":0,"last_update":"0001-01-01T00:00:00Z","name_a2s":"Uncletopia | Frankfurt | 5 | All Maps","protocol":17,"map":"pl_borneo","folder":"tf","game":"Team Fortress","app_id":440,"player_count":0,"max_players":24,"Bots":0,"server_type":"Dedicated","server_os":"Linux","password":true,"vac":true,"version":"7757534","steam_id":85568392924504277,"keywords":["nocrits","nodmgspread","payload","uncletopia"],"game_id":440,"stv_port":27056,"stv_name":"Uncletopia | Frankfurt | 5 | All Maps | STV","players":null},{"server_id":311,"name":"Uncletopia | Frankfurt | 6 | All Maps","name_short":"frk-6","host":"frk-1.de.uncletopia.com","port":27065,"enabled":true,"region":"eu","cc":"de","latitude":50.110924,"longitude":8.682127,"reserved":0,"last_update":"0001-01-01T00:00:00Z","name_a2s":"Uncletopia | Frankfurt | 6 | All Maps","protocol":17,"map":"koth_highpass","folder":"tf","game":"Team Fortress","app_id":440,"player_count":0,"max_players":24,"Bots":0,"server_type":"Dedicated","server_os":"Linux","password":true,"vac":true,"version":"7757534","steam_id":85568392924504278,"keywords":["cp","nocrits","nodmgspread","uncletopia"],"game_id":440,"stv_port":27066,"stv_name":"Uncletopia | Frankfurt | 6 | All Maps | STV","players":null},{"server_id":23,"name":"Uncletopia | Frankfurt | 7 | Stopwatch Beta","name_short":"frk-7","host":"frk-1.de.uncletopia.com","port":27075,"enabled":true,"region":"eu","cc":"de","latitude":50.110924,"longitude":8.682127,"reserved":0,"last_update":"0001-01-01T00:00:00Z","name_a2s":"Uncletopia | Frankfurt | 7 | Stopwatch Beta","protocol":17,"map":"pl_frontier_final","folder":"tf","game":"Team Fortress","app_id":440,"player_count":0,"max_players":24,"Bots":0,"server_type":"Dedicated","server_os":"Linux","password":true,"vac":true,"version":"7757534","steam_id":85568392924742827,"keywords":["nocrits","nodmgspread","payload","uncletopia"],"game_id":440,"stv_port":27076,"stv_name":"Uncletopia | Frankfurt | 7 | Stopwatch Beta | STV","players":null},{"server_id":24,"name":"Uncletopia | Frankfurt | 8 | Community","name_short":"frk-8","host":"frk-1.de.uncletopia.com","port":27085,"enabled":true,"region":"eu","cc":"de","latitude":50.110924,"longitude":8.682127,"reserved":0,"last_update":"0001-01-01T00:00:00Z","name_a2s":"Uncletopia | Frankfurt | 8 | Community","protocol":17,"map":"workshop/koth_kemptown_rc1.ugc767410655","folder":"tf","game":"Team Fortress","app_id":440,"player_count":0,"max_players":24,"Bots":0,"server_type":"Dedicated","server_os":"Linux","password":true,"vac":true,"version":"7757534","steam_id":85568392924742828,"keywords":["cp","nocrits","nodmgspread","uncletopia"],"game_id":440,"stv_port":27086,"stv_name":"Uncletopia | Frankfurt | 8 | Community | STV","players":null},{"server_id":202,"name":"Uncletopia | Hong Kong | 1 | All Maps","name_short":"hgk-1","host":"hgk-1.hk.uncletopia.com","port":27015,"enabled":true,"region":"asia","cc":"hk","latitude":22.302711,"longitude":114.177216,"reserved":0,"last_update":"0001-01-01T00:00:00Z","name_a2s":"Uncletopia | Hong Kong | 1 | All Maps","protocol":17,"map":"plr_hightower","folder":"tf","game":"Team Fortress","app_id":440,"player_count":0,"max_players":24,"Bots":0,"server_type":"Dedicated","server_os":"Linux","password":true,"vac":true,"version":"7757534","steam_id":85568392924494504,"keywords":["nocrits","nodmgspread","payload","uncletopia"],"game_id":440,"stv_port":27016,"stv_name":"Uncletopia | Hong Kong | 1 | All Maps | STV","players":null},{"server_id":1,"name":"Uncletopia | Los Angeles | 1 | All Maps","name_short":"lax-1","host":"lax-1.us.uncletopia.com","port":27015,"enabled":true,"region":"us-west","cc":"us","latitude":33.94279,"longitude":-118.41004,"reserved":0,"last_update":"0001-01-01T00:00:00Z","name_a2s":"Uncletopia | Los Angeles | 1 | All Maps","protocol":17,"map":"cp_mountainlab","folder":"tf","game":"Team Fortress","app_id":440,"player_count":24,"max_players":24,"Bots":0,"server_type":"Dedicated","server_os":"Linux","password":true,"vac":true,"version":"7757534","steam_id":85568392924469991,"keywords":["cp","nocrits","nodmgspread","uncletopia"],"game_id":440,"stv_port":27016,"stv_name":"Uncletopia | Los Angeles | 1 | All Maps | STV","players":[{"user_id":221,"name":"esdot","steam_id":76561198836178527,"connected_time":3346000000000,"state":"active","ping":57},{"user_id":250,"name":"An00bis","steam_id":76561198044084508,"connected_time":185000000000,"state":"active","ping":45},{"user_id":245,"name":"shadow wizard money gang","steam_id":76561198150406851,"connected_time":779000000000,"state":"active","ping":57},{"user_id":249,"name":"SpaghettiMaster420","steam_id":76561199024321120,"connected_time":266000000000,"state":"active","ping":66},{"user_id":240,"name":"Kevin McCarthy","steam_id":76561198843868609,"connected_time":1248000000000,"state":"active","ping":38},{"user_id":243,"name":"Jermaine","steam_id":76561198282789877,"connected_time":1235000000000,"state":"active","ping":75},{"user_id":229,"name":"IntravenusDeMilo","steam_id":76561197970629020,"connected_time":2504000000000,"state":"active","ping":72},{"user_id":170,"name":"spot","steam_id":76561198151135298,"connected_time":7362000000000,"state":"active","ping":36},{"user_id":251,"name":"Lord Headass","steam_id":76561198296532053,"connected_time":168000000000,"state":"active","ping":46},{"user_id":252,"name":"Pump","steam_id":76561198085846167,"connected_time":107000000000,"state":"active","ping":83},{"user_id":182,"name":"AmyPercent","steam_id":76561198071896932,"connected_time":6340000000000,"state":"active","ping":75},{"user_id":231,"name":"Painkiller","steam_id":76561198049787400,"connected_time":2442000000000,"state":"active","ping":88},{"user_id":219,"name":"EduardoLopez2005","steam_id":76561198188481309,"connected_time":3643000000000,"state":"active","ping":61},{"user_id":244,"name":"David DePape","steam_id":76561198340989889,"connected_time":1232000000000,"state":"active","ping":44},{"user_id":232,"name":"lft fuzzybunny","steam_id":76561198046953937,"connected_time":2437000000000,"state":"active","ping":83},{"user_id":212,"name":"Frontier Psychiatrist","steam_id":76561198038689088,"connected_time":3906000000000,"state":"active","ping":109},{"user_id":213,"name":"Red Vox enjoyer","steam_id":76561198803732690,"connected_time":3888000000000,"state":"active","ping":57},{"user_id":246,"name":"xbox record that","steam_id":76561198150117455,"connected_time":318000000000,"state":"active","ping":49},{"user_id":235,"name":"PonYOOOOOOO","steam_id":76561199067424111,"connected_time":1895000000000,"state":"active","ping":76},{"user_id":233,"name":"witty kitty","steam_id":76561198935839416,"connected_time":2433000000000,"state":"active","ping":104},{"user_id":248,"name":"ArVos_Crusader","steam_id":76561198224514564,"connected_time":297000000000,"state":"active","ping":59},{"user_id":223,"name":"Hifamon","steam_id":76561199095124147,"connected_time":3211000000000,"state":"active","ping":82},{"user_id":234,"name":"Red Angry Bird","steam_id":76561198204896231,"connected_time":1979000000000,"state":"active","ping":60},{"user_id":202,"name":"p9 squash","steam_id":76561198150281353,"connected_time":4535000000000,"state":"active","ping":88}]},{"server_id":112,"name":"Uncletopia | Los Angeles | 2 | All Maps","name_short":"lax-2","host":"lax-1.us.uncletopia.com","port":27025,"enabled":true,"region":"us-west","cc":"us","latitude":33.94279,"longitude":-118.41004,"reserved":0,"last_update":"0001-01-01T00:00:00Z","name_a2s":"Uncletopia | Los Angeles | 2 | All Maps","protocol":17,"map":"cp_altitude","folder":"tf","game":"Team Fortress","app_id":440,"player_count":0,"max_players":24,"Bots":0,"server_type":"Dedicated","server_os":"Linux","password":true,"vac":true,"version":"7757534","steam_id":85568392924469992,"keywords":["cp","nocrits","nodmgspread","uncletopia"],"game_id":440,"stv_port":27026,"stv_name":"Uncletopia | Los Angeles | 2 | All Maps | STV","players":null},{"server_id":324,"name":"Uncletopia | Los Angeles | 3 | All Maps","name_short":"lax-3","host":"lax-1.us.uncletopia.com","port":27035,"enabled":true,"region":"us-west","cc":"us","latitude":33.94279,"longitude":-118.41004,"reserved":0,"last_update":"0001-01-01T00:00:00Z","name_a2s":"Uncletopia | Los Angeles | 3 | All Maps","protocol":17,"map":"pl_borneo","folder":"tf","game":"Team Fortress","app_id":440,"player_count":0,"max_players":24,"Bots":0,"server_type":"Dedicated","server_os":"Linux","password":true,"vac":true,"version":"7757534","steam_id":85568392924510198,"keywords":["nocrits","nodmgspread","payload","uncletopia"],"game_id":440,"stv_port":27036,"stv_name":"Uncletopia | Los Angeles | 3 | All Maps | STV","players":null},{"server_id":25,"name":"Uncletopia | Los Angeles | 4 | Stopwatch Beta","name_short":"lax-4","host":"lax-1.us.uncletopia.com","port":27045,"enabled":true,"region":"us-west","cc":"us","latitude":33.94279,"longitude":-118.41004,"reserved":0,"last_update":"0001-01-01T00:00:00Z","name_a2s":"Uncletopia | Los Angeles | 4 | Stopwatch Beta","protocol":17,"map":"workshop/pl_badwater_pro_v12.ugc2142942074","folder":"tf","game":"Team Fortress","app_id":440,"player_count":1,"max_players":24,"Bots":0,"server_type":"Dedicated","server_os":"Linux","password":true,"vac":true,"version":"7757534","steam_id":85568392924510199,"keywords":["nocrits","nodmgspread","payload","uncletopia"],"game_id":440,"stv_port":27046,"stv_name":"Uncletopia | Los Angeles | 4 | Stopwatch Beta | STV","players":[{"user_id":26,"name":"cilo","steam_id":76561198046163502,"connected_time":17000000000,"state":"active","ping":63}]},{"server_id":11,"name":"Uncletopia | London | 1 | All Maps","name_short":"lon-1","host":"lon-1.uk.uncletopia.com","port":27015,"enabled":true,"region":"eu","cc":"gb","latitude":51.509865,"longitude":-0.118092,"reserved":0,"last_update":"0001-01-01T00:00:00Z","name_a2s":"Uncletopia | London | 1 | All Maps","protocol":17,"map":"koth_highpass","folder":"tf","game":"Team Fortress","app_id":440,"player_count":0,"max_players":24,"Bots":0,"server_type":"Dedicated","server_os":"Linux","password":true,"vac":true,"version":"7757534","steam_id":85568392924367362,"keywords":["cp","nocrits","nodmgspread","uncletopia"],"game_id":440,"stv_port":27016,"stv_name":"Uncletopia | London | 1 | All Maps | STV","players":null},{"server_id":114,"name":"Uncletopia | London | 2 | All Maps","name_short":"lon-2","host":"lon-1.uk.uncletopia.com","port":27025,"enabled":true,"region":"eu","cc":"gb","latitude":51.509865,"longitude":-0.118092,"reserved":0,"last_update":"0001-01-01T00:00:00Z","name_a2s":"Uncletopia | London | 2 | All Maps","protocol":17,"map":"pl_barnblitz","folder":"tf","game":"Team Fortress","app_id":440,"player_count":0,"max_players":24,"Bots":0,"server_type":"Dedicated","server_os":"Linux","password":true,"vac":true,"version":"7757534","steam_id":85568392924470941,"keywords":["nocrits","nodmgspread","payload","uncletopia"],"game_id":440,"stv_port":27026,"stv_name":"Uncletopia | London | 2 | All Maps | STV","players":null},{"server_id":320,"name":"Uncletopia | London | 3 | All Maps","name_short":"lon-3","host":"lon-1.uk.uncletopia.com","port":27035,"enabled":true,"region":"eu","cc":"gb","latitude":51.509865,"longitude":-0.118092,"reserved":0,"last_update":"0001-01-01T00:00:00Z","name_a2s":"Uncletopia | London | 3 | All Maps","protocol":17,"map":"koth_cascade","folder":"tf","game":"Team Fortress","app_id":440,"player_count":0,"max_players":24,"Bots":0,"server_type":"Dedicated","server_os":"Linux","password":true,"vac":true,"version":"7757534","steam_id":85568392924510192,"keywords":["cp","nocrits","nodmgspread","uncletopia"],"game_id":440,"stv_port":27036,"stv_name":"Uncletopia | London | 3 | All Maps | STV","players":null},{"server_id":321,"name":"Uncletopia | London | 4 | All Maps","name_short":"lon-4","host":"lon-1.uk.uncletopia.com","port":27045,"enabled":true,"region":"eu","cc":"gb","latitude":51.509865,"longitude":-0.118092,"reserved":0,"last_update":"0001-01-01T00:00:00Z","name_a2s":"Uncletopia | London | 4 | All Maps","protocol":17,"map":"pl_badwater","folder":"tf","game":"Team Fortress","app_id":440,"player_count":0,"max_players":24,"Bots":0,"server_type":"Dedicated","server_os":"Linux","password":true,"vac":true,"version":"7757534","steam_id":85568392924510193,"keywords":["nocrits","nodmgspread","payload","uncletopia"],"game_id":440,"stv_port":27046,"stv_name":"Uncletopia | London | 4 | All Maps | STV","players":null},{"server_id":21,"name":"Uncletopia | London | 5 | All Maps","name_short":"lon-5","host":"lon-1.uk.uncletopia.com","port":27055,"enabled":true,"region":"eu","cc":"gb","latitude":51.509865,"longitude":-0.118092,"reserved":0,"last_update":"0001-01-01T00:00:00Z","name_a2s":"Uncletopia | London | 5 | All Maps","protocol":17,"map":"cp_mountainlab","folder":"tf","game":"Team Fortress","app_id":440,"player_count":0,"max_players":24,"Bots":0,"server_type":"Dedicated","server_os":"Linux","password":true,"vac":true,"version":"7757534","steam_id":85568392924742829,"keywords":["cp","nocrits","nodmgspread","uncletopia"],"game_id":440,"stv_port":27056,"stv_name":"Uncletopia | London | 5 | All Maps | STV","players":null},{"server_id":22,"name":"Uncletopia | London | 6 | All Maps","name_short":"lon-6","host":"lon-1.uk.uncletopia.com","port":27065,"enabled":true,"region":"eu","cc":"gb","latitude":51.509865,"longitude":-0.118092,"reserved":0,"last_update":"0001-01-01T00:00:00Z","name_a2s":"Uncletopia | London | 6 | All Maps","protocol":17,"map":"koth_highpass","folder":"tf","game":"Team Fortress","app_id":440,"player_count":8,"max_players":24,"Bots":0,"server_type":"Dedicated","server_os":"Linux","password":true,"vac":true,"version":"7757534","steam_id":85568392924742830,"keywords":["cp","nocrits","nodmgspread","uncletopia"],"game_id":440,"stv_port":27066,"stv_name":"Uncletopia | London | 6 | All Maps | STV","players":[{"user_id":734,"name":"MEGOS","steam_id":76561198172740637,"connected_time":1183000000000,"state":"active","ping":59},{"user_id":740,"name":"Kroto","steam_id":76561198056233760,"connected_time":308000000000,"state":"active","ping":47},{"user_id":728,"name":"AYE","steam_id":76561198181368101,"connected_time":1773000000000,"state":"active","ping":59},{"user_id":730,"name":"skagok","steam_id":76561198439561745,"connected_time":1624000000000,"state":"active","ping":125},{"user_id":737,"name":"moro","steam_id":76561198084174868,"connected_time":692000000000,"state":"active","ping":74},{"user_id":731,"name":"Vibing Wave [IR]","steam_id":76561198866358613,"connected_time":1486000000000,"state":"active","ping":155},{"user_id":732,"name":"M.L.JEW","steam_id":76561198997375055,"connected_time":1419000000000,"state":"active","ping":165},{"user_id":708,"name":"Ember The Femboy","steam_id":76561198139630565,"connected_time":3735000000000,"state":"active","ping":51}]},{"server_id":40,"name":"Uncletopia | London | 7 | No Payload","name_short":"lon-7","host":"lon-1.uk.uncletopia.com","port":27075,"enabled":true,"region":"eu","cc":"gb","latitude":51.509865,"longitude":-0.118092,"reserved":0,"last_update":"0001-01-01T00:00:00Z","name_a2s":"Uncletopia | London | 7 | No Payload","protocol":17,"map":"koth_badlands","folder":"tf","game":"Team Fortress","app_id":440,"player_count":0,"max_players":24,"Bots":0,"server_type":"Dedicated","server_os":"Linux","password":true,"vac":true,"version":"7757534","steam_id":85568392924964314,"keywords":["cp","nocrits","nodmgspread","uncletopia"],"game_id":440,"stv_port":27076,"stv_name":"Uncletopia | London | 7 | No Payload | STV","players":null},{"server_id":41,"name":"Uncletopia | London | 8 | Community","name_short":"lon-8","host":"lon-1.uk.uncletopia.com","port":27085,"enabled":true,"region":"eu","cc":"gb","latitude":51.509865,"longitude":-0.118092,"reserved":0,"last_update":"0001-01-01T00:00:00Z","name_a2s":"Uncletopia | London | 8 | Community","protocol":17,"map":"workshop/koth_slaughter_rc1.ugc1712845210","folder":"tf","game":"Team Fortress","app_id":440,"player_count":0,"max_players":24,"Bots":0,"server_type":"Dedicated","server_os":"Linux","password":true,"vac":true,"version":"7757534","steam_id":85568392924964315,"keywords":["cp","nocrits","nodmgspread","uncletopia"],"game_id":440,"stv_port":27086,"stv_name":"Uncletopia | London | 8 | Community | STV","players":null},{"server_id":300,"name":"Uncletopia | Montr√©al | 1 | All Maps","name_short":"mtl-1","host":"mtl-1.ca.uncletopia.com","port":27015,"enabled":true,"region":"us-east","cc":"ca","latitude":45.50889,"longitude":-73.56167,"reserved":0,"last_update":"0001-01-01T00:00:00Z","name_a2s":"Uncletopia | Montr√©al | 1 | All Maps","protocol":17,"map":"pl_snowycoast","folder":"tf","game":"Team Fortress","app_id":440,"player_count":0,"max_players":24,"Bots":0,"server_type":"Dedicated","server_os":"Linux","password":true,"vac":true,"version":"7757534","steam_id":85568392924500087,"keywords":["nocrits","nodmgspread","payload","uncletopia"],"game_id":440,"stv_port":27016,"stv_name":"Uncletopia | Montr√©al | 1 | All Maps | STV","players":null},{"server_id":301,"name":"Uncletopia | Montr√©al | 2 | All Maps","name_short":"mtl-2","host":"mtl-1.ca.uncletopia.com","port":27025,"enabled":true,"region":"us-east","cc":"ca","latitude":45.50889,"longitude":-73.56167,"reserved":0,"last_update":"0001-01-01T00:00:00Z","name_a2s":"Uncletopia | Montr√©al | 2 | All Maps","protocol":17,"map":"pl_badwater","folder":"tf","game":"Team Fortress","app_id":440,"player_count":0,"max_players":24,"Bots":0,"server_type":"Dedicated","server_os":"Linux","password":true,"vac":true,"version":"7757534","steam_id":85568392924500088,"keywords":["nocrits","nodmgspread","payload","uncletopia"],"game_id":440,"stv_port":27026,"stv_name":"Uncletopia | Montr√©al | 2 | All Maps | STV","players":null},{"server_id":302,"name":"Uncletopia | Montr√©al | 3 | All Maps","name_short":"mtl-3","host":"mtl-1.ca.uncletopia.com","port":27035,"enabled":true,"region":"us-east","cc":"ca","latitude":45.50889,"longitude":-73.56167,"reserved":0,"last_update":"0001-01-01T00:00:00Z","name_a2s":"Uncletopia | Montr√©al | 3 | All Maps","protocol":17,"map":"koth_cascade","folder":"tf","game":"Team Fortress","app_id":440,"player_count":0,"max_players":24,"Bots":0,"server_type":"Dedicated","server_os":"Linux","password":true,"vac":true,"version":"7757534","steam_id":85568392924500089,"keywords":["cp","nocrits","nodmgspread","uncletopia"],"game_id":440,"stv_port":27036,"stv_name":"Uncletopia | Montr√©al | 3 | All Maps | STV","players":null},{"server_id":303,"name":"Uncletopia | Montr√©al | 4 | No Payload","name_short":"mtl-4","host":"mtl-1.ca.uncletopia.com","port":27045,"enabled":true,"region":"us-east","cc":"ca","latitude":45.50889,"longitude":-73.56167,"reserved":0,"last_update":"0001-01-01T00:00:00Z","name_a2s":"Uncletopia | Montr√©al | 4 | No Payload","protocol":17,"map":"pl_borneo","folder":"tf","game":"Team Fortress","app_id":440,"player_count":0,"max_players":24,"Bots":0,"server_type":"Dedicated","server_os":"Linux","password":true,"vac":true,"version":"7757534","steam_id":85568392924500090,"keywords":["nocrits","nodmgspread","payload","uncletopia"],"game_id":440,"stv_port":27046,"stv_name":"Uncletopia | Montr√©al | 4 | No Payload | STV","players":null},{"server_id":13,"name":"Uncletopia | New York City | 1 | All Maps","name_short":"nyc-1","host":"nyc-1.us.uncletopia.com","port":27015,"enabled":true,"region":"us-east","cc":"us","latitude":40.73061,"longitude":-73.93524,"reserved":0,"last_update":"0001-01-01T00:00:00Z","name_a2s":"Uncletopia | New York City | 1 | All Maps","protocol":17,"map":"pl_swiftwater_final1","folder":"tf","game":"Team Fortress","app_id":440,"player_count":24,"max_players":24,"Bots":0,"server_type":"Dedicated","server_os":"Linux","password":true,"vac":true,"version":"7757534","steam_id":85568392924469993,"keywords":["nocrits","nodmgspread","payload","uncletopia"],"game_id":440,"stv_port":27016,"stv_name":"Uncletopia | New York City | 1 | All Maps | STV","players":[{"user_id":725,"name":"Induceddata","steam_id":76561198868302455,"connected_time":494000000000,"state":"active","ping":55},{"user_id":728,"name":"Dewake","steam_id":76561198128413372,"connected_time":303000000000,"state":"active","ping":90},{"user_id":707,"name":"PinkLemonade","steam_id":76561198799286228,"connected_time":1338000000000,"state":"active","ping":53},{"user_id":706,"name":"master sheesh","steam_id":76561198044034546,"connected_time":1474000000000,"state":"active","ping":51},{"user_id":722,"name":"Skuntle Bingoid","steam_id":76561198046942778,"connected_time":794000000000,"state":"active","ping":101},{"user_id":709,"name":"James","steam_id":76561198055687973,"connected_time":1324000000000,"state":"active","ping":64},{"user_id":732,"name":"John Dungus (the real one)","steam_id":76561198049191027,"connected_time":94000000000,"state":"active","ping":111},{"user_id":682,"name":"Samrizo el Chorizo","steam_id":76561198009838162,"connected_time":2570000000000,"state":"active","ping":49},{"user_id":714,"name":"DazzlingMaggot","steam_id":76561197972716928,"connected_time":1131000000000,"state":"active","ping":74},{"user_id":678,"name":"bikerkid207","steam_id":76561198390782783,"connected_time":3213000000000,"state":"active","ping":56},{"user_id":710,"name":"JPMockMan","steam_id":76561198071370876,"connected_time":1301000000000,"state":"active","ping":92},{"user_id":720,"name":"Randy \"the Man\" Johnson","steam_id":76561198039124445,"connected_time":846000000000,"state":"active","ping":113},{"user_id":711,"name":"Snoopy","steam_id":76561198273735974,"connected_time":1288000000000,"state":"active","ping":107},{"user_id":729,"name":"0","steam_id":76561197961095970,"connected_time":253000000000,"state":"active","ping":56},{"user_id":712,"name":"RapiorDragon","steam_id":76561198285655994,"connected_time":1224000000000,"state":"active","ping":53},{"user_id":713,"name":"jdkjdsjsdjdfsfsdfffg","steam_id":76561198338950292,"connected_time":1189000000000,"state":"active","ping":60},{"user_id":715,"name":"turret","steam_id":76561198407070037,"connected_time":1115000000000,"state":"active","ping":81},{"user_id":716,"name":"Rudy","steam_id":76561198013456828,"connected_time":1047000000000,"state":"active","ping":56},{"user_id":719,"name":"Samsiel","steam_id":76561198094134951,"connected_time":964000000000,"state":"active","ping":99},{"user_id":730,"name":"Maxxycat","steam_id":76561198194062681,"connected_time":135000000000,"state":"active","ping":76},{"user_id":689,"name":"JHLO","steam_id":76561198074359967,"connected_time":2456000000000,"state":"active","ping":49},{"user_id":691,"name":"PLATYPUS","steam_id":76561198255796625,"connected_time":2396000000000,"state":"active","ping":122},{"user_id":699,"name":"the12xu","steam_id":76561198197086561,"connected_time":2017000000000,"state":"active","ping":62},{"user_id":700,"name":"Amoxacin","steam_id":76561198171121818,"connected_time":1932000000000,"state":"active","ping":78}]},{"server_id":14,"name":"Uncletopia | New York City | 2 | All Maps","name_short":"nyc-2","host":"nyc-1.us.uncletopia.com","port":27025,"enabled":true,"region":"us-east","cc":"us","latitude":40.73061,"longitude":-73.93524,"reserved":0,"last_update":"0001-01-01T00:00:00Z","name_a2s":"Uncletopia | New York City | 2 | All Maps","protocol":17,"map":"pl_borneo","folder":"tf","game":"Team Fortress","app_id":440,"player_count":23,"max_players":24,"Bots":0,"server_type":"Dedicated","server_os":"Linux","password":true,"vac":true,"version":"7757534","steam_id":85568392924469994,"keywords":["nocrits","nodmgspread","payload","uncletopia"],"game_id":440,"stv_port":27026,"stv_name":"Uncletopia | New York City | 2 | All Maps | STV","players":[{"user_id":718,"name":"wally","steam_id":76561198027450079,"connected_time":3132000000000,"state":"active","ping":47},{"user_id":752,"name":"Kh√¢rn the Betrayer","steam_id":76561198153135858,"connected_time":430000000000,"state":"active","ping":103},{"user_id":719,"name":"AverageRundownJoe.ttv","steam_id":76561198059359620,"connected_time":3094000000000,"state":"active","ping":86},{"user_id":756,"name":"rudy","steam_id":76561198088712799,"connected_time":27000000000,"state":"active","ping":115},{"user_id":663,"name":"StrangeSaus","steam_id":76561198147790758,"connected_time":4584000000000,"state":"active","ping":62},{"user_id":729,"name":"java","steam_id":76561198030276792,"connected_time":2048000000000,"state":"active","ping":62},{"user_id":746,"name":"Mr. Soupman","steam_id":76561198021649598,"connected_time":1109000000000,"state":"active","ping":45},{"user_id":715,"name":"lanoc","steam_id":76561198055415367,"connected_time":3198000000000,"state":"active","ping":60},{"user_id":742,"name":"PhantomGamerModz","steam_id":76561198425172210,"connected_time":1167000000000,"state":"active","ping":81},{"user_id":578,"name":"A Puppy","steam_id":76561198828184456,"connected_time":6740000000000,"state":"active","ping":47},{"user_id":744,"name":"Salixiola","steam_id":76561198042177809,"connected_time":1133000000000,"state":"active","ping":83},{"user_id":741,"name":"Error_404","steam_id":76561198163074047,"connected_time":1280000000000,"state":"active","ping":83},{"user_id":732,"name":"Dr.Barber","steam_id":76561198053164815,"connected_time":1872000000000,"state":"active","ping":52},{"user_id":733,"name":"Goldfire","steam_id":76561198061999410,"connected_time":1864000000000,"state":"active","ping":89},{"user_id":739,"name":"Uhonlapjontetzika","steam_id":76561199431280503,"connected_time":1520000000000,"state":"active","ping":62},{"user_id":743,"name":"Thirty Thirty","steam_id":76561197987242808,"connected_time":1159000000000,"state":"active","ping":87},{"user_id":755,"name":"cheetaz","steam_id":76561198224614084,"connected_time":128000000000,"state":"active","ping":58},{"user_id":713,"name":"rollback prices","steam_id":76561198000564263,"connected_time":3230000000000,"state":"active","ping":71},{"user_id":735,"name":"Cricket Girl!","steam_id":76561198838054669,"connected_time":1783000000000,"state":"active","ping":52},{"user_id":747,"name":"boo_thefeared","steam_id":76561198127967685,"connected_time":1087000000000,"state":"active","ping":131},{"user_id":714,"name":"Keroro","steam_id":76561198075106705,"connected_time":3229000000000,"state":"active","ping":57},{"user_id":727,"name":"username","steam_id":76561198130826890,"connected_time":2813000000000,"state":"active","ping":82},{"user_id":737,"name":"cereal with water","steam_id":76561198091332884,"connected_time":1756000000000,"state":"active","ping":57}]},{"server_id":15,"name":"Uncletopia | New York City | 3 | Stopwatch Beta","name_short":"nyc-3","host":"nyc-1.us.uncletopia.com","port":27035,"enabled":true,"region":"us-east","cc":"us","latitude":40.73061,"longitude":-73.93524,"reserved":0,"last_update":"0001-01-01T00:00:00Z","name_a2s":"Uncletopia | New York City | 3 | Stopwatch Beta","protocol":17,"map":"pl_swiftwater_final1","folder":"tf","game":"Team Fortress","app_id":440,"player_count":0,"max_players":24,"Bots":0,"server_type":"Dedicated","server_os":"Linux","password":true,"vac":true,"version":"7757534","steam_id":85568392924742820,"keywords":["nocrits","nodmgspread","payload","uncletopia"],"game_id":440,"stv_port":27036,"stv_name":"Uncletopia | New York City | 3 | Stopwatch Beta | STV","players":null},{"server_id":16,"name":"Uncletopia | New York City | 4 | Community","name_short":"nyc-4","host":"nyc-1.us.uncletopia.com","port":27045,"enabled":true,"region":"us-east","cc":"us","latitude":40.73061,"longitude":-73.93524,"reserved":0,"last_update":"0001-01-01T00:00:00Z","name_a2s":"Uncletopia | New York City | 4 | Community","protocol":17,"map":"workshop/cp_kalinka_rc6a.ugc1272700588","folder":"tf","game":"Team Fortress","app_id":440,"player_count":8,"max_players":24,"Bots":0,"server_type":"Dedicated","server_os":"Linux","password":true,"vac":true,"version":"7757534","steam_id":85568392924742821,"keywords":["cp","nocrits","nodmgspread","uncletopia"],"game_id":440,"stv_port":27046,"stv_name":"Uncletopia | New York City | 4 | Community | STV","players":[{"user_id":302,"name":"space is nice","steam_id":76561198080653023,"connected_time":221000000000,"state":"active","ping":71},{"user_id":304,"name":"MISSINGNO9","steam_id":76561198322494579,"connected_time":124000000000,"state":"active","ping":60},{"user_id":300,"name":"prdxninja","steam_id":76561198170081774,"connected_time":581000000000,"state":"active","ping":60},{"user_id":281,"name":"UnknownPlayerZz","steam_id":76561198237638842,"connected_time":1864000000000,"state":"active","ping":84},{"user_id":259,"name":"Evan","steam_id":76561198081165364,"connected_time":3144000000000,"state":"active","ping":46},{"user_id":273,"name":"Panda","steam_id":76561199060299647,"connected_time":2651000000000,"state":"active","ping":85},{"user_id":283,"name":"claysnake1","steam_id":76561198172724005,"connected_time":1599000000000,"state":"active","ping":81},{"user_id":268,"name":"Colo","steam_id":76561198049330744,"connected_time":2795000000000,"state":"active","ping":75}]},{"server_id":142,"name":"Uncletopia | S√£o Paulo | 1 | All Maps","name_short":"sao-1","host":"sao-1.br.uncletopia.com","port":27015,"enabled":true,"region":"sa","cc":"br","latitude":-23.533773,"longitude":-46.62529,"reserved":0,"last_update":"0001-01-01T00:00:00Z","name_a2s":"Uncletopia | S√£o Paulo | 1 | All Maps","protocol":17,"map":"koth_viaduct","folder":"tf","game":"Team Fortress","app_id":440,"player_count":0,"max_players":24,"Bots":0,"server_type":"Dedicated","server_os":"Linux","password":true,"vac":true,"version":"7757534","steam_id":85568392924469996,"keywords":["cp","nocrits","nodmgspread","uncletopia"],"game_id":440,"stv_port":27016,"stv_name":"Uncletopia | S√£o Paulo | 1 | All Maps | STV","players":null},{"server_id":143,"name":"Uncletopia | S√£o Paulo | 2 | All Maps","name_short":"sao-2","host":"sao-2.br.uncletopia.com","port":27015,"enabled":true,"region":"sa","cc":"br","latitude":-23.533773,"longitude":-46.62529,"reserved":0,"last_update":"0001-01-01T00:00:00Z","name_a2s":"Uncletopia | S√£o Paulo | 2 | All Maps","protocol":17,"map":"pl_snowycoast","folder":"tf","game":"Team Fortress","app_id":440,"player_count":0,"max_players":24,"Bots":0,"server_type":"Dedicated","server_os":"Linux","password":true,"vac":true,"version":"7757534","steam_id":85568392924485349,"keywords":["nocrits","nodmgspread","payload","uncletopia"],"game_id":440,"stv_port":27016,"stv_name":"Uncletopia | S√£o Paulo | 2 | All Maps | STV","players":null},{"server_id":7,"name":"Uncletopia | Seattle | 1 | All Maps","name_short":"sea-1","host":"sea-1.us.uncletopia.com","port":27015,"enabled":true,"region":"us-west","cc":"us","latitude":47.608013,"longitude":-122.33517,"reserved":0,"last_update":"0001-01-01T00:00:00Z","name_a2s":"Uncletopia | Seattle | 1 | All Maps","protocol":17,"map":"pl_barnblitz","folder":"tf","game":"Team Fortress","app_id":440,"player_count":24,"max_players":24,"Bots":0,"server_type":"Dedicated","server_os":"Linux","password":true,"vac":true,"version":"7757534","steam_id":85568392924469997,"keywords":["nocrits","nodmgspread","payload","uncletopia"],"game_id":440,"stv_port":27016,"stv_name":"Uncletopia | Seattle | 1 | All Maps | STV","players":[{"user_id":636,"name":"rat gets the cheese","steam_id":76561198031234032,"connected_time":4712000000000,"state":"active","ping":98},{"user_id":617,"name":"Saint Pablo","steam_id":76561198083300159,"connected_time":6599000000000,"state":"active","ping":72},{"user_id":688,"name":"jon pickle water","steam_id":76561199036212135,"connected_time":709000000000,"state":"active","ping":65},{"user_id":682,"name":"HDI","steam_id":76561199062715724,"connected_time":952000000000,"state":"active","ping":81},{"user_id":666,"name":"Bendidy","steam_id":76561198041964300,"connected_time":2545000000000,"state":"active","ping":72},{"user_id":648,"name":"Level 99 Mudcrab","steam_id":76561198077452771,"connected_time":4033000000000,"state":"active","ping":58},{"user_id":671,"name":"Haydob13","steam_id":76561198110378191,"connected_time":2513000000000,"state":"active","ping":52},{"user_id":659,"name":"T4NNEr","steam_id":76561198266327817,"connected_time":3426000000000,"state":"active","ping":46},{"user_id":681,"name":"Video Games 100","steam_id":76561198857237473,"connected_time":1220000000000,"state":"active","ping":48},{"user_id":687,"name":"5392vin","steam_id":76561198880493511,"connected_time":734000000000,"state":"active","ping":69},{"user_id":689,"name":"Divine Kitty","steam_id":76561198293490689,"connected_time":202000000000,"state":"active","ping":75},{"user_id":668,"name":"spenca","steam_id":76561198025371154,"connected_time":2530000000000,"state":"active","ping":69},{"user_id":663,"name":"Sunny","steam_id":76561198394453415,"connected_time":2864000000000,"state":"active","ping":55},{"user_id":680,"name":"Cheezbeargur","steam_id":76561198164702899,"connected_time":1684000000000,"state":"active","ping":67},{"user_id":686,"name":"‚ô•silly jester‚ô•","steam_id":76561198079609974,"connected_time":912000000000,"state":"active","ping":96},{"user_id":690,"name":"Soph The Dark Elf","steam_id":76561198294426385,"connected_time":142000000000,"state":"active","ping":115},{"user_id":667,"name":"Cpt. Dingle","steam_id":76561198025720199,"connected_time":2533000000000,"state":"active","ping":79},{"user_id":677,"name":"MisterManne","steam_id":76561198106598600,"connected_time":2245000000000,"state":"active","ping":58},{"user_id":678,"name":"mrs. business","steam_id":76561198025454291,"connected_time":2110000000000,"state":"active","ping":36},{"user_id":660,"name":"Kuma","steam_id":76561199100813140,"connected_time":3426000000000,"state":"active","ping":86},{"user_id":624,"name":"cybercat","steam_id":76561199120774107,"connected_time":5409000000000,"state":"active","ping":75},{"user_id":665,"name":"An old sandwich on the floor!","steam_id":76561198108791583,"connected_time":2818000000000,"state":"active","ping":59},{"user_id":684,"name":"Indefiable","steam_id":76561198219238953,"connected_time":948000000000,"state":"active","ping":46},{"user_id":670,"name":"TheRatMan","steam_id":76561198035094735,"connected_time":2529000000000,"state":"active","ping":62}]},{"server_id":119,"name":"Uncletopia | Seattle | 2 | All Maps","name_short":"sea-2","host":"sea-1.us.uncletopia.com","port":27025,"enabled":true,"region":"us-west","cc":"us","latitude":47.608013,"longitude":-122.33517,"reserved":0,"last_update":"0001-01-01T00:00:00Z","name_a2s":"Uncletopia | Seattle | 2 | All Maps","protocol":17,"map":"ctf_2fort","folder":"tf","game":"Team Fortress","app_id":440,"player_count":24,"max_players":24,"Bots":0,"server_type":"Dedicated","server_os":"Linux","password":true,"vac":true,"version":"7757534","steam_id":85568392924469998,"keywords":["ctf","nocrits","nodmgspread","uncletopia"],"game_id":440,"stv_port":27026,"stv_name":"Uncletopia | Seattle | 2 | All Maps | STV","players":[{"user_id":447,"name":"flishko","steam_id":76561198326489802,"connected_time":1614000000000,"state":"active","ping":50},{"user_id":441,"name":"goldhed","steam_id":76561198051751133,"connected_time":1819000000000,"state":"active","ping":56},{"user_id":423,"name":"STrong Bomber","steam_id":76561198805051139,"connected_time":4283000000000,"state":"active","ping":47},{"user_id":473,"name":"KingTinkerer","steam_id":76561198226856548,"connected_time":7000000000,"state":"spawning","ping":100},{"user_id":452,"name":"Space Cadet","steam_id":76561198858392741,"connected_time":1174000000000,"state":"active","ping":57},{"user_id":462,"name":"Fazool","steam_id":76561198111191216,"connected_time":958000000000,"state":"active","ping":56},{"user_id":453,"name":"dysesthesia","steam_id":76561198027159018,"connected_time":1171000000000,"state":"active","ping":142},{"user_id":454,"name":"ImChom","steam_id":76561198970425609,"connected_time":1168000000000,"state":"active","ping":66},{"user_id":430,"name":"Lime","steam_id":76561198080786408,"connected_time":2672000000000,"state":"active","ping":54},{"user_id":474,"name":"Mr.Bones","steam_id":76561198205170595,"connected_time":4000000000,"state":"spawning","ping":48},{"user_id":455,"name":"brk","steam_id":76561198079634017,"connected_time":1164000000000,"state":"active","ping":89},{"user_id":463,"name":"Anderswo","steam_id":76561198253224241,"connected_time":839000000000,"state":"active","ping":55},{"user_id":472,"name":"strong and healthy gamer","steam_id":76561198049489349,"connected_time":210000000000,"state":"active","ping":55},{"user_id":360,"name":"Stranger Danger","steam_id":76561198115242460,"connected_time":8913000000000,"state":"active","ping":49},{"user_id":466,"name":"OrangeSockNinja","steam_id":76561198325741958,"connected_time":569000000000,"state":"active","ping":57},{"user_id":417,"name":"autumnal.messenger","steam_id":76561199345816635,"connected_time":4616000000000,"state":"active","ping":53},{"user_id":434,"name":"Nani?","steam_id":76561198130982692,"connected_time":2591000000000,"state":"active","ping":100},{"user_id":471,"name":"HideOnTate","steam_id":76561198209880837,"connected_time":252000000000,"state":"active","ping":48},{"user_id":465,"name":"Professor Cuthbert Calculus","steam_id":76561198003257461,"connected_time":589000000000,"state":"active","ping":55},{"user_id":456,"name":"Nekrotic","steam_id":76561198309465586,"connected_time":1142000000000,"state":"active","ping":47},{"user_id":403,"name":"wheresgeorge","steam_id":76561198986281248,"connected_time":6022000000000,"state":"active","ping":133},{"user_id":461,"name":"hella sauce","steam_id":76561198099655713,"connected_time":969000000000,"state":"active","ping":39},{"user_id":468,"name":"Alset","steam_id":76561197993820174,"connected_time":435000000000,"state":"active","ping":112},{"user_id":413,"name":"Algibruh","steam_id":76561199221599415,"connected_time":4733000000000,"state":"active","ping":54}]},{"server_id":406,"name":"Uncletopia | Seattle | 3 | Stopwatch Beta","name_short":"sea-3","host":"sea-1.us.uncletopia.com","port":27035,"enabled":true,"region":"us-west","cc":"us","latitude":47.608013,"longitude":-122.33517,"reserved":0,"last_update":"0001-01-01T00:00:00Z","name_a2s":"Uncletopia | Seattle | 3 | Stopwatch Beta","protocol":17,"map":"pl_barnblitz","folder":"tf","game":"Team Fortress","app_id":440,"player_count":0,"max_players":24,"Bots":0,"server_type":"Dedicated","server_os":"Linux","password":true,"vac":true,"version":"7757534","steam_id":85568392924515217,"keywords":["nocrits","nodmgspread","payload","uncletopia"],"game_id":440,"stv_port":27036,"stv_name":"Uncletopia | Seattle | 3 | Stopwatch Beta | STV","players":null},{"server_id":17,"name":"Uncletopia | San Francisco | 1 | All Maps","name_short":"sfo-1","host":"sfo-1.us.uncletopia.com","port":27015,"enabled":true,"region":"us-west","cc":"us","latitude":37.77397,"longitude":-122.4313,"reserved":0,"last_update":"0001-01-01T00:00:00Z","name_a2s":"Uncletopia | San Francisco | 1 | All Maps","protocol":17,"map":"cp_altitude","folder":"tf","game":"Team Fortress","app_id":440,"player_count":19,"max_players":24,"Bots":0,"server_type":"Dedicated","server_os":"Linux","password":true,"vac":true,"version":"7757534","steam_id":85568392924469999,"keywords":["cp","nocrits","nodmgspread","uncletopia"],"game_id":440,"stv_port":27016,"stv_name":"Uncletopia | San Francisco | 1 | All Maps | STV","players":[{"user_id":628,"name":"American freedom bird","steam_id":76561198366142388,"connected_time":1632000000000,"state":"active","ping":71},{"user_id":645,"name":"Nezumi Otokonoko","steam_id":76561198050083859,"connected_time":903000000000,"state":"active","ping":49},{"user_id":629,"name":"AiroBirb","steam_id":76561198370692243,"connected_time":1610000000000,"state":"active","ping":53},{"user_id":627,"name":"l_teri","steam_id":76561198853507579,"connected_time":1690000000000,"state":"active","ping":73},{"user_id":642,"name":"BionicApe","steam_id":76561198154637711,"connected_time":1324000000000,"state":"active","ping":60},{"user_id":643,"name":"jon jinkleheimerschmidt","steam_id":76561198019435762,"connected_time":1293000000000,"state":"active","ping":45},{"user_id":635,"name":"Kewlbeyblader","steam_id":76561199102005597,"connected_time":1569000000000,"state":"active","ping":93},{"user_id":631,"name":"......","steam_id":76561198067612741,"connected_time":1594000000000,"state":"active","ping":59},{"user_id":644,"name":"PotatoIsUs","steam_id":76561198241109482,"connected_time":1288000000000,"state":"active","ping":96},{"user_id":617,"name":"The Sydney Sleeper Itself","steam_id":76561198180251763,"connected_time":2012000000000,"state":"active","ping":84},{"user_id":593,"name":"en.wikipedia.org/wiki/Nae_Nae","steam_id":76561198418288939,"connected_time":3390000000000,"state":"active","ping":54},{"user_id":514,"name":"Punkitt","steam_id":76561198051433443,"connected_time":8192000000000,"state":"active","ping":63},{"user_id":650,"name":"Pyrotek‚Å¥","steam_id":76561198072747672,"connected_time":75000000000,"state":"active","ping":45},{"user_id":622,"name":"Feel the bern","steam_id":76561198078824519,"connected_time":1881000000000,"state":"active","ping":72},{"user_id":648,"name":"Ban_nana","steam_id":76561199206827767,"connected_time":201000000000,"state":"connecting","ping":0},{"user_id":599,"name":"‰ªôÂ•≥Â§¥Â≠ê‰∫éË∞¶","steam_id":76561199031075505,"connected_time":3275000000000,"state":"active","ping":132},{"user_id":630,"name":"Frogzilla","steam_id":76561198077657538,"connected_time":1599000000000,"state":"active","ping":95},{"user_id":641,"name":"giura","steam_id":76561197986794525,"connected_time":1399000000000,"state":"active","ping":81},{"user_id":649,"name":"Livin' Like Larry","steam_id":76561198313360974,"connected_time":196000000000,"state":"active","ping":32}]},{"server_id":18,"name":"Uncletopia | San Francisco | 2 | All Maps","name_short":"sfo-2","host":"sfo-1.us.uncletopia.com","port":27025,"enabled":true,"region":"us-west","cc":"us","latitude":37.77397,"longitude":-122.4313,"reserved":0,"last_update":"0001-01-01T00:00:00Z","name_a2s":"Uncletopia | San Francisco | 2 | All Maps","protocol":17,"map":"cp_dustbowl","folder":"tf","game":"Team Fortress","app_id":440,"player_count":24,"max_players":24,"Bots":0,"server_type":"Dedicated","server_os":"Linux","password":true,"vac":true,"version":"7757534","steam_id":85568392924470000,"keywords":["cp","nocrits","nodmgspread","uncletopia"],"game_id":440,"stv_port":27026,"stv_name":"Uncletopia | San Francisco | 2 | All Maps | STV","players":[{"user_id":141,"name":"Surly Joe","steam_id":76561199150833796,"connected_time":1554000000000,"state":"active","ping":75},{"user_id":118,"name":"Hector Salamanca","steam_id":76561198093836635,"connected_time":2866000000000,"state":"active","ping":70},{"user_id":135,"name":"Saint!","steam_id":76561198150438871,"connected_time":1806000000000,"state":"active","ping":127},{"user_id":155,"name":"BingusBonkus","steam_id":76561198098157736,"connected_time":706000000000,"state":"active","ping":88},{"user_id":148,"name":"Mom","steam_id":76561198207936000,"connected_time":1309000000000,"state":"active","ping":39},{"user_id":107,"name":"Wallewii","steam_id":76561198312178063,"connected_time":3042000000000,"state":"active","ping":67},{"user_id":129,"name":"Oomitch","steam_id":76561198071702759,"connected_time":2323000000000,"state":"active","ping":70},{"user_id":103,"name":"EatSomeBEES","steam_id":76561198047334307,"connected_time":3207000000000,"state":"active","ping":71},{"user_id":128,"name":"gawr gura sexer","steam_id":76561198977480669,"connected_time":2435000000000,"state":"active","ping":81},{"user_id":60,"name":"GJDon","steam_id":76561199026755019,"connected_time":6113000000000,"state":"active","ping":103},{"user_id":152,"name":"Sirbeary","steam_id":76561198276948399,"connected_time":790000000000,"state":"active","ping":69},{"user_id":156,"name":"smelly boy james(he stinkin)","steam_id":76561197997006216,"connected_time":423000000000,"state":"active","ping":132},{"user_id":153,"name":"Maid 'n' China","steam_id":76561198423392976,"connected_time":788000000000,"state":"active","ping":53},{"user_id":109,"name":"Tritastic","steam_id":76561198186959662,"connected_time":3010000000000,"state":"active","ping":70},{"user_id":149,"name":"Vegasx702s","steam_id":76561198799772874,"connected_time":1153000000000,"state":"active","ping":77},{"user_id":112,"name":"Flubby","steam_id":76561198356273263,"connected_time":2987000000000,"state":"active","ping":64},{"user_id":113,"name":"Beary Adorable","steam_id":76561198023815802,"connected_time":2979000000000,"state":"active","ping":71},{"user_id":147,"name":"Discourse","steam_id":76561198984286678,"connected_time":1335000000000,"state":"active","ping":107},{"user_id":68,"name":"Luigiminer8","steam_id":76561198803438732,"connected_time":5913000000000,"state":"active","ping":53},{"user_id":139,"name":"37th POTUS James Dean","steam_id":76561198037795265,"connected_time":1681000000000,"state":"active","ping":82},{"user_id":154,"name":"lemont","steam_id":76561198271946602,"connected_time":753000000000,"state":"active","ping":58},{"user_id":157,"name":"SirBagettue","steam_id":76561199010270588,"connected_time":38000000000,"state":"active","ping":55},{"user_id":131,"name":"Gooper","steam_id":76561198324431783,"connected_time":2276000000000,"state":"active","ping":56},{"user_id":130,"name":"MasterGeek.MX","steam_id":76561198063355220,"connected_time":2308000000000,"state":"active","ping":130}]},{"server_id":19,"name":"Uncletopia | San Francisco | 3 | Stopwatch Beta","name_short":"sfo-3","host":"sfo-1.us.uncletopia.com","port":27035,"enabled":true,"region":"us-west","cc":"us","latitude":37.77397,"longitude":-122.4313,"reserved":0,"last_update":"0001-01-01T00:00:00Z","name_a2s":"Uncletopia | San Francisco | 3 | Stopwatch Beta","protocol":17,"map":"pl_borneo","folder":"tf","game":"Team Fortress","app_id":440,"player_count":0,"max_players":24,"Bots":0,"server_type":"Dedicated","server_os":"Linux","password":true,"vac":true,"version":"7757534","steam_id":85568392924742824,"keywords":["nocrits","nodmgspread","payload","uncletopia"],"game_id":440,"stv_port":27036,"stv_name":"Uncletopia | San Francisco | 3 | Stopwatch Beta | STV","players":null},{"server_id":20,"name":"Uncletopia | San Francisco | 4 | Community","name_short":"sfo-4","host":"sfo-1.us.uncletopia.com","port":27045,"enabled":true,"region":"us-west","cc":"us","latitude":37.77397,"longitude":-122.4313,"reserved":0,"last_update":"0001-01-01T00:00:00Z","name_a2s":"Uncletopia | San Francisco | 4 | Community","protocol":17,"map":"workshop/pl_shoreleave_rc1.ugc1238849347","folder":"tf","game":"Team Fortress","app_id":440,"player_count":0,"max_players":24,"Bots":0,"server_type":"Dedicated","server_os":"Linux","password":true,"vac":true,"version":"7757534","steam_id":85568392924742826,"keywords":["nocrits","nodmgspread","payload","uncletopia"],"game_id":440,"stv_port":27046,"stv_name":"Uncletopia | San Francisco | 4 | Community | STV","players":null},{"server_id":141,"name":"Uncletopia | Sydney | 1 | All Maps","name_short":"syd-1","host":"syd-1.au.uncletopia.com","port":27015,"enabled":true,"region":"au","cc":"au","latitude":-33.865143,"longitude":151.2099,"reserved":0,"last_update":"0001-01-01T00:00:00Z","name_a2s":"Uncletopia | Sydney | 1 | All Maps","protocol":17,"map":"ctf_turbine","folder":"tf","game":"Team Fortress","app_id":440,"player_count":17,"max_players":24,"Bots":0,"server_type":"Dedicated","server_os":"Linux","password":true,"vac":true,"version":"7757534","steam_id":85568392924470001,"keywords":["ctf","nocrits","nodmgspread","uncletopia"],"game_id":440,"stv_port":27016,"stv_name":"Uncletopia | Sydney | 1 | All Maps | STV","players":[{"user_id":168,"name":"AzureFox","steam_id":76561198108179408,"connected_time":3647000000000,"state":"active","ping":86},{"user_id":211,"name":"Michaelsoft Binbows","steam_id":76561198422847304,"connected_time":461000000000,"state":"active","ping":56},{"user_id":212,"name":"skidmark2000","steam_id":76561198446126519,"connected_time":422000000000,"state":"active","ping":39},{"user_id":213,"name":"Aden","steam_id":76561198028555097,"connected_time":343000000000,"state":"active","ping":70},{"user_id":214,"name":"Chevauch√©e","steam_id":76561198031293430,"connected_time":126000000000,"state":"active","ping":89},{"user_id":215,"name":"Livid","steam_id":76561198060024585,"connected_time":123000000000,"state":"active","ping":34},{"user_id":218,"name":"zebulon","steam_id":76561198063481761,"connected_time":97000000000,"state":"active","ping":39},{"user_id":169,"name":"TW_light2022","steam_id":76561199393566784,"connected_time":3623000000000,"state":"active","ping":67},{"user_id":209,"name":"JoeNoodle6","steam_id":76561198858642295,"connected_time":704000000000,"state":"active","ping":101},{"user_id":210,"name":"terrablade_master","steam_id":76561198997249192,"connected_time":663000000000,"state":"active","ping":79},{"user_id":183,"name":"Luscious_Lucifer","steam_id":76561198064993980,"connected_time":2798000000000,"state":"active","ping":113},{"user_id":205,"name":"gothic_princess99","steam_id":76561198044514230,"connected_time":1017000000000,"state":"active","ping":59},{"user_id":220,"name":"Lychee","steam_id":76561198072845816,"connected_time":52000000000,"state":"active","ping":51},{"user_id":186,"name":"Gort","steam_id":76561198967244552,"connected_time":2739000000000,"state":"active","ping":60},{"user_id":199,"name":"Acespider","steam_id":76561199129319202,"connected_time":1889000000000,"state":"active","ping":30},{"user_id":203,"name":"tennessee","steam_id":76561198863373076,"connected_time":1749000000000,"state":"active","ping":67},{"user_id":208,"name":"Mohammed Handjop","steam_id":76561198142023589,"connected_time":883000000000,"state":"active","ping":77}]},{"server_id":123,"name":"Uncletopia | Sydney | 2 | All Maps","name_short":"syd-2","host":"syd-1.au.uncletopia.com","port":27025,"enabled":true,"region":"au","cc":"au","latitude":-33.865143,"longitude":151.2099,"reserved":0,"last_update":"0001-01-01T00:00:00Z","name_a2s":"Uncletopia | Sydney | 2 | All Maps","protocol":17,"map":"koth_viaduct","folder":"tf","game":"Team Fortress","app_id":440,"player_count":19,"max_players":24,"Bots":0,"server_type":"Dedicated","server_os":"Linux","password":true,"vac":true,"version":"7757534","steam_id":85568392924470002,"keywords":["cp","nocrits","nodmgspread","uncletopia"],"game_id":440,"stv_port":27026,"stv_name":"Uncletopia | Sydney | 2 | All Maps | STV","players":[{"user_id":117,"name":"Banan enjoyer","steam_id":76561199099769110,"connected_time":1685000000000,"state":"active","ping":47},{"user_id":103,"name":"bleacj","steam_id":76561198854614195,"connected_time":2964000000000,"state":"active","ping":86},{"user_id":127,"name":"Dr Barry Mundy PhD","steam_id":76561198034512686,"connected_time":1133000000000,"state":"active","ping":48},{"user_id":126,"name":"Finios","steam_id":76561198209013071,"connected_time":1208000000000,"state":"active","ping":54},{"user_id":141,"name":"Jar","steam_id":76561198807887853,"connected_time":281000000000,"state":"active","ping":64},{"user_id":142,"name":"Stayfucking1.5metresaway","steam_id":76561198070569251,"connected_time":270000000000,"state":"active","ping":71},{"user_id":128,"name":"hive","steam_id":76561199099744527,"connected_time":1059000000000,"state":"active","ping":46},{"user_id":129,"name":"Sinister80s","steam_id":76561198343540472,"connected_time":1006000000000,"state":"active","ping":64},{"user_id":120,"name":"Oysenberry","steam_id":76561198125443335,"connected_time":1509000000000,"state":"active","ping":45},{"user_id":28,"name":"banan consumer","steam_id":76561199446773766,"connected_time":10512000000000,"state":"active","ping":89},{"user_id":67,"name":"Nutty Sandvich","steam_id":76561198089548531,"connected_time":5192000000000,"state":"active","ping":106},{"user_id":131,"name":"Lincoln2603","steam_id":76561198170236666,"connected_time":965000000000,"state":"active","ping":41},{"user_id":133,"name":"Xenophon","steam_id":76561198848445282,"connected_time":769000000000,"state":"active","ping":58},{"user_id":77,"name":"RignoSturr","steam_id":76561199147245314,"connected_time":4865000000000,"state":"active","ping":63},{"user_id":73,"name":"a loaf of bread","steam_id":76561198206424961,"connected_time":5016000000000,"state":"active","ping":60},{"user_id":134,"name":"Jetstream Sam","steam_id":76561199222027878,"connected_time":727000000000,"state":"active","ping":65},{"user_id":138,"name":"Vasxus","steam_id":76561198067733319,"connected_time":456000000000,"state":"active","ping":64},{"user_id":139,"name":"J959","steam_id":76561198855585931,"connected_time":413000000000,"state":"active","ping":49},{"user_id":140,"name":"Jy","steam_id":76561198104427524,"connected_time":370000000000,"state":"active","ping":54}]},{"server_id":395,"name":"Uncletopia | Sydney | 3 | All Maps","name_short":"syd-3","host":"syd-1.au.uncletopia.com","port":27035,"enabled":true,"region":"au","cc":"au","latitude":-33.865143,"longitude":151.2099,"reserved":0,"last_update":"0001-01-01T00:00:00Z","name_a2s":"Uncletopia | Sydney | 3 | All Maps","protocol":17,"map":"pl_frontier_final","folder":"tf","game":"Team Fortress","app_id":440,"player_count":0,"max_players":24,"Bots":0,"server_type":"Dedicated","server_os":"Linux","password":true,"vac":true,"version":"7757534","steam_id":85568392925194467,"keywords":["nocrits","nodmgspread","payload","uncletopia"],"game_id":440,"stv_port":27036,"stv_name":"Uncletopia | Sydney | 3 | All Maps | STV","players":null},{"server_id":396,"name":"Uncletopia | Sydney | 4 | All Maps","name_short":"syd-4","host":"syd-1.au.uncletopia.com","port":27045,"enabled":true,"region":"au","cc":"au","latitude":-33.865143,"longitude":151.2099,"reserved":0,"last_update":"0001-01-01T00:00:00Z","name_a2s":"Uncletopia | Sydney | 4 | All Maps","protocol":17,"map":"koth_lakeside_final","folder":"tf","game":"Team Fortress","app_id":440,"player_count":0,"max_players":24,"Bots":0,"server_type":"Dedicated","server_os":"Linux","password":true,"vac":true,"version":"7757534","steam_id":85568392925397958,"keywords":["cp","nocrits","nodmgspread","uncletopia"],"game_id":440,"stv_port":27046,"stv_name":"Uncletopia | Sydney | 4 | All Maps | STV","players":null},{"server_id":58,"name":"Uncletopia | Sydney | 5 | Stopwatch Beta","name_short":"syd-5","host":"syd-1.au.uncletopia.com","port":27055,"enabled":true,"region":"au","cc":"au","latitude":-33.865143,"longitude":151.2099,"reserved":0,"last_update":"0001-01-01T00:00:00Z","name_a2s":"Uncletopia | Sydney | 5 | Stopwatch Beta","protocol":17,"map":"koth_highpass","folder":"tf","game":"Team Fortress","app_id":440,"player_count":0,"max_players":24,"Bots":0,"server_type":"Dedicated","server_os":"Linux","password":true,"vac":true,"version":"7757534","steam_id":85568392925397959,"keywords":["cp","nocrits","nodmgspread","uncletopia"],"game_id":440,"stv_port":27056,"stv_name":"Uncletopia | Sydney | 5 | Stopwatch Beta | STV","players":null},{"server_id":59,"name":"Uncletopia | Sydney | 6 | Community","name_short":"syd-6","host":"syd-1.au.uncletopia.com","port":27065,"enabled":true,"region":"au","cc":"au","latitude":-33.865143,"longitude":151.2099,"reserved":0,"last_update":"0001-01-01T00:00:00Z","name_a2s":"Uncletopia | Sydney | 6 | Community","protocol":17,"map":"workshop/koth_synthetic_rc6a.ugc1549817316","folder":"tf","game":"Team Fortress","app_id":440,"player_count":0,"max_players":24,"Bots":0,"server_type":"Dedicated","server_os":"Linux","password":true,"vac":true,"version":"7757534","steam_id":85568392925397960,"keywords":["cp","nocrits","nodmgspread","uncletopia"],"game_id":440,"stv_port":27066,"stv_name":"Uncletopia | Sydney | 6 | Community | STV","players":null},{"server_id":49,"name":"Uncletopia | Warsaw | 1 | All Maps","name_short":"waw-1","host":"waw-1.pl.uncletopia.com","port":27015,"enabled":true,"region":"eu","cc":"pl","latitude":52.2297,"longitude":21.017532,"reserved":0,"last_update":"0001-01-01T00:00:00Z","name_a2s":"","protocol":0,"map":"","folder":"","game":"","app_id":0,"player_count":0,"max_players":0,"Bots":0,"server_type":"","server_os":"","password":false,"vac":false,"version":"","steam_id":0,"keywords":null,"game_id":0,"stv_port":0,"stv_name":"","players":null},{"server_id":50,"name":"Uncletopia | Warsaw | 2 | All Maps","name_short":"waw-2","host":"waw-1.pl.uncletopia.com","port":27025,"enabled":true,"region":"eu","cc":"pl","latitude":52.2297,"longitude":21.017532,"reserved":0,"last_update":"0001-01-01T00:00:00Z","name_a2s":"Uncletopia | Warsaw | 2 | All Maps","protocol":17,"map":"koth_highpass","folder":"tf","game":"Team Fortress","app_id":440,"player_count":0,"max_players":24,"Bots":0,"server_type":"Dedicated","server_os":"Linux","password":true,"vac":true,"version":"7757534","steam_id":85568392925397851,"keywords":["cp","nocrits","nodmgspread","uncletopia"],"game_id":440,"stv_port":27026,"stv_name":"Uncletopia | Warsaw | 2 | All Maps | STV","players":null},{"server_id":51,"name":"Uncletopia | Warsaw | 3 | All Maps","name_short":"waw-3","host":"waw-1.pl.uncletopia.com","port":27035,"enabled":true,"region":"eu","cc":"pl","latitude":52.2297,"longitude":21.017532,"reserved":0,"last_update":"0001-01-01T00:00:00Z","name_a2s":"Uncletopia | Warsaw | 3 | All Maps","protocol":17,"map":"pl_pier","folder":"tf","game":"Team Fortress","app_id":440,"player_count":0,"max_players":24,"Bots":0,"server_type":"Dedicated","server_os":"Linux","password":true,"vac":true,"version":"7757534","steam_id":85568392925397852,"keywords":["nocrits","nodmgspread","payload","uncletopia"],"game_id":440,"stv_port":27036,"stv_name":"Uncletopia | Warsaw | 3 | All Maps | STV","players":null},{"server_id":52,"name":"Uncletopia | Warsaw | 4 | All Maps","name_short":"waw-4","host":"waw-1.pl.uncletopia.com","port":27045,"enabled":true,"region":"eu","cc":"pl","latitude":52.2297,"longitude":21.017532,"reserved":0,"last_update":"0001-01-01T00:00:00Z","name_a2s":"Uncletopia | Warsaw | 4 | All Maps","protocol":17,"map":"koth_cascade","folder":"tf","game":"Team Fortress","app_id":440,"player_count":0,"max_players":24,"Bots":0,"server_type":"Dedicated","server_os":"Linux","password":true,"vac":true,"version":"7757534","steam_id":85568392925397853,"keywords":["cp","nocrits","nodmgspread","uncletopia"],"game_id":440,"stv_port":27046,"stv_name":"Uncletopia | Warsaw | 4 | All Maps | STV","players":null},{"server_id":53,"name":"Uncletopia | Warsaw | 5 | Stopwatch Beta","name_short":"waw-5","host":"waw-1.pl.uncletopia.com","port":27055,"enabled":true,"region":"eu","cc":"pl","latitude":52.2297,"longitude":21.017532,"reserved":0,"last_update":"0001-01-01T00:00:00Z","name_a2s":"Uncletopia | Warsaw | 5 | Stopwatch Beta","protocol":17,"map":"pl_barnblitz","folder":"tf","game":"Team Fortress","app_id":440,"player_count":0,"max_players":24,"Bots":0,"server_type":"Dedicated","server_os":"Linux","password":true,"vac":true,"version":"7757534","steam_id":85568392925397854,"keywords":["nocrits","nodmgspread","payload","uncletopia"],"game_id":440,"stv_port":27056,"stv_name":"Uncletopia | Warsaw | 5 | Stopwatch Beta | STV","players":null},{"server_id":54,"name":"Uncletopia | Warsaw | 6 | Community","name_short":"waw-6","host":"waw-1.pl.uncletopia.com","port":27065,"enabled":true,"region":"eu","cc":"pl","latitude":52.2297,"longitude":21.017532,"reserved":0,"last_update":"0001-01-01T00:00:00Z","name_a2s":"Uncletopia | Warsaw | 6 | Community","protocol":17,"map":"workshop/cp_overgrown_rc7b.ugc503939302","folder":"tf","game":"Team Fortress","app_id":440,"player_count":0,"max_players":24,"Bots":0,"server_type":"Dedicated","server_os":"Linux","password":true,"vac":true,"version":"7757534","steam_id":85568392925397856,"keywords":["cp","nocrits","nodmgspread","uncletopia"],"game_id":440,"stv_port":27066,"stv_name":"Uncletopia | Warsaw | 6 | Community | STV","players":null}]}