{"status":true,"message":"","result":[{"server_id":9,"name":"Uncletopia | Atlanta | 1 | All Maps","name_short":"atl-1","host":"atl-1.us.uncletopia.com","port":27015,"enabled":true,"region":"us-east","cc":"us","latitude":33.753746,"longitude":-84.38633,"reserved":0,"last_update":"0001-01-01T00:00:00Z","name_a2s":"Uncletopia | Atlanta | 1 | All Maps","protocol":17,"map":"pl_pier","folder":"tf","game":"Team Fortress","app_id":440,"player_count":24,"max_players":24,"Bots":0,"server_type":"Dedicated","server_os":"Linux","password":true,"vac":true,"version":"7723704","steam_id":85568392924469982,"keywords":["nocrits","nodmgspread","payload","uncletopia"],"game_id":440,"stv_port":27016,"stv_name":"Uncletopia | Atlanta | 1 | All Maps | STV","players":[{"user_id":58,"name":"Warlock","steam_id":76561198801747883,"connected_time":2931000000000,"state":"active","ping":85},{"user_id":100,"name":"Rodent","steam_id":76561198033801957,"connected_time":499000000000,"state":"active","ping":105},{"user_id":89,"name":"stink claus","steam_id":76561198099318923,"connected_time":1154000000000,"state":"active","ping":90},{"user_id":97,"name":"Jfrvl Gvl","steam_id":76561199013465852,"connected_time":515000000000,"state":"active","ping":62},{"user_id":94,"name":"ATL1 | Lancer Fan Club","steam_id":76561198355495948,"connected_time":583000000000,"state":"active","ping":79},{"user_id":70,"name":"Monke Gaming","steam_id":76561199122133427,"connected_time":1986000000000,"state":"active","ping":80},{"user_id":69,"name":"Dec the halls","steam_id":76561199045608372,"connected_time":2363000000000,"state":"active","ping":67},{"user_id":55,"name":"Warme Perle","steam_id":76561198020071321,"connected_time":3405000000000,"state":"active","ping":154},{"user_id":50,"name":"Ham Fatty","steam_id":76561198071454198,"connected_time":3657000000000,"state":"active","ping":76},{"user_id":109,"name":"ITSwillows_","steam_id":76561199239165015,"connected_time":218000000000,"state":"active","ping":121},{"user_id":99,"name":"Spoofle","steam_id":76561199003655066,"connected_time":504000000000,"state":"active","ping":104},{"user_id":108,"name":"SnowStorm","steam_id":76561198095817025,"connected_time":324000000000,"state":"active","ping":41},{"user_id":105,"name":"Inspection","steam_id":76561199081373305,"connected_time":452000000000,"state":"active","ping":79},{"user_id":73,"name":"LeFunnyMan","steam_id":76561199081645289,"connected_time":1922000000000,"state":"active","ping":63},{"user_id":110,"name":"Batman","steam_id":76561198202427509,"connected_time":207000000000,"state":"active","ping":73},{"user_id":92,"name":"spoonful","steam_id":76561198927517471,"connected_time":979000000000,"state":"active","ping":51},{"user_id":101,"name":"Obii‚õß","steam_id":76561199209580985,"connected_time":496000000000,"state":"active","ping":162},{"user_id":102,"name":"LAB8","steam_id":76561198047743526,"connected_time":469000000000,"state":"active","ping":105},{"user_id":103,"name":"Brison","steam_id":76561197993377761,"connected_time":463000000000,"state":"active","ping":101},{"user_id":111,"name":"Kanny","steam_id":76561198058810184,"connected_time":36000000000,"state":"active","ping":150},{"user_id":104,"name":"CSharp","steam_id":76561199185191710,"connected_time":458000000000,"state":"active","ping":158},{"user_id":106,"name":"Bakucon","steam_id":76561198153667638,"connected_time":447000000000,"state":"active","ping":78},{"user_id":107,"name":"Provocator","steam_id":76561197961830410,"connected_time":445000000000,"state":"active","ping":111},{"user_id":93,"name":"swan","steam_id":76561198012569200,"connected_time":968000000000,"state":"active","ping":74}]},{"server_id":400,"name":"Uncletopia | Atlanta | 3 | Stopwatch Beta","name_short":"atl-3","host":"atl-1.us.uncletopia.com","port":27035,"enabled":true,"region":"us-east","cc":"us","latitude":33.753746,"longitude":-84.38633,"reserved":0,"last_update":"0001-01-01T00:00:00Z","name_a2s":"Uncletopia | Atlanta | 3 | Stopwatch Beta","protocol":17,"map":"koth_cascade","folder":"tf","game":"Team Fortress","app_id":440,"player_count":0,"max_players":24,"Bots":0,"server_type":"Dedicated","server_os":"Linux","password":true,"vac":true,"version":"7723704","steam_id":85568392924515187,"keywords":["cp","nocrits","nodmgspread","uncletopia"],"game_id":440,"stv_port":27036,"stv_name":"Uncletopia | Atlanta | 3 | Stopwatch Beta | STV","players":null},{"server_id":401,"name":"Uncletopia | Atlanta | 4 | No Payload","name_short":"atl-4","host":"atl-1.us.uncletopia.com","port":27045,"enabled":true,"region":"us-east","cc":"us","latitude":33.753746,"longitude":-84.38633,"reserved":0,"last_update":"0001-01-01T00:00:00Z","name_a2s":"Uncletopia | Atlanta | 4 | No Payload","protocol":17,"map":"cp_coldfront","folder":"tf","game":"Team Fortress","app_id":440,"player_count":0,"max_players":24,"Bots":0,"server_type":"Dedicated","server_os":"Linux","password":true,"vac":true,"version":"7723704","steam_id":85568392924515188,"keywords":["cp","nocrits","nodmgspread","uncletopia"],"game_id":440,"stv_port":27046,"stv_name":"Uncletopia | Atlanta | 4 | No Payload | STV","players":null},{"server_id":2,"name":"Uncletopia | Chicago | 1 | All Maps","name_short":"chi-1","host":"chi-1.us.uncletopia.com","port":27015,"enabled":true,"region":"us-central","cc":"us","latitude":41.881832,"longitude":-87.62318,"reserved":0,"last_update":"0001-01-01T00:00:00Z","name_a2s":"Uncletopia | Chicago | 1 | All Maps","protocol":17,"map":"koth_lakeside_final","folder":"tf","game":"Team Fortress","app_id":440,"player_count":24,"max_players":24,"Bots":0,"server_type":"Dedicated","server_os":"Linux","password":true,"vac":true,"version":"7723704","steam_id":85568392924469984,"keywords":["cp","nocrits","nodmgspread","uncletopia"],"game_id":440,"stv_port":27016,"stv_name":"Uncletopia | Chicago | 1 | All Maps | STV","players":[{"user_id":216,"name":"TheBiggerIron","steam_id":76561198257043605,"connected_time":859000000000,"state":"active","ping":96},{"user_id":223,"name":"Jonas Destark","steam_id":76561198030327441,"connected_time":701000000000,"state":"active","ping":135},{"user_id":213,"name":"hoOmIN","steam_id":76561198334947079,"connected_time":1375000000000,"state":"active","ping":90},{"user_id":180,"name":"[TrC] Dackstrus","steam_id":76561197973518509,"connected_time":4094000000000,"state":"active","ping":105},{"user_id":222,"name":"snake9544","steam_id":76561198083076205,"connected_time":709000000000,"state":"active","ping":145},{"user_id":140,"name":"GREG","steam_id":76561198073021168,"connected_time":7954000000000,"state":"active","ping":67},{"user_id":207,"name":"donti","steam_id":76561197977223197,"connected_time":1762000000000,"state":"active","ping":46},{"user_id":203,"name":"kablong","steam_id":76561199094392047,"connected_time":1937000000000,"state":"active","ping":74},{"user_id":208,"name":"ragu","steam_id":76561198004882625,"connected_time":1719000000000,"state":"active","ping":93},{"user_id":171,"name":"ItzzDibly","steam_id":76561197970733021,"connected_time":4625000000000,"state":"active","ping":37},{"user_id":226,"name":"CassandraRC7 (She/her)","steam_id":76561198094123940,"connected_time":13000000000,"state":"active","ping":49},{"user_id":215,"name":"FunnyUsernameWow","steam_id":76561198324177635,"connected_time":936000000000,"state":"active","ping":72},{"user_id":219,"name":"BlueZombieBlood","steam_id":76561198123590661,"connected_time":831000000000,"state":"active","ping":98},{"user_id":225,"name":"your xmas forecast","steam_id":76561198042243083,"connected_time":235000000000,"state":"active","ping":57},{"user_id":214,"name":"murderous deer","steam_id":76561198350832152,"connected_time":1010000000000,"state":"active","ping":73},{"user_id":204,"name":"violet","steam_id":76561198248461754,"connected_time":1927000000000,"state":"active","ping":87},{"user_id":220,"name":"sentientpieceoftoast(they/them)","steam_id":76561199032992123,"connected_time":820000000000,"state":"active","ping":76},{"user_id":209,"name":"NotFionn","steam_id":76561198890525176,"connected_time":1668000000000,"state":"active","ping":152},{"user_id":212,"name":"dry AFK","steam_id":76561198008899411,"connected_time":1540000000000,"state":"active","ping":89},{"user_id":210,"name":"jon.cinnamon","steam_id":76561198127316418,"connected_time":1659000000000,"state":"active","ping":66},{"user_id":148,"name":"Lost (15)","steam_id":76561198093713427,"connected_time":6536000000000,"state":"active","ping":62},{"user_id":221,"name":"Stihl","steam_id":76561198025152405,"connected_time":752000000000,"state":"active","ping":51},{"user_id":211,"name":"Sully","steam_id":76561198310784589,"connected_time":1656000000000,"state":"active","ping":66},{"user_id":224,"name":"soosh","steam_id":76561198112709115,"connected_time":700000000000,"state":"active","ping":51}]},{"server_id":106,"name":"Uncletopia | Chicago | 2 | All Maps","name_short":"chi-2","host":"chi-1.us.uncletopia.com","port":27025,"enabled":true,"region":"us-central","cc":"us","latitude":41.881832,"longitude":-87.62318,"reserved":0,"last_update":"0001-01-01T00:00:00Z","name_a2s":"Uncletopia | Chicago | 2 | All Maps","protocol":17,"map":"pl_enclosure_final","folder":"tf","game":"Team Fortress","app_id":440,"player_count":24,"max_players":24,"Bots":0,"server_type":"Dedicated","server_os":"Linux","password":true,"vac":true,"version":"7723704","steam_id":85568392924469985,"keywords":["nocrits","nodmgspread","payload","uncletopia"],"game_id":440,"stv_port":27026,"stv_name":"Uncletopia | Chicago | 2 | All Maps | STV","players":[{"user_id":76,"name":"Myagic","steam_id":76561198123746755,"connected_time":2251000000000,"state":"active","ping":60},{"user_id":100,"name":"ghostedghost","steam_id":76561198111410905,"connected_time":725000000000,"state":"active","ping":79},{"user_id":89,"name":"trappyLilyungParrot13","steam_id":76561198188591994,"connected_time":1542000000000,"state":"active","ping":103},{"user_id":72,"name":"your discord kitten uwu","steam_id":76561198192330781,"connected_time":2650000000000,"state":"active","ping":70},{"user_id":77,"name":"WAP Wagon","steam_id":76561198306393090,"connected_time":2221000000000,"state":"active","ping":48},{"user_id":86,"name":"top1","steam_id":76561198288491241,"connected_time":1995000000000,"state":"active","ping":55},{"user_id":106,"name":"Ta–øgen","steam_id":76561198120329367,"connected_time":266000000000,"state":"active","ping":166},{"user_id":99,"name":"raccoon girl","steam_id":76561198337705174,"connected_time":770000000000,"state":"active","ping":71},{"user_id":101,"name":"carrion goat","steam_id":76561198262064871,"connected_time":654000000000,"state":"active","ping":64},{"user_id":80,"name":"shadow","steam_id":76561198161824724,"connected_time":2201000000000,"state":"active","ping":64},{"user_id":108,"name":"Getin Gud","steam_id":76561199061351526,"connected_time":182000000000,"state":"active","ping":196},{"user_id":22,"name":"earthtraveler413","steam_id":76561198865139926,"connected_time":6748000000000,"state":"active","ping":96},{"user_id":102,"name":"K) Mazin","steam_id":76561198003419146,"connected_time":645000000000,"state":"active","ping":72},{"user_id":74,"name":"Aspxts","steam_id":76561199125254746,"connected_time":2591000000000,"state":"active","ping":60},{"user_id":104,"name":"Cutcleaner","steam_id":76561199000925667,"connected_time":460000000000,"state":"active","ping":68},{"user_id":82,"name":"Walmart Employee","steam_id":76561198840373909,"connected_time":2179000000000,"state":"active","ping":86},{"user_id":92,"name":"A Sun","steam_id":76561198142545364,"connected_time":1187000000000,"state":"active","ping":64},{"user_id":103,"name":"Kevin Y.","steam_id":76561198364331423,"connected_time":502000000000,"state":"active","ping":92},{"user_id":98,"name":"Professional Glue Sniffer","steam_id":76561198970722195,"connected_time":858000000000,"state":"active","ping":94},{"user_id":96,"name":"Carthage","steam_id":76561198049001571,"connected_time":1101000000000,"state":"active","ping":101},{"user_id":97,"name":"wolf_71","steam_id":76561198963570945,"connected_time":955000000000,"state":"active","ping":74},{"user_id":40,"name":"‡πá","steam_id":76561198039763676,"connected_time":6159000000000,"state":"active","ping":69},{"user_id":90,"name":"KingTinkerer","steam_id":76561198226856548,"connected_time":1537000000000,"state":"active","ping":79},{"user_id":109,"name":"Jeviled","steam_id":76561198114246519,"connected_time":168000000000,"state":"active","ping":103}]},{"server_id":402,"name":"Uncletopia | Chicago | 3 | All Maps","name_short":"chi-3","host":"chi-1.us.uncletopia.com","port":27035,"enabled":true,"region":"us-central","cc":"us","latitude":41.881832,"longitude":-87.62318,"reserved":0,"last_update":"0001-01-01T00:00:00Z","name_a2s":"Uncletopia | Chicago | 3 | All Maps","protocol":17,"map":"cp_process_final","folder":"tf","game":"Team Fortress","app_id":440,"player_count":0,"max_players":24,"Bots":0,"server_type":"Dedicated","server_os":"Linux","password":true,"vac":true,"version":"7723704","steam_id":85568392924515191,"keywords":["cp","nocrits","nodmgspread","uncletopia"],"game_id":440,"stv_port":27036,"stv_name":"Uncletopia | Chicago | 3 | All Maps | STV","players":null},{"server_id":403,"name":"Uncletopia | Chicago | 4 | All Maps","name_short":"chi-4","host":"chi-1.us.uncletopia.com","port":27045,"enabled":true,"region":"us-central","cc":"us","latitude":41.881832,"longitude":-87.62318,"reserved":0,"last_update":"0001-01-01T00:00:00Z","name_a2s":"Uncletopia | Chicago | 4 | All Maps","protocol":17,"map":"pl_badwater","folder":"tf","game":"Team Fortress","app_id":440,"player_count":0,"max_players":24,"Bots":0,"server_type":"Dedicated","server_os":"Linux","password":true,"vac":true,"version":"7723704","steam_id":85568392924515193,"keywords":["nocrits","nodmgspread","payload","uncletopia"],"game_id":440,"stv_port":27046,"stv_name":"Uncletopia | Chicago | 4 | All Maps | STV","players":null},{"server_id":36,"name":"Uncletopia | Chicago | 5 | All Maps","name_short":"chi-5","host":"chi-2.us.uncletopia.com","port":27015,"enabled":true,"region":"us-central","cc":"us","latitude":41.881832,"longitude":-87.62318,"reserved":0,"last_update":"0001-01-01T00:00:00Z","name_a2s":"Uncletopia | Chicago | 5 | All Maps","protocol":17,"map":"cp_altitude","folder":"tf","game":"Team Fortress","app_id":440,"player_count":0,"max_players":24,"Bots":0,"server_type":"Dedicated","server_os":"Linux","password":true,"vac":true,"version":"7723704","steam_id":85568392924866362,"keywords":["cp","nocrits","nodmgspread","uncletopia"],"game_id":440,"stv_port":27016,"stv_name":"Uncletopia | Chicago | 5 | All Maps | STV","players":null},{"server_id":37,"name":"Uncletopia | Chicago | 6 | All Maps","name_short":"chi-6","host":"chi-2.us.uncletopia.com","port":27025,"enabled":true,"region":"us-central","cc":"us","latitude":41.881832,"longitude":-87.62318,"reserved":0,"last_update":"0001-01-01T00:00:00Z","name_a2s":"Uncletopia | Chicago | 6 | All Maps","protocol":17,"map":"pl_swiftwater_final1","folder":"tf","game":"Team Fortress","app_id":440,"player_count":0,"max_players":24,"Bots":0,"server_type":"Dedicated","server_os":"Linux","password":true,"vac":true,"version":"7723704","steam_id":85568392924866363,"keywords":["nocrits","nodmgspread","payload","uncletopia"],"game_id":440,"stv_port":27026,"stv_name":"Uncletopia | Chicago | 6 | All Maps | STV","players":null},{"server_id":38,"name":"Uncletopia | Chicago | 7 | Stopwatch Beta","name_short":"chi-7","host":"chi-2.us.uncletopia.com","port":27035,"enabled":true,"region":"us-central","cc":"us","latitude":41.881832,"longitude":-87.62318,"reserved":0,"last_update":"0001-01-01T00:00:00Z","name_a2s":"Uncletopia | Chicago | 7 | Stopwatch Beta","protocol":17,"map":"pl_upward","folder":"tf","game":"Team Fortress","app_id":440,"player_count":0,"max_players":24,"Bots":0,"server_type":"Dedicated","server_os":"Linux","password":true,"vac":true,"version":"7723704","steam_id":85568392924866364,"keywords":["nocrits","nodmgspread","payload","uncletopia"],"game_id":440,"stv_port":27036,"stv_name":"Uncletopia | Chicago | 7 | Stopwatch Beta | STV","players":null},{"server_id":39,"name":"Uncletopia | Chicago | 8 | Community","name_short":"chi-8","host":"chi-2.us.uncletopia.com","port":27045,"enabled":true,"region":"us-central","cc":"us","latitude":41.881832,"longitude":-87.62318,"reserved":0,"last_update":"0001-01-01T00:00:00Z","name_a2s":"Uncletopia | Chicago | 8 | Community","protocol":17,"map":"pl_frontier_final","folder":"tf","game":"Team Fortress","app_id":440,"player_count":0,"max_players":24,"Bots":0,"server_type":"Dedicated","server_os":"Linux","password":true,"vac":true,"version":"7723704","steam_id":85568392924866365,"keywords":["nocrits","nodmgspread","payload","uncletopia"],"game_id":440,"stv_port":27046,"stv_name":"Uncletopia | Chicago | 8 | Community | STV","players":null},{"server_id":8,"name":"Uncletopia | Dallas | 1 | All Maps","name_short":"dal-1","host":"dal-1.us.uncletopia.com","port":27015,"enabled":true,"region":"us-central","cc":"us","latitude":32.779167,"longitude":-96.80889,"reserved":0,"last_update":"0001-01-01T00:00:00Z","name_a2s":"Uncletopia | Dallas | 1 | All Maps","protocol":17,"map":"cp_dustbowl","folder":"tf","game":"Team Fortress","app_id":440,"player_count":24,"max_players":24,"Bots":0,"server_type":"Dedicated","server_os":"Linux","password":true,"vac":true,"version":"7723704","steam_id":85568392924469986,"keywords":["cp","nocrits","nodmgspread","uncletopia"],"game_id":440,"stv_port":27016,"stv_name":"Uncletopia | Dallas | 1 | All Maps | STV","players":[{"user_id":116,"name":"hellohello","steam_id":76561198094058177,"connected_time":2192000000000,"state":"active","ping":64},{"user_id":120,"name":"ozymandias","steam_id":76561198983415087,"connected_time":2146000000000,"state":"active","ping":61},{"user_id":118,"name":"stefaniso","steam_id":76561198254876588,"connected_time":2172000000000,"state":"active","ping":90},{"user_id":139,"name":"zinnk","steam_id":76561198092081825,"connected_time":1388000000000,"state":"active","ping":88},{"user_id":129,"name":"clinically insane engineer","steam_id":76561199213763625,"connected_time":1824000000000,"state":"active","ping":86},{"user_id":138,"name":"Satori Komeiji","steam_id":76561198158211423,"connected_time":1469000000000,"state":"active","ping":65},{"user_id":84,"name":"coolkid ARG#1!!","steam_id":76561198072600034,"connected_time":3838000000000,"state":"active","ping":110},{"user_id":146,"name":"spacetoven","steam_id":76561198115821131,"connected_time":875000000000,"state":"active","ping":89},{"user_id":125,"name":"Coach YB","steam_id":76561198838239573,"connected_time":2016000000000,"state":"active","ping":44},{"user_id":95,"name":"Raincool","steam_id":76561198042953645,"connected_time":3164000000000,"state":"active","ping":95},{"user_id":133,"name":"dan","steam_id":76561198061589465,"connected_time":1686000000000,"state":"active","ping":88},{"user_id":141,"name":"Hobocop","steam_id":76561198076321907,"connected_time":1330000000000,"state":"active","ping":101},{"user_id":130,"name":"Percy","steam_id":76561198875195004,"connected_time":1779000000000,"state":"active","ping":109},{"user_id":113,"name":"Doom","steam_id":76561199093691968,"connected_time":2282000000000,"state":"active","ping":89},{"user_id":131,"name":"Tommy Pickles (Very Cool)","steam_id":76561198391261463,"connected_time":1740000000000,"state":"active","ping":88},{"user_id":102,"name":"Zero","steam_id":76561199383267408,"connected_time":2848000000000,"state":"active","ping":49},{"user_id":106,"name":"Foxyz","steam_id":76561198040642992,"connected_time":2785000000000,"state":"active","ping":169},{"user_id":132,"name":"Jonatello","steam_id":76561198045699189,"connected_time":1739000000000,"state":"active","ping":99},{"user_id":134,"name":"dazelumm","steam_id":76561198113119565,"connected_time":1643000000000,"state":"active","ping":74},{"user_id":149,"name":"Hawkhatter #SaveTF2","steam_id":76561198320746290,"connected_time":435000000000,"state":"active","ping":60},{"user_id":105,"name":"The creator(made twitter)","steam_id":76561198870900265,"connected_time":2810000000000,"state":"active","ping":71},{"user_id":147,"name":"Eightyy  Fourr","steam_id":76561197960374225,"connected_time":761000000000,"state":"active","ping":56},{"user_id":148,"name":"Remilia Scarlet","steam_id":76561198209612007,"connected_time":578000000000,"state":"active","ping":92},{"user_id":115,"name":"I LOVE DEMOKNIGHT!!!!!!!!","steam_id":76561199100938373,"connected_time":2232000000000,"state":"active","ping":88}]},{"server_id":108,"name":"Uncletopia | Dallas | 2 | All Maps","name_short":"dal-2","host":"dal-1.us.uncletopia.com","port":27025,"enabled":true,"region":"us-central","cc":"us","latitude":32.779167,"longitude":-96.80889,"reserved":0,"last_update":"0001-01-01T00:00:00Z","name_a2s":"Uncletopia | Dallas | 2 | All Maps","protocol":17,"map":"pl_borneo","folder":"tf","game":"Team Fortress","app_id":440,"player_count":0,"max_players":24,"Bots":0,"server_type":"Dedicated","server_os":"Linux","password":true,"vac":true,"version":"7723704","steam_id":85568392924469988,"keywords":["nocrits","nodmgspread","payload","uncletopia"],"game_id":440,"stv_port":27026,"stv_name":"Uncletopia | Dallas | 2 | All Maps | STV","players":null},{"server_id":5,"name":"Uncletopia | Frankfurt | 1 | All Maps","name_short":"frk-1","host":"frk-1.de.uncletopia.com","port":27015,"enabled":true,"region":"eu","cc":"de","latitude":50.110924,"longitude":8.682127,"reserved":0,"last_update":"0001-01-01T00:00:00Z","name_a2s":"Uncletopia | Frankfurt | 1 | All Maps","protocol":17,"map":"pl_coal_event","folder":"tf","game":"Team Fortress","app_id":440,"player_count":24,"max_players":24,"Bots":0,"server_type":"Dedicated","server_os":"Linux","password":true,"vac":true,"version":"7723704","steam_id":85568392924469989,"keywords":["nocrits","nodmgspread","payload","uncletopia"],"game_id":440,"stv_port":27016,"stv_name":"Uncletopia | Frankfurt | 1 | All Maps | STV","players":[{"user_id":228,"name":"[Insert Oneshot refrence]","steam_id":76561198951206047,"connected_time":6452000000000,"state":"active","ping":91},{"user_id":277,"name":"am gon kill","steam_id":76561198842238362,"connected_time":4609000000000,"state":"active","ping":83},{"user_id":275,"name":"Ragnor","steam_id":76561198269543979,"connected_time":4699000000000,"state":"active","ping":64},{"user_id":310,"name":"The_Masterminder","steam_id":76561199046044993,"connected_time":2651000000000,"state":"active","ping":59},{"user_id":284,"name":"Rodia","steam_id":76561197968293161,"connected_time":4093000000000,"state":"active","ping":65},{"user_id":312,"name":"Dark_Prelate","steam_id":76561199065671442,"connected_time":2611000000000,"state":"active","ping":60},{"user_id":305,"name":"Lukullu","steam_id":76561198269414258,"connected_time":3117000000000,"state":"active","ping":66},{"user_id":237,"name":"SaiyaBoy","steam_id":76561197995674205,"connected_time":6004000000000,"state":"active","ping":74},{"user_id":259,"name":"Marty‚Ñ¢","steam_id":76561198060073673,"connected_time":5467000000000,"state":"active","ping":65},{"user_id":336,"name":"night.s","steam_id":76561198326287823,"connected_time":360000000000,"state":"active","ping":80},{"user_id":323,"name":"alexander","steam_id":76561198257069012,"connected_time":1773000000000,"state":"active","ping":74},{"user_id":311,"name":"Duarte‚Ñ¢","steam_id":76561198131456324,"connected_time":2633000000000,"state":"active","ping":88},{"user_id":334,"name":"Gebagemid","steam_id":76561198003684717,"connected_time":493000000000,"state":"active","ping":64},{"user_id":328,"name":"Turbo Unge","steam_id":76561199067700855,"connected_time":1227000000000,"state":"active","ping":79},{"user_id":327,"name":"Memphis (Level 1 Autism (Real))","steam_id":76561198045039038,"connected_time":1543000000000,"state":"active","ping":78},{"user_id":331,"name":"Robi2010 HUN #savetf2","steam_id":76561198159915014,"connected_time":811000000000,"state":"active","ping":70},{"user_id":320,"name":"KeNNy L.O.L","steam_id":76561198041918418,"connected_time":1822000000000,"state":"active","ping":103},{"user_id":339,"name":"Sylbar","steam_id":76561198065379590,"connected_time":206000000000,"state":"active","ping":69},{"user_id":330,"name":"i heal gay people","steam_id":76561198032167311,"connected_time":1005000000000,"state":"active","ping":170},{"user_id":338,"name":"manKe","steam_id":76561198008564860,"connected_time":328000000000,"state":"active","ping":58},{"user_id":333,"name":"SantiThePug #ReviveTheCaber","steam_id":76561199049615996,"connected_time":610000000000,"state":"active","ping":69},{"user_id":303,"name":"r06u3","steam_id":76561198254099253,"connected_time":3253000000000,"state":"active","ping":194},{"user_id":337,"name":"CoolFnafDude","steam_id":76561199105479508,"connected_time":352000000000,"state":"active","ping":178},{"user_id":335,"name":"zadrot_227","steam_id":76561198416644815,"connected_time":480000000000,"state":"active","ping":113}]},{"server_id":110,"name":"Uncletopia | Frankfurt | 2 | All Maps","name_short":"frk-2","host":"frk-1.de.uncletopia.com","port":27025,"enabled":true,"region":"eu","cc":"de","latitude":50.110924,"longitude":8.682127,"reserved":0,"last_update":"0001-01-01T00:00:00Z","name_a2s":"Uncletopia | Frankfurt | 2 | All Maps","protocol":17,"map":"pl_swiftwater_final1","folder":"tf","game":"Team Fortress","app_id":440,"player_count":25,"max_players":24,"Bots":0,"server_type":"Dedicated","server_os":"Linux","password":true,"vac":true,"version":"7723704","steam_id":85568392924469990,"keywords":["nocrits","nodmgspread","payload","uncletopia"],"game_id":440,"stv_port":27026,"stv_name":"Uncletopia | Frankfurt | 2 | All Maps | STV","players":[{"user_id":409,"name":"[P-roc] Cmm Bert","steam_id":76561198016658674,"connected_time":1237000000000,"state":"active","ping":55},{"user_id":400,"name":"Rubi","steam_id":76561198139410003,"connected_time":1419000000000,"state":"active","ping":79},{"user_id":347,"name":"advanced polish lifeform","steam_id":76561198062107879,"connected_time":5677000000000,"state":"active","ping":155},{"user_id":401,"name":"SilverSV","steam_id":76561198164579830,"connected_time":1419000000000,"state":"active","ping":59},{"user_id":411,"name":"Its_Host_","steam_id":76561198209504349,"connected_time":1128000000000,"state":"active","ping":96},{"user_id":402,"name":"DVous","steam_id":76561198121737111,"connected_time":1416000000000,"state":"active","ping":38},{"user_id":419,"name":"Nickel (28) [F2P]","steam_id":76561199082683456,"connected_time":890000000000,"state":"active","ping":106},{"user_id":442,"name":"Biggie Bennet W Swagga Jam","steam_id":76561198087638023,"connected_time":12000000000,"state":"spawning","ping":77},{"user_id":423,"name":"GIVE ME YOUR ELO !","steam_id":76561198276210041,"connected_time":823000000000,"state":"active","ping":168},{"user_id":358,"name":"Sloppy polish handyman","steam_id":76561198126398022,"connected_time":5036000000000,"state":"active","ping":76},{"user_id":424,"name":"Samus_","steam_id":76561199010647409,"connected_time":756000000000,"state":"active","ping":75},{"user_id":405,"name":"FWDTRKR","steam_id":76561198060369427,"connected_time":1365000000000,"state":"active","ping":706},{"user_id":381,"name":"garbage mikuknight","steam_id":76561198361819054,"connected_time":3152000000000,"state":"active","ping":90},{"user_id":362,"name":"low-income polish city","steam_id":76561199433578516,"connected_time":4400000000000,"state":"active","ping":154},{"user_id":367,"name":"Videogamer","steam_id":76561198106012909,"connected_time":4264000000000,"state":"active","ping":61},{"user_id":418,"name":"def","steam_id":76561198857396812,"connected_time":970000000000,"state":"active","ping":49},{"user_id":428,"name":"PlebCord","steam_id":76561198120685803,"connected_time":607000000000,"state":"active","ping":82},{"user_id":421,"name":"üÉî Nugg1t(sme/lly)","steam_id":76561198065652251,"connected_time":874000000000,"state":"active","ping":45},{"user_id":397,"name":"Purplenoogie","steam_id":76561198081872160,"connected_time":1860000000000,"state":"active","ping":54},{"user_id":413,"name":"Luke SpyWalker","steam_id":76561198008643276,"connected_time":1085000000000,"state":"active","ping":61},{"user_id":414,"name":"Joe's Nuts","steam_id":76561198257383813,"connected_time":1067000000000,"state":"active","ping":56},{"user_id":380,"name":"Senator Armstrong","steam_id":76561198984346408,"connected_time":3209000000000,"state":"active","ping":74},{"user_id":416,"name":"rmz.ssj","steam_id":76561198329613930,"connected_time":1053000000000,"state":"active","ping":61},{"user_id":436,"name":"‚Üì im with stupid ‚Üë","steam_id":76561198031573426,"connected_time":337000000000,"state":"active","ping":64},{"user_id":422,"name":"Gryoss","steam_id":76561197999837111,"connected_time":869000000000,"state":"active","ping":106}]},{"server_id":308,"name":"Uncletopia | Frankfurt | 3 | All Maps","name_short":"frk-3","host":"frk-1.de.uncletopia.com","port":27035,"enabled":true,"region":"eu","cc":"de","latitude":50.110924,"longitude":8.682127,"reserved":0,"last_update":"0001-01-01T00:00:00Z","name_a2s":"Uncletopia | Frankfurt | 3 | All Maps","protocol":17,"map":"pl_barnblitz","folder":"tf","game":"Team Fortress","app_id":440,"player_count":20,"max_players":24,"Bots":0,"server_type":"Dedicated","server_os":"Linux","password":true,"vac":true,"version":"7723704","steam_id":85568392924504274,"keywords":["nocrits","nodmgspread","payload","uncletopia"],"game_id":440,"stv_port":27036,"stv_name":"Uncletopia | Frankfurt | 3 | All Maps | STV","players":[{"user_id":458,"name":"2D","steam_id":76561199113659141,"connected_time":35000000000,"state":"active","ping":188},{"user_id":432,"name":"Shynii","steam_id":76561198194682105,"connected_time":2301000000000,"state":"active","ping":73},{"user_id":453,"name":"Gencay","steam_id":76561198973232202,"connected_time":179000000000,"state":"active","ping":190},{"user_id":397,"name":"Light601","steam_id":76561198134998492,"connected_time":3998000000000,"state":"active","ping":85},{"user_id":324,"name":"Fales","steam_id":76561198126124929,"connected_time":9092000000000,"state":"active","ping":65},{"user_id":454,"name":"DirtyFred","steam_id":76561198031814950,"connected_time":161000000000,"state":"active","ping":79},{"user_id":455,"name":"E","steam_id":76561198166340115,"connected_time":111000000000,"state":"active","ping":65},{"user_id":456,"name":"VBNM","steam_id":76561198316509516,"connected_time":92000000000,"state":"active","ping":64},{"user_id":386,"name":"Pecka","steam_id":76561199121981645,"connected_time":5025000000000,"state":"active","ping":102},{"user_id":434,"name":"≈Ωgr√¶√êek113","steam_id":76561198306883632,"connected_time":2155000000000,"state":"active","ping":63},{"user_id":436,"name":"1_M_W","steam_id":76561199091749430,"connected_time":2141000000000,"state":"active","ping":89},{"user_id":447,"name":"Kokos","steam_id":76561198085501501,"connected_time":737000000000,"state":"active","ping":85},{"user_id":457,"name":"WolfmanCZ","steam_id":76561199157141414,"connected_time":61000000000,"state":"active","ping":69},{"user_id":381,"name":"bigwish | bmod.tf","steam_id":76561197997859723,"connected_time":5256000000000,"state":"active","ping":71},{"user_id":412,"name":"hal","steam_id":76561198169859157,"connected_time":3076000000000,"state":"active","ping":52},{"user_id":459,"name":"NatBait","steam_id":76561199245006721,"connected_time":9000000000,"state":"active","ping":95},{"user_id":421,"name":"W","steam_id":76561198273623211,"connected_time":2834000000000,"state":"active","ping":87},{"user_id":448,"name":"Natpad","steam_id":76561198842124497,"connected_time":723000000000,"state":"active","ping":50},{"user_id":446,"name":"maxos","steam_id":76561198396358808,"connected_time":1011000000000,"state":"active","ping":60},{"user_id":444,"name":"W√ºstenfuchs","steam_id":76561198453885708,"connected_time":1305000000000,"state":"active","ping":56}]},{"server_id":309,"name":"Uncletopia | Frankfurt | 4 | All Maps","name_short":"frk-4","host":"frk-1.de.uncletopia.com","port":27045,"enabled":true,"region":"eu","cc":"de","latitude":50.110924,"longitude":8.682127,"reserved":0,"last_update":"0001-01-01T00:00:00Z","name_a2s":"Uncletopia | Frankfurt | 4 | All Maps","protocol":17,"map":"pl_swiftwater_final1","folder":"tf","game":"Team Fortress","app_id":440,"player_count":24,"max_players":24,"Bots":0,"server_type":"Dedicated","server_os":"Linux","password":true,"vac":true,"version":"7723704","steam_id":85568392924504275,"keywords":["nocrits","nodmgspread","payload","uncletopia"],"game_id":440,"stv_port":27046,"stv_name":"Uncletopia | Frankfurt | 4 | All Maps | STV","players":[{"user_id":193,"name":"YourDoom","steam_id":76561198080790857,"connected_time":290000000000,"state":"active","ping":45},{"user_id":183,"name":"RogueComrade","steam_id":76561198152525193,"connected_time":1195000000000,"state":"active","ping":97},{"user_id":151,"name":"Pabs :D","steam_id":76561198000016962,"connected_time":5480000000000,"state":"active","ping":60},{"user_id":94,"name":"Emotional Reassurance Pyro","steam_id":76561198213498127,"connected_time":9032000000000,"state":"active","ping":87},{"user_id":192,"name":"Fran","steam_id":76561199070516960,"connected_time":339000000000,"state":"active","ping":64},{"user_id":194,"name":"PABOOLo.gonzalez31@hotmail.com","steam_id":76561198123475157,"connected_time":265000000000,"state":"active","ping":71},{"user_id":156,"name":"hushhx","steam_id":76561198216200092,"connected_time":5071000000000,"state":"active","ping":62},{"user_id":200,"name":"Vuniverse","steam_id":76561198061864217,"connected_time":188000000000,"state":"active","ping":71},{"user_id":185,"name":"Miiukade","steam_id":76561198089157860,"connected_time":1180000000000,"state":"active","ping":146},{"user_id":175,"name":"Optimist 50","steam_id":76561198039631442,"connected_time":2694000000000,"state":"active","ping":76},{"user_id":202,"name":"Realist 40","steam_id":76561198052476979,"connected_time":152000000000,"state":"active","ping":76},{"user_id":96,"name":"BlueOysterCultFan1954","steam_id":76561198086214574,"connected_time":9024000000000,"state":"active","ping":56},{"user_id":196,"name":"simon","steam_id":76561198880361394,"connected_time":232000000000,"state":"active","ping":50},{"user_id":178,"name":"Nostradamus","steam_id":76561198349792686,"connected_time":2456000000000,"state":"active","ping":53},{"user_id":133,"name":"Raxor","steam_id":76561198239927434,"connected_time":6701000000000,"state":"active","ping":89},{"user_id":197,"name":"Sabesaroo","steam_id":76561198098751074,"connected_time":225000000000,"state":"active","ping":62},{"user_id":187,"name":"ToniGAM3S","steam_id":76561198128605351,"connected_time":1133000000000,"state":"active","ping":59},{"user_id":174,"name":"‚ñ∫hAppser‚óÑ","steam_id":76561198255221005,"connected_time":3105000000000,"state":"active","ping":80},{"user_id":189,"name":"Scary Perry","steam_id":76561198237464516,"connected_time":924000000000,"state":"active","ping":50},{"user_id":198,"name":"nyanezt","steam_id":76561198253734265,"connected_time":210000000000,"state":"active","ping":80},{"user_id":188,"name":"Samus","steam_id":76561198045943019,"connected_time":1102000000000,"state":"active","ping":45},{"user_id":199,"name":"Tmpod","steam_id":76561198069210431,"connected_time":193000000000,"state":"active","ping":73},{"user_id":190,"name":"kbbq","steam_id":76561198346638308,"connected_time":919000000000,"state":"active","ping":66},{"user_id":201,"name":"PWizard","steam_id":76561198026458489,"connected_time":165000000000,"state":"active","ping":77}]},{"server_id":310,"name":"Uncletopia | Frankfurt | 5 | All Maps","name_short":"frk-5","host":"frk-1.de.uncletopia.com","port":27055,"enabled":true,"region":"eu","cc":"de","latitude":50.110924,"longitude":8.682127,"reserved":0,"last_update":"0001-01-01T00:00:00Z","name_a2s":"Uncletopia | Frankfurt | 5 | All Maps","protocol":17,"map":"pl_snowycoast","folder":"tf","game":"Team Fortress","app_id":440,"player_count":0,"max_players":24,"Bots":0,"server_type":"Dedicated","server_os":"Linux","password":true,"vac":true,"version":"7723704","steam_id":85568392924504277,"keywords":["nocrits","nodmgspread","payload","uncletopia"],"game_id":440,"stv_port":27056,"stv_name":"Uncletopia | Frankfurt | 5 | All Maps | STV","players":null},{"server_id":311,"name":"Uncletopia | Frankfurt | 6 | All Maps","name_short":"frk-6","host":"frk-1.de.uncletopia.com","port":27065,"enabled":true,"region":"eu","cc":"de","latitude":50.110924,"longitude":8.682127,"reserved":0,"last_update":"0001-01-01T00:00:00Z","name_a2s":"Uncletopia | Frankfurt | 6 | All Maps","protocol":17,"map":"pl_snowycoast","folder":"tf","game":"Team Fortress","app_id":440,"player_count":23,"max_players":24,"Bots":0,"server_type":"Dedicated","server_os":"Linux","password":true,"vac":true,"version":"7723704","steam_id":85568392924504278,"keywords":["nocrits","nodmgspread","payload","uncletopia"],"game_id":440,"stv_port":27066,"stv_name":"Uncletopia | Frankfurt | 6 | All Maps | STV","players":[{"user_id":221,"name":"a fruitful and unwind","steam_id":76561198978029443,"connected_time":339000000000,"state":"active","ping":92},{"user_id":225,"name":"FeminineAtom","steam_id":76561198311208470,"connected_time":171000000000,"state":"active","ping":46},{"user_id":200,"name":"sa-d-nes","steam_id":76561198230182724,"connected_time":1653000000000,"state":"active","ping":69},{"user_id":231,"name":"burritoeater","steam_id":76561199124197813,"connected_time":51000000000,"state":"active","ping":72},{"user_id":211,"name":"agros leite","steam_id":76561198839313737,"connected_time":950000000000,"state":"active","ping":81},{"user_id":226,"name":"Jamie Hyneman","steam_id":76561198364121077,"connected_time":168000000000,"state":"active","ping":107},{"user_id":213,"name":"Mankor","steam_id":76561198020439322,"connected_time":437000000000,"state":"active","ping":47},{"user_id":232,"name":"Mclovin567","steam_id":76561198799105302,"connected_time":27000000000,"state":"spawning","ping":81},{"user_id":227,"name":"That'll be 9,99‚Ç¨","steam_id":76561198170081058,"connected_time":153000000000,"state":"active","ping":53},{"user_id":174,"name":"NaN","steam_id":76561198071098413,"connected_time":3711000000000,"state":"active","ping":47},{"user_id":228,"name":"guarda-chuva","steam_id":76561198078694330,"connected_time":143000000000,"state":"active","ping":62},{"user_id":194,"name":"SvbK","steam_id":76561198201478866,"connected_time":2364000000000,"state":"active","ping":83},{"user_id":216,"name":"Ultimo","steam_id":76561198061802565,"connected_time":415000000000,"state":"active","ping":134},{"user_id":214,"name":"LasagnaLarry22","steam_id":76561198089478290,"connected_time":437000000000,"state":"active","ping":57},{"user_id":209,"name":"Mr.Fix","steam_id":76561199017362445,"connected_time":1326000000000,"state":"active","ping":101},{"user_id":179,"name":"player","steam_id":76561198054474684,"connected_time":3467000000000,"state":"active","ping":75},{"user_id":217,"name":"Bajas","steam_id":76561198179339326,"connected_time":412000000000,"state":"active","ping":83},{"user_id":181,"name":"drew","steam_id":76561198012304706,"connected_time":3426000000000,"state":"active","ping":90},{"user_id":230,"name":"December 2034","steam_id":76561198011749653,"connected_time":83000000000,"state":"active","ping":62},{"user_id":142,"name":"Steebox","steam_id":76561198035110097,"connected_time":5749000000000,"state":"active","ping":66},{"user_id":233,"name":"Lag","steam_id":76561198159360376,"connected_time":27000000000,"state":"active","ping":60},{"user_id":210,"name":"Kodutah","steam_id":76561198203405574,"connected_time":1269000000000,"state":"active","ping":60},{"user_id":234,"name":"los pubbas?","steam_id":76561198129828715,"connected_time":18000000000,"state":"active","ping":75}]},{"server_id":23,"name":"Uncletopia | Frankfurt | 7 | Stopwatch Beta","name_short":"frk-7","host":"frk-1.de.uncletopia.com","port":27075,"enabled":true,"region":"eu","cc":"de","latitude":50.110924,"longitude":8.682127,"reserved":0,"last_update":"0001-01-01T00:00:00Z","name_a2s":"Uncletopia | Frankfurt | 7 | Stopwatch Beta","protocol":17,"map":"workshop/koth_bagel_rc5.ugc2514036946","folder":"tf","game":"Team Fortress","app_id":440,"player_count":23,"max_players":24,"Bots":0,"server_type":"Dedicated","server_os":"Linux","password":true,"vac":true,"version":"7723704","steam_id":85568392924742827,"keywords":["cp","nocrits","nodmgspread","uncletopia"],"game_id":440,"stv_port":27076,"stv_name":"Uncletopia | Frankfurt | 7 | Stopwatch Beta | STV","players":[{"user_id":269,"name":"[O\u0026O]YaboiDucki","steam_id":76561198195976589,"connected_time":3593000000000,"state":"active","ping":59},{"user_id":296,"name":"bAdmon","steam_id":76561197961785793,"connected_time":1994000000000,"state":"active","ping":60},{"user_id":308,"name":"Dr Ludwig","steam_id":76561198426522902,"connected_time":1189000000000,"state":"active","ping":64},{"user_id":273,"name":"Aspartus","steam_id":76561198101385763,"connected_time":3472000000000,"state":"active","ping":45},{"user_id":315,"name":"Fat Pigeon","steam_id":76561198817940142,"connected_time":611000000000,"state":"active","ping":59},{"user_id":319,"name":"Rory","steam_id":76561198354037580,"connected_time":317000000000,"state":"active","ping":57},{"user_id":275,"name":"Fortezza","steam_id":76561198972539903,"connected_time":3350000000000,"state":"active","ping":54},{"user_id":316,"name":"Deacon Dracul","steam_id":76561198046880663,"connected_time":602000000000,"state":"active","ping":106},{"user_id":309,"name":"Pan W","steam_id":76561198384111099,"connected_time":1103000000000,"state":"active","ping":98},{"user_id":322,"name":"luau","steam_id":76561197994492154,"connected_time":188000000000,"state":"active","ping":69},{"user_id":320,"name":"G4merSz3mcsi (‚ñ∞Àò‚ó°Àò‚ñ∞)","steam_id":76561199055233794,"connected_time":295000000000,"state":"active","ping":75},{"user_id":278,"name":"wtf cool","steam_id":76561198827362076,"connected_time":3206000000000,"state":"active","ping":93},{"user_id":321,"name":"Clitorina","steam_id":76561198077570815,"connected_time":280000000000,"state":"active","ping":58},{"user_id":280,"name":"2004 Kanye","steam_id":76561198189000841,"connected_time":2961000000000,"state":"active","ping":93},{"user_id":313,"name":"solus control unit","steam_id":76561198131944941,"connected_time":714000000000,"state":"active","ping":66},{"user_id":314,"name":"frying pan (real)","steam_id":76561198875409640,"connected_time":671000000000,"state":"active","ping":107},{"user_id":302,"name":"kaelan!","steam_id":76561198001425310,"connected_time":1741000000000,"state":"active","ping":82},{"user_id":192,"name":"zoinks!","steam_id":76561198068645362,"connected_time":9467000000000,"state":"active","ping":56},{"user_id":299,"name":"Swedde","steam_id":76561198297296440,"connected_time":1958000000000,"state":"active","ping":75},{"user_id":290,"name":"GregerUlander","steam_id":76561198152375055,"connected_time":2291000000000,"state":"active","ping":69},{"user_id":232,"name":"Dr Sex","steam_id":76561198029044617,"connected_time":6911000000000,"state":"active","ping":63},{"user_id":229,"name":"john fortress","steam_id":76561198202668788,"connected_time":7323000000000,"state":"active","ping":85},{"user_id":318,"name":"silicon based life form","steam_id":76561199127121346,"connected_time":571000000000,"state":"active","ping":62}]},{"server_id":24,"name":"Uncletopia | Frankfurt | 8 | Community","name_short":"frk-8","host":"frk-1.de.uncletopia.com","port":27085,"enabled":true,"region":"eu","cc":"de","latitude":50.110924,"longitude":8.682127,"reserved":0,"last_update":"0001-01-01T00:00:00Z","name_a2s":"Uncletopia | Frankfurt | 8 | Community","protocol":17,"map":"workshop/rd_asteroid_redux_rc9.ugc2154902912","folder":"tf","game":"Team Fortress","app_id":440,"player_count":0,"max_players":24,"Bots":0,"server_type":"Dedicated","server_os":"Linux","password":true,"vac":true,"version":"7723704","steam_id":85568392924742828,"keywords":["beta","nocrits","nodmgspread","rd","uncletopia"],"game_id":440,"stv_port":27086,"stv_name":"Uncletopia | Frankfurt | 8 | Community | STV","players":null},{"server_id":202,"name":"Uncletopia | Hong Kong | 1 | All Maps","name_short":"hgk-1","host":"hgk-1.hk.uncletopia.com","port":27015,"enabled":true,"region":"asia","cc":"hk","latitude":22.302711,"longitude":114.177216,"reserved":0,"last_update":"0001-01-01T00:00:00Z","name_a2s":"Uncletopia | Hong Kong | 1 | All Maps","protocol":17,"map":"koth_harvest_final","folder":"tf","game":"Team Fortress","app_id":440,"player_count":7,"max_players":24,"Bots":0,"server_type":"Dedicated","server_os":"Linux","password":true,"vac":true,"version":"7723704","steam_id":85568392924494504,"keywords":["cp","nocrits","nodmgspread","uncletopia"],"game_id":440,"stv_port":27016,"stv_name":"Uncletopia | Hong Kong | 1 | All Maps | STV","players":[{"user_id":433,"name":"ligma grindset","steam_id":76561198091254965,"connected_time":5322000000000,"state":"active","ping":49},{"user_id":454,"name":"pink F2P","steam_id":76561199160972366,"connected_time":1656000000000,"state":"active","ping":81},{"user_id":455,"name":"Infra","steam_id":76561198924576271,"connected_time":1566000000000,"state":"active","ping":117},{"user_id":453,"name":"Bertengkar","steam_id":76561198213031155,"connected_time":2049000000000,"state":"active","ping":91},{"user_id":456,"name":"‚òÖ Snowstorm ‚òÖ","steam_id":76561198351866308,"connected_time":1162000000000,"state":"active","ping":93},{"user_id":459,"name":"scolios","steam_id":76561198854775347,"connected_time":345000000000,"state":"active","ping":97}]},{"server_id":1,"name":"Uncletopia | Los Angeles | 1 | All Maps","name_short":"lax-1","host":"lax-1.us.uncletopia.com","port":27015,"enabled":true,"region":"us-west","cc":"us","latitude":33.94279,"longitude":-118.41004,"reserved":0,"last_update":"0001-01-01T00:00:00Z","name_a2s":"Uncletopia | Los Angeles | 1 | All Maps","protocol":17,"map":"pl_pier","folder":"tf","game":"Team Fortress","app_id":440,"player_count":0,"max_players":24,"Bots":0,"server_type":"Dedicated","server_os":"Linux","password":true,"vac":true,"version":"7723704","steam_id":85568392924469991,"keywords":["nocrits","nodmgspread","payload","uncletopia"],"game_id":440,"stv_port":27016,"stv_name":"Uncletopia | Los Angeles | 1 | All Maps | STV","players":null},{"server_id":112,"name":"Uncletopia | Los Angeles | 2 | All Maps","name_short":"lax-2","host":"lax-1.us.uncletopia.com","port":27025,"enabled":true,"region":"us-west","cc":"us","latitude":33.94279,"longitude":-118.41004,"reserved":0,"last_update":"0001-01-01T00:00:00Z","name_a2s":"Uncletopia | Los Angeles | 2 | All Maps","protocol":17,"map":"koth_viaduct","folder":"tf","game":"Team Fortress","app_id":440,"player_count":0,"max_players":24,"Bots":0,"server_type":"Dedicated","server_os":"Linux","password":true,"vac":true,"version":"7723704","steam_id":85568392924469992,"keywords":["cp","nocrits","nodmgspread","uncletopia"],"game_id":440,"stv_port":27026,"stv_name":"Uncletopia | Los Angeles | 2 | All Maps | STV","players":null},{"server_id":324,"name":"Uncletopia | Los Angeles | 3 | All Maps","name_short":"lax-3","host":"lax-1.us.uncletopia.com","port":27035,"enabled":true,"region":"us-west","cc":"us","latitude":33.94279,"longitude":-118.41004,"reserved":0,"last_update":"0001-01-01T00:00:00Z","name_a2s":"Uncletopia | Los Angeles | 3 | All Maps","protocol":17,"map":"koth_viaduct","folder":"tf","game":"Team Fortress","app_id":440,"player_count":0,"max_players":24,"Bots":0,"server_type":"Dedicated","server_os":"Linux","password":true,"vac":true,"version":"7723704","steam_id":85568392924510198,"keywords":["cp","nocrits","nodmgspread","uncletopia"],"game_id":440,"stv_port":27036,"stv_name":"Uncletopia | Los Angeles | 3 | All Maps | STV","players":null},{"server_id":25,"name":"Uncletopia | Los Angeles | 4 | Stopwatch Beta","name_short":"lax-4","host":"lax-1.us.uncletopia.com","port":27045,"enabled":true,"region":"us-west","cc":"us","latitude":33.94279,"longitude":-118.41004,"reserved":0,"last_update":"0001-01-01T00:00:00Z","name_a2s":"Uncletopia | Los Angeles | 4 | Stopwatch Beta","protocol":17,"map":"cp_sunshine","folder":"tf","game":"Team Fortress","app_id":440,"player_count":0,"max_players":24,"Bots":0,"server_type":"Dedicated","server_os":"Linux","password":true,"vac":true,"version":"7723704","steam_id":85568392924510199,"keywords":["cp","nocrits","nodmgspread","uncletopia"],"game_id":440,"stv_port":27046,"stv_name":"Uncletopia | Los Angeles | 4 | Stopwatch Beta | STV","players":null},{"server_id":11,"name":"Uncletopia | London | 1 | All Maps","name_short":"lon-1","host":"lon-1.uk.uncletopia.com","port":27015,"enabled":true,"region":"eu","cc":"gb","latitude":51.509865,"longitude":-0.118092,"reserved":0,"last_update":"0001-01-01T00:00:00Z","name_a2s":"Uncletopia | London | 1 | All Maps","protocol":17,"map":"pl_barnblitz","folder":"tf","game":"Team Fortress","app_id":440,"player_count":24,"max_players":24,"Bots":0,"server_type":"Dedicated","server_os":"Linux","password":true,"vac":true,"version":"7723704","steam_id":85568392924367362,"keywords":["nocrits","nodmgspread","payload","uncletopia"],"game_id":440,"stv_port":27016,"stv_name":"Uncletopia | London | 1 | All Maps | STV","players":[{"user_id":335,"name":"Smissmin","steam_id":76561198005342133,"connected_time":66000000000,"state":"active","ping":43},{"user_id":300,"name":"Kahvi","steam_id":76561198723244199,"connected_time":2492000000000,"state":"active","ping":74},{"user_id":319,"name":"—Å–µ–∫—Å(—á—Ç–æ —ç—Ç–æ —Ç–∞–∫–æ","steam_id":76561198163244605,"connected_time":1035000000000,"state":"active","ping":81},{"user_id":325,"name":"Koli","steam_id":76561197992428783,"connected_time":757000000000,"state":"active","ping":60},{"user_id":318,"name":"MR DADDY","steam_id":76561198350794663,"connected_time":1063000000000,"state":"active","ping":132},{"user_id":304,"name":"The_Jaystone","steam_id":76561198126280691,"connected_time":2171000000000,"state":"active","ping":35},{"user_id":273,"name":"Johnny Boy","steam_id":76561197969525453,"connected_time":4257000000000,"state":"active","ping":63},{"user_id":284,"name":"VolcanicArts","steam_id":76561198063453246,"connected_time":3535000000000,"state":"active","ping":52},{"user_id":294,"name":"Saken","steam_id":76561198049075295,"connected_time":3085000000000,"state":"active","ping":60},{"user_id":295,"name":"sareena","steam_id":76561198810194062,"connected_time":3009000000000,"state":"active","ping":75},{"user_id":328,"name":"Kapitan Polska","steam_id":76561197968069413,"connected_time":648000000000,"state":"active","ping":76},{"user_id":298,"name":"dochris.2","steam_id":76561198026478625,"connected_time":2837000000000,"state":"active","ping":59},{"user_id":332,"name":"ÔΩÑÔΩÖÔΩìÔΩãÔΩíÔΩÅÔΩô","steam_id":76561198805536170,"connected_time":565000000000,"state":"active","ping":88},{"user_id":320,"name":"ra","steam_id":76561198147277460,"connected_time":1007000000000,"state":"active","ping":74},{"user_id":70,"name":"goofy goober","steam_id":76561198013237629,"connected_time":16591000000000,"state":"active","ping":101},{"user_id":334,"name":"Human bean","steam_id":76561198261377744,"connected_time":326000000000,"state":"active","ping":171},{"user_id":309,"name":"AirReicj","steam_id":76561198843015458,"connected_time":2115000000000,"state":"active","ping":79},{"user_id":321,"name":"me","steam_id":76561198148074472,"connected_time":903000000000,"state":"active","ping":54},{"user_id":333,"name":"Equinox","steam_id":76561199055592635,"connected_time":551000000000,"state":"active","ping":64},{"user_id":330,"name":"GE P42DC","steam_id":76561198342354836,"connected_time":620000000000,"state":"active","ping":60},{"user_id":331,"name":"joseph lean cool joe","steam_id":76561198023211417,"connected_time":616000000000,"state":"active","ping":46},{"user_id":317,"name":"ScarredPixel123","steam_id":76561199165112703,"connected_time":1223000000000,"state":"active","ping":85},{"user_id":299,"name":"lark","steam_id":76561198091724522,"connected_time":2690000000000,"state":"active","ping":53},{"user_id":303,"name":"I am on the tf2 scoreboard...","steam_id":76561198043850884,"connected_time":2243000000000,"state":"active","ping":37}]},{"server_id":114,"name":"Uncletopia | London | 2 | All Maps","name_short":"lon-2","host":"lon-1.uk.uncletopia.com","port":27025,"enabled":true,"region":"eu","cc":"gb","latitude":51.509865,"longitude":-0.118092,"reserved":0,"last_update":"0001-01-01T00:00:00Z","name_a2s":"Uncletopia | London | 2 | All Maps","protocol":17,"map":"koth_highpass","folder":"tf","game":"Team Fortress","app_id":440,"player_count":4,"max_players":24,"Bots":0,"server_type":"Dedicated","server_os":"Linux","password":true,"vac":true,"version":"7723704","steam_id":85568392924470941,"keywords":["cp","nocrits","nodmgspread","uncletopia"],"game_id":440,"stv_port":27026,"stv_name":"Uncletopia | London | 2 | All Maps | STV","players":[{"user_id":25,"name":"Hox","steam_id":76561198256355735,"connected_time":1368000000000,"state":"active","ping":71},{"user_id":32,"name":"Unicorn","steam_id":76561198979079968,"connected_time":78000000000,"state":"active","ping":111},{"user_id":28,"name":"burial","steam_id":76561198009115060,"connected_time":783000000000,"state":"active","ping":75},{"user_id":31,"name":"Bebra_kwas","steam_id":76561199411703645,"connected_time":168000000000,"state":"active","ping":146}]},{"server_id":320,"name":"Uncletopia | London | 3 | All Maps","name_short":"lon-3","host":"lon-1.uk.uncletopia.com","port":27035,"enabled":true,"region":"eu","cc":"gb","latitude":51.509865,"longitude":-0.118092,"reserved":0,"last_update":"0001-01-01T00:00:00Z","name_a2s":"Uncletopia | London | 3 | All Maps","protocol":17,"map":"pl_upward","folder":"tf","game":"Team Fortress","app_id":440,"player_count":24,"max_players":24,"Bots":0,"server_type":"Dedicated","server_os":"Linux","password":true,"vac":true,"version":"7723704","steam_id":85568392924510192,"keywords":["nocrits","nodmgspread","payload","uncletopia"],"game_id":440,"stv_port":27036,"stv_name":"Uncletopia | London | 3 | All Maps | STV","players":[{"user_id":504,"name":"Panda","steam_id":76561198176342325,"connected_time":1285000000000,"state":"active","ping":88},{"user_id":525,"name":"Toaster1337","steam_id":76561198103706881,"connected_time":171000000000,"state":"active","ping":59},{"user_id":516,"name":"Ze","steam_id":76561198314901652,"connected_time":619000000000,"state":"active","ping":67},{"user_id":489,"name":"Diana Ball","steam_id":76561198382533813,"connected_time":2175000000000,"state":"active","ping":47},{"user_id":511,"name":"BlindManCassidy1829","steam_id":76561198429658370,"connected_time":918000000000,"state":"active","ping":118},{"user_id":422,"name":"–ë–µ—Ä–≥–º–∞–Ω","steam_id":76561198282010599,"connected_time":5784000000000,"state":"active","ping":75},{"user_id":510,"name":"NotChloe","steam_id":76561198080658092,"connected_time":969000000000,"state":"active","ping":58},{"user_id":500,"name":"Texas Red","steam_id":76561199069782779,"connected_time":1391000000000,"state":"active","ping":69},{"user_id":523,"name":"Thors","steam_id":76561197968739075,"connected_time":301000000000,"state":"active","ping":41},{"user_id":524,"name":"Gui","steam_id":76561198072054467,"connected_time":261000000000,"state":"active","ping":75},{"user_id":477,"name":"FaceShackle","steam_id":76561198038371397,"connected_time":3025000000000,"state":"active","ping":53},{"user_id":517,"name":"MEDiUM","steam_id":76561198112328561,"connected_time":608000000000,"state":"active","ping":78},{"user_id":512,"name":"Narvhal√∏","steam_id":76561198147495474,"connected_time":903000000000,"state":"active","ping":43},{"user_id":494,"name":"sumweeb","steam_id":76561198311624395,"connected_time":1668000000000,"state":"active","ping":45},{"user_id":521,"name":".Ô±ûÔ±ûÔ±ûÔ±ûÔ±ûÔ±ûÔ±ûÔ±ûÔ±ûÔ±û","steam_id":76561198256821358,"connected_time":349000000000,"state":"active","ping":73},{"user_id":372,"name":"daanvanliempt05","steam_id":76561198355398948,"connected_time":8965000000000,"state":"active","ping":50},{"user_id":490,"name":"C0d3s","steam_id":76561198093907544,"connected_time":2146000000000,"state":"active","ping":97},{"user_id":443,"name":"Carpe diem.","steam_id":76561199065917088,"connected_time":5176000000000,"state":"active","ping":62},{"user_id":518,"name":"Rapsy","steam_id":76561198254583941,"connected_time":581000000000,"state":"active","ping":67},{"user_id":446,"name":"Arame","steam_id":76561198847822257,"connected_time":5074000000000,"state":"active","ping":70},{"user_id":526,"name":"Benaty","steam_id":76561198057517944,"connected_time":151000000000,"state":"active","ping":64},{"user_id":513,"name":"beepboop","steam_id":76561198159099436,"connected_time":897000000000,"state":"active","ping":70},{"user_id":515,"name":"Litsuw","steam_id":76561198081785898,"connected_time":671000000000,"state":"active","ping":65},{"user_id":479,"name":"professional kid gaslighter","steam_id":76561198941142018,"connected_time":2490000000000,"state":"active","ping":70}]},{"server_id":321,"name":"Uncletopia | London | 4 | All Maps","name_short":"lon-4","host":"lon-1.uk.uncletopia.com","port":27045,"enabled":true,"region":"eu","cc":"gb","latitude":51.509865,"longitude":-0.118092,"reserved":0,"last_update":"0001-01-01T00:00:00Z","name_a2s":"Uncletopia | London | 4 | All Maps","protocol":17,"map":"koth_lakeside_final","folder":"tf","game":"Team Fortress","app_id":440,"player_count":0,"max_players":24,"Bots":0,"server_type":"Dedicated","server_os":"Linux","password":true,"vac":true,"version":"7723704","steam_id":85568392924510193,"keywords":["cp","nocrits","nodmgspread","uncletopia"],"game_id":440,"stv_port":27046,"stv_name":"Uncletopia | London | 4 | All Maps | STV","players":null},{"server_id":21,"name":"Uncletopia | London | 5 | All Maps","name_short":"lon-5","host":"lon-1.uk.uncletopia.com","port":27055,"enabled":true,"region":"eu","cc":"gb","latitude":51.509865,"longitude":-0.118092,"reserved":0,"last_update":"0001-01-01T00:00:00Z","name_a2s":"Uncletopia | London | 5 | All Maps","protocol":17,"map":"pl_frontier_final","folder":"tf","game":"Team Fortress","app_id":440,"player_count":24,"max_players":24,"Bots":0,"server_type":"Dedicated","server_os":"Linux","password":true,"vac":true,"version":"7723704","steam_id":85568392924742829,"keywords":["nocrits","nodmgspread","payload","uncletopia"],"game_id":440,"stv_port":27056,"stv_name":"Uncletopia | London | 5 | All Maps | STV","players":[{"user_id":61,"name":"Crusade","steam_id":76561199192979051,"connected_time":898000000000,"state":"active","ping":146},{"user_id":35,"name":"freddy(ger)","steam_id":76561198904253500,"connected_time":1731000000000,"state":"active","ping":67},{"user_id":66,"name":"sugo","steam_id":76561198129319394,"connected_time":422000000000,"state":"active","ping":92},{"user_id":65,"name":"Derpyisautistic","steam_id":76561198194891642,"connected_time":577000000000,"state":"active","ping":182},{"user_id":21,"name":"Alessiodoomboy","steam_id":76561198355274960,"connected_time":2552000000000,"state":"active","ping":45},{"user_id":67,"name":"abigail","steam_id":76561198132932617,"connected_time":271000000000,"state":"active","ping":58},{"user_id":37,"name":"StrikeUnleashed","steam_id":76561198029663426,"connected_time":1680000000000,"state":"active","ping":60},{"user_id":28,"name":"MMS21","steam_id":76561198059351269,"connected_time":1955000000000,"state":"active","ping":57},{"user_id":29,"name":"VeeKoo","steam_id":76561198093335525,"connected_time":1851000000000,"state":"active","ping":90},{"user_id":62,"name":"R!not","steam_id":76561197986328786,"connected_time":885000000000,"state":"active","ping":43},{"user_id":31,"name":"shiki","steam_id":76561197997087907,"connected_time":1770000000000,"state":"active","ping":57},{"user_id":33,"name":"MidBossss","steam_id":76561197993118310,"connected_time":1768000000000,"state":"active","ping":80},{"user_id":34,"name":"[AL] Aprophis","steam_id":76561197967826422,"connected_time":1751000000000,"state":"active","ping":78},{"user_id":64,"name":"georgiboy111","steam_id":76561198093018761,"connected_time":644000000000,"state":"active","ping":77},{"user_id":38,"name":"Drillboy Jenkins","steam_id":76561198160497421,"connected_time":1614000000000,"state":"active","ping":85},{"user_id":39,"name":"nking","steam_id":76561198040274510,"connected_time":1605000000000,"state":"active","ping":90},{"user_id":58,"name":"Meaty","steam_id":76561198047728158,"connected_time":1066000000000,"state":"active","ping":41},{"user_id":46,"name":"GabGame","steam_id":76561198105631808,"connected_time":1462000000000,"state":"active","ping":53},{"user_id":44,"name":"etf2l cryptid","steam_id":76561198010239925,"connected_time":1522000000000,"state":"active","ping":46},{"user_id":57,"name":"Anri Okita's Massive Milkers","steam_id":76561199186352720,"connected_time":1082000000000,"state":"active","ping":58},{"user_id":49,"name":"cheesecake.","steam_id":76561198426604784,"connected_time":1368000000000,"state":"active","ping":42},{"user_id":52,"name":"Nambo Chimbanskey","steam_id":76561198134646593,"connected_time":1189000000000,"state":"active","ping":49},{"user_id":53,"name":"macauw","steam_id":76561198010467088,"connected_time":1181000000000,"state":"active","ping":49},{"user_id":59,"name":"Ablativus","steam_id":76561198025698470,"connected_time":1060000000000,"state":"active","ping":76}]},{"server_id":22,"name":"Uncletopia | London | 6 | All Maps","name_short":"lon-6","host":"lon-1.uk.uncletopia.com","port":27065,"enabled":true,"region":"eu","cc":"gb","latitude":51.509865,"longitude":-0.118092,"reserved":0,"last_update":"0001-01-01T00:00:00Z","name_a2s":"Uncletopia | London | 6 | All Maps","protocol":17,"map":"pl_upward","folder":"tf","game":"Team Fortress","app_id":440,"player_count":6,"max_players":24,"Bots":0,"server_type":"Dedicated","server_os":"Linux","password":true,"vac":true,"version":"7723704","steam_id":85568392924742830,"keywords":["nocrits","nodmgspread","payload","uncletopia"],"game_id":440,"stv_port":27066,"stv_name":"Uncletopia | London | 6 | All Maps | STV","players":[{"user_id":237,"name":"saad566622146","steam_id":76561199445509533,"connected_time":663000000000,"state":"active","ping":305},{"user_id":241,"name":"Senfbaron","steam_id":76561198070370608,"connected_time":533000000000,"state":"active","ping":64},{"user_id":243,"name":"Mitko_101","steam_id":76561199047228142,"connected_time":379000000000,"state":"active","ping":77},{"user_id":169,"name":"Caliban","steam_id":76561197999696839,"connected_time":5671000000000,"state":"active","ping":104},{"user_id":236,"name":"FantaKhan","steam_id":76561198065024766,"connected_time":1072000000000,"state":"active","ping":150},{"user_id":215,"name":"local troll man","steam_id":76561198301675800,"connected_time":2578000000000,"state":"active","ping":55}]},{"server_id":40,"name":"Uncletopia | London | 7 | No Payload","name_short":"lon-7","host":"lon-1.uk.uncletopia.com","port":27075,"enabled":true,"region":"eu","cc":"gb","latitude":51.509865,"longitude":-0.118092,"reserved":0,"last_update":"0001-01-01T00:00:00Z","name_a2s":"Uncletopia | London | 7 | No Payload","protocol":17,"map":"cp_coldfront","folder":"tf","game":"Team Fortress","app_id":440,"player_count":0,"max_players":24,"Bots":0,"server_type":"Dedicated","server_os":"Linux","password":true,"vac":true,"version":"7723704","steam_id":85568392924964314,"keywords":["cp","nocrits","nodmgspread","uncletopia"],"game_id":440,"stv_port":27076,"stv_name":"Uncletopia | London | 7 | No Payload | STV","players":null},{"server_id":41,"name":"Uncletopia | London | 8 | Community","name_short":"lon-8","host":"lon-1.uk.uncletopia.com","port":27085,"enabled":true,"region":"eu","cc":"gb","latitude":51.509865,"longitude":-0.118092,"reserved":0,"last_update":"0001-01-01T00:00:00Z","name_a2s":"Uncletopia | London | 8 | Community","protocol":17,"map":"koth_highpass","folder":"tf","game":"Team Fortress","app_id":440,"player_count":0,"max_players":24,"Bots":0,"server_type":"Dedicated","server_os":"Linux","password":true,"vac":true,"version":"7723704","steam_id":85568392924964315,"keywords":["cp","nocrits","nodmgspread","uncletopia"],"game_id":440,"stv_port":27086,"stv_name":"Uncletopia | London | 8 | Community | STV","players":null},{"server_id":300,"name":"Uncletopia | Montr√©al | 1 | All Maps","name_short":"mtl-1","host":"mtl-1.ca.uncletopia.com","port":27015,"enabled":true,"region":"us-east","cc":"ca","latitude":45.50889,"longitude":-73.56167,"reserved":0,"last_update":"0001-01-01T00:00:00Z","name_a2s":"Uncletopia | Montr√©al | 1 | All Maps","protocol":17,"map":"pl_snowycoast","folder":"tf","game":"Team Fortress","app_id":440,"player_count":4,"max_players":24,"Bots":0,"server_type":"Dedicated","server_os":"Linux","password":true,"vac":true,"version":"7723704","steam_id":85568392924500087,"keywords":["nocrits","nodmgspread","payload","uncletopia"],"game_id":440,"stv_port":27016,"stv_name":"Uncletopia | Montr√©al | 1 | All Maps | STV","players":[{"user_id":3,"name":"FoxlyGamer","steam_id":76561199152682196,"connected_time":967000000000,"state":"active","ping":68},{"user_id":4,"name":"feed me poor people","steam_id":76561199307308550,"connected_time":703000000000,"state":"active","ping":45},{"user_id":5,"name":"14 INCH TGIRL SCHLONG","steam_id":76561198122059018,"connected_time":32000000000,"state":"active","ping":68},{"user_id":6,"name":"InstantSnowcone","steam_id":76561198067556825,"connected_time":22000000000,"state":"active","ping":89}]},{"server_id":301,"name":"Uncletopia | Montr√©al | 2 | All Maps","name_short":"mtl-2","host":"mtl-1.ca.uncletopia.com","port":27025,"enabled":true,"region":"us-east","cc":"ca","latitude":45.50889,"longitude":-73.56167,"reserved":0,"last_update":"0001-01-01T00:00:00Z","name_a2s":"Uncletopia | Montr√©al | 2 | All Maps","protocol":17,"map":"cp_process_final","folder":"tf","game":"Team Fortress","app_id":440,"player_count":0,"max_players":24,"Bots":0,"server_type":"Dedicated","server_os":"Linux","password":true,"vac":true,"version":"7723704","steam_id":85568392924500088,"keywords":["cp","nocrits","nodmgspread","uncletopia"],"game_id":440,"stv_port":27026,"stv_name":"Uncletopia | Montr√©al | 2 | All Maps | STV","players":null},{"server_id":302,"name":"Uncletopia | Montr√©al | 3 | All Maps","name_short":"mtl-3","host":"mtl-1.ca.uncletopia.com","port":27035,"enabled":true,"region":"us-east","cc":"ca","latitude":45.50889,"longitude":-73.56167,"reserved":0,"last_update":"0001-01-01T00:00:00Z","name_a2s":"Uncletopia | Montr√©al | 3 | All Maps","protocol":17,"map":"cp_mountainlab","folder":"tf","game":"Team Fortress","app_id":440,"player_count":0,"max_players":24,"Bots":0,"server_type":"Dedicated","server_os":"Linux","password":true,"vac":true,"version":"7723704","steam_id":85568392924500089,"keywords":["cp","nocrits","nodmgspread","uncletopia"],"game_id":440,"stv_port":27036,"stv_name":"Uncletopia | Montr√©al | 3 | All Maps | STV","players":null},{"server_id":303,"name":"Uncletopia | Montr√©al | 4 | No Payload","name_short":"mtl-4","host":"mtl-1.ca.uncletopia.com","port":27045,"enabled":true,"region":"us-east","cc":"ca","latitude":45.50889,"longitude":-73.56167,"reserved":0,"last_update":"0001-01-01T00:00:00Z","name_a2s":"Uncletopia | Montr√©al | 4 | No Payload","protocol":17,"map":"koth_cascade","folder":"tf","game":"Team Fortress","app_id":440,"player_count":0,"max_players":24,"Bots":0,"server_type":"Dedicated","server_os":"Linux","password":true,"vac":true,"version":"7723704","steam_id":85568392924500090,"keywords":["cp","nocrits","nodmgspread","uncletopia"],"game_id":440,"stv_port":27046,"stv_name":"Uncletopia | Montr√©al | 4 | No Payload | STV","players":null},{"server_id":13,"name":"Uncletopia | New York City | 1 | All Maps","name_short":"nyc-1","host":"nyc-1.us.uncletopia.com","port":27015,"enabled":true,"region":"us-east","cc":"us","latitude":40.73061,"longitude":-73.93524,"reserved":0,"last_update":"0001-01-01T00:00:00Z","name_a2s":"Uncletopia | New York City | 1 | All Maps","protocol":17,"map":"cp_dustbowl","folder":"tf","game":"Team Fortress","app_id":440,"player_count":24,"max_players":24,"Bots":0,"server_type":"Dedicated","server_os":"Linux","password":true,"vac":true,"version":"7723704","steam_id":85568392924469993,"keywords":["cp","nocrits","nodmgspread","uncletopia"],"game_id":440,"stv_port":27016,"stv_name":"Uncletopia | New York City | 1 | All Maps | STV","players":[{"user_id":214,"name":"Nico","steam_id":76561198125701869,"connected_time":843000000000,"state":"active","ping":56},{"user_id":207,"name":"*something in russian*","steam_id":76561198964471859,"connected_time":993000000000,"state":"active","ping":58},{"user_id":194,"name":"Irunman","steam_id":76561198058243536,"connected_time":1911000000000,"state":"active","ping":61},{"user_id":203,"name":"Pineapple Guy","steam_id":76561198002329563,"connected_time":1129000000000,"state":"active","ping":62},{"user_id":198,"name":"Midwest emo is a gang","steam_id":76561198094281330,"connected_time":1490000000000,"state":"active","ping":59},{"user_id":169,"name":"PootZilla","steam_id":76561198073870352,"connected_time":3625000000000,"state":"active","ping":59},{"user_id":175,"name":"limegrass619","steam_id":76561198167789909,"connected_time":2938000000000,"state":"active","ping":126},{"user_id":217,"name":"yougotsauled","steam_id":76561198880754695,"connected_time":716000000000,"state":"active","ping":45},{"user_id":200,"name":"Alpharius","steam_id":76561197996284353,"connected_time":1280000000000,"state":"active","ping":147},{"user_id":216,"name":"smithy","steam_id":76561198927434314,"connected_time":819000000000,"state":"active","ping":86},{"user_id":218,"name":"jerma enthusiast","steam_id":76561198359466264,"connected_time":668000000000,"state":"active","ping":75},{"user_id":204,"name":"Chimpish","steam_id":76561199263493270,"connected_time":1107000000000,"state":"active","ping":86},{"user_id":226,"name":"insanegarrett","steam_id":76561199085677395,"connected_time":424000000000,"state":"active","ping":92},{"user_id":129,"name":"Stormartillery","steam_id":76561198408982577,"connected_time":6157000000000,"state":"active","ping":59},{"user_id":228,"name":"Rubyrx","steam_id":76561199074831604,"connected_time":60000000000,"state":"active","ping":154},{"user_id":209,"name":"tgirl gaming","steam_id":76561198096331150,"connected_time":983000000000,"state":"active","ping":85},{"user_id":220,"name":"Infamous","steam_id":76561198853655415,"connected_time":626000000000,"state":"active","ping":45},{"user_id":213,"name":"mrbeast109385079350229083479082","steam_id":76561198370687830,"connected_time":927000000000,"state":"active","ping":54},{"user_id":174,"name":"IPlayGamez","steam_id":76561198041387508,"connected_time":2974000000000,"state":"active","ping":58},{"user_id":221,"name":"amyroseWHOA","steam_id":76561198284518326,"connected_time":621000000000,"state":"active","ping":42},{"user_id":222,"name":"awesometiger6","steam_id":76561199194381026,"connected_time":599000000000,"state":"active","ping":41},{"user_id":223,"name":"xXcLaImEd__ReApErXx [F2P]","steam_id":76561198067232540,"connected_time":580000000000,"state":"active","ping":86},{"user_id":224,"name":"Jr Rolly","steam_id":76561199060340794,"connected_time":572000000000,"state":"active","ping":85},{"user_id":227,"name":"dwight schrute","steam_id":76561198001237877,"connected_time":159000000000,"state":"active","ping":74}]},{"server_id":14,"name":"Uncletopia | New York City | 2 | All Maps","name_short":"nyc-2","host":"nyc-1.us.uncletopia.com","port":27025,"enabled":true,"region":"us-east","cc":"us","latitude":40.73061,"longitude":-73.93524,"reserved":0,"last_update":"0001-01-01T00:00:00Z","name_a2s":"Uncletopia | New York City | 2 | All Maps","protocol":17,"map":"cp_mountainlab","folder":"tf","game":"Team Fortress","app_id":440,"player_count":0,"max_players":24,"Bots":0,"server_type":"Dedicated","server_os":"Linux","password":true,"vac":true,"version":"7723704","steam_id":85568392924469994,"keywords":["cp","nocrits","nodmgspread","uncletopia"],"game_id":440,"stv_port":27026,"stv_name":"Uncletopia | New York City | 2 | All Maps | STV","players":null},{"server_id":15,"name":"Uncletopia | New York City | 3 | Stopwatch Beta","name_short":"nyc-3","host":"nyc-1.us.uncletopia.com","port":27035,"enabled":true,"region":"us-east","cc":"us","latitude":40.73061,"longitude":-73.93524,"reserved":0,"last_update":"0001-01-01T00:00:00Z","name_a2s":"Uncletopia | New York City | 3 | Stopwatch Beta","protocol":17,"map":"cp_sunshine","folder":"tf","game":"Team Fortress","app_id":440,"player_count":12,"max_players":24,"Bots":0,"server_type":"Dedicated","server_os":"Linux","password":true,"vac":true,"version":"7723704","steam_id":85568392924742820,"keywords":["cp","nocrits","nodmgspread","uncletopia"],"game_id":440,"stv_port":27036,"stv_name":"Uncletopia | New York City | 3 | Stopwatch Beta | STV","players":[{"user_id":56,"name":"YourBoiCoy330","steam_id":76561199123709099,"connected_time":783000000000,"state":"active","ping":94},{"user_id":51,"name":"mid","steam_id":76561198328109873,"connected_time":1002000000000,"state":"active","ping":60},{"user_id":43,"name":"SomeRandomPerson (f2p)","steam_id":76561198977045933,"connected_time":1549000000000,"state":"active","ping":77},{"user_id":68,"name":"Yoinky","steam_id":76561199021887027,"connected_time":140000000000,"state":"active","ping":65},{"user_id":16,"name":"eala_21","steam_id":76561198050230920,"connected_time":7312000000000,"state":"active","ping":82},{"user_id":29,"name":"Ebenezer Scrooge","steam_id":76561198216909469,"connected_time":2845000000000,"state":"active","ping":78},{"user_id":30,"name":"lFlaw","steam_id":76561198987151799,"connected_time":2698000000000,"state":"active","ping":134},{"user_id":34,"name":"Uber","steam_id":76561198865378609,"connected_time":2078000000000,"state":"active","ping":60},{"user_id":69,"name":"ElectroTheWhatever","steam_id":76561199094231565,"connected_time":127000000000,"state":"active","ping":79},{"user_id":37,"name":"LalitoTV","steam_id":76561198334302951,"connected_time":1937000000000,"state":"active","ping":122},{"user_id":67,"name":"ECR Savory","steam_id":76561199064252157,"connected_time":271000000000,"state":"active","ping":78},{"user_id":41,"name":"loyaldandan0764","steam_id":76561199231020424,"connected_time":1756000000000,"state":"active","ping":129}]},{"server_id":16,"name":"Uncletopia | New York City | 4 | Community","name_short":"nyc-4","host":"nyc-1.us.uncletopia.com","port":27045,"enabled":true,"region":"us-east","cc":"us","latitude":40.73061,"longitude":-73.93524,"reserved":0,"last_update":"0001-01-01T00:00:00Z","name_a2s":"Uncletopia | New York City | 4 | Community","protocol":17,"map":"pl_frontier_final","folder":"tf","game":"Team Fortress","app_id":440,"player_count":0,"max_players":24,"Bots":0,"server_type":"Dedicated","server_os":"Linux","password":true,"vac":true,"version":"7723704","steam_id":85568392924742821,"keywords":["nocrits","nodmgspread","payload","uncletopia"],"game_id":440,"stv_port":27046,"stv_name":"Uncletopia | New York City | 4 | Community | STV","players":null},{"server_id":142,"name":"Uncletopia | S√£o Paulo | 1 | All Maps","name_short":"sao-1","host":"sao-1.br.uncletopia.com","port":27015,"enabled":true,"region":"sa","cc":"br","latitude":-23.533773,"longitude":-46.62529,"reserved":0,"last_update":"0001-01-01T00:00:00Z","name_a2s":"Uncletopia | S√£o Paulo | 1 | All Maps","protocol":17,"map":"pl_badwater","folder":"tf","game":"Team Fortress","app_id":440,"player_count":7,"max_players":24,"Bots":0,"server_type":"Dedicated","server_os":"Linux","password":true,"vac":true,"version":"7723704","steam_id":85568392924469996,"keywords":["nocrits","nodmgspread","payload","uncletopia"],"game_id":440,"stv_port":27016,"stv_name":"Uncletopia | S√£o Paulo | 1 | All Maps | STV","players":[{"user_id":40,"name":"Android_343","steam_id":76561199029727506,"connected_time":790000000000,"state":"active","ping":106},{"user_id":41,"name":"STAR_","steam_id":76561199223850323,"connected_time":511000000000,"state":"active","ping":75},{"user_id":42,"name":"ink biscuit","steam_id":76561198927983566,"connected_time":470000000000,"state":"active","ping":83},{"user_id":43,"name":"Copmmer","steam_id":76561199080964271,"connected_time":398000000000,"state":"active","ping":48},{"user_id":44,"name":"Sad_Cat.png","steam_id":76561198302921847,"connected_time":391000000000,"state":"active","ping":91},{"user_id":45,"name":"Bellesi","steam_id":76561198056750369,"connected_time":376000000000,"state":"active","ping":60},{"user_id":46,"name":"terzo","steam_id":76561198044494120,"connected_time":355000000000,"state":"active","ping":43}]},{"server_id":143,"name":"Uncletopia | S√£o Paulo | 2 | All Maps","name_short":"sao-2","host":"sao-2.br.uncletopia.com","port":27015,"enabled":true,"region":"sa","cc":"br","latitude":-23.533773,"longitude":-46.62529,"reserved":0,"last_update":"0001-01-01T00:00:00Z","name_a2s":"Uncletopia | S√£o Paulo | 2 | All Maps","protocol":17,"map":"cp_process_final","folder":"tf","game":"Team Fortress","app_id":440,"player_count":0,"max_players":24,"Bots":0,"server_type":"Dedicated","server_os":"Linux","password":true,"vac":true,"version":"7723704","steam_id":85568392924485349,"keywords":["cp","nocrits","nodmgspread","uncletopia"],"game_id":440,"stv_port":27016,"stv_name":"Uncletopia | S√£o Paulo | 2 | All Maps | STV","players":null},{"server_id":7,"name":"Uncletopia | Seattle | 1 | All Maps","name_short":"sea-1","host":"sea-1.us.uncletopia.com","port":27015,"enabled":true,"region":"us-west","cc":"us","latitude":47.608013,"longitude":-122.33517,"reserved":0,"last_update":"0001-01-01T00:00:00Z","name_a2s":"Uncletopia | Seattle | 1 | All Maps","protocol":17,"map":"koth_cascade","folder":"tf","game":"Team Fortress","app_id":440,"player_count":0,"max_players":24,"Bots":0,"server_type":"Dedicated","server_os":"Linux","password":true,"vac":true,"version":"7723704","steam_id":85568392924469997,"keywords":["cp","nocrits","nodmgspread","uncletopia"],"game_id":440,"stv_port":27016,"stv_name":"Uncletopia | Seattle | 1 | All Maps | STV","players":null},{"server_id":119,"name":"Uncletopia | Seattle | 2 | All Maps","name_short":"sea-2","host":"sea-1.us.uncletopia.com","port":27025,"enabled":true,"region":"us-west","cc":"us","latitude":47.608013,"longitude":-122.33517,"reserved":0,"last_update":"0001-01-01T00:00:00Z","name_a2s":"Uncletopia | Seattle | 2 | All Maps","protocol":17,"map":"pl_badwater","folder":"tf","game":"Team Fortress","app_id":440,"player_count":0,"max_players":24,"Bots":0,"server_type":"Dedicated","server_os":"Linux","password":true,"vac":true,"version":"7723704","steam_id":85568392924469998,"keywords":["nocrits","nodmgspread","payload","uncletopia"],"game_id":440,"stv_port":27026,"stv_name":"Uncletopia | Seattle | 2 | All Maps | STV","players":null},{"server_id":406,"name":"Uncletopia | Seattle | 3 | Stopwatch Beta","name_short":"sea-3","host":"sea-1.us.uncletopia.com","port":27035,"enabled":true,"region":"us-west","cc":"us","latitude":47.608013,"longitude":-122.33517,"reserved":0,"last_update":"0001-01-01T00:00:00Z","name_a2s":"Uncletopia | Seattle | 3 | Stopwatch Beta","protocol":17,"map":"cp_altitude","folder":"tf","game":"Team Fortress","app_id":440,"player_count":0,"max_players":24,"Bots":0,"server_type":"Dedicated","server_os":"Linux","password":true,"vac":false,"version":"7723704","steam_id":0,"keywords":["cp","nocrits","nodmgspread","uncletopia"],"game_id":440,"stv_port":27036,"stv_name":"Uncletopia | Seattle | 3 | Stopwatch Beta | STV","players":null},{"server_id":17,"name":"Uncletopia | San Francisco | 1 | All Maps","name_short":"sfo-1","host":"sfo-1.us.uncletopia.com","port":27015,"enabled":true,"region":"us-west","cc":"us","latitude":37.77397,"longitude":-122.4313,"reserved":0,"last_update":"0001-01-01T00:00:00Z","name_a2s":"Uncletopia | San Francisco | 1 | All Maps","protocol":17,"map":"pl_borneo","folder":"tf","game":"Team Fortress","app_id":440,"player_count":7,"max_players":24,"Bots":0,"server_type":"Dedicated","server_os":"Linux","password":true,"vac":true,"version":"7723704","steam_id":85568392924469999,"keywords":["nocrits","nodmgspread","payload","uncletopia"],"game_id":440,"stv_port":27016,"stv_name":"Uncletopia | San Francisco | 1 | All Maps | STV","players":[{"user_id":5,"name":"Grave Shifter15","steam_id":76561198036381323,"connected_time":713000000000,"state":"active","ping":65},{"user_id":4,"name":"flint loco","steam_id":76561199246785047,"connected_time":1123000000000,"state":"active","ping":188},{"user_id":11,"name":"dust","steam_id":76561198045218909,"connected_time":292000000000,"state":"active","ping":58},{"user_id":7,"name":"Neo1011001","steam_id":76561198845242669,"connected_time":534000000000,"state":"active","ping":77},{"user_id":8,"name":"FedGrod","steam_id":76561198404537218,"connected_time":481000000000,"state":"active","ping":79},{"user_id":9,"name":"cinna.gamer.2007","steam_id":76561198309760791,"connected_time":459000000000,"state":"active","ping":99},{"user_id":10,"name":"Jakal's lost in dustbowl again","steam_id":76561198098769929,"connected_time":385000000000,"state":"active","ping":41}]},{"server_id":18,"name":"Uncletopia | San Francisco | 2 | All Maps","name_short":"sfo-2","host":"sfo-1.us.uncletopia.com","port":27025,"enabled":true,"region":"us-west","cc":"us","latitude":37.77397,"longitude":-122.4313,"reserved":0,"last_update":"0001-01-01T00:00:00Z","name_a2s":"Uncletopia | San Francisco | 2 | All Maps","protocol":17,"map":"pl_upward","folder":"tf","game":"Team Fortress","app_id":440,"player_count":0,"max_players":24,"Bots":0,"server_type":"Dedicated","server_os":"Linux","password":true,"vac":true,"version":"7723704","steam_id":85568392924470000,"keywords":["nocrits","nodmgspread","payload","uncletopia"],"game_id":440,"stv_port":27026,"stv_name":"Uncletopia | San Francisco | 2 | All Maps | STV","players":null},{"server_id":19,"name":"Uncletopia | San Francisco | 3 | Stopwatch Beta","name_short":"sfo-3","host":"sfo-1.us.uncletopia.com","port":27035,"enabled":true,"region":"us-west","cc":"us","latitude":37.77397,"longitude":-122.4313,"reserved":0,"last_update":"0001-01-01T00:00:00Z","name_a2s":"Uncletopia | San Francisco | 3 | Stopwatch Beta","protocol":17,"map":"pl_pier","folder":"tf","game":"Team Fortress","app_id":440,"player_count":0,"max_players":24,"Bots":0,"server_type":"Dedicated","server_os":"Linux","password":true,"vac":true,"version":"7723704","steam_id":85568392924742824,"keywords":["nocrits","nodmgspread","payload","uncletopia"],"game_id":440,"stv_port":27036,"stv_name":"Uncletopia | San Francisco | 3 | Stopwatch Beta | STV","players":null},{"server_id":20,"name":"Uncletopia | San Francisco | 4 | Community","name_short":"sfo-4","host":"sfo-1.us.uncletopia.com","port":27045,"enabled":true,"region":"us-west","cc":"us","latitude":37.77397,"longitude":-122.4313,"reserved":0,"last_update":"0001-01-01T00:00:00Z","name_a2s":"Uncletopia | San Francisco | 4 | Community","protocol":17,"map":"koth_cascade","folder":"tf","game":"Team Fortress","app_id":440,"player_count":0,"max_players":24,"Bots":0,"server_type":"Dedicated","server_os":"Linux","password":true,"vac":true,"version":"7723704","steam_id":85568392924742826,"keywords":["cp","nocrits","nodmgspread","uncletopia"],"game_id":440,"stv_port":27046,"stv_name":"Uncletopia | San Francisco | 4 | Community | STV","players":null},{"server_id":141,"name":"Uncletopia | Sydney | 1 | All Maps","name_short":"syd-1","host":"syd-1.au.uncletopia.com","port":27015,"enabled":true,"region":"au","cc":"au","latitude":-33.865143,"longitude":151.2099,"reserved":0,"last_update":"0001-01-01T00:00:00Z","name_a2s":"Uncletopia | Sydney | 1 | All Maps","protocol":17,"map":"pl_pier","folder":"tf","game":"Team Fortress","app_id":440,"player_count":0,"max_players":24,"Bots":0,"server_type":"Dedicated","server_os":"Linux","password":true,"vac":true,"version":"7723704","steam_id":85568392924470001,"keywords":["nocrits","nodmgspread","payload","uncletopia"],"game_id":440,"stv_port":27016,"stv_name":"Uncletopia | Sydney | 1 | All Maps | STV","players":null},{"server_id":123,"name":"Uncletopia | Sydney | 2 | All Maps","name_short":"syd-2","host":"syd-1.au.uncletopia.com","port":27025,"enabled":true,"region":"au","cc":"au","latitude":-33.865143,"longitude":151.2099,"reserved":0,"last_update":"0001-01-01T00:00:00Z","name_a2s":"Uncletopia | Sydney | 2 | All Maps","protocol":17,"map":"koth_cascade","folder":"tf","game":"Team Fortress","app_id":440,"player_count":0,"max_players":24,"Bots":0,"server_type":"Dedicated","server_os":"Linux","password":true,"vac":true,"version":"7723704","steam_id":85568392924470002,"keywords":["cp","nocrits","nodmgspread","uncletopia"],"game_id":440,"stv_port":27026,"stv_name":"Uncletopia | Sydney | 2 | All Maps | STV","players":null},{"server_id":395,"name":"Uncletopia | Sydney | 3 | All Maps","name_short":"syd-3","host":"syd-1.au.uncletopia.com","port":27035,"enabled":true,"region":"au","cc":"au","latitude":-33.865143,"longitude":151.2099,"reserved":0,"last_update":"0001-01-01T00:00:00Z","name_a2s":"Uncletopia | Sydney | 3 | All Maps","protocol":17,"map":"cp_altitude","folder":"tf","game":"Team Fortress","app_id":440,"player_count":0,"max_players":24,"Bots":0,"server_type":"Dedicated","server_os":"Linux","password":true,"vac":true,"version":"7723704","steam_id":85568392925194467,"keywords":["cp","nocrits","nodmgspread","uncletopia"],"game_id":440,"stv_port":27036,"stv_name":"Uncletopia | Sydney | 3 | All Maps | STV","players":null},{"server_id":396,"name":"Uncletopia | Sydney | 4 | All Maps","name_short":"syd-4","host":"syd-1.au.uncletopia.com","port":27045,"enabled":true,"region":"au","cc":"au","latitude":-33.865143,"longitude":151.2099,"reserved":0,"last_update":"0001-01-01T00:00:00Z","name_a2s":"Uncletopia | Sydney | 4 | All Maps","protocol":17,"map":"koth_cascade","folder":"tf","game":"Team Fortress","app_id":440,"player_count":0,"max_players":24,"Bots":0,"server_type":"Dedicated","server_os":"Linux","password":true,"vac":true,"version":"7723704","steam_id":85568392925397958,"keywords":["cp","nocrits","nodmgspread","uncletopia"],"game_id":440,"stv_port":27046,"stv_name":"Uncletopia | Sydney | 4 | All Maps | STV","players":null},{"server_id":58,"name":"Uncletopia | Sydney | 5 | Stopwatch Beta","name_short":"syd-5","host":"syd-1.au.uncletopia.com","port":27055,"enabled":true,"region":"au","cc":"au","latitude":-33.865143,"longitude":151.2099,"reserved":0,"last_update":"0001-01-01T00:00:00Z","name_a2s":"Uncletopia | Sydney | 5 | Stopwatch Beta","protocol":17,"map":"cp_altitude","folder":"tf","game":"Team Fortress","app_id":440,"player_count":0,"max_players":24,"Bots":0,"server_type":"Dedicated","server_os":"Linux","password":true,"vac":true,"version":"7723704","steam_id":85568392925397959,"keywords":["cp","nocrits","nodmgspread","uncletopia"],"game_id":440,"stv_port":27056,"stv_name":"Uncletopia | Sydney | 5 | Stopwatch Beta | STV","players":null},{"server_id":59,"name":"Uncletopia | Sydney | 6 | Community","name_short":"syd-6","host":"syd-1.au.uncletopia.com","port":27065,"enabled":true,"region":"au","cc":"au","latitude":-33.865143,"longitude":151.2099,"reserved":0,"last_update":"0001-01-01T00:00:00Z","name_a2s":"Uncletopia | Sydney | 6 | Community","protocol":17,"map":"workshop/pl_eruption_b8c.ugc2865677281","folder":"tf","game":"Team Fortress","app_id":440,"player_count":0,"max_players":24,"Bots":0,"server_type":"Dedicated","server_os":"Linux","password":true,"vac":true,"version":"7723704","steam_id":85568392925397960,"keywords":["nocrits","nodmgspread","payload","uncletopia"],"game_id":440,"stv_port":27066,"stv_name":"Uncletopia | Sydney | 6 | Community | STV","players":null},{"server_id":49,"name":"Uncletopia | Warsaw | 1 | All Maps","name_short":"waw-1","host":"waw-1.pl.uncletopia.com","port":27015,"enabled":true,"region":"eu","cc":"pl","latitude":52.2297,"longitude":21.017532,"reserved":0,"last_update":"0001-01-01T00:00:00Z","name_a2s":"Uncletopia | Warsaw | 1 | All Maps","protocol":17,"map":"koth_highpass","folder":"tf","game":"Team Fortress","app_id":440,"player_count":0,"max_players":24,"Bots":0,"server_type":"Dedicated","server_os":"Linux","password":true,"vac":true,"version":"7723704","steam_id":85568392925397850,"keywords":["cp","nocrits","nodmgspread","uncletopia"],"game_id":440,"stv_port":27016,"stv_name":"Uncletopia | Warsaw | 1 | All Maps | STV","players":null},{"server_id":50,"name":"Uncletopia | Warsaw | 2 | All Maps","name_short":"waw-2","host":"waw-1.pl.uncletopia.com","port":27025,"enabled":true,"region":"eu","cc":"pl","latitude":52.2297,"longitude":21.017532,"reserved":0,"last_update":"0001-01-01T00:00:00Z","name_a2s":"Uncletopia | Warsaw | 2 | All Maps","protocol":17,"map":"pl_pier","folder":"tf","game":"Team Fortress","app_id":440,"player_count":0,"max_players":24,"Bots":0,"server_type":"Dedicated","server_os":"Linux","password":true,"vac":true,"version":"7723704","steam_id":85568392925397851,"keywords":["nocrits","nodmgspread","payload","uncletopia"],"game_id":440,"stv_port":27026,"stv_name":"Uncletopia | Warsaw | 2 | All Maps | STV","players":null},{"server_id":51,"name":"Uncletopia | Warsaw | 3 | All Maps","name_short":"waw-3","host":"waw-1.pl.uncletopia.com","port":27035,"enabled":true,"region":"eu","cc":"pl","latitude":52.2297,"longitude":21.017532,"reserved":0,"last_update":"0001-01-01T00:00:00Z","name_a2s":"Uncletopia | Warsaw | 3 | All Maps","protocol":17,"map":"pl_barnblitz","folder":"tf","game":"Team Fortress","app_id":440,"player_count":0,"max_players":24,"Bots":0,"server_type":"Dedicated","server_os":"Linux","password":true,"vac":true,"version":"7723704","steam_id":85568392925397852,"keywords":["nocrits","nodmgspread","payload","uncletopia"],"game_id":440,"stv_port":27036,"stv_name":"Uncletopia | Warsaw | 3 | All Maps | STV","players":null},{"server_id":52,"name":"Uncletopia | Warsaw | 4 | All Maps","name_short":"waw-4","host":"waw-1.pl.uncletopia.com","port":27045,"enabled":true,"region":"eu","cc":"pl","latitude":52.2297,"longitude":21.017532,"reserved":0,"last_update":"0001-01-01T00:00:00Z","name_a2s":"Uncletopia | Warsaw | 4 | All Maps","protocol":17,"map":"koth_viaduct","folder":"tf","game":"Team Fortress","app_id":440,"player_count":0,"max_players":24,"Bots":0,"server_type":"Dedicated","server_os":"Linux","password":true,"vac":true,"version":"7723704","steam_id":85568392925397853,"keywords":["cp","nocrits","nodmgspread","uncletopia"],"game_id":440,"stv_port":27046,"stv_name":"Uncletopia | Warsaw | 4 | All Maps | STV","players":null},{"server_id":53,"name":"Uncletopia | Warsaw | 5 | Stopwatch Beta","name_short":"waw-5","host":"waw-1.pl.uncletopia.com","port":27055,"enabled":true,"region":"eu","cc":"pl","latitude":52.2297,"longitude":21.017532,"reserved":0,"last_update":"0001-01-01T00:00:00Z","name_a2s":"Uncletopia | Warsaw | 5 | Stopwatch Beta","protocol":17,"map":"cp_sunshine","folder":"tf","game":"Team Fortress","app_id":440,"player_count":0,"max_players":24,"Bots":0,"server_type":"Dedicated","server_os":"Linux","password":true,"vac":true,"version":"7723704","steam_id":85568392925397854,"keywords":["cp","nocrits","nodmgspread","uncletopia"],"game_id":440,"stv_port":27056,"stv_name":"Uncletopia | Warsaw | 5 | Stopwatch Beta | STV","players":null},{"server_id":54,"name":"Uncletopia | Warsaw | 6 | Community","name_short":"waw-6","host":"waw-1.pl.uncletopia.com","port":27065,"enabled":true,"region":"eu","cc":"pl","latitude":52.2297,"longitude":21.017532,"reserved":0,"last_update":"0001-01-01T00:00:00Z","name_a2s":"Uncletopia | Warsaw | 6 | Community","protocol":17,"map":"workshop/koth_product_final.ugc454272353","folder":"tf","game":"Team Fortress","app_id":440,"player_count":0,"max_players":24,"Bots":0,"server_type":"Dedicated","server_os":"Linux","password":true,"vac":true,"version":"7723704","steam_id":85568392925397856,"keywords":["cp","nocrits","nodmgspread","uncletopia"],"game_id":440,"stv_port":27066,"stv_name":"Uncletopia | Warsaw | 6 | Community | STV","players":null}]}