{"status":true,"message":"","result":[{"server_id":9,"name":"Uncletopia | Atlanta | 1 | All Maps","name_short":"atl-1","host":"atl-1.us.uncletopia.com","port":27015,"enabled":true,"region":"us-east","cc":"us","latitude":33.753746,"longitude":-84.38633,"reserved":0,"last_update":"0001-01-01T00:00:00Z","name_a2s":"Uncletopia | Atlanta | 1 | All Maps","protocol":17,"map":"pl_barnblitz","folder":"tf","game":"Team Fortress","app_id":440,"player_count":24,"max_players":24,"Bots":0,"server_type":"Dedicated","server_os":"Linux","password":true,"vac":true,"version":"7757534","steam_id":85568392924469982,"keywords":["nocrits","nodmgspread","payload","uncletopia"],"game_id":440,"stv_port":27016,"stv_name":"Uncletopia | Atlanta | 1 | All Maps | STV","players":[{"user_id":109,"name":"Albino Jellyfish","steam_id":76561198208561097,"connected_time":96000000000,"state":"active","ping":63},{"user_id":102,"name":"pinple","steam_id":76561198167075606,"connected_time":780000000000,"state":"active","ping":49},{"user_id":84,"name":"Zephyr","steam_id":76561198213753517,"connected_time":2135000000000,"state":"active","ping":75},{"user_id":90,"name":"Wumbologist","steam_id":76561198188729514,"connected_time":1613000000000,"state":"active","ping":46},{"user_id":85,"name":"SeaBass","steam_id":76561197982949108,"connected_time":2118000000000,"state":"active","ping":52},{"user_id":20,"name":"NixieNooner","steam_id":76561198988104619,"connected_time":5493000000000,"state":"active","ping":105},{"user_id":86,"name":"penny :]","steam_id":76561198040848362,"connected_time":2116000000000,"state":"active","ping":80},{"user_id":111,"name":"William Wallace","steam_id":76561199343316814,"connected_time":58000000000,"state":"active","ping":57},{"user_id":75,"name":"Zenabie","steam_id":76561198088372680,"connected_time":2535000000000,"state":"active","ping":95},{"user_id":96,"name":"SomeUnknownThing","steam_id":76561198412163316,"connected_time":1216000000000,"state":"active","ping":103},{"user_id":60,"name":"LegendaryMister151","steam_id":76561198064890524,"connected_time":4014000000000,"state":"active","ping":81},{"user_id":68,"name":"BackwardsEagle","steam_id":76561199013712612,"connected_time":2659000000000,"state":"active","ping":79},{"user_id":104,"name":"Mudlumps","steam_id":76561198839138297,"connected_time":295000000000,"state":"active","ping":49},{"user_id":92,"name":"metal pipe","steam_id":76561198849461209,"connected_time":1435000000000,"state":"active","ping":74},{"user_id":97,"name":"Mr.Kevin120","steam_id":76561199186919096,"connected_time":1186000000000,"state":"active","ping":114},{"user_id":44,"name":"Bozanimal","steam_id":76561198044096897,"connected_time":4927000000000,"state":"active","ping":49},{"user_id":79,"name":"oopsboom24","steam_id":76561199105248648,"connected_time":2309000000000,"state":"active","ping":58},{"user_id":95,"name":"Pyro Of The Lake","steam_id":76561199149576897,"connected_time":1364000000000,"state":"active","ping":68},{"user_id":108,"name":"yomo is sleeping","steam_id":76561198063175935,"connected_time":176000000000,"state":"active","ping":58},{"user_id":99,"name":"OW! My Balls!","steam_id":76561198007903113,"connected_time":1155000000000,"state":"active","ping":111},{"user_id":40,"name":"Lifial","steam_id":76561198271885819,"connected_time":4986000000000,"state":"active","ping":78},{"user_id":110,"name":"--_Cook_--","steam_id":76561198080855748,"connected_time":96000000000,"state":"active","ping":46},{"user_id":67,"name":"BIG HOG","steam_id":76561198079923652,"connected_time":2692000000000,"state":"active","ping":60},{"user_id":106,"name":"Ashes!","steam_id":76561197998475441,"connected_time":184000000000,"state":"active","ping":77}]},{"server_id":104,"name":"Uncletopia | Atlanta | 2 | All Maps","name_short":"atl-2","host":"atl-1.us.uncletopia.com","port":27025,"enabled":true,"region":"us-east","cc":"us","latitude":33.753746,"longitude":-84.38633,"reserved":0,"last_update":"0001-01-01T00:00:00Z","name_a2s":"Uncletopia | Atlanta | 2 | All Maps","protocol":17,"map":"pl_snowycoast","folder":"tf","game":"Team Fortress","app_id":440,"player_count":0,"max_players":24,"Bots":0,"server_type":"Dedicated","server_os":"Linux","password":true,"vac":true,"version":"7757534","steam_id":85568392924469983,"keywords":["nocrits","nodmgspread","payload","uncletopia"],"game_id":440,"stv_port":27026,"stv_name":"Uncletopia | Atlanta | 2 | All Maps | STV","players":null},{"server_id":400,"name":"Uncletopia | Atlanta | 3 | Community","name_short":"atl-3","host":"atl-1.us.uncletopia.com","port":27035,"enabled":true,"region":"us-east","cc":"us","latitude":33.753746,"longitude":-84.38633,"reserved":0,"last_update":"0001-01-01T00:00:00Z","name_a2s":"Uncletopia | Atlanta | 3 | Community","protocol":17,"map":"cp_snakewater_final1","folder":"tf","game":"Team Fortress","app_id":440,"player_count":0,"max_players":24,"Bots":0,"server_type":"Dedicated","server_os":"Linux","password":true,"vac":true,"version":"7757534","steam_id":85568392924515187,"keywords":["cp","nocrits","nodmgspread","uncletopia"],"game_id":440,"stv_port":27036,"stv_name":"Uncletopia | Atlanta | 3 | Community | STV","players":null},{"server_id":401,"name":"Uncletopia | Atlanta | 4 | No Payload","name_short":"atl-4","host":"atl-1.us.uncletopia.com","port":27045,"enabled":true,"region":"us-east","cc":"us","latitude":33.753746,"longitude":-84.38633,"reserved":0,"last_update":"0001-01-01T00:00:00Z","name_a2s":"","protocol":0,"map":"","folder":"","game":"","app_id":0,"player_count":0,"max_players":0,"Bots":0,"server_type":"","server_os":"","password":false,"vac":false,"version":"","steam_id":0,"keywords":null,"game_id":0,"stv_port":0,"stv_name":"","players":null},{"server_id":2,"name":"Uncletopia | Chicago | 1 | All Maps","name_short":"chi-1","host":"chi-1.us.uncletopia.com","port":27015,"enabled":true,"region":"us-central","cc":"us","latitude":41.881832,"longitude":-87.62318,"reserved":0,"last_update":"0001-01-01T00:00:00Z","name_a2s":"Uncletopia | Chicago | 1 | All Maps","protocol":17,"map":"cp_altitude","folder":"tf","game":"Team Fortress","app_id":440,"player_count":23,"max_players":24,"Bots":0,"server_type":"Dedicated","server_os":"Linux","password":true,"vac":true,"version":"7757534","steam_id":85568392924469984,"keywords":["cp","nocrits","nodmgspread","uncletopia"],"game_id":440,"stv_port":27016,"stv_name":"Uncletopia | Chicago | 1 | All Maps | STV","players":[{"user_id":202,"name":"val","steam_id":76561198177716494,"connected_time":3424000000000,"state":"active","ping":57},{"user_id":161,"name":"0","steam_id":76561198046055673,"connected_time":8259000000000,"state":"active","ping":70},{"user_id":231,"name":"boredomhitshard","steam_id":76561199445629071,"connected_time":915000000000,"state":"active","ping":60},{"user_id":242,"name":"Red","steam_id":76561198082958231,"connected_time":198000000000,"state":"active","ping":63},{"user_id":225,"name":"Pluto","steam_id":76561197979253518,"connected_time":1374000000000,"state":"active","ping":77},{"user_id":221,"name":"mos","steam_id":76561197995777973,"connected_time":1910000000000,"state":"active","ping":57},{"user_id":238,"name":"Not spy","steam_id":76561199205773751,"connected_time":441000000000,"state":"active","ping":187},{"user_id":241,"name":"Doublebagel47","steam_id":76561198832021744,"connected_time":225000000000,"state":"active","ping":73},{"user_id":243,"name":"SparkZ","steam_id":76561198314637812,"connected_time":193000000000,"state":"active","ping":165},{"user_id":226,"name":"Niko from Oneshot (NO SOUND)","steam_id":76561198180020521,"connected_time":1188000000000,"state":"active","ping":139},{"user_id":233,"name":"Zixzs","steam_id":76561198055504126,"connected_time":898000000000,"state":"active","ping":60},{"user_id":197,"name":"Gorrest Fump","steam_id":76561198169315998,"connected_time":3945000000000,"state":"active","ping":76},{"user_id":244,"name":"Daisy Le Nerd","steam_id":76561198149350087,"connected_time":153000000000,"state":"active","ping":172},{"user_id":245,"name":"woosh","steam_id":76561198173020438,"connected_time":144000000000,"state":"active","ping":73},{"user_id":246,"name":"Zeek","steam_id":76561197987204351,"connected_time":64000000000,"state":"active","ping":56},{"user_id":247,"name":"NoodlePup :D","steam_id":76561198184510919,"connected_time":21000000000,"state":"active","ping":86},{"user_id":248,"name":"Sanic_Bum","steam_id":76561198094179822,"connected_time":20000000000,"state":"spawning","ping":79},{"user_id":235,"name":"maS","steam_id":76561198033846407,"connected_time":743000000000,"state":"active","ping":60},{"user_id":212,"name":"Tet","steam_id":76561198079672144,"connected_time":2365000000000,"state":"active","ping":61},{"user_id":236,"name":"sardine","steam_id":76561198162797626,"connected_time":742000000000,"state":"active","ping":79},{"user_id":249,"name":"=(eGO)= Mithral Maw","steam_id":76561198192429347,"connected_time":13000000000,"state":"spawning","ping":60},{"user_id":250,"name":"Hulkster","steam_id":76561198278156353,"connected_time":9000000000,"state":"spawning","ping":104},{"user_id":230,"name":"shoe","steam_id":76561198070615198,"connected_time":972000000000,"state":"active","ping":64}]},{"server_id":106,"name":"Uncletopia | Chicago | 2 | All Maps","name_short":"chi-2","host":"chi-1.us.uncletopia.com","port":27025,"enabled":true,"region":"us-central","cc":"us","latitude":41.881832,"longitude":-87.62318,"reserved":0,"last_update":"0001-01-01T00:00:00Z","name_a2s":"Uncletopia | Chicago | 2 | All Maps","protocol":17,"map":"pl_badwater","folder":"tf","game":"Team Fortress","app_id":440,"player_count":2,"max_players":24,"Bots":0,"server_type":"Dedicated","server_os":"Linux","password":true,"vac":true,"version":"7757534","steam_id":85568392924469985,"keywords":["nocrits","nodmgspread","payload","uncletopia"],"game_id":440,"stv_port":27026,"stv_name":"Uncletopia | Chicago | 2 | All Maps | STV","players":[{"user_id":12,"name":"vv","steam_id":76561198134813102,"connected_time":182000000000,"state":"active","ping":47},{"user_id":13,"name":"Wallimo","steam_id":76561198158153312,"connected_time":36000000000,"state":"active","ping":63}]},{"server_id":402,"name":"Uncletopia | Chicago | 3 | All Maps","name_short":"chi-3","host":"chi-1.us.uncletopia.com","port":27035,"enabled":true,"region":"us-central","cc":"us","latitude":41.881832,"longitude":-87.62318,"reserved":0,"last_update":"0001-01-01T00:00:00Z","name_a2s":"Uncletopia | Chicago | 3 | All Maps","protocol":17,"map":"koth_viaduct","folder":"tf","game":"Team Fortress","app_id":440,"player_count":0,"max_players":24,"Bots":0,"server_type":"Dedicated","server_os":"Linux","password":true,"vac":true,"version":"7757534","steam_id":85568392924515191,"keywords":["cp","nocrits","nodmgspread","uncletopia"],"game_id":440,"stv_port":27036,"stv_name":"Uncletopia | Chicago | 3 | All Maps | STV","players":null},{"server_id":403,"name":"Uncletopia | Chicago | 4 | All Maps","name_short":"chi-4","host":"chi-1.us.uncletopia.com","port":27045,"enabled":true,"region":"us-central","cc":"us","latitude":41.881832,"longitude":-87.62318,"reserved":0,"last_update":"0001-01-01T00:00:00Z","name_a2s":"Uncletopia | Chicago | 4 | All Maps","protocol":17,"map":"koth_lakeside_final","folder":"tf","game":"Team Fortress","app_id":440,"player_count":0,"max_players":24,"Bots":0,"server_type":"Dedicated","server_os":"Linux","password":true,"vac":true,"version":"7757534","steam_id":85568392924515193,"keywords":["cp","nocrits","nodmgspread","uncletopia"],"game_id":440,"stv_port":27046,"stv_name":"Uncletopia | Chicago | 4 | All Maps | STV","players":null},{"server_id":36,"name":"Uncletopia | Chicago | 5 | All Maps","name_short":"chi-5","host":"chi-2.us.uncletopia.com","port":27015,"enabled":true,"region":"us-central","cc":"us","latitude":41.881832,"longitude":-87.62318,"reserved":0,"last_update":"0001-01-01T00:00:00Z","name_a2s":"Uncletopia | Chicago | 5 | All Maps","protocol":17,"map":"koth_cascade","folder":"tf","game":"Team Fortress","app_id":440,"player_count":0,"max_players":24,"Bots":0,"server_type":"Dedicated","server_os":"Linux","password":true,"vac":true,"version":"7757534","steam_id":85568392924866362,"keywords":["cp","nocrits","nodmgspread","uncletopia"],"game_id":440,"stv_port":27016,"stv_name":"Uncletopia | Chicago | 5 | All Maps | STV","players":null},{"server_id":37,"name":"Uncletopia | Chicago | 6 | All Maps","name_short":"chi-6","host":"chi-2.us.uncletopia.com","port":27025,"enabled":true,"region":"us-central","cc":"us","latitude":41.881832,"longitude":-87.62318,"reserved":0,"last_update":"0001-01-01T00:00:00Z","name_a2s":"Uncletopia | Chicago | 6 | All Maps","protocol":17,"map":"cp_dustbowl","folder":"tf","game":"Team Fortress","app_id":440,"player_count":24,"max_players":24,"Bots":0,"server_type":"Dedicated","server_os":"Linux","password":true,"vac":true,"version":"7757534","steam_id":85568392924866363,"keywords":["cp","nocrits","nodmgspread","uncletopia"],"game_id":440,"stv_port":27026,"stv_name":"Uncletopia | Chicago | 6 | All Maps | STV","players":[{"user_id":5,"name":"‡ºò ‚ãÜÀöüéßCaffeine‚òï*Àñ¬∞","steam_id":76561199259309294,"connected_time":4731000000000,"state":"active","ping":68},{"user_id":6,"name":"Belmore","steam_id":76561198009355231,"connected_time":4688000000000,"state":"active","ping":111},{"user_id":10,"name":"Dal","steam_id":76561198114064135,"connected_time":4406000000000,"state":"active","ping":78},{"user_id":51,"name":"Grease Monkey","steam_id":76561199073112578,"connected_time":1852000000000,"state":"active","ping":86},{"user_id":62,"name":"manbearswineflu","steam_id":76561198083945137,"connected_time":737000000000,"state":"active","ping":70},{"user_id":50,"name":"FrogInShorts","steam_id":76561198081903213,"connected_time":2060000000000,"state":"active","ping":84},{"user_id":64,"name":"Ringo x Seiran","steam_id":76561198357437908,"connected_time":415000000000,"state":"active","ping":62},{"user_id":59,"name":"scamper","steam_id":76561199093768105,"connected_time":809000000000,"state":"active","ping":111},{"user_id":60,"name":"Reverie","steam_id":76561198987005784,"connected_time":804000000000,"state":"active","ping":62},{"user_id":66,"name":"Van","steam_id":76561198981768324,"connected_time":153000000000,"state":"active","ping":72},{"user_id":68,"name":"Ekuseebia","steam_id":76561198037504112,"connected_time":57000000000,"state":"spawning","ping":67},{"user_id":63,"name":"Tommy Pickles (Very Cool)","steam_id":76561198391261463,"connected_time":727000000000,"state":"active","ping":64},{"user_id":23,"name":"Quark","steam_id":76561198328155605,"connected_time":3912000000000,"state":"active","ping":56},{"user_id":47,"name":"sklob","steam_id":76561197966804876,"connected_time":2237000000000,"state":"active","ping":84},{"user_id":26,"name":"briggs","steam_id":76561198045655893,"connected_time":3565000000000,"state":"active","ping":59},{"user_id":27,"name":"VelocityMagnet","steam_id":76561199097484065,"connected_time":3547000000000,"state":"active","ping":78},{"user_id":56,"name":"I'm Going Goblin Mode","steam_id":76561198084167611,"connected_time":1619000000000,"state":"active","ping":63},{"user_id":65,"name":"Scrux","steam_id":76561198129763115,"connected_time":381000000000,"state":"active","ping":104},{"user_id":52,"name":"Pedro Num","steam_id":76561198854600072,"connected_time":1830000000000,"state":"active","ping":159},{"user_id":53,"name":"Sockhead","steam_id":76561198253181773,"connected_time":1789000000000,"state":"active","ping":86},{"user_id":57,"name":"gamerlegend47","steam_id":76561198122776598,"connected_time":1604000000000,"state":"active","ping":74},{"user_id":36,"name":"cool safe name","steam_id":76561198237827742,"connected_time":3191000000000,"state":"active","ping":70},{"user_id":48,"name":"TJGSASQUATCH","steam_id":76561198077806921,"connected_time":2197000000000,"state":"active","ping":79},{"user_id":49,"name":"AYAYA!!!","steam_id":76561198992102180,"connected_time":2172000000000,"state":"active","ping":49}]},{"server_id":38,"name":"Uncletopia | Chicago | 7 | Stopwatch Beta","name_short":"chi-7","host":"chi-2.us.uncletopia.com","port":27035,"enabled":true,"region":"us-central","cc":"us","latitude":41.881832,"longitude":-87.62318,"reserved":0,"last_update":"0001-01-01T00:00:00Z","name_a2s":"Uncletopia | Chicago | 7 | Stopwatch Beta","protocol":17,"map":"pl_barnblitz","folder":"tf","game":"Team Fortress","app_id":440,"player_count":0,"max_players":24,"Bots":0,"server_type":"Dedicated","server_os":"Linux","password":true,"vac":true,"version":"7757534","steam_id":85568392924866364,"keywords":["nocrits","nodmgspread","payload","uncletopia"],"game_id":440,"stv_port":27036,"stv_name":"Uncletopia | Chicago | 7 | Stopwatch Beta | STV","players":null},{"server_id":39,"name":"Uncletopia | Chicago | 8 | Community","name_short":"chi-8","host":"chi-2.us.uncletopia.com","port":27045,"enabled":true,"region":"us-central","cc":"us","latitude":41.881832,"longitude":-87.62318,"reserved":0,"last_update":"0001-01-01T00:00:00Z","name_a2s":"Uncletopia | Chicago | 8 | Community","protocol":17,"map":"koth_cascade","folder":"tf","game":"Team Fortress","app_id":440,"player_count":0,"max_players":24,"Bots":0,"server_type":"Dedicated","server_os":"Linux","password":true,"vac":true,"version":"7757534","steam_id":85568392924866365,"keywords":["cp","nocrits","nodmgspread","uncletopia"],"game_id":440,"stv_port":27046,"stv_name":"Uncletopia | Chicago | 8 | Community | STV","players":null},{"server_id":8,"name":"Uncletopia | Dallas | 1 | All Maps","name_short":"dal-1","host":"dal-1.us.uncletopia.com","port":27015,"enabled":true,"region":"us-central","cc":"us","latitude":32.779167,"longitude":-96.80889,"reserved":0,"last_update":"0001-01-01T00:00:00Z","name_a2s":"Uncletopia | Dallas | 1 | All Maps","protocol":17,"map":"pl_upward","folder":"tf","game":"Team Fortress","app_id":440,"player_count":24,"max_players":24,"Bots":0,"server_type":"Dedicated","server_os":"Linux","password":true,"vac":true,"version":"7757534","steam_id":85568392924469986,"keywords":["nocrits","nodmgspread","payload","uncletopia"],"game_id":440,"stv_port":27016,"stv_name":"Uncletopia | Dallas | 1 | All Maps | STV","players":[{"user_id":253,"name":"wahooka","steam_id":76561197981211922,"connected_time":266000000000,"state":"active","ping":86},{"user_id":234,"name":"Vappy019","steam_id":76561198072995939,"connected_time":1939000000000,"state":"active","ping":92},{"user_id":236,"name":"Gavial the Invincible","steam_id":76561198348354629,"connected_time":1551000000000,"state":"active","ping":64},{"user_id":246,"name":"Luna","steam_id":76561198131342156,"connected_time":627000000000,"state":"active","ping":47},{"user_id":243,"name":"Mongee","steam_id":76561198161610684,"connected_time":638000000000,"state":"active","ping":46},{"user_id":135,"name":"AirMan121","steam_id":76561198042951349,"connected_time":8856000000000,"state":"active","ping":87},{"user_id":254,"name":"Tots","steam_id":76561198027485007,"connected_time":258000000000,"state":"active","ping":60},{"user_id":248,"name":"amnyak","steam_id":76561198165831950,"connected_time":572000000000,"state":"active","ping":88},{"user_id":207,"name":"Mediarch","steam_id":76561198050765729,"connected_time":3154000000000,"state":"active","ping":105},{"user_id":228,"name":"chill","steam_id":76561198982840251,"connected_time":2292000000000,"state":"active","ping":91},{"user_id":209,"name":"Boomer Gaming","steam_id":76561198037803087,"connected_time":3068000000000,"state":"active","ping":54},{"user_id":190,"name":"dointhedishes","steam_id":76561198969988882,"connected_time":5252000000000,"state":"active","ping":34},{"user_id":233,"name":"blakejack226","steam_id":76561199128917566,"connected_time":2020000000000,"state":"active","ping":95},{"user_id":257,"name":"FakeBot","steam_id":76561197961193303,"connected_time":73000000000,"state":"active","ping":108},{"user_id":251,"name":"Liberty Prime [Dexgod]","steam_id":76561198017130786,"connected_time":396000000000,"state":"active","ping":95},{"user_id":212,"name":"goooot","steam_id":76561198155591052,"connected_time":2988000000000,"state":"active","ping":48},{"user_id":249,"name":"Cheeeeeeeen","steam_id":76561198986388085,"connected_time":506000000000,"state":"active","ping":106},{"user_id":214,"name":"Deltaco","steam_id":76561198094572694,"connected_time":2891000000000,"state":"active","ping":116},{"user_id":242,"name":"Monochrome","steam_id":76561198857536448,"connected_time":945000000000,"state":"active","ping":129},{"user_id":255,"name":"youmu","steam_id":76561199267386864,"connected_time":255000000000,"state":"active","ping":96},{"user_id":244,"name":"potato farmer","steam_id":76561198021232212,"connected_time":638000000000,"state":"active","ping":104},{"user_id":230,"name":"Atomik","steam_id":76561199070549800,"connected_time":2217000000000,"state":"active","ping":80},{"user_id":241,"name":"Darthcash","steam_id":76561197993430484,"connected_time":1273000000000,"state":"active","ping":113},{"user_id":240,"name":"aleph LFT","steam_id":76561197978531382,"connected_time":1399000000000,"state":"active","ping":84}]},{"server_id":108,"name":"Uncletopia | Dallas | 2 | All Maps","name_short":"dal-2","host":"dal-1.us.uncletopia.com","port":27025,"enabled":true,"region":"us-central","cc":"us","latitude":32.779167,"longitude":-96.80889,"reserved":0,"last_update":"0001-01-01T00:00:00Z","name_a2s":"Uncletopia | Dallas | 2 | All Maps","protocol":17,"map":"pl_frontier_final","folder":"tf","game":"Team Fortress","app_id":440,"player_count":0,"max_players":24,"Bots":0,"server_type":"Dedicated","server_os":"Linux","password":true,"vac":true,"version":"7757534","steam_id":85568392924469988,"keywords":["nocrits","nodmgspread","payload","uncletopia"],"game_id":440,"stv_port":27026,"stv_name":"Uncletopia | Dallas | 2 | All Maps | STV","players":null},{"server_id":5,"name":"Uncletopia | Frankfurt | 1 | All Maps","name_short":"frk-1","host":"frk-1.de.uncletopia.com","port":27015,"enabled":true,"region":"eu","cc":"de","latitude":50.110924,"longitude":8.682127,"reserved":0,"last_update":"0001-01-01T00:00:00Z","name_a2s":"Uncletopia | Frankfurt | 1 | All Maps","protocol":17,"map":"pl_swiftwater_final1","folder":"tf","game":"Team Fortress","app_id":440,"player_count":24,"max_players":24,"Bots":0,"server_type":"Dedicated","server_os":"Linux","password":true,"vac":true,"version":"7757534","steam_id":85568392924469989,"keywords":["nocrits","nodmgspread","payload","uncletopia"],"game_id":440,"stv_port":27016,"stv_name":"Uncletopia | Frankfurt | 1 | All Maps | STV","players":[{"user_id":617,"name":"limbicsystem","steam_id":76561198025612680,"connected_time":43000000000,"state":"active","ping":67},{"user_id":606,"name":"Sirzen","steam_id":76561198170155434,"connected_time":794000000000,"state":"active","ping":46},{"user_id":564,"name":"modavak","steam_id":76561198946290908,"connected_time":5076000000000,"state":"active","ping":90},{"user_id":594,"name":"Hegyi tah√≥ F2P","steam_id":76561199219150356,"connected_time":1468000000000,"state":"active","ping":74},{"user_id":599,"name":"Piox","steam_id":76561198125689157,"connected_time":1176000000000,"state":"active","ping":81},{"user_id":607,"name":"Croffsi","steam_id":76561198079985921,"connected_time":603000000000,"state":"active","ping":62},{"user_id":613,"name":"TK.TK","steam_id":76561199384193338,"connected_time":115000000000,"state":"active","ping":60},{"user_id":567,"name":"MLG Peridot","steam_id":76561198069780233,"connected_time":4404000000000,"state":"active","ping":62},{"user_id":608,"name":"obscurum","steam_id":76561198099827790,"connected_time":393000000000,"state":"active","ping":61},{"user_id":520,"name":"Zizman","steam_id":76561198446562910,"connected_time":7789000000000,"state":"active","ping":146},{"user_id":614,"name":"Irme","steam_id":76561198161590299,"connected_time":97000000000,"state":"active","ping":69},{"user_id":518,"name":"Watermelon","steam_id":76561198078349914,"connected_time":7967000000000,"state":"active","ping":65},{"user_id":602,"name":"justgvbe","steam_id":76561199193230375,"connected_time":1077000000000,"state":"active","ping":52},{"user_id":600,"name":"ldshwt","steam_id":76561198090364357,"connected_time":1148000000000,"state":"active","ping":44},{"user_id":605,"name":"System","steam_id":76561199442503973,"connected_time":858000000000,"state":"active","ping":45},{"user_id":593,"name":"Drosan „ÉÑ","steam_id":76561197960389216,"connected_time":1765000000000,"state":"active","ping":39},{"user_id":574,"name":"Quill","steam_id":76561198348124998,"connected_time":3555000000000,"state":"active","ping":61},{"user_id":615,"name":"jaime8D","steam_id":76561197980590671,"connected_time":75000000000,"state":"active","ping":83},{"user_id":611,"name":"BerlinPCS","steam_id":76561198856531382,"connected_time":314000000000,"state":"active","ping":58},{"user_id":616,"name":"miiq130","steam_id":76561198188010666,"connected_time":64000000000,"state":"active","ping":78},{"user_id":511,"name":"uma","steam_id":76561198147976939,"connected_time":8391000000000,"state":"active","ping":52},{"user_id":610,"name":"todesfall","steam_id":76561199057953617,"connected_time":339000000000,"state":"active","ping":61},{"user_id":601,"name":"bliss","steam_id":76561198067459427,"connected_time":1145000000000,"state":"active","ping":53},{"user_id":580,"name":"Radegast the Brown","steam_id":76561198075489505,"connected_time":2572000000000,"state":"active","ping":60}]},{"server_id":110,"name":"Uncletopia | Frankfurt | 2 | All Maps","name_short":"frk-2","host":"frk-1.de.uncletopia.com","port":27025,"enabled":true,"region":"eu","cc":"de","latitude":50.110924,"longitude":8.682127,"reserved":0,"last_update":"0001-01-01T00:00:00Z","name_a2s":"Uncletopia | Frankfurt | 2 | All Maps","protocol":17,"map":"koth_cascade","folder":"tf","game":"Team Fortress","app_id":440,"player_count":0,"max_players":24,"Bots":0,"server_type":"Dedicated","server_os":"Linux","password":true,"vac":true,"version":"7757534","steam_id":85568392924469990,"keywords":["cp","nocrits","nodmgspread","uncletopia"],"game_id":440,"stv_port":27026,"stv_name":"Uncletopia | Frankfurt | 2 | All Maps | STV","players":null},{"server_id":308,"name":"Uncletopia | Frankfurt | 3 | All Maps","name_short":"frk-3","host":"frk-1.de.uncletopia.com","port":27035,"enabled":true,"region":"eu","cc":"de","latitude":50.110924,"longitude":8.682127,"reserved":0,"last_update":"0001-01-01T00:00:00Z","name_a2s":"Uncletopia | Frankfurt | 3 | All Maps","protocol":17,"map":"pl_upward","folder":"tf","game":"Team Fortress","app_id":440,"player_count":21,"max_players":24,"Bots":0,"server_type":"Dedicated","server_os":"Linux","password":true,"vac":true,"version":"7757534","steam_id":85568392924504274,"keywords":["nocrits","nodmgspread","payload","uncletopia"],"game_id":440,"stv_port":27036,"stv_name":"Uncletopia | Frankfurt | 3 | All Maps | STV","players":[{"user_id":45,"name":"Average meme enjoyer","steam_id":76561199087566663,"connected_time":1092000000000,"state":"active","ping":80},{"user_id":56,"name":"GGabe","steam_id":76561198117199068,"connected_time":625000000000,"state":"active","ping":61},{"user_id":64,"name":"i look at gay people","steam_id":76561198078032019,"connected_time":92000000000,"state":"active","ping":89},{"user_id":31,"name":"King","steam_id":76561198402691965,"connected_time":1724000000000,"state":"active","ping":67},{"user_id":66,"name":"joyful","steam_id":76561198057631622,"connected_time":35000000000,"state":"active","ping":180},{"user_id":25,"name":"[HOL] Solringen","steam_id":76561198003584681,"connected_time":2140000000000,"state":"active","ping":69},{"user_id":46,"name":"Shotgun Shine","steam_id":76561199006388533,"connected_time":1075000000000,"state":"active","ping":162},{"user_id":59,"name":"yusef","steam_id":76561198108481078,"connected_time":494000000000,"state":"active","ping":117},{"user_id":33,"name":"—É–≤—ã–Ω—Å–∫","steam_id":76561198172046813,"connected_time":1457000000000,"state":"active","ping":76},{"user_id":30,"name":"VORTEX(COMMS OPEN)","steam_id":76561199074746528,"connected_time":1748000000000,"state":"active","ping":56},{"user_id":40,"name":"bibib17","steam_id":76561198143319217,"connected_time":1250000000000,"state":"active","ping":75},{"user_id":60,"name":"Shovelhalfrusty","steam_id":76561198346447513,"connected_time":487000000000,"state":"active","ping":78},{"user_id":67,"name":"Saltanat","steam_id":76561198802621568,"connected_time":11000000000,"state":"spawning","ping":60},{"user_id":39,"name":"Pingus","steam_id":76561198164880756,"connected_time":1280000000000,"state":"active","ping":68},{"user_id":42,"name":"agent k","steam_id":76561198020408082,"connected_time":1225000000000,"state":"active","ping":69},{"user_id":61,"name":"Osman0","steam_id":76561198851527212,"connected_time":484000000000,"state":"active","ping":56},{"user_id":65,"name":"copium addict","steam_id":76561199401665282,"connected_time":52000000000,"state":"active","ping":100},{"user_id":51,"name":"Cagnus Marlsen","steam_id":76561198077859721,"connected_time":901000000000,"state":"active","ping":59},{"user_id":53,"name":"printer is broken","steam_id":76561198234270592,"connected_time":802000000000,"state":"active","ping":61},{"user_id":54,"name":"Kamikrazy","steam_id":76561198044254918,"connected_time":760000000000,"state":"active","ping":68},{"user_id":63,"name":"lacurio","steam_id":76561198059701776,"connected_time":458000000000,"state":"active","ping":63}]},{"server_id":309,"name":"Uncletopia | Frankfurt | 4 | All Maps","name_short":"frk-4","host":"frk-1.de.uncletopia.com","port":27045,"enabled":true,"region":"eu","cc":"de","latitude":50.110924,"longitude":8.682127,"reserved":0,"last_update":"0001-01-01T00:00:00Z","name_a2s":"Uncletopia | Frankfurt | 4 | All Maps","protocol":17,"map":"koth_viaduct","folder":"tf","game":"Team Fortress","app_id":440,"player_count":0,"max_players":24,"Bots":0,"server_type":"Dedicated","server_os":"Linux","password":true,"vac":true,"version":"7757534","steam_id":85568392924504275,"keywords":["cp","nocrits","nodmgspread","uncletopia"],"game_id":440,"stv_port":27046,"stv_name":"Uncletopia | Frankfurt | 4 | All Maps | STV","players":null},{"server_id":310,"name":"Uncletopia | Frankfurt | 5 | All Maps","name_short":"frk-5","host":"frk-1.de.uncletopia.com","port":27055,"enabled":true,"region":"eu","cc":"de","latitude":50.110924,"longitude":8.682127,"reserved":0,"last_update":"0001-01-01T00:00:00Z","name_a2s":"Uncletopia | Frankfurt | 5 | All Maps","protocol":17,"map":"koth_lakeside_final","folder":"tf","game":"Team Fortress","app_id":440,"player_count":0,"max_players":24,"Bots":0,"server_type":"Dedicated","server_os":"Linux","password":true,"vac":true,"version":"7757534","steam_id":85568392924504277,"keywords":["cp","nocrits","nodmgspread","uncletopia"],"game_id":440,"stv_port":27056,"stv_name":"Uncletopia | Frankfurt | 5 | All Maps | STV","players":null},{"server_id":311,"name":"Uncletopia | Frankfurt | 6 | All Maps","name_short":"frk-6","host":"frk-1.de.uncletopia.com","port":27065,"enabled":true,"region":"eu","cc":"de","latitude":50.110924,"longitude":8.682127,"reserved":0,"last_update":"0001-01-01T00:00:00Z","name_a2s":"Uncletopia | Frankfurt | 6 | All Maps","protocol":17,"map":"pl_frontier_final","folder":"tf","game":"Team Fortress","app_id":440,"player_count":24,"max_players":24,"Bots":0,"server_type":"Dedicated","server_os":"Linux","password":true,"vac":true,"version":"7757534","steam_id":85568392924504278,"keywords":["nocrits","nodmgspread","payload","uncletopia"],"game_id":440,"stv_port":27066,"stv_name":"Uncletopia | Frankfurt | 6 | All Maps | STV","players":[{"user_id":131,"name":"music time!","steam_id":76561199483090531,"connected_time":138000000000,"state":"active","ping":72},{"user_id":17,"name":"taima","steam_id":76561198281053248,"connected_time":7802000000000,"state":"active","ping":67},{"user_id":11,"name":"Jackriz","steam_id":76561198024882111,"connected_time":8082000000000,"state":"active","ping":74},{"user_id":113,"name":"-","steam_id":76561198185348855,"connected_time":1346000000000,"state":"active","ping":66},{"user_id":107,"name":"[waffles]","steam_id":76561198951206047,"connected_time":1749000000000,"state":"active","ping":79},{"user_id":119,"name":"Cosmetic brain","steam_id":76561198055936410,"connected_time":865000000000,"state":"active","ping":89},{"user_id":108,"name":"Popop","steam_id":76561198004793795,"connected_time":1655000000000,"state":"active","ping":55},{"user_id":121,"name":"Rai","steam_id":76561199408923294,"connected_time":720000000000,"state":"active","ping":152},{"user_id":82,"name":"Spinyapickle","steam_id":76561198086653667,"connected_time":3458000000000,"state":"active","ping":68},{"user_id":118,"name":"haha u thought i spy","steam_id":76561198847191826,"connected_time":890000000000,"state":"active","ping":75},{"user_id":122,"name":"Mirlok3","steam_id":76561198093167827,"connected_time":714000000000,"state":"active","ping":67},{"user_id":116,"name":"lizard","steam_id":76561199074653209,"connected_time":942000000000,"state":"active","ping":75},{"user_id":117,"name":"Rex Z'Beq","steam_id":76561199300590000,"connected_time":929000000000,"state":"active","ping":83},{"user_id":86,"name":"Helon","steam_id":76561198050761682,"connected_time":3022000000000,"state":"active","ping":58},{"user_id":133,"name":"Palicra","steam_id":76561198418538887,"connected_time":65000000000,"state":"active","ping":92},{"user_id":111,"name":"Soldier of God","steam_id":76561198110470565,"connected_time":1511000000000,"state":"active","ping":104},{"user_id":109,"name":"Hedge Knight","steam_id":76561198989449047,"connected_time":1629000000000,"state":"active","ping":117},{"user_id":112,"name":"Vitun vittu","steam_id":76561198110679463,"connected_time":1379000000000,"state":"active","ping":84},{"user_id":84,"name":"El Gato Volador","steam_id":76561198021296882,"connected_time":3439000000000,"state":"active","ping":77},{"user_id":123,"name":"DiscoTraveler","steam_id":76561199240168088,"connected_time":709000000000,"state":"active","ping":128},{"user_id":125,"name":"Tec","steam_id":76561199096762480,"connected_time":573000000000,"state":"active","ping":77},{"user_id":130,"name":"I have aids","steam_id":76561198860347851,"connected_time":164000000000,"state":"active","ping":127},{"user_id":127,"name":"Duck","steam_id":76561198841587079,"connected_time":551000000000,"state":"active","ping":68},{"user_id":99,"name":"snovi","steam_id":76561198984436595,"connected_time":2455000000000,"state":"active","ping":81}]},{"server_id":23,"name":"Uncletopia | Frankfurt | 7 | Stopwatch Beta","name_short":"frk-7","host":"frk-1.de.uncletopia.com","port":27075,"enabled":true,"region":"eu","cc":"de","latitude":50.110924,"longitude":8.682127,"reserved":0,"last_update":"0001-01-01T00:00:00Z","name_a2s":"Uncletopia | Frankfurt | 7 | Stopwatch Beta","protocol":17,"map":"workshop/pl_summercoast_rc8e.ugc1761528829","folder":"tf","game":"Team Fortress","app_id":440,"player_count":0,"max_players":24,"Bots":0,"server_type":"Dedicated","server_os":"Linux","password":true,"vac":true,"version":"7757534","steam_id":85568392924742827,"keywords":["nocrits","nodmgspread","payload","uncletopia"],"game_id":440,"stv_port":27076,"stv_name":"Uncletopia | Frankfurt | 7 | Stopwatch Beta | STV","players":null},{"server_id":24,"name":"Uncletopia | Frankfurt | 8 | Community","name_short":"frk-8","host":"frk-1.de.uncletopia.com","port":27085,"enabled":true,"region":"eu","cc":"de","latitude":50.110924,"longitude":8.682127,"reserved":0,"last_update":"0001-01-01T00:00:00Z","name_a2s":"Uncletopia | Frankfurt | 8 | Community","protocol":17,"map":"workshop/pl_emerge_rc2.ugc888027758","folder":"tf","game":"Team Fortress","app_id":440,"player_count":24,"max_players":24,"Bots":0,"server_type":"Dedicated","server_os":"Linux","password":true,"vac":true,"version":"7757534","steam_id":85568392924742828,"keywords":["nocrits","nodmgspread","payload","uncletopia"],"game_id":440,"stv_port":27086,"stv_name":"Uncletopia | Frankfurt | 8 | Community | STV","players":[{"user_id":94,"name":"TheSquirrelofHuscurl","steam_id":76561198073379623,"connected_time":391000000000,"state":"active","ping":175},{"user_id":87,"name":"hisham","steam_id":76561198414437290,"connected_time":1615000000000,"state":"active","ping":114},{"user_id":93,"name":"NatP","steam_id":76561198012083811,"connected_time":852000000000,"state":"active","ping":75},{"user_id":66,"name":"Leibeigener","steam_id":76561199275478305,"connected_time":3253000000000,"state":"active","ping":42},{"user_id":96,"name":"Maddox","steam_id":76561198062120554,"connected_time":363000000000,"state":"active","ping":175},{"user_id":97,"name":"Rez","steam_id":76561198410598772,"connected_time":353000000000,"state":"active","ping":60},{"user_id":98,"name":"chssdk","steam_id":76561198262231733,"connected_time":302000000000,"state":"active","ping":60},{"user_id":70,"name":"Pumpkin Pie","steam_id":76561198115230959,"connected_time":3007000000000,"state":"active","ping":83},{"user_id":64,"name":"Scipionemiliano","steam_id":76561198027646559,"connected_time":3363000000000,"state":"active","ping":111},{"user_id":81,"name":"kolek 1337","steam_id":76561199052690012,"connected_time":2244000000000,"state":"active","ping":77},{"user_id":102,"name":"LikedLizardGaming","steam_id":76561199048253197,"connected_time":192000000000,"state":"active","ping":100},{"user_id":37,"name":"Nemko","steam_id":76561198065945984,"connected_time":4385000000000,"state":"active","ping":61},{"user_id":90,"name":"Ixion","steam_id":76561198041660675,"connected_time":1304000000000,"state":"active","ping":75},{"user_id":80,"name":"Lyzz","steam_id":76561198103622650,"connected_time":2306000000000,"state":"active","ping":66},{"user_id":31,"name":"ja","steam_id":76561199228540618,"connected_time":4533000000000,"state":"active","ping":84},{"user_id":32,"name":"jeff","steam_id":76561198272815746,"connected_time":4531000000000,"state":"active","ping":61},{"user_id":50,"name":"ÍßÅ‡πñ‰π°√êe¬∑SexyLion‰π°ÍßÇ","steam_id":76561198123539320,"connected_time":3829000000000,"state":"active","ping":90},{"user_id":99,"name":"m√®x","steam_id":76561197975951572,"connected_time":286000000000,"state":"active","ping":58},{"user_id":73,"name":"Vennis","steam_id":76561198047228720,"connected_time":2993000000000,"state":"active","ping":85},{"user_id":86,"name":"lore","steam_id":76561198120984188,"connected_time":1753000000000,"state":"active","ping":60},{"user_id":100,"name":"einEisTee","steam_id":76561198079788813,"connected_time":213000000000,"state":"active","ping":57},{"user_id":46,"name":"Irbynx","steam_id":76561197980421195,"connected_time":4220000000000,"state":"active","ping":87},{"user_id":101,"name":"Mr. Luigi","steam_id":76561198167312951,"connected_time":210000000000,"state":"active","ping":52}]},{"server_id":202,"name":"Uncletopia | Hong Kong | 1 | All Maps","name_short":"hgk-1","host":"hgk-1.hk.uncletopia.com","port":27015,"enabled":true,"region":"asia","cc":"hk","latitude":22.302711,"longitude":114.177216,"reserved":0,"last_update":"0001-01-01T00:00:00Z","name_a2s":"Uncletopia | Hong Kong | 1 | All Maps","protocol":17,"map":"koth_highpass","folder":"tf","game":"Team Fortress","app_id":440,"player_count":0,"max_players":24,"Bots":0,"server_type":"Dedicated","server_os":"Linux","password":true,"vac":true,"version":"7757534","steam_id":85568392924494504,"keywords":["cp","nocrits","nodmgspread","uncletopia"],"game_id":440,"stv_port":27016,"stv_name":"Uncletopia | Hong Kong | 1 | All Maps | STV","players":null},{"server_id":1,"name":"Uncletopia | Los Angeles | 1 | All Maps","name_short":"lax-1","host":"lax-1.us.uncletopia.com","port":27015,"enabled":true,"region":"us-west","cc":"us","latitude":33.94279,"longitude":-118.41004,"reserved":0,"last_update":"0001-01-01T00:00:00Z","name_a2s":"Uncletopia | Los Angeles | 1 | All Maps","protocol":17,"map":"koth_lakeside_final","folder":"tf","game":"Team Fortress","app_id":440,"player_count":0,"max_players":24,"Bots":0,"server_type":"Dedicated","server_os":"Linux","password":true,"vac":true,"version":"7757534","steam_id":85568392924469991,"keywords":["cp","nocrits","nodmgspread","uncletopia"],"game_id":440,"stv_port":27016,"stv_name":"Uncletopia | Los Angeles | 1 | All Maps | STV","players":null},{"server_id":112,"name":"Uncletopia | Los Angeles | 2 | All Maps","name_short":"lax-2","host":"lax-1.us.uncletopia.com","port":27025,"enabled":true,"region":"us-west","cc":"us","latitude":33.94279,"longitude":-118.41004,"reserved":0,"last_update":"0001-01-01T00:00:00Z","name_a2s":"Uncletopia | Los Angeles | 2 | All Maps","protocol":17,"map":"pl_badwater","folder":"tf","game":"Team Fortress","app_id":440,"player_count":0,"max_players":24,"Bots":0,"server_type":"Dedicated","server_os":"Linux","password":true,"vac":true,"version":"7757534","steam_id":85568392924469992,"keywords":["nocrits","nodmgspread","payload","uncletopia"],"game_id":440,"stv_port":27026,"stv_name":"Uncletopia | Los Angeles | 2 | All Maps | STV","players":null},{"server_id":324,"name":"Uncletopia | Los Angeles | 3 | All Maps","name_short":"lax-3","host":"lax-1.us.uncletopia.com","port":27035,"enabled":true,"region":"us-west","cc":"us","latitude":33.94279,"longitude":-118.41004,"reserved":0,"last_update":"0001-01-01T00:00:00Z","name_a2s":"Uncletopia | Los Angeles | 3 | All Maps","protocol":17,"map":"pl_barnblitz","folder":"tf","game":"Team Fortress","app_id":440,"player_count":0,"max_players":24,"Bots":0,"server_type":"Dedicated","server_os":"Linux","password":true,"vac":true,"version":"7757534","steam_id":85568392924510198,"keywords":["nocrits","nodmgspread","payload","uncletopia"],"game_id":440,"stv_port":27036,"stv_name":"Uncletopia | Los Angeles | 3 | All Maps | STV","players":null},{"server_id":25,"name":"Uncletopia | Los Angeles | 4 | Stopwatch Beta","name_short":"lax-4","host":"lax-1.us.uncletopia.com","port":27045,"enabled":true,"region":"us-west","cc":"us","latitude":33.94279,"longitude":-118.41004,"reserved":0,"last_update":"0001-01-01T00:00:00Z","name_a2s":"Uncletopia | Los Angeles | 4 | Stopwatch Beta","protocol":17,"map":"pl_swiftwater_final1","folder":"tf","game":"Team Fortress","app_id":440,"player_count":0,"max_players":24,"Bots":0,"server_type":"Dedicated","server_os":"Linux","password":true,"vac":true,"version":"7757534","steam_id":85568392924510199,"keywords":["nocrits","nodmgspread","payload","uncletopia"],"game_id":440,"stv_port":27046,"stv_name":"Uncletopia | Los Angeles | 4 | Stopwatch Beta | STV","players":null},{"server_id":11,"name":"Uncletopia | London | 1 | All Maps","name_short":"lon-1","host":"lon-1.uk.uncletopia.com","port":27015,"enabled":true,"region":"eu","cc":"gb","latitude":51.509865,"longitude":-0.118092,"reserved":0,"last_update":"0001-01-01T00:00:00Z","name_a2s":"Uncletopia | London | 1 | All Maps","protocol":17,"map":"pl_borneo","folder":"tf","game":"Team Fortress","app_id":440,"player_count":24,"max_players":24,"Bots":0,"server_type":"Dedicated","server_os":"Linux","password":true,"vac":true,"version":"7757534","steam_id":85568392924367362,"keywords":["nocrits","nodmgspread","payload","uncletopia"],"game_id":440,"stv_port":27016,"stv_name":"Uncletopia | London | 1 | All Maps | STV","players":[{"user_id":32,"name":"Rat King","steam_id":76561198256783599,"connected_time":3140000000000,"state":"active","ping":54},{"user_id":24,"name":"jimmy bob","steam_id":76561198319583692,"connected_time":3745000000000,"state":"active","ping":60},{"user_id":25,"name":"Boardie","steam_id":76561198215700300,"connected_time":3691000000000,"state":"active","ping":55},{"user_id":26,"name":"Ferlo","steam_id":76561198095561504,"connected_time":3544000000000,"state":"active","ping":48},{"user_id":27,"name":"Nycto","steam_id":76561198050032617,"connected_time":3539000000000,"state":"active","ping":138},{"user_id":75,"name":"hank","steam_id":76561198801083746,"connected_time":1435000000000,"state":"active","ping":77},{"user_id":81,"name":"Graytust Gaymar","steam_id":76561199057844390,"connected_time":1036000000000,"state":"active","ping":183},{"user_id":82,"name":"Hypenite","steam_id":76561198067589713,"connected_time":759000000000,"state":"active","ping":92},{"user_id":59,"name":"kaaos","steam_id":76561198016957692,"connected_time":2095000000000,"state":"active","ping":84},{"user_id":66,"name":"avewszystkim","steam_id":76561199382492530,"connected_time":1659000000000,"state":"active","ping":69},{"user_id":83,"name":"Tavish","steam_id":76561198003756572,"connected_time":447000000000,"state":"active","ping":52},{"user_id":35,"name":"class1driller","steam_id":76561198029068574,"connected_time":3057000000000,"state":"active","ping":76},{"user_id":36,"name":"Butt Fangs Fetish","steam_id":76561198038130063,"connected_time":3051000000000,"state":"active","ping":89},{"user_id":37,"name":"Havelyn","steam_id":76561198036159862,"connected_time":3051000000000,"state":"active","ping":137},{"user_id":84,"name":"kemor","steam_id":76561198027684291,"connected_time":278000000000,"state":"active","ping":60},{"user_id":73,"name":"4828","steam_id":76561198326153524,"connected_time":1474000000000,"state":"active","ping":64},{"user_id":53,"name":"balanced diet","steam_id":76561198240320806,"connected_time":2502000000000,"state":"active","ping":70},{"user_id":74,"name":"strideŒî","steam_id":76561199007826093,"connected_time":1448000000000,"state":"active","ping":74},{"user_id":65,"name":"MetalKidDoc","steam_id":76561198108741986,"connected_time":1751000000000,"state":"active","ping":149},{"user_id":87,"name":"Undertaker","steam_id":76561198364121077,"connected_time":264000000000,"state":"active","ping":95},{"user_id":46,"name":"Tank","steam_id":76561199059174576,"connected_time":2836000000000,"state":"active","ping":177},{"user_id":78,"name":"Pepe El grillao","steam_id":76561198177855119,"connected_time":1199000000000,"state":"active","ping":74},{"user_id":80,"name":"real sara brew hours","steam_id":76561198890193313,"connected_time":1119000000000,"state":"active","ping":63},{"user_id":79,"name":"Instituto Nacional de Empleo","steam_id":76561198317014067,"connected_time":1187000000000,"state":"active","ping":71}]},{"server_id":114,"name":"Uncletopia | London | 2 | All Maps","name_short":"lon-2","host":"lon-1.uk.uncletopia.com","port":27025,"enabled":true,"region":"eu","cc":"gb","latitude":51.509865,"longitude":-0.118092,"reserved":0,"last_update":"0001-01-01T00:00:00Z","name_a2s":"Uncletopia | London | 2 | All Maps","protocol":17,"map":"pl_upward","folder":"tf","game":"Team Fortress","app_id":440,"player_count":24,"max_players":24,"Bots":0,"server_type":"Dedicated","server_os":"Linux","password":true,"vac":true,"version":"7757534","steam_id":85568392924470941,"keywords":["nocrits","nodmgspread","payload","uncletopia"],"game_id":440,"stv_port":27026,"stv_name":"Uncletopia | London | 2 | All Maps | STV","players":[{"user_id":194,"name":"zinzyk","steam_id":76561198128011822,"connected_time":3352000000000,"state":"active","ping":59},{"user_id":202,"name":"Mercedes Dens","steam_id":76561198397955132,"connected_time":2471000000000,"state":"active","ping":104},{"user_id":247,"name":"Stu","steam_id":76561198131449281,"connected_time":231000000000,"state":"active","ping":40},{"user_id":209,"name":"Evil Jak","steam_id":76561198005548437,"connected_time":2042000000000,"state":"active","ping":188},{"user_id":246,"name":"moon","steam_id":76561198256097786,"connected_time":261000000000,"state":"active","ping":45},{"user_id":251,"name":"mrk_","steam_id":76561198120166752,"connected_time":11000000000,"state":"active","ping":89},{"user_id":240,"name":"Fus in Boots","steam_id":76561198053897722,"connected_time":789000000000,"state":"active","ping":55},{"user_id":241,"name":"Wiki","steam_id":76561198148455642,"connected_time":770000000000,"state":"active","ping":45},{"user_id":205,"name":"Shork","steam_id":76561198130195469,"connected_time":2349000000000,"state":"active","ping":84},{"user_id":214,"name":"Cuthbert","steam_id":76561198204649481,"connected_time":1853000000000,"state":"active","ping":108},{"user_id":215,"name":"CollDragon","steam_id":76561198067534450,"connected_time":1690000000000,"state":"active","ping":121},{"user_id":249,"name":"Raulca25","steam_id":76561199068256964,"connected_time":185000000000,"state":"active","ping":78},{"user_id":248,"name":"Practice","steam_id":76561198104765420,"connected_time":202000000000,"state":"active","ping":52},{"user_id":226,"name":"Pink Cheese","steam_id":76561198972186436,"connected_time":1347000000000,"state":"active","ping":57},{"user_id":219,"name":"hedon/","steam_id":76561198249832770,"connected_time":1490000000000,"state":"active","ping":46},{"user_id":250,"name":"0","steam_id":76561199198399363,"connected_time":109000000000,"state":"active","ping":50},{"user_id":188,"name":"General Petrov","steam_id":76561198027204104,"connected_time":3960000000000,"state":"active","ping":85},{"user_id":221,"name":"john fortress","steam_id":76561198013237629,"connected_time":1456000000000,"state":"active","ping":98},{"user_id":223,"name":"finest fucker in dc","steam_id":76561199042470246,"connected_time":1429000000000,"state":"active","ping":58},{"user_id":224,"name":"Sonnakai","steam_id":76561198051688749,"connected_time":1394000000000,"state":"active","ping":43},{"user_id":225,"name":"Panda","steam_id":76561198176342325,"connected_time":1393000000000,"state":"active","ping":95},{"user_id":231,"name":"mummi","steam_id":76561198137614047,"connected_time":1287000000000,"state":"active","ping":71},{"user_id":235,"name":"MR.CRAB","steam_id":76561198329833659,"connected_time":1175000000000,"state":"active","ping":89}]},{"server_id":320,"name":"Uncletopia | London | 3 | All Maps","name_short":"lon-3","host":"lon-1.uk.uncletopia.com","port":27035,"enabled":true,"region":"eu","cc":"gb","latitude":51.509865,"longitude":-0.118092,"reserved":0,"last_update":"0001-01-01T00:00:00Z","name_a2s":"Uncletopia | London | 3 | All Maps","protocol":17,"map":"koth_harvest_final","folder":"tf","game":"Team Fortress","app_id":440,"player_count":23,"max_players":24,"Bots":0,"server_type":"Dedicated","server_os":"Linux","password":true,"vac":true,"version":"7757534","steam_id":85568392924510192,"keywords":["cp","nocrits","nodmgspread","uncletopia"],"game_id":440,"stv_port":27036,"stv_name":"Uncletopia | London | 3 | All Maps | STV","players":[{"user_id":342,"name":"[P-roc] Cmm Bert","steam_id":76561198016658674,"connected_time":14415000000000,"state":"active","ping":60},{"user_id":564,"name":"Mr. Frog","steam_id":76561198016568920,"connected_time":63000000000,"state":"active","ping":47},{"user_id":474,"name":"Ra1k","steam_id":76561198429725598,"connected_time":5693000000000,"state":"active","ping":90},{"user_id":543,"name":"dnljns","steam_id":76561198085091752,"connected_time":1359000000000,"state":"active","ping":87},{"user_id":514,"name":"Thing","steam_id":76561197997904403,"connected_time":3226000000000,"state":"active","ping":98},{"user_id":562,"name":"Stuid","steam_id":76561199427506542,"connected_time":77000000000,"state":"active","ping":71},{"user_id":385,"name":"Dr. Mike","steam_id":76561197991205793,"connected_time":11780000000000,"state":"active","ping":75},{"user_id":561,"name":"tummaluppo taivaltaja","steam_id":76561198093458326,"connected_time":85000000000,"state":"active","ping":68},{"user_id":556,"name":"Xoukz","steam_id":76561198356014540,"connected_time":262000000000,"state":"active","ping":101},{"user_id":555,"name":"BenteBent","steam_id":76561198297920637,"connected_time":435000000000,"state":"active","ping":43},{"user_id":563,"name":"honey bunny","steam_id":76561198043836847,"connected_time":72000000000,"state":"active","ping":71},{"user_id":565,"name":"Rodia","steam_id":76561197968293161,"connected_time":53000000000,"state":"active","ping":71},{"user_id":439,"name":"Charmedelf","steam_id":76561197993611881,"connected_time":9098000000000,"state":"active","ping":54},{"user_id":520,"name":"gegit08","steam_id":76561199040010283,"connected_time":2314000000000,"state":"active","ping":99},{"user_id":533,"name":"Emil","steam_id":76561198053054845,"connected_time":1898000000000,"state":"active","ping":72},{"user_id":559,"name":"„Åô LightFlight „Åó","steam_id":76561198079007530,"connected_time":131000000000,"state":"active","ping":54},{"user_id":558,"name":"1ggy","steam_id":76561199051285912,"connected_time":253000000000,"state":"active","ping":83},{"user_id":566,"name":"Deki","steam_id":76561198031914490,"connected_time":13000000000,"state":"spawning","ping":57},{"user_id":553,"name":"cherry coal","steam_id":76561198822725169,"connected_time":682000000000,"state":"active","ping":45},{"user_id":545,"name":"Moisty","steam_id":76561198078625011,"connected_time":1340000000000,"state":"active","ping":68},{"user_id":509,"name":"UltraCoolKiddo","steam_id":76561198102025290,"connected_time":3600000000000,"state":"active","ping":73},{"user_id":551,"name":"Jesus Enjoyer","steam_id":76561198840259819,"connected_time":938000000000,"state":"active","ping":55},{"user_id":557,"name":"Smilez","steam_id":76561197999353870,"connected_time":260000000000,"state":"active","ping":42}]},{"server_id":321,"name":"Uncletopia | London | 4 | All Maps","name_short":"lon-4","host":"lon-1.uk.uncletopia.com","port":27045,"enabled":true,"region":"eu","cc":"gb","latitude":51.509865,"longitude":-0.118092,"reserved":0,"last_update":"0001-01-01T00:00:00Z","name_a2s":"Uncletopia | London | 4 | All Maps","protocol":17,"map":"cp_altitude","folder":"tf","game":"Team Fortress","app_id":440,"player_count":0,"max_players":24,"Bots":0,"server_type":"Dedicated","server_os":"Linux","password":true,"vac":true,"version":"7757534","steam_id":85568392924510193,"keywords":["cp","nocrits","nodmgspread","uncletopia"],"game_id":440,"stv_port":27046,"stv_name":"Uncletopia | London | 4 | All Maps | STV","players":null},{"server_id":21,"name":"Uncletopia | London | 5 | All Maps","name_short":"lon-5","host":"lon-1.uk.uncletopia.com","port":27055,"enabled":true,"region":"eu","cc":"gb","latitude":51.509865,"longitude":-0.118092,"reserved":0,"last_update":"0001-01-01T00:00:00Z","name_a2s":"Uncletopia | London | 5 | All Maps","protocol":17,"map":"pl_snowycoast","folder":"tf","game":"Team Fortress","app_id":440,"player_count":20,"max_players":24,"Bots":0,"server_type":"Dedicated","server_os":"Linux","password":true,"vac":true,"version":"7757534","steam_id":85568392924742829,"keywords":["nocrits","nodmgspread","payload","uncletopia"],"game_id":440,"stv_port":27056,"stv_name":"Uncletopia | London | 5 | All Maps | STV","players":[{"user_id":245,"name":"Festive Keshu","steam_id":76561198852603168,"connected_time":775000000000,"state":"active","ping":72},{"user_id":209,"name":"Sal","steam_id":76561198079290898,"connected_time":3501000000000,"state":"active","ping":38},{"user_id":263,"name":"JeanCorben","steam_id":76561197965133561,"connected_time":327000000000,"state":"active","ping":32},{"user_id":210,"name":"aghaste","steam_id":76561198139501579,"connected_time":3454000000000,"state":"active","ping":95},{"user_id":234,"name":"Mega Man Legends 3","steam_id":76561198014110199,"connected_time":1753000000000,"state":"active","ping":45},{"user_id":246,"name":"Turbo_Jesus","steam_id":76561197963985952,"connected_time":769000000000,"state":"active","ping":63},{"user_id":230,"name":"Truegear","steam_id":76561198059511386,"connected_time":2013000000000,"state":"active","ping":71},{"user_id":180,"name":"Dark","steam_id":76561198086889620,"connected_time":5080000000000,"state":"active","ping":48},{"user_id":238,"name":"GabeTheGoldfish","steam_id":76561198153408011,"connected_time":1098000000000,"state":"active","ping":70},{"user_id":244,"name":"shminky dinky","steam_id":76561199088913787,"connected_time":791000000000,"state":"active","ping":49},{"user_id":268,"name":"AsuX","steam_id":76561197990333289,"connected_time":175000000000,"state":"active","ping":60},{"user_id":236,"name":"Elix","steam_id":76561199072306920,"connected_time":1720000000000,"state":"active","ping":97},{"user_id":218,"name":"Remerv Keberb","steam_id":76561198154280406,"connected_time":3128000000000,"state":"active","ping":76},{"user_id":269,"name":"Woman (Real)","steam_id":76561199151823932,"connected_time":129000000000,"state":"active","ping":79},{"user_id":206,"name":"Tink","steam_id":76561198118235443,"connected_time":3735000000000,"state":"active","ping":51},{"user_id":220,"name":"dimitrij_6ix_god","steam_id":76561199023275543,"connected_time":2542000000000,"state":"active","ping":87},{"user_id":239,"name":"Zerfesh","steam_id":76561198117534358,"connected_time":1082000000000,"state":"active","ping":103},{"user_id":271,"name":"scout dude","steam_id":76561198410592736,"connected_time":88000000000,"state":"active","ping":40},{"user_id":170,"name":"Penis Contortionist","steam_id":76561198073663784,"connected_time":6060000000000,"state":"active","ping":35},{"user_id":257,"name":"HOT LOIS","steam_id":76561198302623594,"connected_time":443000000000,"state":"active","ping":98}]},{"server_id":22,"name":"Uncletopia | London | 6 | All Maps","name_short":"lon-6","host":"lon-1.uk.uncletopia.com","port":27065,"enabled":true,"region":"eu","cc":"gb","latitude":51.509865,"longitude":-0.118092,"reserved":0,"last_update":"0001-01-01T00:00:00Z","name_a2s":"Uncletopia | London | 6 | All Maps","protocol":17,"map":"koth_lakeside_final","folder":"tf","game":"Team Fortress","app_id":440,"player_count":3,"max_players":24,"Bots":0,"server_type":"Dedicated","server_os":"Linux","password":true,"vac":true,"version":"7757534","steam_id":85568392924742830,"keywords":["cp","nocrits","nodmgspread","uncletopia"],"game_id":440,"stv_port":27066,"stv_name":"Uncletopia | London | 6 | All Maps | STV","players":[{"user_id":17,"name":"Jack.Orlando","steam_id":76561198802400236,"connected_time":127000000000,"state":"active","ping":76},{"user_id":16,"name":"Strafely","steam_id":76561199242567438,"connected_time":288000000000,"state":"active","ping":68},{"user_id":18,"name":"funky meatloaf","steam_id":76561199135835032,"connected_time":6000000000,"state":"active","ping":224}]},{"server_id":40,"name":"Uncletopia | London | 7 | No Payload","name_short":"lon-7","host":"lon-1.uk.uncletopia.com","port":27075,"enabled":true,"region":"eu","cc":"gb","latitude":51.509865,"longitude":-0.118092,"reserved":0,"last_update":"0001-01-01T00:00:00Z","name_a2s":"Uncletopia | London | 7 | No Payload","protocol":17,"map":"cp_egypt_final","folder":"tf","game":"Team Fortress","app_id":440,"player_count":0,"max_players":24,"Bots":0,"server_type":"Dedicated","server_os":"Linux","password":true,"vac":true,"version":"7757534","steam_id":85568392924964314,"keywords":["cp","nocrits","nodmgspread","uncletopia"],"game_id":440,"stv_port":27076,"stv_name":"Uncletopia | London | 7 | No Payload | STV","players":null},{"server_id":41,"name":"Uncletopia | London | 8 | Community","name_short":"lon-8","host":"lon-1.uk.uncletopia.com","port":27085,"enabled":true,"region":"eu","cc":"gb","latitude":51.509865,"longitude":-0.118092,"reserved":0,"last_update":"0001-01-01T00:00:00Z","name_a2s":"Uncletopia | London | 8 | Community","protocol":17,"map":"pl_barnblitz","folder":"tf","game":"Team Fortress","app_id":440,"player_count":0,"max_players":24,"Bots":0,"server_type":"Dedicated","server_os":"Linux","password":true,"vac":true,"version":"7757534","steam_id":85568392924964315,"keywords":["nocrits","nodmgspread","payload","uncletopia"],"game_id":440,"stv_port":27086,"stv_name":"Uncletopia | London | 8 | Community | STV","players":null},{"server_id":300,"name":"Uncletopia | Montr√©al | 1 | All Maps","name_short":"mtl-1","host":"mtl-1.ca.uncletopia.com","port":27015,"enabled":true,"region":"us-east","cc":"ca","latitude":45.50889,"longitude":-73.56167,"reserved":0,"last_update":"0001-01-01T00:00:00Z","name_a2s":"Uncletopia | Montr√©al | 1 | All Maps","protocol":17,"map":"pl_upward","folder":"tf","game":"Team Fortress","app_id":440,"player_count":0,"max_players":24,"Bots":0,"server_type":"Dedicated","server_os":"Linux","password":true,"vac":true,"version":"7757534","steam_id":85568392924500087,"keywords":["nocrits","nodmgspread","payload","uncletopia"],"game_id":440,"stv_port":27016,"stv_name":"Uncletopia | Montr√©al | 1 | All Maps | STV","players":null},{"server_id":301,"name":"Uncletopia | Montr√©al | 2 | All Maps","name_short":"mtl-2","host":"mtl-1.ca.uncletopia.com","port":27025,"enabled":true,"region":"us-east","cc":"ca","latitude":45.50889,"longitude":-73.56167,"reserved":0,"last_update":"0001-01-01T00:00:00Z","name_a2s":"Uncletopia | Montr√©al | 2 | All Maps","protocol":17,"map":"cp_altitude","folder":"tf","game":"Team Fortress","app_id":440,"player_count":0,"max_players":24,"Bots":0,"server_type":"Dedicated","server_os":"Linux","password":true,"vac":true,"version":"7757534","steam_id":85568392924500088,"keywords":["cp","nocrits","nodmgspread","uncletopia"],"game_id":440,"stv_port":27026,"stv_name":"Uncletopia | Montr√©al | 2 | All Maps | STV","players":null},{"server_id":302,"name":"Uncletopia | Montr√©al | 3 | All Maps","name_short":"mtl-3","host":"mtl-1.ca.uncletopia.com","port":27035,"enabled":true,"region":"us-east","cc":"ca","latitude":45.50889,"longitude":-73.56167,"reserved":0,"last_update":"0001-01-01T00:00:00Z","name_a2s":"Uncletopia | Montr√©al | 3 | All Maps","protocol":17,"map":"pl_swiftwater_final1","folder":"tf","game":"Team Fortress","app_id":440,"player_count":0,"max_players":24,"Bots":0,"server_type":"Dedicated","server_os":"Linux","password":true,"vac":true,"version":"7757534","steam_id":85568392924500089,"keywords":["nocrits","nodmgspread","payload","uncletopia"],"game_id":440,"stv_port":27036,"stv_name":"Uncletopia | Montr√©al | 3 | All Maps | STV","players":null},{"server_id":303,"name":"Uncletopia | Montr√©al | 4 | No Payload","name_short":"mtl-4","host":"mtl-1.ca.uncletopia.com","port":27045,"enabled":true,"region":"us-east","cc":"ca","latitude":45.50889,"longitude":-73.56167,"reserved":0,"last_update":"0001-01-01T00:00:00Z","name_a2s":"Uncletopia | Montr√©al | 4 | No Payload","protocol":17,"map":"pl_pier","folder":"tf","game":"Team Fortress","app_id":440,"player_count":0,"max_players":24,"Bots":0,"server_type":"Dedicated","server_os":"Linux","password":true,"vac":true,"version":"7757534","steam_id":85568392924500090,"keywords":["nocrits","nodmgspread","payload","uncletopia"],"game_id":440,"stv_port":27046,"stv_name":"Uncletopia | Montr√©al | 4 | No Payload | STV","players":null},{"server_id":13,"name":"Uncletopia | New York City | 1 | All Maps","name_short":"nyc-1","host":"nyc-1.us.uncletopia.com","port":27015,"enabled":true,"region":"us-east","cc":"us","latitude":40.73061,"longitude":-73.93524,"reserved":0,"last_update":"0001-01-01T00:00:00Z","name_a2s":"Uncletopia | New York City | 1 | All Maps","protocol":17,"map":"cp_snakewater_final1","folder":"tf","game":"Team Fortress","app_id":440,"player_count":25,"max_players":24,"Bots":0,"server_type":"Dedicated","server_os":"Linux","password":true,"vac":true,"version":"7757534","steam_id":85568392924469993,"keywords":["cp","nocrits","nodmgspread","uncletopia"],"game_id":440,"stv_port":27016,"stv_name":"Uncletopia | New York City | 1 | All Maps | STV","players":[{"user_id":4,"name":"Gamer Girl Meth","steam_id":76561199276295259,"connected_time":2537000000000,"state":"active","ping":67},{"user_id":5,"name":"mush","steam_id":76561198117471415,"connected_time":2461000000000,"state":"active","ping":68},{"user_id":29,"name":"confused","steam_id":76561198018654093,"connected_time":769000000000,"state":"active","ping":59},{"user_id":20,"name":"lucky","steam_id":76561198323426623,"connected_time":1393000000000,"state":"active","ping":99},{"user_id":17,"name":"Your Wurst Nightmare","steam_id":76561198874531590,"connected_time":2104000000000,"state":"active","ping":57},{"user_id":39,"name":"^_x","steam_id":76561198986849199,"connected_time":222000000000,"state":"active","ping":135},{"user_id":31,"name":"yaboiskinnycheddar","steam_id":76561198868924740,"connected_time":693000000000,"state":"active","ping":45},{"user_id":23,"name":"MetalTao","steam_id":76561198189408110,"connected_time":1253000000000,"state":"active","ping":73},{"user_id":22,"name":"orcluvr69","steam_id":76561198068712028,"connected_time":1274000000000,"state":"active","ping":63},{"user_id":24,"name":"Bully Maguire","steam_id":76561198212922692,"connected_time":1117000000000,"state":"active","ping":55},{"user_id":25,"name":"DaRoyalYoshi","steam_id":76561198145186375,"connected_time":1002000000000,"state":"active","ping":62},{"user_id":26,"name":"Casket The Clown","steam_id":76561198041346308,"connected_time":956000000000,"state":"active","ping":85},{"user_id":27,"name":"BasicPeaches","steam_id":76561198190890150,"connected_time":927000000000,"state":"active","ping":63},{"user_id":28,"name":"Iron_Dave_Qc","steam_id":76561198159325213,"connected_time":927000000000,"state":"active","ping":58},{"user_id":32,"name":"Domczyslaw","steam_id":76561199044080201,"connected_time":613000000000,"state":"active","ping":145},{"user_id":33,"name":"Robot B0Y","steam_id":76561199073578222,"connected_time":529000000000,"state":"active","ping":49},{"user_id":34,"name":"Chord","steam_id":76561198110874021,"connected_time":424000000000,"state":"active","ping":72},{"user_id":35,"name":"Richard 'Dick' Pingus","steam_id":76561198257724646,"connected_time":399000000000,"state":"active","ping":86},{"user_id":36,"name":"Dr. drippenstein","steam_id":76561198209380493,"connected_time":397000000000,"state":"active","ping":45},{"user_id":37,"name":"Big Sauce","steam_id":76561198046654750,"connected_time":340000000000,"state":"active","ping":52},{"user_id":38,"name":"Glep McYezills","steam_id":76561198213584428,"connected_time":301000000000,"state":"active","ping":108},{"user_id":40,"name":"Gordon Ramsay","steam_id":76561198123893900,"connected_time":217000000000,"state":"active","ping":209},{"user_id":41,"name":"DeanAdamFry","steam_id":76561198054153160,"connected_time":149000000000,"state":"active","ping":125},{"user_id":45,"name":"NoobPwner","steam_id":76561199122289629,"connected_time":5000000000,"state":"spawning","ping":118},{"user_id":46,"name":"StormyBoyo","steam_id":76561198273482774,"connected_time":4000000000,"state":"spawning","ping":59}]},{"server_id":14,"name":"Uncletopia | New York City | 2 | All Maps","name_short":"nyc-2","host":"nyc-1.us.uncletopia.com","port":27025,"enabled":true,"region":"us-east","cc":"us","latitude":40.73061,"longitude":-73.93524,"reserved":0,"last_update":"0001-01-01T00:00:00Z","name_a2s":"Uncletopia | New York City | 2 | All Maps","protocol":17,"map":"pl_badwater","folder":"tf","game":"Team Fortress","app_id":440,"player_count":0,"max_players":24,"Bots":0,"server_type":"Dedicated","server_os":"Linux","password":true,"vac":true,"version":"7757534","steam_id":85568392924469994,"keywords":["nocrits","nodmgspread","payload","uncletopia"],"game_id":440,"stv_port":27026,"stv_name":"Uncletopia | New York City | 2 | All Maps | STV","players":null},{"server_id":15,"name":"Uncletopia | New York City | 3 | Stopwatch Beta","name_short":"nyc-3","host":"nyc-1.us.uncletopia.com","port":27035,"enabled":true,"region":"us-east","cc":"us","latitude":40.73061,"longitude":-73.93524,"reserved":0,"last_update":"0001-01-01T00:00:00Z","name_a2s":"Uncletopia | New York City | 3 | Stopwatch Beta","protocol":17,"map":"pl_upward","folder":"tf","game":"Team Fortress","app_id":440,"player_count":0,"max_players":24,"Bots":0,"server_type":"Dedicated","server_os":"Linux","password":true,"vac":true,"version":"7757534","steam_id":85568392924742820,"keywords":["nocrits","nodmgspread","payload","uncletopia"],"game_id":440,"stv_port":27036,"stv_name":"Uncletopia | New York City | 3 | Stopwatch Beta | STV","players":null},{"server_id":16,"name":"Uncletopia | New York City | 4 | Community","name_short":"nyc-4","host":"nyc-1.us.uncletopia.com","port":27045,"enabled":true,"region":"us-east","cc":"us","latitude":40.73061,"longitude":-73.93524,"reserved":0,"last_update":"0001-01-01T00:00:00Z","name_a2s":"Uncletopia | New York City | 4 | Community","protocol":17,"map":"pl_swiftwater_final1","folder":"tf","game":"Team Fortress","app_id":440,"player_count":0,"max_players":24,"Bots":0,"server_type":"Dedicated","server_os":"Linux","password":true,"vac":true,"version":"7757534","steam_id":85568392924742821,"keywords":["nocrits","nodmgspread","payload","uncletopia"],"game_id":440,"stv_port":27046,"stv_name":"Uncletopia | New York City | 4 | Community | STV","players":null},{"server_id":142,"name":"Uncletopia | S√£o Paulo | 1 | All Maps","name_short":"sao-1","host":"sao-1.br.uncletopia.com","port":27015,"enabled":true,"region":"sa","cc":"br","latitude":-23.533773,"longitude":-46.62529,"reserved":0,"last_update":"0001-01-01T00:00:00Z","name_a2s":"Uncletopia | S√£o Paulo | 1 | All Maps","protocol":17,"map":"koth_viaduct","folder":"tf","game":"Team Fortress","app_id":440,"player_count":0,"max_players":24,"Bots":0,"server_type":"Dedicated","server_os":"Linux","password":true,"vac":true,"version":"7757534","steam_id":85568392924469996,"keywords":["cp","nocrits","nodmgspread","uncletopia"],"game_id":440,"stv_port":27016,"stv_name":"Uncletopia | S√£o Paulo | 1 | All Maps | STV","players":null},{"server_id":143,"name":"Uncletopia | S√£o Paulo | 2 | All Maps","name_short":"sao-2","host":"sao-2.br.uncletopia.com","port":27015,"enabled":true,"region":"sa","cc":"br","latitude":-23.533773,"longitude":-46.62529,"reserved":0,"last_update":"0001-01-01T00:00:00Z","name_a2s":"Uncletopia | S√£o Paulo | 2 | All Maps","protocol":17,"map":"pl_barnblitz","folder":"tf","game":"Team Fortress","app_id":440,"player_count":0,"max_players":24,"Bots":0,"server_type":"Dedicated","server_os":"Linux","password":true,"vac":true,"version":"7757534","steam_id":85568392924485349,"keywords":["nocrits","nodmgspread","payload","uncletopia"],"game_id":440,"stv_port":27016,"stv_name":"Uncletopia | S√£o Paulo | 2 | All Maps | STV","players":null},{"server_id":7,"name":"Uncletopia | Seattle | 1 | All Maps","name_short":"sea-1","host":"sea-1.us.uncletopia.com","port":27015,"enabled":true,"region":"us-west","cc":"us","latitude":47.608013,"longitude":-122.33517,"reserved":0,"last_update":"0001-01-01T00:00:00Z","name_a2s":"Uncletopia | Seattle | 1 | All Maps","protocol":17,"map":"ctf_2fort","folder":"tf","game":"Team Fortress","app_id":440,"player_count":3,"max_players":24,"Bots":0,"server_type":"Dedicated","server_os":"Linux","password":true,"vac":true,"version":"7757534","steam_id":85568392924469997,"keywords":["ctf","nocrits","nodmgspread","uncletopia"],"game_id":440,"stv_port":27016,"stv_name":"Uncletopia | Seattle | 1 | All Maps | STV","players":[{"user_id":11,"name":"SibilantSerpent","steam_id":76561198154488754,"connected_time":698000000000,"state":"active","ping":45},{"user_id":12,"name":"dust | she/it","steam_id":76561198045218909,"connected_time":398000000000,"state":"active","ping":30},{"user_id":13,"name":"Nico The Cheese","steam_id":76561199065272792,"connected_time":60000000000,"state":"active","ping":68}]},{"server_id":119,"name":"Uncletopia | Seattle | 2 | All Maps","name_short":"sea-2","host":"sea-1.us.uncletopia.com","port":27025,"enabled":true,"region":"us-west","cc":"us","latitude":47.608013,"longitude":-122.33517,"reserved":0,"last_update":"0001-01-01T00:00:00Z","name_a2s":"Uncletopia | Seattle | 2 | All Maps","protocol":17,"map":"pl_badwater","folder":"tf","game":"Team Fortress","app_id":440,"player_count":0,"max_players":24,"Bots":0,"server_type":"Dedicated","server_os":"Linux","password":true,"vac":true,"version":"7757534","steam_id":85568392924469998,"keywords":["nocrits","nodmgspread","payload","uncletopia"],"game_id":440,"stv_port":27026,"stv_name":"Uncletopia | Seattle | 2 | All Maps | STV","players":null},{"server_id":406,"name":"Uncletopia | Seattle | 3 | Stopwatch Beta","name_short":"sea-3","host":"sea-1.us.uncletopia.com","port":27035,"enabled":true,"region":"us-west","cc":"us","latitude":47.608013,"longitude":-122.33517,"reserved":0,"last_update":"0001-01-01T00:00:00Z","name_a2s":"Uncletopia | Seattle | 3 | Stopwatch Beta","protocol":17,"map":"cp_dustbowl","folder":"tf","game":"Team Fortress","app_id":440,"player_count":0,"max_players":24,"Bots":0,"server_type":"Dedicated","server_os":"Linux","password":true,"vac":true,"version":"7757534","steam_id":85568392924515217,"keywords":["cp","nocrits","nodmgspread","uncletopia"],"game_id":440,"stv_port":27036,"stv_name":"Uncletopia | Seattle | 3 | Stopwatch Beta | STV","players":null},{"server_id":17,"name":"Uncletopia | San Francisco | 1 | All Maps","name_short":"sfo-1","host":"sfo-1.us.uncletopia.com","port":27015,"enabled":true,"region":"us-west","cc":"us","latitude":37.77397,"longitude":-122.4313,"reserved":0,"last_update":"0001-01-01T00:00:00Z","name_a2s":"Uncletopia | San Francisco | 1 | All Maps","protocol":17,"map":"cp_powerhouse","folder":"tf","game":"Team Fortress","app_id":440,"player_count":24,"max_players":24,"Bots":0,"server_type":"Dedicated","server_os":"Linux","password":true,"vac":true,"version":"7757534","steam_id":85568392924469999,"keywords":["cp","nocrits","nodmgspread","uncletopia"],"game_id":440,"stv_port":27016,"stv_name":"Uncletopia | San Francisco | 1 | All Maps | STV","players":[{"user_id":166,"name":"WhatsHisName","steam_id":76561198982712556,"connected_time":1497000000000,"state":"active","ping":100},{"user_id":183,"name":"stboncho","steam_id":76561198172275301,"connected_time":733000000000,"state":"active","ping":59},{"user_id":125,"name":"ark","steam_id":76561198041066271,"connected_time":4236000000000,"state":"active","ping":79},{"user_id":74,"name":"aqua","steam_id":76561199407709552,"connected_time":7170000000000,"state":"active","ping":90},{"user_id":182,"name":"Flare Dance","steam_id":76561198260443137,"connected_time":912000000000,"state":"active","ping":75},{"user_id":170,"name":"rustyorion","steam_id":76561198439186347,"connected_time":1420000000000,"state":"active","ping":64},{"user_id":129,"name":"Drive-By-Fish-Guy","steam_id":76561198105513652,"connected_time":3605000000000,"state":"active","ping":76},{"user_id":184,"name":"Semeka","steam_id":76561198405404117,"connected_time":732000000000,"state":"active","ping":61},{"user_id":188,"name":"General Fisticuffs","steam_id":76561198255721392,"connected_time":276000000000,"state":"active","ping":107},{"user_id":127,"name":"kitsu ‚ô•","steam_id":76561198091741658,"connected_time":3985000000000,"state":"active","ping":62},{"user_id":179,"name":"Jambi","steam_id":76561198846091685,"connected_time":969000000000,"state":"active","ping":72},{"user_id":97,"name":"sly cooper","steam_id":76561198163717474,"connected_time":6119000000000,"state":"active","ping":61},{"user_id":171,"name":"Ôº≥Ôº¨Ôº∂Ôº¥Ôº£Ôº®Ôº°Ôº≠Ôº∞","steam_id":76561198883157736,"connected_time":1352000000000,"state":"active","ping":87},{"user_id":159,"name":"Cursed Dog","steam_id":76561198090785078,"connected_time":2103000000000,"state":"active","ping":110},{"user_id":153,"name":"Compress Dong","steam_id":76561198018950826,"connected_time":2654000000000,"state":"active","ping":48},{"user_id":180,"name":"Zobozo","steam_id":76561198028954297,"connected_time":967000000000,"state":"active","ping":60},{"user_id":156,"name":"‚ô• thedittoguy ‚ô•","steam_id":76561199013129784,"connected_time":2630000000000,"state":"active","ping":88},{"user_id":185,"name":"Cheese Miller","steam_id":76561199451933673,"connected_time":719000000000,"state":"active","ping":71},{"user_id":163,"name":"Just a Good Friend","steam_id":76561198140052403,"connected_time":1767000000000,"state":"active","ping":41},{"user_id":181,"name":"o o o o o o o o o","steam_id":76561197993757506,"connected_time":950000000000,"state":"active","ping":48},{"user_id":169,"name":"Gocel","steam_id":76561198071467515,"connected_time":1427000000000,"state":"active","ping":112},{"user_id":187,"name":"DefectiveWarhead","steam_id":76561198067746049,"connected_time":398000000000,"state":"active","ping":86},{"user_id":155,"name":"CreativeUsername","steam_id":76561198186045503,"connected_time":2648000000000,"state":"active","ping":108},{"user_id":98,"name":"Ayylmao","steam_id":76561198104780147,"connected_time":6095000000000,"state":"active","ping":90}]},{"server_id":18,"name":"Uncletopia | San Francisco | 2 | All Maps","name_short":"sfo-2","host":"sfo-1.us.uncletopia.com","port":27025,"enabled":true,"region":"us-west","cc":"us","latitude":37.77397,"longitude":-122.4313,"reserved":0,"last_update":"0001-01-01T00:00:00Z","name_a2s":"Uncletopia | San Francisco | 2 | All Maps","protocol":17,"map":"koth_highpass","folder":"tf","game":"Team Fortress","app_id":440,"player_count":0,"max_players":24,"Bots":0,"server_type":"Dedicated","server_os":"Linux","password":true,"vac":true,"version":"7757534","steam_id":85568392924470000,"keywords":["cp","nocrits","nodmgspread","uncletopia"],"game_id":440,"stv_port":27026,"stv_name":"Uncletopia | San Francisco | 2 | All Maps | STV","players":null},{"server_id":19,"name":"Uncletopia | San Francisco | 3 | Stopwatch Beta","name_short":"sfo-3","host":"sfo-1.us.uncletopia.com","port":27035,"enabled":true,"region":"us-west","cc":"us","latitude":37.77397,"longitude":-122.4313,"reserved":0,"last_update":"0001-01-01T00:00:00Z","name_a2s":"Uncletopia | San Francisco | 3 | Stopwatch Beta","protocol":17,"map":"koth_lakeside_final","folder":"tf","game":"Team Fortress","app_id":440,"player_count":0,"max_players":24,"Bots":0,"server_type":"Dedicated","server_os":"Linux","password":true,"vac":true,"version":"7757534","steam_id":85568392924742824,"keywords":["cp","nocrits","nodmgspread","uncletopia"],"game_id":440,"stv_port":27036,"stv_name":"Uncletopia | San Francisco | 3 | Stopwatch Beta | STV","players":null},{"server_id":20,"name":"Uncletopia | San Francisco | 4 | Community","name_short":"sfo-4","host":"sfo-1.us.uncletopia.com","port":27045,"enabled":true,"region":"us-west","cc":"us","latitude":37.77397,"longitude":-122.4313,"reserved":0,"last_update":"0001-01-01T00:00:00Z","name_a2s":"Uncletopia | San Francisco | 4 | Community","protocol":17,"map":"cp_altitude","folder":"tf","game":"Team Fortress","app_id":440,"player_count":0,"max_players":24,"Bots":0,"server_type":"Dedicated","server_os":"Linux","password":true,"vac":true,"version":"7757534","steam_id":85568392924742826,"keywords":["cp","nocrits","nodmgspread","uncletopia"],"game_id":440,"stv_port":27046,"stv_name":"Uncletopia | San Francisco | 4 | Community | STV","players":null},{"server_id":141,"name":"Uncletopia | Sydney | 1 | All Maps","name_short":"syd-1","host":"syd-1.au.uncletopia.com","port":27015,"enabled":true,"region":"au","cc":"au","latitude":-33.865143,"longitude":151.2099,"reserved":0,"last_update":"0001-01-01T00:00:00Z","name_a2s":"Uncletopia | Sydney | 1 | All Maps","protocol":17,"map":"cp_altitude","folder":"tf","game":"Team Fortress","app_id":440,"player_count":0,"max_players":24,"Bots":0,"server_type":"Dedicated","server_os":"Linux","password":true,"vac":true,"version":"7757534","steam_id":85568392924470001,"keywords":["cp","nocrits","nodmgspread","uncletopia"],"game_id":440,"stv_port":27016,"stv_name":"Uncletopia | Sydney | 1 | All Maps | STV","players":null},{"server_id":123,"name":"Uncletopia | Sydney | 2 | All Maps","name_short":"syd-2","host":"syd-1.au.uncletopia.com","port":27025,"enabled":true,"region":"au","cc":"au","latitude":-33.865143,"longitude":151.2099,"reserved":0,"last_update":"0001-01-01T00:00:00Z","name_a2s":"Uncletopia | Sydney | 2 | All Maps","protocol":17,"map":"cp_sunshine","folder":"tf","game":"Team Fortress","app_id":440,"player_count":0,"max_players":24,"Bots":0,"server_type":"Dedicated","server_os":"Linux","password":true,"vac":true,"version":"7757534","steam_id":85568392924470002,"keywords":["cp","nocrits","nodmgspread","uncletopia"],"game_id":440,"stv_port":27026,"stv_name":"Uncletopia | Sydney | 2 | All Maps | STV","players":null},{"server_id":395,"name":"Uncletopia | Sydney | 3 | All Maps","name_short":"syd-3","host":"syd-1.au.uncletopia.com","port":27035,"enabled":true,"region":"au","cc":"au","latitude":-33.865143,"longitude":151.2099,"reserved":0,"last_update":"0001-01-01T00:00:00Z","name_a2s":"Uncletopia | Sydney | 3 | All Maps","protocol":17,"map":"koth_cascade","folder":"tf","game":"Team Fortress","app_id":440,"player_count":0,"max_players":24,"Bots":0,"server_type":"Dedicated","server_os":"Linux","password":true,"vac":true,"version":"7757534","steam_id":85568392925194467,"keywords":["cp","nocrits","nodmgspread","uncletopia"],"game_id":440,"stv_port":27036,"stv_name":"Uncletopia | Sydney | 3 | All Maps | STV","players":null},{"server_id":396,"name":"Uncletopia | Sydney | 4 | All Maps","name_short":"syd-4","host":"syd-1.au.uncletopia.com","port":27045,"enabled":true,"region":"au","cc":"au","latitude":-33.865143,"longitude":151.2099,"reserved":0,"last_update":"0001-01-01T00:00:00Z","name_a2s":"Uncletopia | Sydney | 4 | All Maps","protocol":17,"map":"koth_highpass","folder":"tf","game":"Team Fortress","app_id":440,"player_count":0,"max_players":24,"Bots":0,"server_type":"Dedicated","server_os":"Linux","password":true,"vac":true,"version":"7757534","steam_id":85568392925397958,"keywords":["cp","nocrits","nodmgspread","uncletopia"],"game_id":440,"stv_port":27046,"stv_name":"Uncletopia | Sydney | 4 | All Maps | STV","players":null},{"server_id":58,"name":"Uncletopia | Sydney | 5 | Stopwatch Beta","name_short":"syd-5","host":"syd-1.au.uncletopia.com","port":27055,"enabled":true,"region":"au","cc":"au","latitude":-33.865143,"longitude":151.2099,"reserved":0,"last_update":"0001-01-01T00:00:00Z","name_a2s":"Uncletopia | Sydney | 5 | Stopwatch Beta","protocol":17,"map":"cp_granary","folder":"tf","game":"Team Fortress","app_id":440,"player_count":1,"max_players":24,"Bots":0,"server_type":"Dedicated","server_os":"Linux","password":true,"vac":true,"version":"7757534","steam_id":85568392925397959,"keywords":["cp","nocrits","nodmgspread","uncletopia"],"game_id":440,"stv_port":27056,"stv_name":"Uncletopia | Sydney | 5 | Stopwatch Beta | STV","players":[{"user_id":9,"name":"YourBadTeammate007","steam_id":76561199473252189,"connected_time":318000000000,"state":"active","ping":323}]},{"server_id":59,"name":"Uncletopia | Sydney | 6 | Community","name_short":"syd-6","host":"syd-1.au.uncletopia.com","port":27065,"enabled":true,"region":"au","cc":"au","latitude":-33.865143,"longitude":151.2099,"reserved":0,"last_update":"0001-01-01T00:00:00Z","name_a2s":"Uncletopia | Sydney | 6 | Community","protocol":17,"map":"workshop/koth_slaughter_rc1.ugc1712845210","folder":"tf","game":"Team Fortress","app_id":440,"player_count":0,"max_players":24,"Bots":0,"server_type":"Dedicated","server_os":"Linux","password":true,"vac":true,"version":"7757534","steam_id":85568392925397960,"keywords":["cp","nocrits","nodmgspread","uncletopia"],"game_id":440,"stv_port":27066,"stv_name":"Uncletopia | Sydney | 6 | Community | STV","players":null},{"server_id":49,"name":"Uncletopia | Warsaw | 1 | All Maps","name_short":"waw-1","host":"waw-1.pl.uncletopia.com","port":27015,"enabled":true,"region":"eu","cc":"pl","latitude":52.2297,"longitude":21.017532,"reserved":0,"last_update":"0001-01-01T00:00:00Z","name_a2s":"","protocol":0,"map":"","folder":"","game":"","app_id":0,"player_count":0,"max_players":0,"Bots":0,"server_type":"","server_os":"","password":false,"vac":false,"version":"","steam_id":0,"keywords":null,"game_id":0,"stv_port":0,"stv_name":"","players":null},{"server_id":50,"name":"Uncletopia | Warsaw | 2 | All Maps","name_short":"waw-2","host":"waw-1.pl.uncletopia.com","port":27025,"enabled":true,"region":"eu","cc":"pl","latitude":52.2297,"longitude":21.017532,"reserved":0,"last_update":"0001-01-01T00:00:00Z","name_a2s":"Uncletopia | Warsaw | 2 | All Maps","protocol":17,"map":"koth_viaduct","folder":"tf","game":"Team Fortress","app_id":440,"player_count":1,"max_players":24,"Bots":0,"server_type":"Dedicated","server_os":"Linux","password":true,"vac":true,"version":"7757534","steam_id":85568392925397851,"keywords":["cp","nocrits","nodmgspread","uncletopia"],"game_id":440,"stv_port":27026,"stv_name":"Uncletopia | Warsaw | 2 | All Maps | STV","players":[{"user_id":8,"name":"The","steam_id":76561199028541854,"connected_time":1814000000000,"state":"active","ping":96}]},{"server_id":51,"name":"Uncletopia | Warsaw | 3 | All Maps","name_short":"waw-3","host":"waw-1.pl.uncletopia.com","port":27035,"enabled":true,"region":"eu","cc":"pl","latitude":52.2297,"longitude":21.017532,"reserved":0,"last_update":"0001-01-01T00:00:00Z","name_a2s":"Uncletopia | Warsaw | 3 | All Maps","protocol":17,"map":"cp_altitude","folder":"tf","game":"Team Fortress","app_id":440,"player_count":0,"max_players":24,"Bots":0,"server_type":"Dedicated","server_os":"Linux","password":true,"vac":true,"version":"7757534","steam_id":85568392925397852,"keywords":["cp","nocrits","nodmgspread","uncletopia"],"game_id":440,"stv_port":27036,"stv_name":"Uncletopia | Warsaw | 3 | All Maps | STV","players":null},{"server_id":52,"name":"Uncletopia | Warsaw | 4 | All Maps","name_short":"waw-4","host":"waw-1.pl.uncletopia.com","port":27045,"enabled":true,"region":"eu","cc":"pl","latitude":52.2297,"longitude":21.017532,"reserved":0,"last_update":"0001-01-01T00:00:00Z","name_a2s":"Uncletopia | Warsaw | 4 | All Maps","protocol":17,"map":"koth_lakeside_final","folder":"tf","game":"Team Fortress","app_id":440,"player_count":0,"max_players":24,"Bots":0,"server_type":"Dedicated","server_os":"Linux","password":true,"vac":true,"version":"7757534","steam_id":85568392925397853,"keywords":["cp","nocrits","nodmgspread","uncletopia"],"game_id":440,"stv_port":27046,"stv_name":"Uncletopia | Warsaw | 4 | All Maps | STV","players":null},{"server_id":53,"name":"Uncletopia | Warsaw | 5 | Stopwatch Beta","name_short":"waw-5","host":"waw-1.pl.uncletopia.com","port":27055,"enabled":true,"region":"eu","cc":"pl","latitude":52.2297,"longitude":21.017532,"reserved":0,"last_update":"0001-01-01T00:00:00Z","name_a2s":"Uncletopia | Warsaw | 5 | Stopwatch Beta","protocol":17,"map":"pl_borneo","folder":"tf","game":"Team Fortress","app_id":440,"player_count":0,"max_players":24,"Bots":0,"server_type":"Dedicated","server_os":"Linux","password":true,"vac":true,"version":"7757534","steam_id":85568392925397854,"keywords":["nocrits","nodmgspread","payload","uncletopia"],"game_id":440,"stv_port":27056,"stv_name":"Uncletopia | Warsaw | 5 | Stopwatch Beta | STV","players":null},{"server_id":54,"name":"Uncletopia | Warsaw | 6 | Community","name_short":"waw-6","host":"waw-1.pl.uncletopia.com","port":27065,"enabled":true,"region":"eu","cc":"pl","latitude":52.2297,"longitude":21.017532,"reserved":0,"last_update":"0001-01-01T00:00:00Z","name_a2s":"Uncletopia | Warsaw | 6 | Community","protocol":17,"map":"koth_lakeside_final","folder":"tf","game":"Team Fortress","app_id":440,"player_count":0,"max_players":24,"Bots":0,"server_type":"Dedicated","server_os":"Linux","password":true,"vac":true,"version":"7757534","steam_id":85568392925397856,"keywords":["cp","nocrits","nodmgspread","uncletopia"],"game_id":440,"stv_port":27066,"stv_name":"Uncletopia | Warsaw | 6 | Community | STV","players":null}]}