{"status":true,"message":"","result":[{"server_id":9,"name":"Uncletopia | Atlanta | 1 | All Maps","name_short":"atl-1","host":"atl-1.us.uncletopia.com","port":27015,"enabled":true,"region":"us-east","cc":"us","latitude":33.753746,"longitude":-84.38633,"reserved":0,"last_update":"0001-01-01T00:00:00Z","name_a2s":"Uncletopia | Atlanta | 1 | All Maps","protocol":17,"map":"pl_frontier_final","folder":"tf","game":"Team Fortress","app_id":440,"player_count":24,"max_players":24,"Bots":0,"server_type":"Dedicated","server_os":"Linux","password":true,"vac":true,"version":"7757534","steam_id":85568392924469982,"keywords":["nocrits","nodmgspread","payload","uncletopia"],"game_id":440,"stv_port":27016,"stv_name":"Uncletopia | Atlanta | 1 | All Maps | STV","players":[{"user_id":641,"name":"BIG HOG","steam_id":76561198079923652,"connected_time":348000000000,"state":"active","ping":61},{"user_id":555,"name":"Ghetto Smosh Fan","steam_id":76561198097272509,"connected_time":11566000000000,"state":"active","ping":38},{"user_id":628,"name":"titaniumsupernova","steam_id":76561198311711930,"connected_time":2348000000000,"state":"active","ping":48},{"user_id":610,"name":"average rust player","steam_id":76561198047627340,"connected_time":5420000000000,"state":"active","ping":89},{"user_id":637,"name":"T√ñZI","steam_id":76561198045268695,"connected_time":1077000000000,"state":"active","ping":72},{"user_id":558,"name":"General Mischief","steam_id":76561198163825955,"connected_time":10759000000000,"state":"active","ping":107},{"user_id":603,"name":"Toonice","steam_id":76561198402994885,"connected_time":6246000000000,"state":"active","ping":83},{"user_id":581,"name":"lil hog","steam_id":76561199230929836,"connected_time":8341000000000,"state":"active","ping":78},{"user_id":631,"name":"rose","steam_id":76561198048882285,"connected_time":2146000000000,"state":"active","ping":59},{"user_id":635,"name":"gIBBY","steam_id":76561198080099598,"connected_time":1211000000000,"state":"active","ping":58},{"user_id":625,"name":"floofy","steam_id":76561198389769098,"connected_time":2410000000000,"state":"active","ping":85},{"user_id":545,"name":"Sophie","steam_id":76561198170408057,"connected_time":12617000000000,"state":"active","ping":58},{"user_id":619,"name":"ATL1 | Psionic Box","steam_id":76561198151019322,"connected_time":3982000000000,"state":"active","ping":70},{"user_id":622,"name":"wire-guided","steam_id":76561198055407168,"connected_time":3298000000000,"state":"active","ping":58},{"user_id":572,"name":"DFR Le4n!!!","steam_id":76561198045522596,"connected_time":9117000000000,"state":"active","ping":72},{"user_id":643,"name":"Zillers","steam_id":76561198095248744,"connected_time":126000000000,"state":"active","ping":85},{"user_id":583,"name":"fa√ßade","steam_id":76561199157009256,"connected_time":8073000000000,"state":"active","ping":99},{"user_id":634,"name":"ATL1 | Bandi","steam_id":76561198432036026,"connected_time":1225000000000,"state":"active","ping":51},{"user_id":567,"name":"morphine","steam_id":76561198072124799,"connected_time":10103000000000,"state":"active","ping":93},{"user_id":602,"name":"oakaokokakaokoa","steam_id":76561198092135570,"connected_time":6398000000000,"state":"active","ping":60},{"user_id":617,"name":"Aniz","steam_id":76561199226665024,"connected_time":4890000000000,"state":"active","ping":137},{"user_id":624,"name":"eish","steam_id":76561198089463603,"connected_time":3151000000000,"state":"active","ping":122},{"user_id":640,"name":"Noisgamer02","steam_id":76561198129665722,"connected_time":991000000000,"state":"active","ping":89},{"user_id":642,"name":"yomo","steam_id":76561198063175935,"connected_time":206000000000,"state":"active","ping":60}]},{"server_id":104,"name":"Uncletopia | Atlanta | 2 | All Maps","name_short":"atl-2","host":"atl-1.us.uncletopia.com","port":27025,"enabled":true,"region":"us-east","cc":"us","latitude":33.753746,"longitude":-84.38633,"reserved":0,"last_update":"0001-01-01T00:00:00Z","name_a2s":"Uncletopia | Atlanta | 2 | All Maps","protocol":17,"map":"pl_thundermountain","folder":"tf","game":"Team Fortress","app_id":440,"player_count":24,"max_players":24,"Bots":0,"server_type":"Dedicated","server_os":"Linux","password":true,"vac":true,"version":"7757534","steam_id":85568392924469983,"keywords":["nocrits","nodmgspread","payload","uncletopia"],"game_id":440,"stv_port":27026,"stv_name":"Uncletopia | Atlanta | 2 | All Maps | STV","players":[{"user_id":616,"name":"Notation","steam_id":76561198119509319,"connected_time":2147000000000,"state":"active","ping":46},{"user_id":617,"name":"Nomad","steam_id":76561198272103822,"connected_time":2142000000000,"state":"active","ping":63},{"user_id":618,"name":"Wonko","steam_id":76561198043914891,"connected_time":2141000000000,"state":"active","ping":59},{"user_id":644,"name":"HammerHead","steam_id":76561197975668646,"connected_time":874000000000,"state":"active","ping":74},{"user_id":641,"name":"kermitcreeper(ZAZA)","steam_id":76561199222829972,"connected_time":1305000000000,"state":"active","ping":74},{"user_id":620,"name":"Alkahest","steam_id":76561199112346658,"connected_time":2087000000000,"state":"active","ping":76},{"user_id":622,"name":"Cosmic sR","steam_id":76561198081738675,"connected_time":1880000000000,"state":"active","ping":70},{"user_id":650,"name":"Hashyterps Visioncs.de","steam_id":76561198110563958,"connected_time":414000000000,"state":"active","ping":83},{"user_id":648,"name":"Boongadoonga","steam_id":76561198058525763,"connected_time":510000000000,"state":"active","ping":73},{"user_id":623,"name":"|2nd-AD| AttackPelican ‡πëÔ≠•","steam_id":76561198353278175,"connected_time":1866000000000,"state":"active","ping":70},{"user_id":602,"name":"Red Man","steam_id":76561198293333566,"connected_time":3925000000000,"state":"active","ping":65},{"user_id":574,"name":"DelŒªyed (FamOuZ)üòª","steam_id":76561198290147935,"connected_time":5802000000000,"state":"active","ping":76},{"user_id":624,"name":"1-800-GHOST-DANCE","steam_id":76561198835430429,"connected_time":1855000000000,"state":"active","ping":98},{"user_id":645,"name":"Ghost","steam_id":76561198426370628,"connected_time":868000000000,"state":"active","ping":55},{"user_id":647,"name":"captainspatklz","steam_id":76561198432167270,"connected_time":561000000000,"state":"active","ping":61},{"user_id":646,"name":"plasmaofthedawn","steam_id":76561198287916194,"connected_time":601000000000,"state":"active","ping":57},{"user_id":631,"name":"UnkownGamerLOL","steam_id":76561198225902368,"connected_time":1651000000000,"state":"active","ping":88},{"user_id":649,"name":"Pi√±a Colada Enjoyer","steam_id":76561198208765015,"connected_time":474000000000,"state":"active","ping":164},{"user_id":643,"name":"dobby","steam_id":76561198012274834,"connected_time":1127000000000,"state":"active","ping":92},{"user_id":636,"name":"tariq‚Ñ¢","steam_id":76561198262857602,"connected_time":1575000000000,"state":"active","ping":50},{"user_id":642,"name":"SoulReaper690","steam_id":76561198867867567,"connected_time":1210000000000,"state":"active","ping":84},{"user_id":639,"name":"casualfemboy","steam_id":76561199433765709,"connected_time":1529000000000,"state":"active","ping":98},{"user_id":651,"name":"Coinclever","steam_id":76561198099972692,"connected_time":387000000000,"state":"active","ping":80},{"user_id":640,"name":"Holzer","steam_id":76561198126631500,"connected_time":1512000000000,"state":"active","ping":85}]},{"server_id":400,"name":"Uncletopia | Atlanta | 3 | Community","name_short":"atl-3","host":"atl-1.us.uncletopia.com","port":27035,"enabled":true,"region":"us-east","cc":"us","latitude":33.753746,"longitude":-84.38633,"reserved":0,"last_update":"0001-01-01T00:00:00Z","name_a2s":"Uncletopia | Atlanta | 3 | Community","protocol":17,"map":"workshop/rd_asteroid_redux_b1.ugc2154902912","folder":"tf","game":"Team Fortress","app_id":440,"player_count":0,"max_players":24,"Bots":0,"server_type":"Dedicated","server_os":"Linux","password":true,"vac":true,"version":"7757534","steam_id":85568392924515187,"keywords":["beta","nocrits","nodmgspread","rd","uncletopia"],"game_id":440,"stv_port":27036,"stv_name":"Uncletopia | Atlanta | 3 | Community | STV","players":null},{"server_id":401,"name":"Uncletopia | Atlanta | 4 | No Payload","name_short":"atl-4","host":"atl-1.us.uncletopia.com","port":27045,"enabled":true,"region":"us-east","cc":"us","latitude":33.753746,"longitude":-84.38633,"reserved":0,"last_update":"0001-01-01T00:00:00Z","name_a2s":"","protocol":0,"map":"","folder":"","game":"","app_id":0,"player_count":0,"max_players":0,"Bots":0,"server_type":"","server_os":"","password":false,"vac":false,"version":"","steam_id":0,"keywords":null,"game_id":0,"stv_port":0,"stv_name":"","players":null},{"server_id":2,"name":"Uncletopia | Chicago | 1 | All Maps","name_short":"chi-1","host":"chi-1.us.uncletopia.com","port":27015,"enabled":true,"region":"us-central","cc":"us","latitude":41.881832,"longitude":-87.62318,"reserved":0,"last_update":"0001-01-01T00:00:00Z","name_a2s":"Uncletopia | Chicago | 1 | All Maps","protocol":17,"map":"pl_badwater","folder":"tf","game":"Team Fortress","app_id":440,"player_count":0,"max_players":24,"Bots":0,"server_type":"Dedicated","server_os":"Linux","password":true,"vac":true,"version":"7757534","steam_id":85568392924469984,"keywords":["nocrits","nodmgspread","payload","uncletopia"],"game_id":440,"stv_port":27016,"stv_name":"Uncletopia | Chicago | 1 | All Maps | STV","players":null},{"server_id":106,"name":"Uncletopia | Chicago | 2 | All Maps","name_short":"chi-2","host":"chi-1.us.uncletopia.com","port":27025,"enabled":true,"region":"us-central","cc":"us","latitude":41.881832,"longitude":-87.62318,"reserved":0,"last_update":"0001-01-01T00:00:00Z","name_a2s":"Uncletopia | Chicago | 2 | All Maps","protocol":17,"map":"cp_snakewater_final1","folder":"tf","game":"Team Fortress","app_id":440,"player_count":0,"max_players":24,"Bots":0,"server_type":"Dedicated","server_os":"Linux","password":true,"vac":true,"version":"7757534","steam_id":85568392924469985,"keywords":["cp","nocrits","nodmgspread","uncletopia"],"game_id":440,"stv_port":27026,"stv_name":"Uncletopia | Chicago | 2 | All Maps | STV","players":null},{"server_id":402,"name":"Uncletopia | Chicago | 3 | All Maps","name_short":"chi-3","host":"chi-1.us.uncletopia.com","port":27035,"enabled":true,"region":"us-central","cc":"us","latitude":41.881832,"longitude":-87.62318,"reserved":0,"last_update":"0001-01-01T00:00:00Z","name_a2s":"Uncletopia | Chicago | 3 | All Maps","protocol":17,"map":"pl_swiftwater_final1","folder":"tf","game":"Team Fortress","app_id":440,"player_count":24,"max_players":24,"Bots":0,"server_type":"Dedicated","server_os":"Linux","password":true,"vac":true,"version":"7757534","steam_id":85568392924515191,"keywords":["nocrits","nodmgspread","payload","uncletopia"],"game_id":440,"stv_port":27036,"stv_name":"Uncletopia | Chicago | 3 | All Maps | STV","players":[{"user_id":729,"name":"gregg","steam_id":76561198034242401,"connected_time":1234000000000,"state":"active","ping":46},{"user_id":713,"name":"toilethumor","steam_id":76561197962028780,"connected_time":2210000000000,"state":"active","ping":61},{"user_id":745,"name":"fish","steam_id":76561199114461848,"connected_time":57000000000,"state":"active","ping":98},{"user_id":699,"name":"MEGATRON","steam_id":76561198820480684,"connected_time":3144000000000,"state":"active","ping":62},{"user_id":741,"name":"melvyn","steam_id":76561198113226381,"connected_time":361000000000,"state":"active","ping":79},{"user_id":742,"name":"Zho Biden","steam_id":76561198079224101,"connected_time":303000000000,"state":"active","ping":48},{"user_id":735,"name":"Dan Stan The Mr Man","steam_id":76561198017134269,"connected_time":754000000000,"state":"active","ping":152},{"user_id":668,"name":"enmgxcltayiqoacx","steam_id":76561197974965536,"connected_time":5908000000000,"state":"active","ping":60},{"user_id":733,"name":"Mega","steam_id":76561198121258379,"connected_time":832000000000,"state":"active","ping":84},{"user_id":705,"name":"anime","steam_id":76561198092581225,"connected_time":2932000000000,"state":"active","ping":70},{"user_id":678,"name":"consider shucking","steam_id":76561198042682297,"connected_time":4915000000000,"state":"active","ping":54},{"user_id":732,"name":"Surg","steam_id":76561198081267222,"connected_time":1120000000000,"state":"active","ping":52},{"user_id":736,"name":"fruitymario","steam_id":76561198047190430,"connected_time":752000000000,"state":"active","ping":87},{"user_id":737,"name":"sqgly","steam_id":76561198105508955,"connected_time":700000000000,"state":"active","ping":51},{"user_id":738,"name":"TTVCherri_Bee","steam_id":76561198307191364,"connected_time":684000000000,"state":"active","ping":115},{"user_id":743,"name":"Sgt. Oddball","steam_id":76561198036096912,"connected_time":192000000000,"state":"active","ping":75},{"user_id":731,"name":"MankTKO","steam_id":76561198189421005,"connected_time":1181000000000,"state":"active","ping":57},{"user_id":744,"name":"profile name","steam_id":76561198032625036,"connected_time":123000000000,"state":"active","ping":78},{"user_id":726,"name":"i'msquidward","steam_id":76561198871162932,"connected_time":1413000000000,"state":"active","ping":85},{"user_id":686,"name":"Your kinky Onee-san","steam_id":76561199146582356,"connected_time":4420000000000,"state":"active","ping":104},{"user_id":728,"name":"Bobby Hummer","steam_id":76561198153962724,"connected_time":1367000000000,"state":"active","ping":59},{"user_id":740,"name":"Random","steam_id":76561198318879454,"connected_time":534000000000,"state":"active","ping":58},{"user_id":688,"name":"SIGMA [BS]","steam_id":76561197962604879,"connected_time":4296000000000,"state":"active","ping":66},{"user_id":746,"name":"Stupid Monkey =3","steam_id":76561198024580166,"connected_time":18000000000,"state":"active","ping":97}]},{"server_id":403,"name":"Uncletopia | Chicago | 4 | All Maps","name_short":"chi-4","host":"chi-1.us.uncletopia.com","port":27045,"enabled":true,"region":"us-central","cc":"us","latitude":41.881832,"longitude":-87.62318,"reserved":0,"last_update":"0001-01-01T00:00:00Z","name_a2s":"Uncletopia | Chicago | 4 | All Maps","protocol":17,"map":"pl_frontier_final","folder":"tf","game":"Team Fortress","app_id":440,"player_count":22,"max_players":24,"Bots":0,"server_type":"Dedicated","server_os":"Linux","password":true,"vac":true,"version":"7757534","steam_id":85568392924515193,"keywords":["nocrits","nodmgspread","payload","uncletopia"],"game_id":440,"stv_port":27046,"stv_name":"Uncletopia | Chicago | 4 | All Maps | STV","players":[{"user_id":721,"name":"alN","steam_id":76561198329171346,"connected_time":2671000000000,"state":"active","ping":44},{"user_id":722,"name":"Underqualified Gunman","steam_id":76561198111061367,"connected_time":2640000000000,"state":"active","ping":60},{"user_id":662,"name":"Sabaman55","steam_id":76561198212267979,"connected_time":7462000000000,"state":"active","ping":48},{"user_id":687,"name":"big shmoka","steam_id":76561198050768962,"connected_time":4777000000000,"state":"active","ping":83},{"user_id":758,"name":"silvestrelops","steam_id":76561198275189720,"connected_time":211000000000,"state":"active","ping":143},{"user_id":724,"name":"Kevster570","steam_id":76561198115803066,"connected_time":2496000000000,"state":"active","ping":96},{"user_id":753,"name":"Nathan","steam_id":76561199132214008,"connected_time":504000000000,"state":"active","ping":139},{"user_id":731,"name":"Orenji","steam_id":76561199229204857,"connected_time":2165000000000,"state":"active","ping":130},{"user_id":751,"name":"Lore","steam_id":76561198098407538,"connected_time":521000000000,"state":"active","ping":46},{"user_id":700,"name":"keffers","steam_id":76561198202338796,"connected_time":3842000000000,"state":"active","ping":75},{"user_id":748,"name":"Fizz","steam_id":76561198444775002,"connected_time":639000000000,"state":"active","ping":70},{"user_id":736,"name":"Pan Piotr","steam_id":76561198140016126,"connected_time":1897000000000,"state":"active","ping":156},{"user_id":745,"name":"seductive smell of oreos","steam_id":76561198032791567,"connected_time":845000000000,"state":"active","ping":95},{"user_id":733,"name":"dreamySylph","steam_id":76561199000573308,"connected_time":2089000000000,"state":"active","ping":56},{"user_id":749,"name":"Kira Yoshikage","steam_id":76561199428747738,"connected_time":560000000000,"state":"active","ping":178},{"user_id":752,"name":"Red on Red","steam_id":76561198802356746,"connected_time":516000000000,"state":"active","ping":89},{"user_id":720,"name":"Bryguy","steam_id":76561198092096120,"connected_time":2785000000000,"state":"active","ping":39},{"user_id":754,"name":"Swifgz","steam_id":76561198162875756,"connected_time":484000000000,"state":"active","ping":60},{"user_id":725,"name":"weed lesbian","steam_id":76561198042263805,"connected_time":2422000000000,"state":"active","ping":88},{"user_id":755,"name":"Amadeus","steam_id":76561198160047173,"connected_time":392000000000,"state":"active","ping":78},{"user_id":759,"name":"Casted","steam_id":76561199224054775,"connected_time":201000000000,"state":"active","ping":168},{"user_id":740,"name":"echo","steam_id":76561199411724732,"connected_time":1739000000000,"state":"active","ping":68}]},{"server_id":36,"name":"Uncletopia | Chicago | 5 | All Maps","name_short":"chi-5","host":"chi-2.us.uncletopia.com","port":27015,"enabled":true,"region":"us-central","cc":"us","latitude":41.881832,"longitude":-87.62318,"reserved":0,"last_update":"0001-01-01T00:00:00Z","name_a2s":"Uncletopia | Chicago | 5 | All Maps","protocol":17,"map":"cp_dustbowl","folder":"tf","game":"Team Fortress","app_id":440,"player_count":24,"max_players":24,"Bots":0,"server_type":"Dedicated","server_os":"Linux","password":true,"vac":true,"version":"7757534","steam_id":85568392924866362,"keywords":["cp","nocrits","nodmgspread","uncletopia"],"game_id":440,"stv_port":27016,"stv_name":"Uncletopia | Chicago | 5 | All Maps | STV","players":[{"user_id":477,"name":"RectalExam","steam_id":76561197970502312,"connected_time":1375000000000,"state":"active","ping":80},{"user_id":377,"name":"Gravy","steam_id":76561198087726095,"connected_time":5639000000000,"state":"active","ping":80},{"user_id":489,"name":"Magma","steam_id":76561198108261173,"connected_time":430000000000,"state":"active","ping":48},{"user_id":381,"name":"Codo Sapien","steam_id":76561198014206810,"connected_time":5439000000000,"state":"active","ping":31},{"user_id":483,"name":"_hooded_","steam_id":76561198023595873,"connected_time":1244000000000,"state":"active","ping":79},{"user_id":390,"name":"starvin marvin","steam_id":76561198347286009,"connected_time":5094000000000,"state":"active","ping":82},{"user_id":490,"name":"Home Depot Manager","steam_id":76561199030506208,"connected_time":430000000000,"state":"active","ping":73},{"user_id":463,"name":"L'Jarius Sneed","steam_id":76561198059575962,"connected_time":2131000000000,"state":"active","ping":46},{"user_id":491,"name":"Spaceman","steam_id":76561198349305249,"connected_time":231000000000,"state":"active","ping":109},{"user_id":474,"name":"martpel","steam_id":76561198039864709,"connected_time":1571000000000,"state":"active","ping":73},{"user_id":493,"name":"Brisk","steam_id":76561198129769783,"connected_time":86000000000,"state":"active","ping":82},{"user_id":475,"name":"Training Arc","steam_id":76561198038832034,"connected_time":1534000000000,"state":"active","ping":102},{"user_id":476,"name":"JOE","steam_id":76561198027181660,"connected_time":1428000000000,"state":"active","ping":58},{"user_id":479,"name":"MrChaosOK","steam_id":76561197976353083,"connected_time":1358000000000,"state":"active","ping":119},{"user_id":494,"name":"Chin","steam_id":76561198247426906,"connected_time":78000000000,"state":"active","ping":78},{"user_id":469,"name":"jalapeno handjob","steam_id":76561198123298824,"connected_time":1970000000000,"state":"active","ping":71},{"user_id":470,"name":"shadow wizard money gang","steam_id":76561198089421742,"connected_time":1934000000000,"state":"active","ping":127},{"user_id":487,"name":"magicman","steam_id":76561198067149184,"connected_time":678000000000,"state":"active","ping":71},{"user_id":485,"name":"briggs","steam_id":76561198045655893,"connected_time":1077000000000,"state":"active","ping":60},{"user_id":495,"name":"Lipton","steam_id":76561198135397441,"connected_time":38000000000,"state":"active","ping":75},{"user_id":391,"name":"RedSock","steam_id":76561198161243404,"connected_time":5085000000000,"state":"active","ping":41},{"user_id":454,"name":"‚ô•Fia‚ô•","steam_id":76561198153849593,"connected_time":3073000000000,"state":"active","ping":91},{"user_id":471,"name":"Arthur","steam_id":76561198871672176,"connected_time":1909000000000,"state":"active","ping":91},{"user_id":414,"name":"frank","steam_id":76561198137777483,"connected_time":4532000000000,"state":"active","ping":63}]},{"server_id":37,"name":"Uncletopia | Chicago | 6 | All Maps","name_short":"chi-6","host":"chi-2.us.uncletopia.com","port":27025,"enabled":true,"region":"us-central","cc":"us","latitude":41.881832,"longitude":-87.62318,"reserved":0,"last_update":"0001-01-01T00:00:00Z","name_a2s":"Uncletopia | Chicago | 6 | All Maps","protocol":17,"map":"pl_snowycoast","folder":"tf","game":"Team Fortress","app_id":440,"player_count":23,"max_players":24,"Bots":0,"server_type":"Dedicated","server_os":"Linux","password":true,"vac":true,"version":"7757534","steam_id":85568392924866363,"keywords":["nocrits","nodmgspread","payload","uncletopia"],"game_id":440,"stv_port":27026,"stv_name":"Uncletopia | Chicago | 6 | All Maps | STV","players":[{"user_id":533,"name":"BFC23","steam_id":76561199187132136,"connected_time":5881000000000,"state":"active","ping":78},{"user_id":553,"name":"ror!","steam_id":76561198021227843,"connected_time":4125000000000,"state":"active","ping":57},{"user_id":568,"name":"chef_hatchet","steam_id":76561198154906329,"connected_time":2728000000000,"state":"active","ping":53},{"user_id":530,"name":"THEDINKY","steam_id":76561198190077399,"connected_time":5995000000000,"state":"active","ping":59},{"user_id":588,"name":"[PINGU‚Ñ¢] Tiny Tuna","steam_id":76561198193611579,"connected_time":304000000000,"state":"active","ping":75},{"user_id":548,"name":"BigDeac","steam_id":76561198091237274,"connected_time":4565000000000,"state":"active","ping":54},{"user_id":579,"name":"(real)","steam_id":76561198154183700,"connected_time":872000000000,"state":"active","ping":49},{"user_id":529,"name":"Kanbaru Suruga","steam_id":76561198164782653,"connected_time":6113000000000,"state":"active","ping":63},{"user_id":581,"name":"Banjo","steam_id":76561198004652853,"connected_time":764000000000,"state":"active","ping":103},{"user_id":549,"name":"noah","steam_id":76561198173310157,"connected_time":4332000000000,"state":"active","ping":50},{"user_id":515,"name":"JesseIsBetterThanYou","steam_id":76561198401757217,"connected_time":7138000000000,"state":"active","ping":67},{"user_id":585,"name":"Karma's Camera","steam_id":76561198059385185,"connected_time":537000000000,"state":"active","ping":71},{"user_id":582,"name":"Messi","steam_id":76561198121023233,"connected_time":689000000000,"state":"active","ping":56},{"user_id":583,"name":"Hayden","steam_id":76561198120421485,"connected_time":653000000000,"state":"active","ping":68},{"user_id":577,"name":"Hentai Lord","steam_id":76561199030449654,"connected_time":1772000000000,"state":"active","ping":81},{"user_id":584,"name":"pigswill","steam_id":76561197999081865,"connected_time":609000000000,"state":"active","ping":90},{"user_id":587,"name":"D-Class 1278","steam_id":76561198121316353,"connected_time":504000000000,"state":"active","ping":81},{"user_id":586,"name":"mime girl","steam_id":76561198337705174,"connected_time":537000000000,"state":"active","ping":74},{"user_id":510,"name":"gerg","steam_id":76561197997127387,"connected_time":7609000000000,"state":"active","ping":99},{"user_id":569,"name":"Peter Muskrat (racist)","steam_id":76561198857749738,"connected_time":2709000000000,"state":"active","ping":99},{"user_id":578,"name":"Sqiddwr","steam_id":76561197998071622,"connected_time":898000000000,"state":"active","ping":75},{"user_id":571,"name":"B)","steam_id":76561198093921290,"connected_time":2637000000000,"state":"active","ping":46},{"user_id":589,"name":"aversa","steam_id":76561198840460101,"connected_time":103000000000,"state":"active","ping":69}]},{"server_id":38,"name":"Uncletopia | Chicago | 7 | Stopwatch Beta","name_short":"chi-7","host":"chi-2.us.uncletopia.com","port":27035,"enabled":true,"region":"us-central","cc":"us","latitude":41.881832,"longitude":-87.62318,"reserved":0,"last_update":"0001-01-01T00:00:00Z","name_a2s":"Uncletopia | Chicago | 7 | Stopwatch Beta","protocol":17,"map":"workshop/koth_product_final.ugc454272353","folder":"tf","game":"Team Fortress","app_id":440,"player_count":0,"max_players":24,"Bots":0,"server_type":"Dedicated","server_os":"Linux","password":true,"vac":true,"version":"7757534","steam_id":85568392924866364,"keywords":["cp","nocrits","nodmgspread","uncletopia"],"game_id":440,"stv_port":27036,"stv_name":"Uncletopia | Chicago | 7 | Stopwatch Beta | STV","players":null},{"server_id":39,"name":"Uncletopia | Chicago | 8 | Community","name_short":"chi-8","host":"chi-2.us.uncletopia.com","port":27045,"enabled":true,"region":"us-central","cc":"us","latitude":41.881832,"longitude":-87.62318,"reserved":0,"last_update":"0001-01-01T00:00:00Z","name_a2s":"Uncletopia | Chicago | 8 | Community","protocol":17,"map":"workshop/cp_overgrown_rc7b.ugc503939302","folder":"tf","game":"Team Fortress","app_id":440,"player_count":0,"max_players":24,"Bots":0,"server_type":"Dedicated","server_os":"Linux","password":true,"vac":true,"version":"7757534","steam_id":85568392924866365,"keywords":["cp","nocrits","nodmgspread","uncletopia"],"game_id":440,"stv_port":27046,"stv_name":"Uncletopia | Chicago | 8 | Community | STV","players":null},{"server_id":8,"name":"Uncletopia | Dallas | 1 | All Maps","name_short":"dal-1","host":"dal-1.us.uncletopia.com","port":27015,"enabled":true,"region":"us-central","cc":"us","latitude":32.779167,"longitude":-96.80889,"reserved":0,"last_update":"0001-01-01T00:00:00Z","name_a2s":"Uncletopia | Dallas | 1 | All Maps","protocol":17,"map":"pl_upward","folder":"tf","game":"Team Fortress","app_id":440,"player_count":24,"max_players":24,"Bots":0,"server_type":"Dedicated","server_os":"Linux","password":true,"vac":true,"version":"7757534","steam_id":85568392924469986,"keywords":["nocrits","nodmgspread","payload","uncletopia"],"game_id":440,"stv_port":27016,"stv_name":"Uncletopia | Dallas | 1 | All Maps | STV","players":[{"user_id":775,"name":"Koffy","steam_id":76561198184386039,"connected_time":1184000000000,"state":"active","ping":124},{"user_id":790,"name":"123","steam_id":76561198106308056,"connected_time":91000000000,"state":"active","ping":76},{"user_id":767,"name":"NETRO","steam_id":76561198238207170,"connected_time":2375000000000,"state":"active","ping":133},{"user_id":778,"name":"koompa_stomp","steam_id":76561198073081735,"connected_time":973000000000,"state":"active","ping":81},{"user_id":754,"name":"momb","steam_id":76561198142234038,"connected_time":2771000000000,"state":"active","ping":82},{"user_id":777,"name":"WALTER WHITE","steam_id":76561199147666336,"connected_time":1042000000000,"state":"active","ping":180},{"user_id":786,"name":"Nero25","steam_id":76561198027720631,"connected_time":638000000000,"state":"active","ping":112},{"user_id":756,"name":"TÃµÃíÃ≤HÃ∂ÃêÃ™EÃ¥ÕÇÃäÕâMÃ∂ÃæÕÜ\ufffd","steam_id":76561198091875604,"connected_time":2755000000000,"state":"active","ping":73},{"user_id":789,"name":"Donger Man","steam_id":76561199011880402,"connected_time":279000000000,"state":"active","ping":65},{"user_id":780,"name":"FI LO","steam_id":76561198976530881,"connected_time":797000000000,"state":"active","ping":72},{"user_id":783,"name":"oooh whatcha say","steam_id":76561198122377121,"connected_time":737000000000,"state":"active","ping":121},{"user_id":781,"name":"Kidzbopsicle","steam_id":76561198047660691,"connected_time":773000000000,"state":"active","ping":75},{"user_id":753,"name":"üå∏MelWormüå∏","steam_id":76561198084145814,"connected_time":3419000000000,"state":"active","ping":67},{"user_id":782,"name":"John Smith","steam_id":76561198185776555,"connected_time":772000000000,"state":"active","ping":89},{"user_id":763,"name":"NeoN","steam_id":76561198117608366,"connected_time":2591000000000,"state":"active","ping":76},{"user_id":761,"name":"riSygneD","steam_id":76561198331618687,"connected_time":2696000000000,"state":"active","ping":71},{"user_id":774,"name":"H.","steam_id":76561198074951179,"connected_time":1711000000000,"state":"active","ping":61},{"user_id":719,"name":"Clumsy","steam_id":76561198056345245,"connected_time":4507000000000,"state":"active","ping":70},{"user_id":784,"name":"sun","steam_id":76561198011329825,"connected_time":733000000000,"state":"active","ping":89},{"user_id":785,"name":"Pepis","steam_id":76561198901179802,"connected_time":709000000000,"state":"active","ping":89},{"user_id":766,"name":"PaD_Ding","steam_id":76561198831202965,"connected_time":2396000000000,"state":"active","ping":164},{"user_id":787,"name":"Monty","steam_id":76561197993567253,"connected_time":628000000000,"state":"active","ping":106},{"user_id":670,"name":"Gasoline the Vampire Queen","steam_id":76561198197352885,"connected_time":5563000000000,"state":"active","ping":53},{"user_id":788,"name":"Interloper","steam_id":76561198134054821,"connected_time":574000000000,"state":"active","ping":137}]},{"server_id":108,"name":"Uncletopia | Dallas | 2 | All Maps","name_short":"dal-2","host":"dal-1.us.uncletopia.com","port":27025,"enabled":true,"region":"us-central","cc":"us","latitude":32.779167,"longitude":-96.80889,"reserved":0,"last_update":"0001-01-01T00:00:00Z","name_a2s":"Uncletopia | Dallas | 2 | All Maps","protocol":17,"map":"cp_altitude","folder":"tf","game":"Team Fortress","app_id":440,"player_count":3,"max_players":24,"Bots":0,"server_type":"Dedicated","server_os":"Linux","password":true,"vac":true,"version":"7757534","steam_id":85568392924469988,"keywords":["cp","nocrits","nodmgspread","uncletopia"],"game_id":440,"stv_port":27026,"stv_name":"Uncletopia | Dallas | 2 | All Maps | STV","players":[{"user_id":583,"name":"Bobwafflemanjr","steam_id":76561198271769725,"connected_time":408000000000,"state":"active","ping":65},{"user_id":584,"name":"Raiden","steam_id":76561198094841207,"connected_time":388000000000,"state":"active","ping":40},{"user_id":585,"name":"oofaouch","steam_id":76561198828763964,"connected_time":203000000000,"state":"active","ping":61}]},{"server_id":5,"name":"Uncletopia | Frankfurt | 1 | All Maps","name_short":"frk-1","host":"frk-1.de.uncletopia.com","port":27015,"enabled":true,"region":"eu","cc":"de","latitude":50.110924,"longitude":8.682127,"reserved":0,"last_update":"0001-01-01T00:00:00Z","name_a2s":"Uncletopia | Frankfurt | 1 | All Maps","protocol":17,"map":"pl_snowycoast","folder":"tf","game":"Team Fortress","app_id":440,"player_count":0,"max_players":24,"Bots":0,"server_type":"Dedicated","server_os":"Linux","password":true,"vac":true,"version":"7757534","steam_id":85568392924469989,"keywords":["nocrits","nodmgspread","payload","uncletopia"],"game_id":440,"stv_port":27016,"stv_name":"Uncletopia | Frankfurt | 1 | All Maps | STV","players":null},{"server_id":110,"name":"Uncletopia | Frankfurt | 2 | All Maps","name_short":"frk-2","host":"frk-1.de.uncletopia.com","port":27025,"enabled":true,"region":"eu","cc":"de","latitude":50.110924,"longitude":8.682127,"reserved":0,"last_update":"0001-01-01T00:00:00Z","name_a2s":"Uncletopia | Frankfurt | 2 | All Maps","protocol":17,"map":"cp_snakewater_final1","folder":"tf","game":"Team Fortress","app_id":440,"player_count":0,"max_players":24,"Bots":0,"server_type":"Dedicated","server_os":"Linux","password":true,"vac":true,"version":"7757534","steam_id":85568392924469990,"keywords":["cp","nocrits","nodmgspread","uncletopia"],"game_id":440,"stv_port":27026,"stv_name":"Uncletopia | Frankfurt | 2 | All Maps | STV","players":null},{"server_id":308,"name":"Uncletopia | Frankfurt | 3 | All Maps","name_short":"frk-3","host":"frk-1.de.uncletopia.com","port":27035,"enabled":true,"region":"eu","cc":"de","latitude":50.110924,"longitude":8.682127,"reserved":0,"last_update":"0001-01-01T00:00:00Z","name_a2s":"Uncletopia | Frankfurt | 3 | All Maps","protocol":17,"map":"pl_swiftwater_final1","folder":"tf","game":"Team Fortress","app_id":440,"player_count":0,"max_players":24,"Bots":0,"server_type":"Dedicated","server_os":"Linux","password":true,"vac":true,"version":"7757534","steam_id":85568392924504274,"keywords":["nocrits","nodmgspread","payload","uncletopia"],"game_id":440,"stv_port":27036,"stv_name":"Uncletopia | Frankfurt | 3 | All Maps | STV","players":null},{"server_id":309,"name":"Uncletopia | Frankfurt | 4 | All Maps","name_short":"frk-4","host":"frk-1.de.uncletopia.com","port":27045,"enabled":true,"region":"eu","cc":"de","latitude":50.110924,"longitude":8.682127,"reserved":0,"last_update":"0001-01-01T00:00:00Z","name_a2s":"Uncletopia | Frankfurt | 4 | All Maps","protocol":17,"map":"koth_viaduct","folder":"tf","game":"Team Fortress","app_id":440,"player_count":0,"max_players":24,"Bots":0,"server_type":"Dedicated","server_os":"Linux","password":true,"vac":true,"version":"7757534","steam_id":85568392924504275,"keywords":["cp","nocrits","nodmgspread","uncletopia"],"game_id":440,"stv_port":27046,"stv_name":"Uncletopia | Frankfurt | 4 | All Maps | STV","players":null},{"server_id":310,"name":"Uncletopia | Frankfurt | 5 | All Maps","name_short":"frk-5","host":"frk-1.de.uncletopia.com","port":27055,"enabled":true,"region":"eu","cc":"de","latitude":50.110924,"longitude":8.682127,"reserved":0,"last_update":"0001-01-01T00:00:00Z","name_a2s":"Uncletopia | Frankfurt | 5 | All Maps","protocol":17,"map":"koth_lakeside_final","folder":"tf","game":"Team Fortress","app_id":440,"player_count":0,"max_players":24,"Bots":0,"server_type":"Dedicated","server_os":"Linux","password":true,"vac":true,"version":"7757534","steam_id":85568392924504277,"keywords":["cp","nocrits","nodmgspread","uncletopia"],"game_id":440,"stv_port":27056,"stv_name":"Uncletopia | Frankfurt | 5 | All Maps | STV","players":null},{"server_id":311,"name":"Uncletopia | Frankfurt | 6 | All Maps","name_short":"frk-6","host":"frk-1.de.uncletopia.com","port":27065,"enabled":true,"region":"eu","cc":"de","latitude":50.110924,"longitude":8.682127,"reserved":0,"last_update":"0001-01-01T00:00:00Z","name_a2s":"Uncletopia | Frankfurt | 6 | All Maps","protocol":17,"map":"pl_frontier_final","folder":"tf","game":"Team Fortress","app_id":440,"player_count":0,"max_players":24,"Bots":0,"server_type":"Dedicated","server_os":"Linux","password":true,"vac":true,"version":"7757534","steam_id":85568392924504278,"keywords":["nocrits","nodmgspread","payload","uncletopia"],"game_id":440,"stv_port":27066,"stv_name":"Uncletopia | Frankfurt | 6 | All Maps | STV","players":null},{"server_id":23,"name":"Uncletopia | Frankfurt | 7 | Stopwatch Beta","name_short":"frk-7","host":"frk-1.de.uncletopia.com","port":27075,"enabled":true,"region":"eu","cc":"de","latitude":50.110924,"longitude":8.682127,"reserved":0,"last_update":"0001-01-01T00:00:00Z","name_a2s":"Uncletopia | Frankfurt | 7 | Stopwatch Beta","protocol":17,"map":"cp_sunshine","folder":"tf","game":"Team Fortress","app_id":440,"player_count":0,"max_players":24,"Bots":0,"server_type":"Dedicated","server_os":"Linux","password":true,"vac":true,"version":"7757534","steam_id":85568392924742827,"keywords":["cp","nocrits","nodmgspread","uncletopia"],"game_id":440,"stv_port":27076,"stv_name":"Uncletopia | Frankfurt | 7 | Stopwatch Beta | STV","players":null},{"server_id":24,"name":"Uncletopia | Frankfurt | 8 | Community","name_short":"frk-8","host":"frk-1.de.uncletopia.com","port":27085,"enabled":true,"region":"eu","cc":"de","latitude":50.110924,"longitude":8.682127,"reserved":0,"last_update":"0001-01-01T00:00:00Z","name_a2s":"Uncletopia | Frankfurt | 8 | Community","protocol":17,"map":"koth_lakeside_final","folder":"tf","game":"Team Fortress","app_id":440,"player_count":0,"max_players":24,"Bots":0,"server_type":"Dedicated","server_os":"Linux","password":true,"vac":true,"version":"7757534","steam_id":85568392924742828,"keywords":["cp","nocrits","nodmgspread","uncletopia"],"game_id":440,"stv_port":27086,"stv_name":"Uncletopia | Frankfurt | 8 | Community | STV","players":null},{"server_id":202,"name":"Uncletopia | Hong Kong | 1 | All Maps","name_short":"hgk-1","host":"hgk-1.hk.uncletopia.com","port":27015,"enabled":true,"region":"asia","cc":"hk","latitude":22.302711,"longitude":114.177216,"reserved":0,"last_update":"0001-01-01T00:00:00Z","name_a2s":"Uncletopia | Hong Kong | 1 | All Maps","protocol":17,"map":"pl_upward","folder":"tf","game":"Team Fortress","app_id":440,"player_count":24,"max_players":24,"Bots":0,"server_type":"Dedicated","server_os":"Linux","password":true,"vac":true,"version":"7757534","steam_id":85568392924494504,"keywords":["nocrits","nodmgspread","payload","uncletopia"],"game_id":440,"stv_port":27016,"stv_name":"Uncletopia | Hong Kong | 1 | All Maps | STV","players":[{"user_id":57,"name":"LEGS","steam_id":76561199111623890,"connected_time":6301000000000,"state":"active","ping":86},{"user_id":106,"name":"Male Detected!","steam_id":76561199082459598,"connected_time":977000000000,"state":"active","ping":72},{"user_id":101,"name":"eyes","steam_id":76561198858606228,"connected_time":1152000000000,"state":"active","ping":59},{"user_id":110,"name":"Â∑¶ Ëæô","steam_id":76561198202460529,"connected_time":905000000000,"state":"active","ping":97},{"user_id":107,"name":"Happy birthday Abj","steam_id":76561198973884159,"connected_time":950000000000,"state":"active","ping":74},{"user_id":108,"name":"„Éó„É≠„Ç≤„Éº„Éû„Éº","steam_id":76561199017344476,"connected_time":937000000000,"state":"active","ping":100},{"user_id":114,"name":"Milk‚ù§","steam_id":76561198163911560,"connected_time":206000000000,"state":"active","ping":132},{"user_id":90,"name":"elite anarchest","steam_id":76561198411982822,"connected_time":2859000000000,"state":"active","ping":71},{"user_id":79,"name":"Samoyed","steam_id":76561198299150410,"connected_time":4194000000000,"state":"active","ping":129},{"user_id":98,"name":"CHEONH0","steam_id":76561198117697390,"connected_time":1647000000000,"state":"active","ping":88},{"user_id":109,"name":"IZ*","steam_id":76561198834621927,"connected_time":924000000000,"state":"active","ping":128},{"user_id":95,"name":"Wx","steam_id":76561199217780897,"connected_time":1828000000000,"state":"active","ping":118},{"user_id":105,"name":"shoe of obama","steam_id":76561198837668887,"connected_time":992000000000,"state":"active","ping":82},{"user_id":77,"name":"Nonexistent","steam_id":76561198980563251,"connected_time":4236000000000,"state":"active","ping":85},{"user_id":104,"name":"silverhouse7","steam_id":76561198349634906,"connected_time":1010000000000,"state":"active","ping":96},{"user_id":116,"name":"Incompertent mercenaries","steam_id":76561198386626651,"connected_time":73000000000,"state":"active","ping":54},{"user_id":96,"name":"blobeye","steam_id":76561198420018387,"connected_time":1813000000000,"state":"active","ping":45},{"user_id":112,"name":"Â∏ï","steam_id":76561198439343999,"connected_time":249000000000,"state":"active","ping":138},{"user_id":102,"name":"screaming sniper","steam_id":76561199085568674,"connected_time":1051000000000,"state":"active","ping":70},{"user_id":99,"name":"bamboozled","steam_id":76561199032258535,"connected_time":1408000000000,"state":"active","ping":61},{"user_id":49,"name":"im_0ff","steam_id":76561198339346695,"connected_time":7158000000000,"state":"active","ping":129},{"user_id":91,"name":"WhyOwhat","steam_id":76561198137571487,"connected_time":2588000000000,"state":"active","ping":132},{"user_id":113,"name":"Aug","steam_id":76561199212711900,"connected_time":246000000000,"state":"active","ping":102},{"user_id":85,"name":"ye ( MeeLee )","steam_id":76561199227871384,"connected_time":3625000000000,"state":"active","ping":57}]},{"server_id":1,"name":"Uncletopia | Los Angeles | 1 | All Maps","name_short":"lax-1","host":"lax-1.us.uncletopia.com","port":27015,"enabled":true,"region":"us-west","cc":"us","latitude":33.94279,"longitude":-118.41004,"reserved":0,"last_update":"0001-01-01T00:00:00Z","name_a2s":"Uncletopia | Los Angeles | 1 | All Maps","protocol":17,"map":"pl_thundermountain","folder":"tf","game":"Team Fortress","app_id":440,"player_count":16,"max_players":24,"Bots":0,"server_type":"Dedicated","server_os":"Linux","password":true,"vac":true,"version":"7757534","steam_id":85568392924469991,"keywords":["nocrits","nodmgspread","payload","uncletopia"],"game_id":440,"stv_port":27016,"stv_name":"Uncletopia | Los Angeles | 1 | All Maps | STV","players":[{"user_id":427,"name":"Faraday","steam_id":76561198089928357,"connected_time":2850000000000,"state":"active","ping":88},{"user_id":383,"name":"fermats just right theorem","steam_id":76561198045847074,"connected_time":6742000000000,"state":"active","ping":53},{"user_id":432,"name":"Gerard","steam_id":76561198053456194,"connected_time":2660000000000,"state":"active","ping":90},{"user_id":428,"name":"silver_lama","steam_id":76561198101132894,"connected_time":2758000000000,"state":"active","ping":125},{"user_id":386,"name":"Amogous Supreme","steam_id":76561198025476774,"connected_time":6672000000000,"state":"active","ping":57},{"user_id":448,"name":"Bikeway Naros","steam_id":76561198086676786,"connected_time":1975000000000,"state":"active","ping":92},{"user_id":460,"name":"Assassin","steam_id":76561198321410235,"connected_time":758000000000,"state":"active","ping":45},{"user_id":449,"name":"‚âÉ","steam_id":76561198157393205,"connected_time":1955000000000,"state":"active","ping":55},{"user_id":424,"name":"baconandx","steam_id":76561198355074004,"connected_time":3421000000000,"state":"active","ping":120},{"user_id":407,"name":"FCKGW-RHQQ2-YXRKT-8TG6W-2B7Q8","steam_id":76561197993138592,"connected_time":4977000000000,"state":"active","ping":80},{"user_id":431,"name":"128 GB RAM SENTRY","steam_id":76561198059500571,"connected_time":2693000000000,"state":"active","ping":91},{"user_id":467,"name":"Skadoosh","steam_id":76561198144771234,"connected_time":564000000000,"state":"active","ping":45},{"user_id":457,"name":"monsterkill4567","steam_id":76561198272986367,"connected_time":882000000000,"state":"active","ping":59},{"user_id":466,"name":"ICLII","steam_id":76561198113279795,"connected_time":625000000000,"state":"active","ping":69},{"user_id":442,"name":"watch the Green Knight","steam_id":76561198315674238,"connected_time":2285000000000,"state":"active","ping":54},{"user_id":455,"name":"God's Goofiest Goober","steam_id":76561198418288939,"connected_time":1043000000000,"state":"active","ping":66}]},{"server_id":112,"name":"Uncletopia | Los Angeles | 2 | All Maps","name_short":"lax-2","host":"lax-1.us.uncletopia.com","port":27025,"enabled":true,"region":"us-west","cc":"us","latitude":33.94279,"longitude":-118.41004,"reserved":0,"last_update":"0001-01-01T00:00:00Z","name_a2s":"Uncletopia | Los Angeles | 2 | All Maps","protocol":17,"map":"pl_pier","folder":"tf","game":"Team Fortress","app_id":440,"player_count":24,"max_players":24,"Bots":0,"server_type":"Dedicated","server_os":"Linux","password":true,"vac":true,"version":"7757534","steam_id":85568392924469992,"keywords":["nocrits","nodmgspread","payload","uncletopia"],"game_id":440,"stv_port":27026,"stv_name":"Uncletopia | Los Angeles | 2 | All Maps | STV","players":[{"user_id":323,"name":"PauperPiplup","steam_id":76561198079755313,"connected_time":389000000000,"state":"active","ping":137},{"user_id":324,"name":"REGICIDE","steam_id":76561198025377842,"connected_time":386000000000,"state":"active","ping":56},{"user_id":238,"name":"Jezzus","steam_id":76561199289676387,"connected_time":7542000000000,"state":"active","ping":87},{"user_id":325,"name":"H-keyLF","steam_id":76561198376014891,"connected_time":354000000000,"state":"active","ping":66},{"user_id":329,"name":"poompis","steam_id":76561198160850933,"connected_time":86000000000,"state":"active","ping":104},{"user_id":327,"name":"BuncusBeffer","steam_id":76561198285936616,"connected_time":269000000000,"state":"active","ping":69},{"user_id":316,"name":"fitotutus","steam_id":76561197974993253,"connected_time":1023000000000,"state":"active","ping":136},{"user_id":330,"name":"gods drunkest driver","steam_id":76561198293857963,"connected_time":67000000000,"state":"active","ping":64},{"user_id":318,"name":"‡∏∏","steam_id":76561199140164173,"connected_time":959000000000,"state":"active","ping":42},{"user_id":319,"name":"Crowvette","steam_id":76561198000457496,"connected_time":908000000000,"state":"active","ping":45},{"user_id":297,"name":"SanitysEdge","steam_id":76561198130732813,"connected_time":2034000000000,"state":"active","ping":46},{"user_id":217,"name":"koncept","steam_id":76561198027812652,"connected_time":8992000000000,"state":"active","ping":51},{"user_id":289,"name":"Swag5","steam_id":76561198065311356,"connected_time":2689000000000,"state":"active","ping":62},{"user_id":250,"name":"Slim Charles","steam_id":76561197981687895,"connected_time":6417000000000,"state":"active","ping":50},{"user_id":320,"name":"Pah-Wraith Gul Dukat","steam_id":76561198033918106,"connected_time":871000000000,"state":"active","ping":49},{"user_id":328,"name":"me shoot floors","steam_id":76561198046526036,"connected_time":247000000000,"state":"active","ping":49},{"user_id":308,"name":"bad","steam_id":76561198090531755,"connected_time":1708000000000,"state":"active","ping":75},{"user_id":237,"name":"Turtimos","steam_id":76561198093519137,"connected_time":7883000000000,"state":"active","ping":70},{"user_id":228,"name":"stinkmaster666demon","steam_id":76561198073914311,"connected_time":8756000000000,"state":"active","ping":44},{"user_id":331,"name":"Drewski","steam_id":76561198334969647,"connected_time":53000000000,"state":"active","ping":60},{"user_id":282,"name":"MBK¬ÆFurryy","steam_id":76561198200785531,"connected_time":4342000000000,"state":"active","ping":31},{"user_id":298,"name":"LX-24","steam_id":76561198016168993,"connected_time":2002000000000,"state":"active","ping":82},{"user_id":332,"name":"herbletea","steam_id":76561199079523149,"connected_time":45000000000,"state":"active","ping":54},{"user_id":322,"name":"Wicket","steam_id":76561198044023036,"connected_time":550000000000,"state":"active","ping":105}]},{"server_id":324,"name":"Uncletopia | Los Angeles | 3 | All Maps","name_short":"lax-3","host":"lax-1.us.uncletopia.com","port":27035,"enabled":true,"region":"us-west","cc":"us","latitude":33.94279,"longitude":-118.41004,"reserved":0,"last_update":"0001-01-01T00:00:00Z","name_a2s":"Uncletopia | Los Angeles | 3 | All Maps","protocol":17,"map":"pl_badwater","folder":"tf","game":"Team Fortress","app_id":440,"player_count":24,"max_players":24,"Bots":0,"server_type":"Dedicated","server_os":"Linux","password":true,"vac":true,"version":"7757534","steam_id":85568392924510198,"keywords":["nocrits","nodmgspread","payload","uncletopia"],"game_id":440,"stv_port":27036,"stv_name":"Uncletopia | Los Angeles | 3 | All Maps | STV","players":[{"user_id":191,"name":"bsian","steam_id":76561198112191977,"connected_time":1061000000000,"state":"active","ping":49},{"user_id":137,"name":"cjetson","steam_id":76561198074482272,"connected_time":5721000000000,"state":"active","ping":62},{"user_id":180,"name":"party tim","steam_id":76561198034876389,"connected_time":2835000000000,"state":"active","ping":58},{"user_id":163,"name":"Doof","steam_id":76561198034031819,"connected_time":3647000000000,"state":"active","ping":92},{"user_id":188,"name":"The Caretaker","steam_id":76561198125241411,"connected_time":1742000000000,"state":"active","ping":66},{"user_id":129,"name":"-The_Under_Miner-","steam_id":76561199195735972,"connected_time":7245000000000,"state":"active","ping":66},{"user_id":190,"name":"big car","steam_id":76561198067082350,"connected_time":1155000000000,"state":"active","ping":60},{"user_id":181,"name":"JoySlip","steam_id":76561198269476149,"connected_time":2819000000000,"state":"active","ping":52},{"user_id":184,"name":"Buswolley","steam_id":76561197995205571,"connected_time":2725000000000,"state":"active","ping":56},{"user_id":192,"name":"Deadly Heavy","steam_id":76561198346827222,"connected_time":933000000000,"state":"active","ping":57},{"user_id":179,"name":"Sorbis The Grungler","steam_id":76561198057138795,"connected_time":2908000000000,"state":"active","ping":93},{"user_id":171,"name":"KyePerson","steam_id":76561198145597212,"connected_time":3137000000000,"state":"active","ping":59},{"user_id":172,"name":"Icarus the legend","steam_id":76561199013250091,"connected_time":3125000000000,"state":"active","ping":72},{"user_id":170,"name":"maplesyrup","steam_id":76561198083504935,"connected_time":3213000000000,"state":"active","ping":93},{"user_id":154,"name":"Rollo","steam_id":76561198064812108,"connected_time":4496000000000,"state":"active","ping":93},{"user_id":161,"name":"help","steam_id":76561198044689625,"connected_time":4025000000000,"state":"active","ping":76},{"user_id":155,"name":"Seanvich","steam_id":76561198065805500,"connected_time":4486000000000,"state":"active","ping":97},{"user_id":186,"name":"Robogineer","steam_id":76561198026994739,"connected_time":2223000000000,"state":"active","ping":47},{"user_id":177,"name":"ferby","steam_id":76561198028229594,"connected_time":3020000000000,"state":"active","ping":59},{"user_id":158,"name":"soltuno","steam_id":76561198074430565,"connected_time":4306000000000,"state":"active","ping":69},{"user_id":193,"name":"moe","steam_id":76561198929586245,"connected_time":915000000000,"state":"active","ping":67},{"user_id":178,"name":"Sierra Foxtrot","steam_id":76561197996667382,"connected_time":3011000000000,"state":"active","ping":93},{"user_id":159,"name":"JustForKicks96","steam_id":76561198055486814,"connected_time":4206000000000,"state":"active","ping":77},{"user_id":160,"name":"squid","steam_id":76561198070236972,"connected_time":4186000000000,"state":"active","ping":60}]},{"server_id":25,"name":"Uncletopia | Los Angeles | 4 | Stopwatch Beta","name_short":"lax-4","host":"lax-1.us.uncletopia.com","port":27045,"enabled":true,"region":"us-west","cc":"us","latitude":33.94279,"longitude":-118.41004,"reserved":0,"last_update":"0001-01-01T00:00:00Z","name_a2s":"Uncletopia | Los Angeles | 4 | Stopwatch Beta","protocol":17,"map":"pl_swiftwater_final1","folder":"tf","game":"Team Fortress","app_id":440,"player_count":0,"max_players":24,"Bots":0,"server_type":"Dedicated","server_os":"Linux","password":true,"vac":true,"version":"7757534","steam_id":85568392924510199,"keywords":["nocrits","nodmgspread","payload","uncletopia"],"game_id":440,"stv_port":27046,"stv_name":"Uncletopia | Los Angeles | 4 | Stopwatch Beta | STV","players":null},{"server_id":11,"name":"Uncletopia | London | 1 | All Maps","name_short":"lon-1","host":"lon-1.uk.uncletopia.com","port":27015,"enabled":true,"region":"eu","cc":"gb","latitude":51.509865,"longitude":-0.118092,"reserved":0,"last_update":"0001-01-01T00:00:00Z","name_a2s":"Uncletopia | London | 1 | All Maps","protocol":17,"map":"pl_upward","folder":"tf","game":"Team Fortress","app_id":440,"player_count":24,"max_players":24,"Bots":0,"server_type":"Dedicated","server_os":"Linux","password":true,"vac":true,"version":"7757534","steam_id":85568392924367362,"keywords":["nocrits","nodmgspread","payload","uncletopia"],"game_id":440,"stv_port":27016,"stv_name":"Uncletopia | London | 1 | All Maps | STV","players":[{"user_id":87,"name":"Cup","steam_id":76561198325218673,"connected_time":759000000000,"state":"active","ping":90},{"user_id":52,"name":"ja","steam_id":76561199228540618,"connected_time":3198000000000,"state":"active","ping":78},{"user_id":53,"name":"None","steam_id":76561199388730984,"connected_time":3016000000000,"state":"active","ping":138},{"user_id":49,"name":"betonomeshalka","steam_id":76561198304548337,"connected_time":3386000000000,"state":"active","ping":106},{"user_id":65,"name":"HentaiEnjoyer","steam_id":76561198148361982,"connected_time":1880000000000,"state":"active","ping":60},{"user_id":68,"name":"the joy of recycling","steam_id":76561198415564349,"connected_time":1716000000000,"state":"active","ping":60},{"user_id":67,"name":"Pandero #savetf2","steam_id":76561198427297425,"connected_time":1775000000000,"state":"active","ping":84},{"user_id":79,"name":"fishska","steam_id":76561198051166015,"connected_time":1254000000000,"state":"active","ping":61},{"user_id":54,"name":"Farao Ramses II","steam_id":76561198078722712,"connected_time":2923000000000,"state":"active","ping":44},{"user_id":82,"name":"no1-","steam_id":76561198067524060,"connected_time":996000000000,"state":"active","ping":80},{"user_id":76,"name":"KGiorgios_Bully","steam_id":76561198825392728,"connected_time":1386000000000,"state":"active","ping":105},{"user_id":84,"name":"Hleno","steam_id":76561198060442619,"connected_time":953000000000,"state":"active","ping":59},{"user_id":64,"name":"Helon","steam_id":76561198050761682,"connected_time":2099000000000,"state":"active","ping":60},{"user_id":85,"name":"Qwerty","steam_id":76561198023525894,"connected_time":903000000000,"state":"active","ping":91},{"user_id":72,"name":"Tec","steam_id":76561199096762480,"connected_time":1489000000000,"state":"active","ping":74},{"user_id":92,"name":"Corpus Christi","steam_id":76561198417999443,"connected_time":372000000000,"state":"active","ping":107},{"user_id":66,"name":"Least sadistic healer main","steam_id":76561198114164702,"connected_time":1845000000000,"state":"active","ping":72},{"user_id":90,"name":"Doohickey mechanic","steam_id":76561198146180114,"connected_time":439000000000,"state":"active","ping":91},{"user_id":56,"name":"Lil Ari","steam_id":76561198218178180,"connected_time":2862000000000,"state":"active","ping":81},{"user_id":89,"name":"Vorge","steam_id":76561198411852459,"connected_time":556000000000,"state":"active","ping":134},{"user_id":88,"name":"Goblin cock","steam_id":76561198980102679,"connected_time":759000000000,"state":"active","ping":96},{"user_id":74,"name":"‚úßTori Roach","steam_id":76561198170599306,"connected_time":1429000000000,"state":"active","ping":119},{"user_id":75,"name":"Pan Pan","steam_id":76561199074670515,"connected_time":1402000000000,"state":"active","ping":102},{"user_id":78,"name":"trans werewolf","steam_id":76561198107235989,"connected_time":1304000000000,"state":"active","ping":65}]},{"server_id":114,"name":"Uncletopia | London | 2 | All Maps","name_short":"lon-2","host":"lon-1.uk.uncletopia.com","port":27025,"enabled":true,"region":"eu","cc":"gb","latitude":51.509865,"longitude":-0.118092,"reserved":0,"last_update":"0001-01-01T00:00:00Z","name_a2s":"Uncletopia | London | 2 | All Maps","protocol":17,"map":"koth_viaduct","folder":"tf","game":"Team Fortress","app_id":440,"player_count":0,"max_players":24,"Bots":0,"server_type":"Dedicated","server_os":"Linux","password":true,"vac":true,"version":"7757534","steam_id":85568392924470941,"keywords":["cp","nocrits","nodmgspread","uncletopia"],"game_id":440,"stv_port":27026,"stv_name":"Uncletopia | London | 2 | All Maps | STV","players":null},{"server_id":320,"name":"Uncletopia | London | 3 | All Maps","name_short":"lon-3","host":"lon-1.uk.uncletopia.com","port":27035,"enabled":true,"region":"eu","cc":"gb","latitude":51.509865,"longitude":-0.118092,"reserved":0,"last_update":"0001-01-01T00:00:00Z","name_a2s":"Uncletopia | London | 3 | All Maps","protocol":17,"map":"cp_dustbowl","folder":"tf","game":"Team Fortress","app_id":440,"player_count":0,"max_players":24,"Bots":0,"server_type":"Dedicated","server_os":"Linux","password":true,"vac":true,"version":"7757534","steam_id":85568392924510192,"keywords":["cp","nocrits","nodmgspread","uncletopia"],"game_id":440,"stv_port":27036,"stv_name":"Uncletopia | London | 3 | All Maps | STV","players":null},{"server_id":321,"name":"Uncletopia | London | 4 | All Maps","name_short":"lon-4","host":"lon-1.uk.uncletopia.com","port":27045,"enabled":true,"region":"eu","cc":"gb","latitude":51.509865,"longitude":-0.118092,"reserved":0,"last_update":"0001-01-01T00:00:00Z","name_a2s":"Uncletopia | London | 4 | All Maps","protocol":17,"map":"cp_dustbowl","folder":"tf","game":"Team Fortress","app_id":440,"player_count":0,"max_players":24,"Bots":0,"server_type":"Dedicated","server_os":"Linux","password":true,"vac":true,"version":"7757534","steam_id":85568392924510193,"keywords":["cp","nocrits","nodmgspread","uncletopia"],"game_id":440,"stv_port":27046,"stv_name":"Uncletopia | London | 4 | All Maps | STV","players":null},{"server_id":21,"name":"Uncletopia | London | 5 | All Maps","name_short":"lon-5","host":"lon-1.uk.uncletopia.com","port":27055,"enabled":true,"region":"eu","cc":"gb","latitude":51.509865,"longitude":-0.118092,"reserved":0,"last_update":"0001-01-01T00:00:00Z","name_a2s":"Uncletopia | London | 5 | All Maps","protocol":17,"map":"cp_altitude","folder":"tf","game":"Team Fortress","app_id":440,"player_count":0,"max_players":24,"Bots":0,"server_type":"Dedicated","server_os":"Linux","password":true,"vac":true,"version":"7757534","steam_id":85568392924742829,"keywords":["cp","nocrits","nodmgspread","uncletopia"],"game_id":440,"stv_port":27056,"stv_name":"Uncletopia | London | 5 | All Maps | STV","players":null},{"server_id":22,"name":"Uncletopia | London | 6 | All Maps","name_short":"lon-6","host":"lon-1.uk.uncletopia.com","port":27065,"enabled":true,"region":"eu","cc":"gb","latitude":51.509865,"longitude":-0.118092,"reserved":0,"last_update":"0001-01-01T00:00:00Z","name_a2s":"Uncletopia | London | 6 | All Maps","protocol":17,"map":"cp_mountainlab","folder":"tf","game":"Team Fortress","app_id":440,"player_count":0,"max_players":24,"Bots":0,"server_type":"Dedicated","server_os":"Linux","password":true,"vac":true,"version":"7757534","steam_id":85568392924742830,"keywords":["cp","nocrits","nodmgspread","uncletopia"],"game_id":440,"stv_port":27066,"stv_name":"Uncletopia | London | 6 | All Maps | STV","players":null},{"server_id":40,"name":"Uncletopia | London | 7 | No Payload","name_short":"lon-7","host":"lon-1.uk.uncletopia.com","port":27075,"enabled":true,"region":"eu","cc":"gb","latitude":51.509865,"longitude":-0.118092,"reserved":0,"last_update":"0001-01-01T00:00:00Z","name_a2s":"Uncletopia | London | 7 | No Payload","protocol":17,"map":"cp_junction_final","folder":"tf","game":"Team Fortress","app_id":440,"player_count":0,"max_players":24,"Bots":0,"server_type":"Dedicated","server_os":"Linux","password":true,"vac":true,"version":"7757534","steam_id":85568392924964314,"keywords":["cp","nocrits","nodmgspread","uncletopia"],"game_id":440,"stv_port":27076,"stv_name":"Uncletopia | London | 7 | No Payload | STV","players":null},{"server_id":41,"name":"Uncletopia | London | 8 | Community","name_short":"lon-8","host":"lon-1.uk.uncletopia.com","port":27085,"enabled":true,"region":"eu","cc":"gb","latitude":51.509865,"longitude":-0.118092,"reserved":0,"last_update":"0001-01-01T00:00:00Z","name_a2s":"Uncletopia | London | 8 | Community","protocol":17,"map":"pl_barnblitz","folder":"tf","game":"Team Fortress","app_id":440,"player_count":0,"max_players":24,"Bots":0,"server_type":"Dedicated","server_os":"Linux","password":true,"vac":true,"version":"7757534","steam_id":85568392924964315,"keywords":["nocrits","nodmgspread","payload","uncletopia"],"game_id":440,"stv_port":27086,"stv_name":"Uncletopia | London | 8 | Community | STV","players":null},{"server_id":300,"name":"Uncletopia | Montr√©al | 1 | All Maps","name_short":"mtl-1","host":"mtl-1.ca.uncletopia.com","port":27015,"enabled":true,"region":"us-east","cc":"ca","latitude":45.50889,"longitude":-73.56167,"reserved":0,"last_update":"0001-01-01T00:00:00Z","name_a2s":"Uncletopia | Montr√©al | 1 | All Maps","protocol":17,"map":"koth_cascade","folder":"tf","game":"Team Fortress","app_id":440,"player_count":0,"max_players":24,"Bots":0,"server_type":"Dedicated","server_os":"Linux","password":true,"vac":true,"version":"7757534","steam_id":85568392924500087,"keywords":["cp","nocrits","nodmgspread","uncletopia"],"game_id":440,"stv_port":27016,"stv_name":"Uncletopia | Montr√©al | 1 | All Maps | STV","players":null},{"server_id":301,"name":"Uncletopia | Montr√©al | 2 | All Maps","name_short":"mtl-2","host":"mtl-1.ca.uncletopia.com","port":27025,"enabled":true,"region":"us-east","cc":"ca","latitude":45.50889,"longitude":-73.56167,"reserved":0,"last_update":"0001-01-01T00:00:00Z","name_a2s":"Uncletopia | Montr√©al | 2 | All Maps","protocol":17,"map":"cp_egypt_final","folder":"tf","game":"Team Fortress","app_id":440,"player_count":0,"max_players":24,"Bots":0,"server_type":"Dedicated","server_os":"Linux","password":true,"vac":true,"version":"7757534","steam_id":85568392924500088,"keywords":["cp","nocrits","nodmgspread","uncletopia"],"game_id":440,"stv_port":27026,"stv_name":"Uncletopia | Montr√©al | 2 | All Maps | STV","players":null},{"server_id":302,"name":"Uncletopia | Montr√©al | 3 | All Maps","name_short":"mtl-3","host":"mtl-1.ca.uncletopia.com","port":27035,"enabled":true,"region":"us-east","cc":"ca","latitude":45.50889,"longitude":-73.56167,"reserved":0,"last_update":"0001-01-01T00:00:00Z","name_a2s":"Uncletopia | Montr√©al | 3 | All Maps","protocol":17,"map":"cp_snakewater_final1","folder":"tf","game":"Team Fortress","app_id":440,"player_count":0,"max_players":24,"Bots":0,"server_type":"Dedicated","server_os":"Linux","password":true,"vac":true,"version":"7757534","steam_id":85568392924500089,"keywords":["cp","nocrits","nodmgspread","uncletopia"],"game_id":440,"stv_port":27036,"stv_name":"Uncletopia | Montr√©al | 3 | All Maps | STV","players":null},{"server_id":303,"name":"Uncletopia | Montr√©al | 4 | No Payload","name_short":"mtl-4","host":"mtl-1.ca.uncletopia.com","port":27045,"enabled":true,"region":"us-east","cc":"ca","latitude":45.50889,"longitude":-73.56167,"reserved":0,"last_update":"0001-01-01T00:00:00Z","name_a2s":"Uncletopia | Montr√©al | 4 | No Payload","protocol":17,"map":"cp_snakewater_final1","folder":"tf","game":"Team Fortress","app_id":440,"player_count":0,"max_players":24,"Bots":0,"server_type":"Dedicated","server_os":"Linux","password":true,"vac":true,"version":"7757534","steam_id":85568392924500090,"keywords":["cp","nocrits","nodmgspread","uncletopia"],"game_id":440,"stv_port":27046,"stv_name":"Uncletopia | Montr√©al | 4 | No Payload | STV","players":null},{"server_id":13,"name":"Uncletopia | New York City | 1 | All Maps","name_short":"nyc-1","host":"nyc-1.us.uncletopia.com","port":27015,"enabled":true,"region":"us-east","cc":"us","latitude":40.73061,"longitude":-73.93524,"reserved":0,"last_update":"0001-01-01T00:00:00Z","name_a2s":"Uncletopia | New York City | 1 | All Maps","protocol":17,"map":"koth_cascade","folder":"tf","game":"Team Fortress","app_id":440,"player_count":0,"max_players":24,"Bots":0,"server_type":"Dedicated","server_os":"Linux","password":true,"vac":true,"version":"7757534","steam_id":85568392924469993,"keywords":["cp","nocrits","nodmgspread","uncletopia"],"game_id":440,"stv_port":27016,"stv_name":"Uncletopia | New York City | 1 | All Maps | STV","players":null},{"server_id":14,"name":"Uncletopia | New York City | 2 | All Maps","name_short":"nyc-2","host":"nyc-1.us.uncletopia.com","port":27025,"enabled":true,"region":"us-east","cc":"us","latitude":40.73061,"longitude":-73.93524,"reserved":0,"last_update":"0001-01-01T00:00:00Z","name_a2s":"Uncletopia | New York City | 2 | All Maps","protocol":17,"map":"koth_highpass","folder":"tf","game":"Team Fortress","app_id":440,"player_count":6,"max_players":24,"Bots":0,"server_type":"Dedicated","server_os":"Linux","password":true,"vac":true,"version":"7757534","steam_id":85568392924469994,"keywords":["cp","nocrits","nodmgspread","uncletopia"],"game_id":440,"stv_port":27026,"stv_name":"Uncletopia | New York City | 2 | All Maps | STV","players":[{"user_id":709,"name":"BRAINDEAD","steam_id":76561198302580988,"connected_time":2667000000000,"state":"active","ping":156},{"user_id":713,"name":"Pimastr","steam_id":76561198230996464,"connected_time":2087000000000,"state":"active","ping":64},{"user_id":714,"name":"DVD Copy of Men in Black II","steam_id":76561198080067715,"connected_time":2046000000000,"state":"active","ping":47},{"user_id":711,"name":"Ludcmorais","steam_id":76561198359217809,"connected_time":2341000000000,"state":"active","ping":168},{"user_id":712,"name":"Ramirez","steam_id":76561199216838273,"connected_time":2132000000000,"state":"active","ping":118},{"user_id":716,"name":"neptune","steam_id":76561198383404869,"connected_time":1297000000000,"state":"active","ping":125}]},{"server_id":15,"name":"Uncletopia | New York City | 3 | Stopwatch Beta","name_short":"nyc-3","host":"nyc-1.us.uncletopia.com","port":27035,"enabled":true,"region":"us-east","cc":"us","latitude":40.73061,"longitude":-73.93524,"reserved":0,"last_update":"0001-01-01T00:00:00Z","name_a2s":"Uncletopia | New York City | 3 | Stopwatch Beta","protocol":17,"map":"pl_upward","folder":"tf","game":"Team Fortress","app_id":440,"player_count":0,"max_players":24,"Bots":0,"server_type":"Dedicated","server_os":"Linux","password":true,"vac":true,"version":"7757534","steam_id":85568392924742820,"keywords":["nocrits","nodmgspread","payload","uncletopia"],"game_id":440,"stv_port":27036,"stv_name":"Uncletopia | New York City | 3 | Stopwatch Beta | STV","players":null},{"server_id":16,"name":"Uncletopia | New York City | 4 | Community","name_short":"nyc-4","host":"nyc-1.us.uncletopia.com","port":27045,"enabled":true,"region":"us-east","cc":"us","latitude":40.73061,"longitude":-73.93524,"reserved":0,"last_update":"0001-01-01T00:00:00Z","name_a2s":"Uncletopia | New York City | 4 | Community","protocol":17,"map":"workshop/koth_slaughter_rc1.ugc1712845210","folder":"tf","game":"Team Fortress","app_id":440,"player_count":0,"max_players":24,"Bots":0,"server_type":"Dedicated","server_os":"Linux","password":true,"vac":true,"version":"7757534","steam_id":85568392924742821,"keywords":["cp","nocrits","nodmgspread","uncletopia"],"game_id":440,"stv_port":27046,"stv_name":"Uncletopia | New York City | 4 | Community | STV","players":null},{"server_id":142,"name":"Uncletopia | S√£o Paulo | 1 | All Maps","name_short":"sao-1","host":"sao-1.br.uncletopia.com","port":27015,"enabled":true,"region":"sa","cc":"br","latitude":-23.533773,"longitude":-46.62529,"reserved":0,"last_update":"0001-01-01T00:00:00Z","name_a2s":"Uncletopia | S√£o Paulo | 1 | All Maps","protocol":17,"map":"koth_cascade","folder":"tf","game":"Team Fortress","app_id":440,"player_count":0,"max_players":24,"Bots":0,"server_type":"Dedicated","server_os":"Linux","password":true,"vac":true,"version":"7757534","steam_id":85568392924469996,"keywords":["cp","nocrits","nodmgspread","uncletopia"],"game_id":440,"stv_port":27016,"stv_name":"Uncletopia | S√£o Paulo | 1 | All Maps | STV","players":null},{"server_id":143,"name":"Uncletopia | S√£o Paulo | 2 | All Maps","name_short":"sao-2","host":"sao-2.br.uncletopia.com","port":27015,"enabled":true,"region":"sa","cc":"br","latitude":-23.533773,"longitude":-46.62529,"reserved":0,"last_update":"0001-01-01T00:00:00Z","name_a2s":"Uncletopia | S√£o Paulo | 2 | All Maps","protocol":17,"map":"pl_pier","folder":"tf","game":"Team Fortress","app_id":440,"player_count":0,"max_players":24,"Bots":0,"server_type":"Dedicated","server_os":"Linux","password":true,"vac":true,"version":"7757534","steam_id":85568392924485349,"keywords":["nocrits","nodmgspread","payload","uncletopia"],"game_id":440,"stv_port":27016,"stv_name":"Uncletopia | S√£o Paulo | 2 | All Maps | STV","players":null},{"server_id":7,"name":"Uncletopia | Seattle | 1 | All Maps","name_short":"sea-1","host":"sea-1.us.uncletopia.com","port":27015,"enabled":true,"region":"us-west","cc":"us","latitude":47.608013,"longitude":-122.33517,"reserved":0,"last_update":"0001-01-01T00:00:00Z","name_a2s":"Uncletopia | Seattle | 1 | All Maps","protocol":17,"map":"pl_pier","folder":"tf","game":"Team Fortress","app_id":440,"player_count":24,"max_players":24,"Bots":0,"server_type":"Dedicated","server_os":"Linux","password":true,"vac":true,"version":"7757534","steam_id":85568392924469997,"keywords":["nocrits","nodmgspread","payload","uncletopia"],"game_id":440,"stv_port":27016,"stv_name":"Uncletopia | Seattle | 1 | All Maps | STV","players":[{"user_id":710,"name":"gorlab","steam_id":76561198025089694,"connected_time":4848000000000,"state":"active","ping":66},{"user_id":813,"name":"ImmuneToPeas","steam_id":76561198342411594,"connected_time":1261000000000,"state":"active","ping":61},{"user_id":607,"name":"‚ô•haunti","steam_id":76561199235580556,"connected_time":14448000000000,"state":"active","ping":47},{"user_id":709,"name":"p9 Doctor‚Ñ¢","steam_id":76561198134309750,"connected_time":5003000000000,"state":"active","ping":102},{"user_id":697,"name":"they call me the dumbbell","steam_id":76561198131166135,"connected_time":6122000000000,"state":"active","ping":41},{"user_id":828,"name":"Sh0gun","steam_id":76561198273894515,"connected_time":1035000000000,"state":"active","ping":104},{"user_id":711,"name":"NickoDeeBz","steam_id":76561198294657867,"connected_time":4804000000000,"state":"active","ping":60},{"user_id":842,"name":"JonBoy","steam_id":76561198082052480,"connected_time":773000000000,"state":"active","ping":81},{"user_id":848,"name":"iris","steam_id":76561198059748059,"connected_time":640000000000,"state":"active","ping":49},{"user_id":734,"name":"Mr defrost","steam_id":76561198322125657,"connected_time":2661000000000,"state":"active","ping":69},{"user_id":836,"name":"Liberty Prime [Dexgod]","steam_id":76561198017130786,"connected_time":831000000000,"state":"active","ping":128},{"user_id":851,"name":"DAYTONA","steam_id":76561198061975847,"connected_time":511000000000,"state":"active","ping":98},{"user_id":716,"name":"keikun","steam_id":76561198059322970,"connected_time":4624000000000,"state":"active","ping":66},{"user_id":841,"name":"costa","steam_id":76561198881144114,"connected_time":794000000000,"state":"active","ping":52},{"user_id":705,"name":"Alex :D","steam_id":76561198088131563,"connected_time":5603000000000,"state":"active","ping":85},{"user_id":720,"name":"CoolGuy","steam_id":76561198864528445,"connected_time":3976000000000,"state":"active","ping":73},{"user_id":803,"name":"Peppy","steam_id":76561198866629645,"connected_time":1362000000000,"state":"active","ping":65},{"user_id":708,"name":"rat gets the cheese","steam_id":76561198031234032,"connected_time":5252000000000,"state":"active","ping":102},{"user_id":712,"name":"colespudzo","steam_id":76561198051127147,"connected_time":4770000000000,"state":"active","ping":50},{"user_id":844,"name":"goldhed","steam_id":76561198051751133,"connected_time":737000000000,"state":"active","ping":54},{"user_id":722,"name":"C U Next Tuesday","steam_id":76561198058493492,"connected_time":3143000000000,"state":"active","ping":58},{"user_id":853,"name":"Icekong","steam_id":76561198017218224,"connected_time":440000000000,"state":"active","ping":70},{"user_id":737,"name":"Bishuhp","steam_id":76561198015062850,"connected_time":2494000000000,"state":"active","ping":49},{"user_id":812,"name":"Ducks","steam_id":76561198130038345,"connected_time":1274000000000,"state":"active","ping":70}]},{"server_id":119,"name":"Uncletopia | Seattle | 2 | All Maps","name_short":"sea-2","host":"sea-1.us.uncletopia.com","port":27025,"enabled":true,"region":"us-west","cc":"us","latitude":47.608013,"longitude":-122.33517,"reserved":0,"last_update":"0001-01-01T00:00:00Z","name_a2s":"Uncletopia | Seattle | 2 | All Maps","protocol":17,"map":"pl_upward","folder":"tf","game":"Team Fortress","app_id":440,"player_count":24,"max_players":24,"Bots":0,"server_type":"Dedicated","server_os":"Linux","password":true,"vac":true,"version":"7757534","steam_id":85568392924469998,"keywords":["nocrits","nodmgspread","payload","uncletopia"],"game_id":440,"stv_port":27026,"stv_name":"Uncletopia | Seattle | 2 | All Maps | STV","players":[{"user_id":605,"name":"Rhino Beetle","steam_id":76561198830083719,"connected_time":3188000000000,"state":"active","ping":121},{"user_id":606,"name":"raggy","steam_id":76561198121767390,"connected_time":3055000000000,"state":"active","ping":112},{"user_id":638,"name":"Milkius","steam_id":76561198401392472,"connected_time":370000000000,"state":"active","ping":129},{"user_id":611,"name":"Disc0","steam_id":76561198067337267,"connected_time":2304000000000,"state":"active","ping":46},{"user_id":626,"name":"Why am I the only person who","steam_id":76561198139634916,"connected_time":1496000000000,"state":"active","ping":48},{"user_id":579,"name":"Shazzy","steam_id":76561198145460523,"connected_time":4860000000000,"state":"active","ping":40},{"user_id":581,"name":"SvicidalBug","steam_id":76561198221390504,"connected_time":4773000000000,"state":"active","ping":58},{"user_id":634,"name":"Monky duh luppy","steam_id":76561198035410427,"connected_time":786000000000,"state":"active","ping":63},{"user_id":629,"name":"SAP","steam_id":76561198005186905,"connected_time":1012000000000,"state":"active","ping":64},{"user_id":619,"name":"banjobun #savelight_env","steam_id":76561198116814525,"connected_time":1676000000000,"state":"active","ping":53},{"user_id":588,"name":"SmallErection","steam_id":76561198071770147,"connected_time":4399000000000,"state":"active","ping":61},{"user_id":632,"name":"PerKnuckleChuckle","steam_id":76561198023221596,"connected_time":820000000000,"state":"active","ping":85},{"user_id":637,"name":"diversity hire","steam_id":76561198022967929,"connected_time":447000000000,"state":"active","ping":86},{"user_id":636,"name":"Cam","steam_id":76561198285054047,"connected_time":667000000000,"state":"active","ping":82},{"user_id":578,"name":"Mr8bittripper","steam_id":76561198133894229,"connected_time":4889000000000,"state":"active","ping":50},{"user_id":617,"name":"The Grogster","steam_id":76561198300891756,"connected_time":1747000000000,"state":"active","ping":56},{"user_id":574,"name":"Oh No! It's Twister!","steam_id":76561198016791916,"connected_time":5605000000000,"state":"active","ping":84},{"user_id":618,"name":"emukill","steam_id":76561198053143720,"connected_time":1708000000000,"state":"active","ping":60},{"user_id":635,"name":"Nalyk","steam_id":76561198043886843,"connected_time":759000000000,"state":"active","ping":55},{"user_id":598,"name":"Hawksgamer","steam_id":76561198152405941,"connected_time":3744000000000,"state":"active","ping":60},{"user_id":621,"name":"KingOyster","steam_id":76561198322567830,"connected_time":1632000000000,"state":"active","ping":127},{"user_id":604,"name":"‚ô•ur :3 medic gf‚ô• (51ref/hr)","steam_id":76561198816778484,"connected_time":3471000000000,"state":"active","ping":88},{"user_id":607,"name":"Squid","steam_id":76561198092753658,"connected_time":2839000000000,"state":"active","ping":119},{"user_id":587,"name":"Seriously Bruh","steam_id":76561198070408485,"connected_time":4554000000000,"state":"active","ping":49}]},{"server_id":406,"name":"Uncletopia | Seattle | 3 | Stopwatch Beta","name_short":"sea-3","host":"sea-1.us.uncletopia.com","port":27035,"enabled":true,"region":"us-west","cc":"us","latitude":47.608013,"longitude":-122.33517,"reserved":0,"last_update":"0001-01-01T00:00:00Z","name_a2s":"Uncletopia | Seattle | 3 | Stopwatch Beta","protocol":17,"map":"workshop/koth_ashville_final.ugc2130459942","folder":"tf","game":"Team Fortress","app_id":440,"player_count":0,"max_players":24,"Bots":0,"server_type":"Dedicated","server_os":"Linux","password":true,"vac":true,"version":"7757534","steam_id":85568392924515217,"keywords":["cp","nocrits","nodmgspread","uncletopia"],"game_id":440,"stv_port":27036,"stv_name":"Uncletopia | Seattle | 3 | Stopwatch Beta | STV","players":null},{"server_id":17,"name":"Uncletopia | San Francisco | 1 | All Maps","name_short":"sfo-1","host":"sfo-1.us.uncletopia.com","port":27015,"enabled":true,"region":"us-west","cc":"us","latitude":37.77397,"longitude":-122.4313,"reserved":0,"last_update":"0001-01-01T00:00:00Z","name_a2s":"Uncletopia | San Francisco | 1 | All Maps","protocol":17,"map":"koth_harvest_final","folder":"tf","game":"Team Fortress","app_id":440,"player_count":24,"max_players":24,"Bots":0,"server_type":"Dedicated","server_os":"Linux","password":true,"vac":true,"version":"7757534","steam_id":85568392924469999,"keywords":["cp","nocrits","nodmgspread","uncletopia"],"game_id":440,"stv_port":27016,"stv_name":"Uncletopia | San Francisco | 1 | All Maps | STV","players":[{"user_id":866,"name":"HellaCopter","steam_id":76561198062313698,"connected_time":515000000000,"state":"active","ping":63},{"user_id":852,"name":"Lmao Zedong","steam_id":76561198043765829,"connected_time":1497000000000,"state":"active","ping":64},{"user_id":837,"name":"Bony","steam_id":76561199001748822,"connected_time":2015000000000,"state":"active","ping":51},{"user_id":859,"name":"The Lunch King","steam_id":76561198076737701,"connected_time":1029000000000,"state":"active","ping":69},{"user_id":842,"name":"Sentry","steam_id":76561198042795636,"connected_time":1809000000000,"state":"active","ping":117},{"user_id":843,"name":"Pudsla","steam_id":76561198258974036,"connected_time":1800000000000,"state":"active","ping":48},{"user_id":778,"name":"Ian","steam_id":76561198159334435,"connected_time":7778000000000,"state":"active","ping":169},{"user_id":860,"name":"Mub","steam_id":76561198356426602,"connected_time":1025000000000,"state":"active","ping":46},{"user_id":846,"name":"Ratchet55","steam_id":76561198208655521,"connected_time":1716000000000,"state":"active","ping":61},{"user_id":857,"name":"Papa Panda","steam_id":76561198159061475,"connected_time":1201000000000,"state":"active","ping":57},{"user_id":840,"name":"[SSRB] Thangerunn","steam_id":76561198052369275,"connected_time":1852000000000,"state":"active","ping":124},{"user_id":808,"name":"pneuma","steam_id":76561198039559023,"connected_time":5903000000000,"state":"active","ping":69},{"user_id":864,"name":"CheeseyJoe","steam_id":76561198062182044,"connected_time":817000000000,"state":"active","ping":74},{"user_id":822,"name":"Booxy","steam_id":76561197999872470,"connected_time":2399000000000,"state":"active","ping":62},{"user_id":861,"name":"kev","steam_id":76561198046412946,"connected_time":966000000000,"state":"active","ping":82},{"user_id":862,"name":"Lunatic Cultist","steam_id":76561199170996880,"connected_time":958000000000,"state":"active","ping":95},{"user_id":847,"name":"iSaH","steam_id":76561198305136202,"connected_time":1677000000000,"state":"active","ping":71},{"user_id":858,"name":"Taco+Taco=Burrito","steam_id":76561198063128663,"connected_time":1196000000000,"state":"active","ping":51},{"user_id":783,"name":"BurryFalls","steam_id":76561199122289629,"connected_time":7376000000000,"state":"active","ping":92},{"user_id":863,"name":"parmesan","steam_id":76561198118304061,"connected_time":909000000000,"state":"active","ping":59},{"user_id":851,"name":"Uncle Feathers McGraw","steam_id":76561198046442707,"connected_time":1559000000000,"state":"active","ping":61},{"user_id":865,"name":"cringy","steam_id":76561198323000455,"connected_time":567000000000,"state":"active","ping":73},{"user_id":777,"name":"parallax","steam_id":76561198004438881,"connected_time":7959000000000,"state":"active","ping":61},{"user_id":821,"name":"Nani?","steam_id":76561198130982692,"connected_time":3659000000000,"state":"active","ping":101}]},{"server_id":18,"name":"Uncletopia | San Francisco | 2 | All Maps","name_short":"sfo-2","host":"sfo-1.us.uncletopia.com","port":27025,"enabled":true,"region":"us-west","cc":"us","latitude":37.77397,"longitude":-122.4313,"reserved":0,"last_update":"0001-01-01T00:00:00Z","name_a2s":"Uncletopia | San Francisco | 2 | All Maps","protocol":17,"map":"pl_swiftwater_final1","folder":"tf","game":"Team Fortress","app_id":440,"player_count":16,"max_players":24,"Bots":0,"server_type":"Dedicated","server_os":"Linux","password":true,"vac":true,"version":"7757534","steam_id":85568392924470000,"keywords":["nocrits","nodmgspread","payload","uncletopia"],"game_id":440,"stv_port":27026,"stv_name":"Uncletopia | San Francisco | 2 | All Maps | STV","players":[{"user_id":274,"name":"Maid 'n' China","steam_id":76561198423392976,"connected_time":3503000000000,"state":"active","ping":48},{"user_id":313,"name":"Dog","steam_id":76561198798733918,"connected_time":345000000000,"state":"active","ping":73},{"user_id":295,"name":"Gilded_Warrior","steam_id":76561199055082197,"connected_time":1256000000000,"state":"active","ping":85},{"user_id":312,"name":"Thumbsupkid37","steam_id":76561198190787017,"connected_time":370000000000,"state":"active","ping":52},{"user_id":298,"name":"Luigiman626","steam_id":76561198349032234,"connected_time":930000000000,"state":"active","ping":72},{"user_id":299,"name":"Jog","steam_id":76561198025393439,"connected_time":910000000000,"state":"active","ping":70},{"user_id":300,"name":"huiei","steam_id":76561198073763735,"connected_time":858000000000,"state":"active","ping":54},{"user_id":254,"name":"Orange","steam_id":76561198284737450,"connected_time":4603000000000,"state":"active","ping":85},{"user_id":301,"name":"Telksio","steam_id":76561198348782968,"connected_time":830000000000,"state":"active","ping":53},{"user_id":303,"name":"Business Man","steam_id":76561198142373471,"connected_time":728000000000,"state":"active","ping":53},{"user_id":304,"name":"Venial","steam_id":76561198246772410,"connected_time":720000000000,"state":"active","ping":69},{"user_id":310,"name":"Steezyy","steam_id":76561198136616632,"connected_time":523000000000,"state":"active","ping":42},{"user_id":307,"name":"R2FU","steam_id":76561198419388297,"connected_time":689000000000,"state":"active","ping":58},{"user_id":308,"name":"ppman","steam_id":76561198208814695,"connected_time":660000000000,"state":"active","ping":52},{"user_id":315,"name":"reverie","steam_id":76561198168158637,"connected_time":306000000000,"state":"active","ping":64},{"user_id":263,"name":"bananaman","steam_id":76561198386276069,"connected_time":4291000000000,"state":"active","ping":99}]},{"server_id":19,"name":"Uncletopia | San Francisco | 3 | Stopwatch Beta","name_short":"sfo-3","host":"sfo-1.us.uncletopia.com","port":27035,"enabled":true,"region":"us-west","cc":"us","latitude":37.77397,"longitude":-122.4313,"reserved":0,"last_update":"0001-01-01T00:00:00Z","name_a2s":"Uncletopia | San Francisco | 3 | Stopwatch Beta","protocol":17,"map":"koth_lakeside_final","folder":"tf","game":"Team Fortress","app_id":440,"player_count":2,"max_players":24,"Bots":0,"server_type":"Dedicated","server_os":"Linux","password":true,"vac":true,"version":"7757534","steam_id":85568392924742824,"keywords":["cp","nocrits","nodmgspread","uncletopia"],"game_id":440,"stv_port":27036,"stv_name":"Uncletopia | San Francisco | 3 | Stopwatch Beta | STV","players":[{"user_id":211,"name":"SunkerMacgunker","steam_id":76561199081868742,"connected_time":3654000000000,"state":"active","ping":43},{"user_id":215,"name":"G.bo","steam_id":76561198085176270,"connected_time":1682000000000,"state":"active","ping":67}]},{"server_id":20,"name":"Uncletopia | San Francisco | 4 | Community","name_short":"sfo-4","host":"sfo-1.us.uncletopia.com","port":27045,"enabled":true,"region":"us-west","cc":"us","latitude":37.77397,"longitude":-122.4313,"reserved":0,"last_update":"0001-01-01T00:00:00Z","name_a2s":"Uncletopia | San Francisco | 4 | Community","protocol":17,"map":"workshop/koth_product_final.ugc454272353","folder":"tf","game":"Team Fortress","app_id":440,"player_count":2,"max_players":24,"Bots":0,"server_type":"Dedicated","server_os":"Linux","password":true,"vac":true,"version":"7757534","steam_id":85568392924742826,"keywords":["cp","nocrits","nodmgspread","uncletopia"],"game_id":440,"stv_port":27046,"stv_name":"Uncletopia | San Francisco | 4 | Community | STV","players":[{"user_id":9,"name":"Rosenthaleffect","steam_id":76561198109903569,"connected_time":329000000000,"state":"active","ping":60},{"user_id":10,"name":"SedyIsReady","steam_id":76561198965811222,"connected_time":312000000000,"state":"active","ping":60}]},{"server_id":141,"name":"Uncletopia | Sydney | 1 | All Maps","name_short":"syd-1","host":"syd-1.au.uncletopia.com","port":27015,"enabled":true,"region":"au","cc":"au","latitude":-33.865143,"longitude":151.2099,"reserved":0,"last_update":"0001-01-01T00:00:00Z","name_a2s":"Uncletopia | Sydney | 1 | All Maps","protocol":17,"map":"cp_dustbowl","folder":"tf","game":"Team Fortress","app_id":440,"player_count":18,"max_players":24,"Bots":0,"server_type":"Dedicated","server_os":"Linux","password":true,"vac":true,"version":"7757534","steam_id":85568392924470001,"keywords":["cp","nocrits","nodmgspread","uncletopia"],"game_id":440,"stv_port":27016,"stv_name":"Uncletopia | Sydney | 1 | All Maps | STV","players":[{"user_id":304,"name":"Zeron","steam_id":76561198125778202,"connected_time":2562000000000,"state":"active","ping":45},{"user_id":323,"name":"Mud","steam_id":76561198025524712,"connected_time":1659000000000,"state":"active","ping":43},{"user_id":336,"name":"Destoroyah","steam_id":76561199221698486,"connected_time":406000000000,"state":"active","ping":40},{"user_id":335,"name":"bumbling idiot","steam_id":76561198127848228,"connected_time":450000000000,"state":"active","ping":60},{"user_id":339,"name":"Bobby Wilkinson","steam_id":76561198054985347,"connected_time":62000000000,"state":"active","ping":58},{"user_id":296,"name":"Jamie2Cool","steam_id":76561198155695809,"connected_time":3182000000000,"state":"active","ping":89},{"user_id":211,"name":"Jodelk√∂nig Franzl Lang","steam_id":76561198007667830,"connected_time":10205000000000,"state":"active","ping":55},{"user_id":338,"name":"youtube.com/@cuyt","steam_id":76561198184926846,"connected_time":181000000000,"state":"active","ping":59},{"user_id":309,"name":"gode","steam_id":76561198836003115,"connected_time":2273000000000,"state":"active","ping":62},{"user_id":326,"name":"Candler","steam_id":76561198302841509,"connected_time":1381000000000,"state":"active","ping":59},{"user_id":337,"name":"[GG] Cryo","steam_id":76561198062014383,"connected_time":403000000000,"state":"active","ping":60},{"user_id":328,"name":"Sentry Gun (EpicGuy4227)","steam_id":76561198094132328,"connected_time":1362000000000,"state":"active","ping":55},{"user_id":332,"name":"A KNIFE!","steam_id":76561198160390701,"connected_time":958000000000,"state":"active","ping":61},{"user_id":313,"name":"whiteshaq","steam_id":76561198131988811,"connected_time":2090000000000,"state":"active","ping":48},{"user_id":285,"name":"K.K.","steam_id":76561198136654050,"connected_time":4143000000000,"state":"active","ping":69},{"user_id":318,"name":"Jackpot Venture","steam_id":76561198054096076,"connected_time":1889000000000,"state":"active","ping":49},{"user_id":333,"name":"wm1","steam_id":76561198061960926,"connected_time":766000000000,"state":"active","ping":101},{"user_id":321,"name":"cereal strike","steam_id":76561198159933043,"connected_time":1816000000000,"state":"active","ping":63}]},{"server_id":123,"name":"Uncletopia | Sydney | 2 | All Maps","name_short":"syd-2","host":"syd-1.au.uncletopia.com","port":27025,"enabled":true,"region":"au","cc":"au","latitude":-33.865143,"longitude":151.2099,"reserved":0,"last_update":"0001-01-01T00:00:00Z","name_a2s":"Uncletopia | Sydney | 2 | All Maps","protocol":17,"map":"pl_snowycoast","folder":"tf","game":"Team Fortress","app_id":440,"player_count":24,"max_players":24,"Bots":0,"server_type":"Dedicated","server_os":"Linux","password":true,"vac":true,"version":"7757534","steam_id":85568392924470002,"keywords":["nocrits","nodmgspread","payload","uncletopia"],"game_id":440,"stv_port":27026,"stv_name":"Uncletopia | Sydney | 2 | All Maps | STV","players":[{"user_id":27,"name":"Atner","steam_id":76561198442934454,"connected_time":5591000000000,"state":"active","ping":89},{"user_id":28,"name":"Zieria","steam_id":76561199261811388,"connected_time":5535000000000,"state":"active","ping":32},{"user_id":82,"name":"Kiwoo","steam_id":76561198097429186,"connected_time":570000000000,"state":"active","ping":99},{"user_id":76,"name":"Sparky","steam_id":76561198117687688,"connected_time":813000000000,"state":"active","ping":66},{"user_id":71,"name":"Granolarama","steam_id":76561198059129270,"connected_time":1278000000000,"state":"active","ping":64},{"user_id":74,"name":"Tsolis","steam_id":76561198013950614,"connected_time":827000000000,"state":"active","ping":64},{"user_id":77,"name":"dinxie","steam_id":76561199448765541,"connected_time":809000000000,"state":"active","ping":71},{"user_id":64,"name":"perturb","steam_id":76561198085124297,"connected_time":2517000000000,"state":"active","ping":53},{"user_id":85,"name":"Alfred Einstein","steam_id":76561198050160041,"connected_time":280000000000,"state":"active","ping":67},{"user_id":83,"name":"Olly","steam_id":76561198078303228,"connected_time":463000000000,"state":"active","ping":60},{"user_id":78,"name":"seiran","steam_id":76561198880907232,"connected_time":794000000000,"state":"active","ping":96},{"user_id":43,"name":"Mr Doctor","steam_id":76561198081415999,"connected_time":4115000000000,"state":"active","ping":64},{"user_id":73,"name":"the normoaner","steam_id":76561198082423230,"connected_time":983000000000,"state":"active","ping":82},{"user_id":44,"name":"Muon","steam_id":76561198031870803,"connected_time":4103000000000,"state":"active","ping":61},{"user_id":45,"name":"‚ù§callie‚ù§","steam_id":76561198231953400,"connected_time":4095000000000,"state":"active","ping":61},{"user_id":87,"name":"HeyHeyItsGreyGrey","steam_id":76561198047955263,"connected_time":158000000000,"state":"active","ping":68},{"user_id":67,"name":"CypressFluff (She/Her)","steam_id":76561198174667818,"connected_time":2351000000000,"state":"active","ping":58},{"user_id":50,"name":"revoke","steam_id":76561198271690459,"connected_time":3753000000000,"state":"active","ping":45},{"user_id":60,"name":"Albert Down under","steam_id":76561198122040049,"connected_time":3056000000000,"state":"active","ping":79},{"user_id":88,"name":"Dupiter","steam_id":76561198108820767,"connected_time":92000000000,"state":"active","ping":52},{"user_id":55,"name":"demoKe","steam_id":76561199081848498,"connected_time":3363000000000,"state":"active","ping":58},{"user_id":68,"name":"Sio","steam_id":76561198045934338,"connected_time":2291000000000,"state":"active","ping":84},{"user_id":62,"name":"Marmalade Cat","steam_id":76561198086309767,"connected_time":2853000000000,"state":"active","ping":65},{"user_id":89,"name":"sav","steam_id":76561198058760041,"connected_time":24000000000,"state":"spawning","ping":89}]},{"server_id":395,"name":"Uncletopia | Sydney | 3 | All Maps","name_short":"syd-3","host":"syd-1.au.uncletopia.com","port":27035,"enabled":true,"region":"au","cc":"au","latitude":-33.865143,"longitude":151.2099,"reserved":0,"last_update":"0001-01-01T00:00:00Z","name_a2s":"Uncletopia | Sydney | 3 | All Maps","protocol":17,"map":"pl_snowycoast","folder":"tf","game":"Team Fortress","app_id":440,"player_count":0,"max_players":24,"Bots":0,"server_type":"Dedicated","server_os":"Linux","password":true,"vac":true,"version":"7757534","steam_id":85568392925194467,"keywords":["nocrits","nodmgspread","payload","uncletopia"],"game_id":440,"stv_port":27036,"stv_name":"Uncletopia | Sydney | 3 | All Maps | STV","players":null},{"server_id":396,"name":"Uncletopia | Sydney | 4 | All Maps","name_short":"syd-4","host":"syd-1.au.uncletopia.com","port":27045,"enabled":true,"region":"au","cc":"au","latitude":-33.865143,"longitude":151.2099,"reserved":0,"last_update":"0001-01-01T00:00:00Z","name_a2s":"Uncletopia | Sydney | 4 | All Maps","protocol":17,"map":"koth_highpass","folder":"tf","game":"Team Fortress","app_id":440,"player_count":0,"max_players":24,"Bots":0,"server_type":"Dedicated","server_os":"Linux","password":true,"vac":true,"version":"7757534","steam_id":85568392925397958,"keywords":["cp","nocrits","nodmgspread","uncletopia"],"game_id":440,"stv_port":27046,"stv_name":"Uncletopia | Sydney | 4 | All Maps | STV","players":null},{"server_id":58,"name":"Uncletopia | Sydney | 5 | Stopwatch Beta","name_short":"syd-5","host":"syd-1.au.uncletopia.com","port":27055,"enabled":true,"region":"au","cc":"au","latitude":-33.865143,"longitude":151.2099,"reserved":0,"last_update":"0001-01-01T00:00:00Z","name_a2s":"Uncletopia | Sydney | 5 | Stopwatch Beta","protocol":17,"map":"workshop/pl_badwater_pro_v12.ugc2142942074","folder":"tf","game":"Team Fortress","app_id":440,"player_count":0,"max_players":24,"Bots":0,"server_type":"Dedicated","server_os":"Linux","password":true,"vac":true,"version":"7757534","steam_id":85568392925397959,"keywords":["nocrits","nodmgspread","payload","uncletopia"],"game_id":440,"stv_port":27056,"stv_name":"Uncletopia | Sydney | 5 | Stopwatch Beta | STV","players":null},{"server_id":59,"name":"Uncletopia | Sydney | 6 | Community","name_short":"syd-6","host":"syd-1.au.uncletopia.com","port":27065,"enabled":true,"region":"au","cc":"au","latitude":-33.865143,"longitude":151.2099,"reserved":0,"last_update":"0001-01-01T00:00:00Z","name_a2s":"Uncletopia | Sydney | 6 | Community","protocol":17,"map":"cp_snakewater_final1","folder":"tf","game":"Team Fortress","app_id":440,"player_count":0,"max_players":24,"Bots":0,"server_type":"Dedicated","server_os":"Linux","password":true,"vac":true,"version":"7757534","steam_id":85568392925397960,"keywords":["cp","nocrits","nodmgspread","uncletopia"],"game_id":440,"stv_port":27066,"stv_name":"Uncletopia | Sydney | 6 | Community | STV","players":null},{"server_id":49,"name":"Uncletopia | Warsaw | 1 | All Maps","name_short":"waw-1","host":"waw-1.pl.uncletopia.com","port":27015,"enabled":true,"region":"eu","cc":"pl","latitude":52.2297,"longitude":21.017532,"reserved":0,"last_update":"0001-01-01T00:00:00Z","name_a2s":"","protocol":0,"map":"","folder":"","game":"","app_id":0,"player_count":0,"max_players":0,"Bots":0,"server_type":"","server_os":"","password":false,"vac":false,"version":"","steam_id":0,"keywords":null,"game_id":0,"stv_port":0,"stv_name":"","players":null},{"server_id":50,"name":"Uncletopia | Warsaw | 2 | All Maps","name_short":"waw-2","host":"waw-1.pl.uncletopia.com","port":27025,"enabled":true,"region":"eu","cc":"pl","latitude":52.2297,"longitude":21.017532,"reserved":0,"last_update":"0001-01-01T00:00:00Z","name_a2s":"Uncletopia | Warsaw | 2 | All Maps","protocol":17,"map":"koth_viaduct","folder":"tf","game":"Team Fortress","app_id":440,"player_count":0,"max_players":24,"Bots":0,"server_type":"Dedicated","server_os":"Linux","password":true,"vac":true,"version":"7757534","steam_id":85568392925397851,"keywords":["cp","nocrits","nodmgspread","uncletopia"],"game_id":440,"stv_port":27026,"stv_name":"Uncletopia | Warsaw | 2 | All Maps | STV","players":null},{"server_id":51,"name":"Uncletopia | Warsaw | 3 | All Maps","name_short":"waw-3","host":"waw-1.pl.uncletopia.com","port":27035,"enabled":true,"region":"eu","cc":"pl","latitude":52.2297,"longitude":21.017532,"reserved":0,"last_update":"0001-01-01T00:00:00Z","name_a2s":"Uncletopia | Warsaw | 3 | All Maps","protocol":17,"map":"pl_badwater","folder":"tf","game":"Team Fortress","app_id":440,"player_count":0,"max_players":24,"Bots":0,"server_type":"Dedicated","server_os":"Linux","password":true,"vac":true,"version":"7757534","steam_id":85568392925397852,"keywords":["nocrits","nodmgspread","payload","uncletopia"],"game_id":440,"stv_port":27036,"stv_name":"Uncletopia | Warsaw | 3 | All Maps | STV","players":null},{"server_id":52,"name":"Uncletopia | Warsaw | 4 | All Maps","name_short":"waw-4","host":"waw-1.pl.uncletopia.com","port":27045,"enabled":true,"region":"eu","cc":"pl","latitude":52.2297,"longitude":21.017532,"reserved":0,"last_update":"0001-01-01T00:00:00Z","name_a2s":"Uncletopia | Warsaw | 4 | All Maps","protocol":17,"map":"koth_lakeside_final","folder":"tf","game":"Team Fortress","app_id":440,"player_count":0,"max_players":24,"Bots":0,"server_type":"Dedicated","server_os":"Linux","password":true,"vac":true,"version":"7757534","steam_id":85568392925397853,"keywords":["cp","nocrits","nodmgspread","uncletopia"],"game_id":440,"stv_port":27046,"stv_name":"Uncletopia | Warsaw | 4 | All Maps | STV","players":null},{"server_id":53,"name":"Uncletopia | Warsaw | 5 | Stopwatch Beta","name_short":"waw-5","host":"waw-1.pl.uncletopia.com","port":27055,"enabled":true,"region":"eu","cc":"pl","latitude":52.2297,"longitude":21.017532,"reserved":0,"last_update":"0001-01-01T00:00:00Z","name_a2s":"Uncletopia | Warsaw | 5 | Stopwatch Beta","protocol":17,"map":"pl_borneo","folder":"tf","game":"Team Fortress","app_id":440,"player_count":0,"max_players":24,"Bots":0,"server_type":"Dedicated","server_os":"Linux","password":true,"vac":true,"version":"7757534","steam_id":85568392925397854,"keywords":["nocrits","nodmgspread","payload","uncletopia"],"game_id":440,"stv_port":27056,"stv_name":"Uncletopia | Warsaw | 5 | Stopwatch Beta | STV","players":null},{"server_id":54,"name":"Uncletopia | Warsaw | 6 | Community","name_short":"waw-6","host":"waw-1.pl.uncletopia.com","port":27065,"enabled":true,"region":"eu","cc":"pl","latitude":52.2297,"longitude":21.017532,"reserved":0,"last_update":"0001-01-01T00:00:00Z","name_a2s":"Uncletopia | Warsaw | 6 | Community","protocol":17,"map":"koth_lakeside_final","folder":"tf","game":"Team Fortress","app_id":440,"player_count":0,"max_players":24,"Bots":0,"server_type":"Dedicated","server_os":"Linux","password":true,"vac":true,"version":"7757534","steam_id":85568392925397856,"keywords":["cp","nocrits","nodmgspread","uncletopia"],"game_id":440,"stv_port":27066,"stv_name":"Uncletopia | Warsaw | 6 | Community | STV","players":null}]}