{"status":true,"message":"","result":[{"server_id":9,"name":"Uncletopia | Atlanta | 1 | All Maps","name_short":"atl-1","host":"atl-1.us.uncletopia.com","port":27015,"enabled":true,"region":"us-east","cc":"us","latitude":33.753746,"longitude":-84.38633,"reserved":0,"last_update":"0001-01-01T00:00:00Z","name_a2s":"Uncletopia | Atlanta | 1 | All Maps","protocol":17,"map":"pl_swiftwater_final1","folder":"tf","game":"Team Fortress","app_id":440,"player_count":0,"max_players":24,"Bots":0,"server_type":"Dedicated","server_os":"Linux","password":true,"vac":true,"version":"7961495","steam_id":85568392924469982,"keywords":["nocrits","nodmgspread","payload","uncletopia"],"game_id":440,"stv_port":27016,"stv_name":"Uncletopia | Atlanta | 1 | All Maps | STV","players":null},{"server_id":104,"name":"Uncletopia | Atlanta | 2 | All Maps","name_short":"atl-2","host":"atl-1.us.uncletopia.com","port":27025,"enabled":true,"region":"us-east","cc":"us","latitude":33.753746,"longitude":-84.38633,"reserved":0,"last_update":"0001-01-01T00:00:00Z","name_a2s":"","protocol":0,"map":"","folder":"","game":"","app_id":0,"player_count":0,"max_players":0,"Bots":0,"server_type":"","server_os":"","password":false,"vac":false,"version":"","steam_id":0,"keywords":null,"game_id":0,"stv_port":0,"stv_name":"","players":null},{"server_id":400,"name":"Uncletopia | Atlanta | 3 | All Maps","name_short":"atl-3","host":"atl-1.us.uncletopia.com","port":27035,"enabled":true,"region":"us-east","cc":"us","latitude":33.753746,"longitude":-84.38633,"reserved":0,"last_update":"0001-01-01T00:00:00Z","name_a2s":"","protocol":0,"map":"","folder":"","game":"","app_id":0,"player_count":0,"max_players":0,"Bots":0,"server_type":"","server_os":"","password":false,"vac":false,"version":"","steam_id":0,"keywords":null,"game_id":0,"stv_port":0,"stv_name":"","players":null},{"server_id":401,"name":"Uncletopia | Atlanta | 4 | Community","name_short":"atl-4","host":"atl-1.us.uncletopia.com","port":27045,"enabled":true,"region":"us-east","cc":"us","latitude":33.753746,"longitude":-84.38633,"reserved":0,"last_update":"0001-01-01T00:00:00Z","name_a2s":"","protocol":0,"map":"","folder":"","game":"","app_id":0,"player_count":0,"max_players":0,"Bots":0,"server_type":"","server_os":"","password":false,"vac":false,"version":"","steam_id":0,"keywords":null,"game_id":0,"stv_port":0,"stv_name":"","players":null},{"server_id":2,"name":"Uncletopia | Chicago | 1 | All Maps","name_short":"chi-1","host":"chi-1.us.uncletopia.com","port":27015,"enabled":true,"region":"us-central","cc":"us","latitude":41.881832,"longitude":-87.62318,"reserved":0,"last_update":"0001-01-01T00:00:00Z","name_a2s":"Uncletopia | Chicago | 1 | All Maps","protocol":17,"map":"pl_thundermountain","folder":"tf","game":"Team Fortress","app_id":440,"player_count":24,"max_players":24,"Bots":0,"server_type":"Dedicated","server_os":"Linux","password":true,"vac":true,"version":"7961495","steam_id":85568392924469984,"keywords":["nocrits","nodmgspread","payload","uncletopia"],"game_id":440,"stv_port":27016,"stv_name":"Uncletopia | Chicago | 1 | All Maps | STV","players":[{"user_id":173,"name":"drift","steam_id":76561198093781093,"connected_time":723000000000,"state":"active","ping":58},{"user_id":162,"name":"Â≠´Â≠ê","steam_id":76561198083112681,"connected_time":1373000000000,"state":"active","ping":53},{"user_id":98,"name":"AkimboAoki","steam_id":76561198158323058,"connected_time":6880000000000,"state":"active","ping":89},{"user_id":165,"name":"Deph Pyro","steam_id":76561198065033546,"connected_time":1302000000000,"state":"active","ping":71},{"user_id":168,"name":"denzy_","steam_id":76561198873788683,"connected_time":1133000000000,"state":"active","ping":69},{"user_id":42,"name":"hi","steam_id":76561198809577048,"connected_time":12142000000000,"state":"active","ping":107},{"user_id":142,"name":"Generator","steam_id":76561198011762257,"connected_time":3302000000000,"state":"active","ping":103},{"user_id":149,"name":"Benex10","steam_id":76561197996503023,"connected_time":2806000000000,"state":"active","ping":72},{"user_id":158,"name":"lambmyth","steam_id":76561199215261209,"connected_time":1734000000000,"state":"active","ping":89},{"user_id":121,"name":"Fireblade425","steam_id":76561199278401592,"connected_time":4845000000000,"state":"active","ping":93},{"user_id":154,"name":"Obelisk","steam_id":76561198049416866,"connected_time":2376000000000,"state":"active","ping":76},{"user_id":170,"name":"Truck-kun2107","steam_id":76561199161417910,"connected_time":813000000000,"state":"active","ping":91},{"user_id":156,"name":"Cold shoulder","steam_id":76561198453824178,"connected_time":1800000000000,"state":"active","ping":134},{"user_id":127,"name":"Volunteer Janitor","steam_id":76561198057076267,"connected_time":4582000000000,"state":"active","ping":72},{"user_id":172,"name":"McGruble","steam_id":76561198136317340,"connected_time":776000000000,"state":"active","ping":90},{"user_id":153,"name":"dog","steam_id":76561198295237946,"connected_time":2688000000000,"state":"active","ping":78},{"user_id":155,"name":"Dr_Riddler","steam_id":76561198139493285,"connected_time":1814000000000,"state":"active","ping":98},{"user_id":169,"name":"floofy","steam_id":76561198389769098,"connected_time":931000000000,"state":"active","ping":83},{"user_id":171,"name":"R2-D2000","steam_id":76561198152736160,"connected_time":794000000000,"state":"active","ping":59},{"user_id":175,"name":"LocaKola","steam_id":76561198173435430,"connected_time":305000000000,"state":"active","ping":80},{"user_id":120,"name":"emeraldrhymes","steam_id":76561198842486176,"connected_time":5009000000000,"state":"active","ping":80},{"user_id":133,"name":"Mr. Green","steam_id":76561198037778253,"connected_time":3668000000000,"state":"active","ping":69},{"user_id":167,"name":"The Entire Population of Canada","steam_id":76561198090187112,"connected_time":1176000000000,"state":"active","ping":65},{"user_id":145,"name":"Boomerish","steam_id":76561198083946878,"connected_time":3092000000000,"state":"active","ping":78}]},{"server_id":106,"name":"Uncletopia | Chicago | 2 | All Maps","name_short":"chi-2","host":"chi-1.us.uncletopia.com","port":27025,"enabled":true,"region":"us-central","cc":"us","latitude":41.881832,"longitude":-87.62318,"reserved":0,"last_update":"0001-01-01T00:00:00Z","name_a2s":"Uncletopia | Chicago | 2 | All Maps","protocol":17,"map":"pl_badwater","folder":"tf","game":"Team Fortress","app_id":440,"player_count":20,"max_players":24,"Bots":0,"server_type":"Dedicated","server_os":"Linux","password":true,"vac":true,"version":"7961495","steam_id":85568392924469985,"keywords":["nocrits","nodmgspread","payload","uncletopia"],"game_id":440,"stv_port":27026,"stv_name":"Uncletopia | Chicago | 2 | All Maps | STV","players":[{"user_id":101,"name":"jairo","steam_id":76561199006124613,"connected_time":289000000000,"state":"active","ping":110},{"user_id":8,"name":"magickxanadu","steam_id":76561199117360103,"connected_time":6611000000000,"state":"active","ping":93},{"user_id":103,"name":"PbyFortress","steam_id":76561199046192860,"connected_time":55000000000,"state":"active","ping":79},{"user_id":80,"name":"1-800-GHOST-DANCE","steam_id":76561198835430429,"connected_time":2143000000000,"state":"active","ping":87},{"user_id":104,"name":"BU Baggead","steam_id":76561198852902827,"connected_time":55000000000,"state":"spawning","ping":34},{"user_id":99,"name":"Waveshift","steam_id":76561199030125662,"connected_time":397000000000,"state":"active","ping":72},{"user_id":13,"name":"Jango","steam_id":76561198084589742,"connected_time":6079000000000,"state":"active","ping":67},{"user_id":105,"name":"LUXXOR","steam_id":76561198056665315,"connected_time":43000000000,"state":"active","ping":213},{"user_id":69,"name":"| L O S T |","steam_id":76561198062620333,"connected_time":2577000000000,"state":"active","ping":66},{"user_id":106,"name":"blitz","steam_id":76561198246638226,"connected_time":20000000000,"state":"active","ping":53},{"user_id":71,"name":"fischman","steam_id":76561199064142670,"connected_time":2527000000000,"state":"active","ping":146},{"user_id":89,"name":"Dr Kickass","steam_id":76561198069659186,"connected_time":1389000000000,"state":"active","ping":47},{"user_id":72,"name":"Professor","steam_id":76561198097038169,"connected_time":2471000000000,"state":"active","ping":54},{"user_id":94,"name":"Vulcan","steam_id":76561198399735208,"connected_time":694000000000,"state":"active","ping":62},{"user_id":91,"name":"dudeguypersonmanhombre","steam_id":76561198052016845,"connected_time":906000000000,"state":"active","ping":80},{"user_id":95,"name":"Herr M√ºller","steam_id":76561198064876829,"connected_time":680000000000,"state":"active","ping":92},{"user_id":60,"name":"Hadvar","steam_id":76561198081681234,"connected_time":3513000000000,"state":"active","ping":55},{"user_id":102,"name":"Placcid","steam_id":76561197996898905,"connected_time":220000000000,"state":"active","ping":86},{"user_id":77,"name":"Erin","steam_id":76561198394148072,"connected_time":2396000000000,"state":"active","ping":57},{"user_id":88,"name":"VixianUwU","steam_id":76561198948815060,"connected_time":1560000000000,"state":"active","ping":82}]},{"server_id":402,"name":"Uncletopia | Chicago | 3 | All Maps","name_short":"chi-3","host":"chi-1.us.uncletopia.com","port":27035,"enabled":true,"region":"us-central","cc":"us","latitude":41.881832,"longitude":-87.62318,"reserved":0,"last_update":"0001-01-01T00:00:00Z","name_a2s":"Uncletopia | Chicago | 3 | All Maps","protocol":17,"map":"koth_lakeside_final","folder":"tf","game":"Team Fortress","app_id":440,"player_count":24,"max_players":24,"Bots":0,"server_type":"Dedicated","server_os":"Linux","password":true,"vac":true,"version":"7961495","steam_id":85568392924515191,"keywords":["cp","nocrits","nodmgspread","uncletopia"],"game_id":440,"stv_port":27036,"stv_name":"Uncletopia | Chicago | 3 | All Maps | STV","players":[{"user_id":5,"name":"i ate a bee","steam_id":76561198138983695,"connected_time":1157000000000,"state":"active","ping":75},{"user_id":6,"name":"Deborp","steam_id":76561198118868430,"connected_time":912000000000,"state":"active","ping":77},{"user_id":8,"name":"Fishmonger","steam_id":76561198372237027,"connected_time":753000000000,"state":"active","ping":93},{"user_id":9,"name":"Wolfsandwich123","steam_id":76561198332742794,"connected_time":736000000000,"state":"active","ping":86},{"user_id":21,"name":"GangstaPuddin","steam_id":76561198045414782,"connected_time":469000000000,"state":"active","ping":62},{"user_id":11,"name":"Boognish Rising","steam_id":76561199273231736,"connected_time":626000000000,"state":"active","ping":76},{"user_id":16,"name":"Lazy Bones","steam_id":76561198198928941,"connected_time":564000000000,"state":"active","ping":85},{"user_id":28,"name":"Willem Dafoe","steam_id":76561198037453253,"connected_time":265000000000,"state":"active","ping":58},{"user_id":14,"name":"McDonald's Filet-O-Fish","steam_id":76561198104086771,"connected_time":583000000000,"state":"active","ping":92},{"user_id":15,"name":"lucky","steam_id":76561198323426623,"connected_time":572000000000,"state":"active","ping":103},{"user_id":18,"name":"2 Laserdisc Copies of Toy Story","steam_id":76561198088859649,"connected_time":548000000000,"state":"active","ping":59},{"user_id":29,"name":"Npcutz64","steam_id":76561198320867336,"connected_time":224000000000,"state":"active","ping":74},{"user_id":20,"name":"goo","steam_id":76561198142217308,"connected_time":536000000000,"state":"active","ping":60},{"user_id":22,"name":"Robert","steam_id":76561198133200895,"connected_time":459000000000,"state":"active","ping":59},{"user_id":23,"name":"Nephi","steam_id":76561198031525122,"connected_time":444000000000,"state":"active","ping":86},{"user_id":30,"name":"I'm Sleepy","steam_id":76561198879929343,"connected_time":214000000000,"state":"active","ping":68},{"user_id":31,"name":"IntoTheIndie","steam_id":76561199042274078,"connected_time":210000000000,"state":"active","ping":95},{"user_id":32,"name":"Ginger Jesus","steam_id":76561198052386458,"connected_time":205000000000,"state":"active","ping":60},{"user_id":27,"name":"suns","steam_id":76561198079583278,"connected_time":388000000000,"state":"active","ping":44},{"user_id":34,"name":"creeeeeee","steam_id":76561198392539722,"connected_time":165000000000,"state":"active","ping":82},{"user_id":35,"name":"cow","steam_id":76561198117331762,"connected_time":146000000000,"state":"active","ping":47},{"user_id":36,"name":"Scupy","steam_id":76561198100403963,"connected_time":110000000000,"state":"active","ping":99},{"user_id":37,"name":"Capo","steam_id":76561198182755710,"connected_time":89000000000,"state":"active","ping":99},{"user_id":38,"name":"Locus","steam_id":76561198129833463,"connected_time":77000000000,"state":"active","ping":94}]},{"server_id":403,"name":"Uncletopia | Chicago | 4 | All Maps","name_short":"chi-4","host":"chi-1.us.uncletopia.com","port":27045,"enabled":true,"region":"us-central","cc":"us","latitude":41.881832,"longitude":-87.62318,"reserved":0,"last_update":"0001-01-01T00:00:00Z","name_a2s":"Uncletopia | Chicago | 4 | All Maps","protocol":17,"map":"cp_altitude","folder":"tf","game":"Team Fortress","app_id":440,"player_count":0,"max_players":24,"Bots":0,"server_type":"Dedicated","server_os":"Linux","password":true,"vac":true,"version":"7961495","steam_id":85568392924515193,"keywords":["cp","nocrits","nodmgspread","uncletopia"],"game_id":440,"stv_port":27046,"stv_name":"Uncletopia | Chicago | 4 | All Maps | STV","players":null},{"server_id":36,"name":"Uncletopia | Chicago | 5 | All Maps","name_short":"chi-5","host":"chi-2.us.uncletopia.com","port":27015,"enabled":true,"region":"us-central","cc":"us","latitude":41.881832,"longitude":-87.62318,"reserved":0,"last_update":"0001-01-01T00:00:00Z","name_a2s":"Uncletopia | Chicago | 5 | All Maps","protocol":17,"map":"cp_snakewater_final1","folder":"tf","game":"Team Fortress","app_id":440,"player_count":0,"max_players":24,"Bots":0,"server_type":"Dedicated","server_os":"Linux","password":true,"vac":true,"version":"7961495","steam_id":85568392924866362,"keywords":["cp","nocrits","nodmgspread","uncletopia"],"game_id":440,"stv_port":27016,"stv_name":"Uncletopia | Chicago | 5 | All Maps | STV","players":null},{"server_id":37,"name":"Uncletopia | Chicago | 6 | All Maps","name_short":"chi-6","host":"chi-2.us.uncletopia.com","port":27025,"enabled":true,"region":"us-central","cc":"us","latitude":41.881832,"longitude":-87.62318,"reserved":0,"last_update":"0001-01-01T00:00:00Z","name_a2s":"Uncletopia | Chicago | 6 | All Maps","protocol":17,"map":"cp_altitude","folder":"tf","game":"Team Fortress","app_id":440,"player_count":0,"max_players":24,"Bots":0,"server_type":"Dedicated","server_os":"Linux","password":true,"vac":true,"version":"7961495","steam_id":85568392924866363,"keywords":["cp","nocrits","nodmgspread","uncletopia"],"game_id":440,"stv_port":27026,"stv_name":"Uncletopia | Chicago | 6 | All Maps | STV","players":null},{"server_id":38,"name":"Uncletopia | Chicago | 7 | Stopwatch Beta","name_short":"chi-7","host":"chi-2.us.uncletopia.com","port":27035,"enabled":true,"region":"us-central","cc":"us","latitude":41.881832,"longitude":-87.62318,"reserved":0,"last_update":"0001-01-01T00:00:00Z","name_a2s":"Uncletopia | Chicago | 7 | Stopwatch Beta","protocol":17,"map":"pl_badwater","folder":"tf","game":"Team Fortress","app_id":440,"player_count":0,"max_players":24,"Bots":0,"server_type":"Dedicated","server_os":"Linux","password":true,"vac":true,"version":"7961495","steam_id":85568392924866364,"keywords":["nocrits","nodmgspread","payload","uncletopia"],"game_id":440,"stv_port":27036,"stv_name":"Uncletopia | Chicago | 7 | Stopwatch Beta | STV","players":null},{"server_id":39,"name":"Uncletopia | Chicago | 8 | Community","name_short":"chi-8","host":"chi-2.us.uncletopia.com","port":27045,"enabled":true,"region":"us-central","cc":"us","latitude":41.881832,"longitude":-87.62318,"reserved":0,"last_update":"0001-01-01T00:00:00Z","name_a2s":"Uncletopia | Chicago | 8 | Community","protocol":17,"map":"koth_cascade","folder":"tf","game":"Team Fortress","app_id":440,"player_count":0,"max_players":24,"Bots":0,"server_type":"Dedicated","server_os":"Linux","password":true,"vac":true,"version":"7961495","steam_id":85568392924866365,"keywords":["cp","nocrits","nodmgspread","uncletopia"],"game_id":440,"stv_port":27046,"stv_name":"Uncletopia | Chicago | 8 | Community | STV","players":null},{"server_id":8,"name":"Uncletopia | Dallas | 1 | All Maps","name_short":"dal-1","host":"dal-1.us.uncletopia.com","port":27015,"enabled":true,"region":"us-central","cc":"us","latitude":32.779167,"longitude":-96.80889,"reserved":0,"last_update":"0001-01-01T00:00:00Z","name_a2s":"Uncletopia | Dallas | 1 | All Maps","protocol":17,"map":"pl_frontier_final","folder":"tf","game":"Team Fortress","app_id":440,"player_count":24,"max_players":24,"Bots":0,"server_type":"Dedicated","server_os":"Linux","password":true,"vac":true,"version":"7961495","steam_id":85568392924469986,"keywords":["nocrits","nodmgspread","payload","uncletopia"],"game_id":440,"stv_port":27016,"stv_name":"Uncletopia | Dallas | 1 | All Maps | STV","players":[{"user_id":5,"name":"ApocAnarchy","steam_id":76561198225604700,"connected_time":9663000000000,"state":"active","ping":62},{"user_id":125,"name":"ÀóÀèÀãK√ºki¬¥ÀéÀó","steam_id":76561198102045762,"connected_time":638000000000,"state":"active","ping":102},{"user_id":117,"name":"–û–±–∞–º–∞","steam_id":76561198134415874,"connected_time":1249000000000,"state":"active","ping":60},{"user_id":73,"name":"Borgir","steam_id":76561198325390265,"connected_time":4181000000000,"state":"active","ping":71},{"user_id":103,"name":"Likeia #Savetf2","steam_id":76561198005214207,"connected_time":2824000000000,"state":"active","ping":60},{"user_id":108,"name":"SeaBass","steam_id":76561197982949108,"connected_time":2108000000000,"state":"active","ping":81},{"user_id":116,"name":"Punished Eric","steam_id":76561198074482804,"connected_time":1292000000000,"state":"active","ping":111},{"user_id":115,"name":"Taco","steam_id":76561198034670953,"connected_time":1350000000000,"state":"active","ping":67},{"user_id":113,"name":"Zetta","steam_id":76561198045710113,"connected_time":1386000000000,"state":"active","ping":84},{"user_id":126,"name":"magnanimity","steam_id":76561198242842394,"connected_time":354000000000,"state":"active","ping":47},{"user_id":119,"name":"Bob Lettuce","steam_id":76561198126830902,"connected_time":1013000000000,"state":"active","ping":96},{"user_id":120,"name":"REAL LAOZI","steam_id":76561198326944980,"connected_time":977000000000,"state":"active","ping":82},{"user_id":89,"name":"Hezxp","steam_id":76561198312931111,"connected_time":3415000000000,"state":"active","ping":71},{"user_id":114,"name":"FI LO","steam_id":76561198976530881,"connected_time":1361000000000,"state":"active","ping":68},{"user_id":112,"name":"NeptuneÀñ‚Å∫ÔΩ°Àö‚ãÜÀô‚ô•","steam_id":76561199054203198,"connected_time":1899000000000,"state":"active","ping":82},{"user_id":121,"name":"Cerabond","steam_id":76561199230915333,"connected_time":935000000000,"state":"active","ping":98},{"user_id":104,"name":"guy","steam_id":76561198090531755,"connected_time":2715000000000,"state":"active","ping":45},{"user_id":122,"name":"titaniumsupernova","steam_id":76561198311711930,"connected_time":934000000000,"state":"active","ping":72},{"user_id":123,"name":"tntexplosion","steam_id":76561199090152308,"connected_time":930000000000,"state":"active","ping":113},{"user_id":124,"name":"hopdon","steam_id":76561198051616613,"connected_time":910000000000,"state":"active","ping":81},{"user_id":99,"name":"*Gage*","steam_id":76561197975233869,"connected_time":2956000000000,"state":"active","ping":72},{"user_id":100,"name":"Grace","steam_id":76561198041301874,"connected_time":2915000000000,"state":"active","ping":53},{"user_id":106,"name":"Boingo","steam_id":76561199086931535,"connected_time":2682000000000,"state":"active","ping":57},{"user_id":91,"name":"Soul Garg Plushy","steam_id":76561198044480181,"connected_time":3344000000000,"state":"active","ping":86}]},{"server_id":108,"name":"Uncletopia | Dallas | 2 | All Maps","name_short":"dal-2","host":"dal-1.us.uncletopia.com","port":27025,"enabled":true,"region":"us-central","cc":"us","latitude":32.779167,"longitude":-96.80889,"reserved":0,"last_update":"0001-01-01T00:00:00Z","name_a2s":"Uncletopia | Dallas | 2 | All Maps","protocol":17,"map":"koth_highpass","folder":"tf","game":"Team Fortress","app_id":440,"player_count":0,"max_players":24,"Bots":0,"server_type":"Dedicated","server_os":"Linux","password":true,"vac":true,"version":"7961495","steam_id":85568392924469988,"keywords":["cp","nocrits","nodmgspread","uncletopia"],"game_id":440,"stv_port":27026,"stv_name":"Uncletopia | Dallas | 2 | All Maps | STV","players":null},{"server_id":404,"name":"Uncletopia | Dallas | 3 | All Maps","name_short":"dal-3","host":"dal-1.us.uncletopia.com","port":27035,"enabled":true,"region":"us-central","cc":"us","latitude":32.779167,"longitude":-96.80889,"reserved":0,"last_update":"0001-01-01T00:00:00Z","name_a2s":"Uncletopia | Dallas | 3 | All Maps","protocol":17,"map":"koth_highpass","folder":"tf","game":"Team Fortress","app_id":440,"player_count":0,"max_players":24,"Bots":0,"server_type":"Dedicated","server_os":"Linux","password":true,"vac":true,"version":"7961495","steam_id":85568392924515219,"keywords":["cp","nocrits","nodmgspread","uncletopia"],"game_id":440,"stv_port":27036,"stv_name":"Uncletopia | Dallas | 3 | All Maps | STV","players":null},{"server_id":405,"name":"Uncletopia | Dallas | 4 | Community","name_short":"dal-4","host":"dal-1.us.uncletopia.com","port":27045,"enabled":true,"region":"us-central","cc":"us","latitude":32.779167,"longitude":-96.80889,"reserved":0,"last_update":"0001-01-01T00:00:00Z","name_a2s":"Uncletopia | Dallas | 4 | Community","protocol":17,"map":"pl_badwater","folder":"tf","game":"Team Fortress","app_id":440,"player_count":0,"max_players":24,"Bots":0,"server_type":"Dedicated","server_os":"Linux","password":true,"vac":true,"version":"7961495","steam_id":85568392924515220,"keywords":["nocrits","nodmgspread","payload","uncletopia"],"game_id":440,"stv_port":27046,"stv_name":"Uncletopia | Dallas | 4 | Community | STV","players":null},{"server_id":5,"name":"Uncletopia | Frankfurt | 1 | All Maps","name_short":"frk-1","host":"frk-1.de.uncletopia.com","port":27015,"enabled":true,"region":"eu","cc":"de","latitude":50.110924,"longitude":8.682127,"reserved":0,"last_update":"0001-01-01T00:00:00Z","name_a2s":"Uncletopia | Frankfurt | 1 | All Maps","protocol":17,"map":"pl_borneo","folder":"tf","game":"Team Fortress","app_id":440,"player_count":23,"max_players":24,"Bots":0,"server_type":"Dedicated","server_os":"Linux","password":true,"vac":true,"version":"7961495","steam_id":85568392924469989,"keywords":["nocrits","nodmgspread","payload","uncletopia"],"game_id":440,"stv_port":27016,"stv_name":"Uncletopia | Frankfurt | 1 | All Maps | STV","players":[{"user_id":473,"name":"boneez","steam_id":76561198186800982,"connected_time":24000000000,"state":"active","ping":60},{"user_id":454,"name":"Leeroy Jenkins","steam_id":76561198137210227,"connected_time":1209000000000,"state":"active","ping":69},{"user_id":428,"name":"Urfangonultasadana","steam_id":76561199389286151,"connected_time":3004000000000,"state":"active","ping":84},{"user_id":472,"name":"Umbro","steam_id":76561198087930438,"connected_time":28000000000,"state":"active","ping":74},{"user_id":470,"name":"jay","steam_id":76561198405980575,"connected_time":42000000000,"state":"active","ping":47},{"user_id":403,"name":"cargo_conductor_754","steam_id":76561198165604007,"connected_time":5015000000000,"state":"active","ping":56},{"user_id":424,"name":"RogueWave","steam_id":76561198067825459,"connected_time":3312000000000,"state":"active","ping":58},{"user_id":449,"name":"FoxyTheFish","steam_id":76561199074190919,"connected_time":1639000000000,"state":"active","ping":71},{"user_id":425,"name":"rokasbambyzas","steam_id":76561198267458427,"connected_time":3225000000000,"state":"active","ping":69},{"user_id":452,"name":"avenje","steam_id":76561198155824845,"connected_time":1429000000000,"state":"active","ping":54},{"user_id":464,"name":"alphareroooo","steam_id":76561198380799823,"connected_time":499000000000,"state":"active","ping":71},{"user_id":380,"name":"fast3r","steam_id":76561198415542035,"connected_time":6190000000000,"state":"active","ping":54},{"user_id":462,"name":"Twik","steam_id":76561198023835056,"connected_time":767000000000,"state":"active","ping":59},{"user_id":448,"name":"Topi","steam_id":76561198165732391,"connected_time":1696000000000,"state":"active","ping":100},{"user_id":393,"name":"Dominus Di Spiritus","steam_id":76561198200488383,"connected_time":5325000000000,"state":"active","ping":79},{"user_id":465,"name":"Woman (Real)","steam_id":76561199151823932,"connected_time":326000000000,"state":"active","ping":83},{"user_id":456,"name":"britishairpower","steam_id":76561198053392245,"connected_time":1147000000000,"state":"active","ping":66},{"user_id":413,"name":"iniT","steam_id":76561198019883794,"connected_time":4461000000000,"state":"active","ping":56},{"user_id":471,"name":"GregerUlander","steam_id":76561198152375055,"connected_time":42000000000,"state":"active","ping":88},{"user_id":435,"name":"A.D.H.|Artem","steam_id":76561198041801369,"connected_time":2668000000000,"state":"active","ping":83},{"user_id":469,"name":"Salabombo","steam_id":76561198127765356,"connected_time":250000000000,"state":"active","ping":122},{"user_id":458,"name":"Osek","steam_id":76561197972646003,"connected_time":1101000000000,"state":"active","ping":53},{"user_id":446,"name":"$VIFT $NEAKY","steam_id":76561198061233344,"connected_time":1730000000000,"state":"active","ping":42}]},{"server_id":110,"name":"Uncletopia | Frankfurt | 2 | All Maps","name_short":"frk-2","host":"frk-1.de.uncletopia.com","port":27025,"enabled":true,"region":"eu","cc":"de","latitude":50.110924,"longitude":8.682127,"reserved":0,"last_update":"0001-01-01T00:00:00Z","name_a2s":"Uncletopia | Frankfurt | 2 | All Maps","protocol":17,"map":"cp_powerhouse","folder":"tf","game":"Team Fortress","app_id":440,"player_count":24,"max_players":24,"Bots":0,"server_type":"Dedicated","server_os":"Linux","password":true,"vac":true,"version":"7961495","steam_id":85568392924469990,"keywords":["cp","nocrits","nodmgspread","uncletopia"],"game_id":440,"stv_port":27026,"stv_name":"Uncletopia | Frankfurt | 2 | All Maps | STV","players":[{"user_id":101,"name":"Nyhde","steam_id":76561198012771416,"connected_time":6391000000000,"state":"active","ping":87},{"user_id":197,"name":"El_Kommadante","steam_id":76561198079551685,"connected_time":603000000000,"state":"active","ping":84},{"user_id":198,"name":"Professional PP Rater","steam_id":76561198393134915,"connected_time":572000000000,"state":"active","ping":72},{"user_id":80,"name":"Truskawka","steam_id":76561198855163602,"connected_time":7312000000000,"state":"active","ping":62},{"user_id":134,"name":"chrzƒÖszcz","steam_id":76561198358887237,"connected_time":5051000000000,"state":"active","ping":64},{"user_id":81,"name":"gRnwld","steam_id":76561198004027910,"connected_time":7309000000000,"state":"active","ping":55},{"user_id":199,"name":"Qdarks","steam_id":76561198013391340,"connected_time":263000000000,"state":"active","ping":148},{"user_id":189,"name":"ÍßÅ‡ºíXenon‡ºíÍßÇ","steam_id":76561198120502313,"connected_time":1650000000000,"state":"active","ping":73},{"user_id":196,"name":"Grekofun","steam_id":76561198758029808,"connected_time":1025000000000,"state":"active","ping":72},{"user_id":167,"name":"Suvis","steam_id":76561198153048602,"connected_time":3250000000000,"state":"active","ping":85},{"user_id":177,"name":"disposablesuperbread","steam_id":76561199074703607,"connected_time":2440000000000,"state":"active","ping":68},{"user_id":184,"name":"Julen","steam_id":76561198371879846,"connected_time":1752000000000,"state":"active","ping":90},{"user_id":185,"name":"Random_Deutschbag","steam_id":76561199129218371,"connected_time":1716000000000,"state":"active","ping":58},{"user_id":186,"name":"Sham!","steam_id":76561198050434275,"connected_time":1695000000000,"state":"active","ping":51},{"user_id":172,"name":"BD[PL]","steam_id":76561198115995871,"connected_time":2905000000000,"state":"active","ping":81},{"user_id":187,"name":"Creamy","steam_id":76561198063907478,"connected_time":1685000000000,"state":"active","ping":71},{"user_id":194,"name":"Flostro","steam_id":76561198259793697,"connected_time":1140000000000,"state":"active","ping":52},{"user_id":178,"name":"Spaenny","steam_id":76561198035850165,"connected_time":2380000000000,"state":"active","ping":59},{"user_id":202,"name":"robbie","steam_id":76561198299408233,"connected_time":117000000000,"state":"active","ping":84},{"user_id":176,"name":"Commander DM","steam_id":76561198059236770,"connected_time":2720000000000,"state":"active","ping":65},{"user_id":188,"name":"gneeda","steam_id":76561198147249160,"connected_time":1678000000000,"state":"active","ping":102},{"user_id":200,"name":"jge","steam_id":76561198123186387,"connected_time":249000000000,"state":"active","ping":54},{"user_id":193,"name":"Spy is Sapping my Sandwich","steam_id":76561198011840096,"connected_time":1263000000000,"state":"active","ping":74},{"user_id":166,"name":"Saul Goodman","steam_id":76561198990276564,"connected_time":3275000000000,"state":"active","ping":88}]},{"server_id":308,"name":"Uncletopia | Frankfurt | 3 | All Maps","name_short":"frk-3","host":"frk-1.de.uncletopia.com","port":27035,"enabled":true,"region":"eu","cc":"de","latitude":50.110924,"longitude":8.682127,"reserved":0,"last_update":"0001-01-01T00:00:00Z","name_a2s":"Uncletopia | Frankfurt | 3 | All Maps","protocol":17,"map":"ctf_turbine","folder":"tf","game":"Team Fortress","app_id":440,"player_count":0,"max_players":24,"Bots":0,"server_type":"Dedicated","server_os":"Linux","password":true,"vac":true,"version":"7961495","steam_id":85568392924504274,"keywords":["ctf","nocrits","nodmgspread","uncletopia"],"game_id":440,"stv_port":27036,"stv_name":"Uncletopia | Frankfurt | 3 | All Maps | STV","players":null},{"server_id":309,"name":"Uncletopia | Frankfurt | 4 | All Maps","name_short":"frk-4","host":"frk-1.de.uncletopia.com","port":27045,"enabled":true,"region":"eu","cc":"de","latitude":50.110924,"longitude":8.682127,"reserved":0,"last_update":"0001-01-01T00:00:00Z","name_a2s":"Uncletopia | Frankfurt | 4 | All Maps","protocol":17,"map":"cp_process_final","folder":"tf","game":"Team Fortress","app_id":440,"player_count":24,"max_players":24,"Bots":0,"server_type":"Dedicated","server_os":"Linux","password":true,"vac":true,"version":"7961495","steam_id":85568392924504275,"keywords":["cp","nocrits","nodmgspread","uncletopia"],"game_id":440,"stv_port":27046,"stv_name":"Uncletopia | Frankfurt | 4 | All Maps | STV","players":[{"user_id":41,"name":"Henry Fonda","steam_id":76561199378865926,"connected_time":4470000000000,"state":"active","ping":90},{"user_id":76,"name":"static","steam_id":76561198836825741,"connected_time":3332000000000,"state":"active","ping":62},{"user_id":125,"name":"mt","steam_id":76561197961319303,"connected_time":676000000000,"state":"active","ping":47},{"user_id":123,"name":"[SQ UA] MartianDill","steam_id":76561198405382822,"connected_time":699000000000,"state":"active","ping":74},{"user_id":130,"name":"im officially cancer free :D","steam_id":76561199201206556,"connected_time":185000000000,"state":"active","ping":76},{"user_id":72,"name":"AestheticalZ","steam_id":76561198269554197,"connected_time":3578000000000,"state":"active","ping":63},{"user_id":114,"name":"Kassa","steam_id":76561197989889453,"connected_time":1417000000000,"state":"active","ping":62},{"user_id":128,"name":"Mr. Masturbeast","steam_id":76561198942024930,"connected_time":252000000000,"state":"active","ping":102},{"user_id":129,"name":"Xx_EpicGaymer_xX","steam_id":76561198846784757,"connected_time":236000000000,"state":"active","ping":84},{"user_id":103,"name":"ivanhus_","steam_id":76561199048134719,"connected_time":2270000000000,"state":"active","ping":96},{"user_id":131,"name":"Hejko","steam_id":76561198963293449,"connected_time":181000000000,"state":"active","ping":65},{"user_id":132,"name":"hisham","steam_id":76561198414437290,"connected_time":176000000000,"state":"active","ping":113},{"user_id":102,"name":"clouds","steam_id":76561198111134021,"connected_time":2283000000000,"state":"active","ping":104},{"user_id":101,"name":"Plop_","steam_id":76561198112567921,"connected_time":2305000000000,"state":"active","ping":45},{"user_id":115,"name":"mp1mp2mp3","steam_id":76561198088967665,"connected_time":1374000000000,"state":"active","ping":100},{"user_id":110,"name":"Bonkie","steam_id":76561198205701441,"connected_time":1483000000000,"state":"active","ping":61},{"user_id":106,"name":"HelwiiHill","steam_id":76561198066730552,"connected_time":1512000000000,"state":"active","ping":87},{"user_id":119,"name":"Dragon","steam_id":76561198163255365,"connected_time":1011000000000,"state":"active","ping":100},{"user_id":113,"name":"chewy baka","steam_id":76561198452111945,"connected_time":1460000000000,"state":"active","ping":60},{"user_id":91,"name":"Welder","steam_id":76561198355300561,"connected_time":2727000000000,"state":"active","ping":69},{"user_id":126,"name":"f√©nix","steam_id":76561198083199151,"connected_time":319000000000,"state":"active","ping":62},{"user_id":111,"name":"CAR DOOR","steam_id":76561198055283295,"connected_time":1478000000000,"state":"active","ping":45},{"user_id":112,"name":"Nickel","steam_id":76561199037745941,"connected_time":1475000000000,"state":"active","ping":138},{"user_id":96,"name":"NNH.—á—ë –≤—ã","steam_id":76561198275235668,"connected_time":2364000000000,"state":"active","ping":125}]},{"server_id":310,"name":"Uncletopia | Frankfurt | 5 | All Maps","name_short":"frk-5","host":"frk-1.de.uncletopia.com","port":27055,"enabled":true,"region":"eu","cc":"de","latitude":50.110924,"longitude":8.682127,"reserved":0,"last_update":"0001-01-01T00:00:00Z","name_a2s":"Uncletopia | Frankfurt | 5 | All Maps","protocol":17,"map":"cp_mossrock","folder":"tf","game":"Team Fortress","app_id":440,"player_count":24,"max_players":24,"Bots":0,"server_type":"Dedicated","server_os":"Linux","password":true,"vac":true,"version":"7961495","steam_id":85568392924504277,"keywords":["cp","nocrits","nodmgspread","uncletopia"],"game_id":440,"stv_port":27056,"stv_name":"Uncletopia | Frankfurt | 5 | All Maps | STV","players":[{"user_id":176,"name":"Gugu","steam_id":76561198161822358,"connected_time":881000000000,"state":"active","ping":59},{"user_id":181,"name":"ehehehehehhe","steam_id":76561198044502435,"connected_time":737000000000,"state":"active","ping":82},{"user_id":145,"name":"Unseen","steam_id":76561198154670360,"connected_time":3080000000000,"state":"active","ping":81},{"user_id":174,"name":"HE TPAXAH","steam_id":76561198115779730,"connected_time":1323000000000,"state":"active","ping":79},{"user_id":164,"name":"Lordware","steam_id":76561198022011299,"connected_time":2115000000000,"state":"active","ping":87},{"user_id":178,"name":"Gruset","steam_id":76561198327512432,"connected_time":762000000000,"state":"active","ping":77},{"user_id":172,"name":"BlinkedUp","steam_id":76561198249985618,"connected_time":1418000000000,"state":"active","ping":63},{"user_id":169,"name":"–Ø–ù –≠–§–†–ò–ö","steam_id":76561198083849136,"connected_time":1547000000000,"state":"active","ping":63},{"user_id":179,"name":"s a i","steam_id":76561197970379754,"connected_time":754000000000,"state":"active","ping":55},{"user_id":161,"name":"roblan11","steam_id":76561198066839258,"connected_time":2153000000000,"state":"active","ping":46},{"user_id":187,"name":"MagicGnome","steam_id":76561198361200264,"connected_time":699000000000,"state":"active","ping":61},{"user_id":155,"name":"BUREK od Sira","steam_id":76561198092589818,"connected_time":2431000000000,"state":"active","ping":63},{"user_id":162,"name":"Winters Fall","steam_id":76561198303707290,"connected_time":2151000000000,"state":"active","ping":68},{"user_id":138,"name":"sex toilet","steam_id":76561198412197820,"connected_time":3423000000000,"state":"active","ping":82},{"user_id":158,"name":"joachym","steam_id":76561198428579761,"connected_time":2238000000000,"state":"active","ping":67},{"user_id":116,"name":"SuntanPikachu","steam_id":76561198121242476,"connected_time":4276000000000,"state":"active","ping":70},{"user_id":150,"name":"Skatnaset","steam_id":76561198298457353,"connected_time":2869000000000,"state":"active","ping":79},{"user_id":177,"name":"Sky Tree","steam_id":76561198027103242,"connected_time":864000000000,"state":"active","ping":123},{"user_id":180,"name":"DrExplosive","steam_id":76561198063678579,"connected_time":753000000000,"state":"active","ping":50},{"user_id":167,"name":"mge brother","steam_id":76561198996092998,"connected_time":1866000000000,"state":"active","ping":87},{"user_id":188,"name":"i stole 3600 megatons of cocain","steam_id":76561199109194825,"connected_time":692000000000,"state":"active","ping":92},{"user_id":168,"name":"AleXandriX","steam_id":76561198035203950,"connected_time":1630000000000,"state":"active","ping":62},{"user_id":170,"name":"jonathan","steam_id":76561198076107263,"connected_time":1515000000000,"state":"active","ping":52},{"user_id":173,"name":"–ü–æ–ª–∫–æ–≤–Ω–∏–∫–ö–∞–ø—É—Å—Ç\ufffd","steam_id":76561198127253183,"connected_time":1417000000000,"state":"active","ping":65}]},{"server_id":311,"name":"Uncletopia | Frankfurt | 6 | All Maps","name_short":"frk-6","host":"frk-1.de.uncletopia.com","port":27065,"enabled":true,"region":"eu","cc":"de","latitude":50.110924,"longitude":8.682127,"reserved":0,"last_update":"0001-01-01T00:00:00Z","name_a2s":"Uncletopia | Frankfurt | 6 | All Maps","protocol":17,"map":"koth_cascade","folder":"tf","game":"Team Fortress","app_id":440,"player_count":0,"max_players":24,"Bots":0,"server_type":"Dedicated","server_os":"Linux","password":true,"vac":true,"version":"7961495","steam_id":85568392924504278,"keywords":["cp","nocrits","nodmgspread","uncletopia"],"game_id":440,"stv_port":27066,"stv_name":"Uncletopia | Frankfurt | 6 | All Maps | STV","players":null},{"server_id":23,"name":"Uncletopia | Frankfurt | 7 | Stopwatch Beta","name_short":"frk-7","host":"frk-1.de.uncletopia.com","port":27075,"enabled":true,"region":"eu","cc":"de","latitude":50.110924,"longitude":8.682127,"reserved":0,"last_update":"0001-01-01T00:00:00Z","name_a2s":"Uncletopia | Frankfurt | 7 | Stopwatch Beta","protocol":17,"map":"koth_cascade","folder":"tf","game":"Team Fortress","app_id":440,"player_count":0,"max_players":24,"Bots":0,"server_type":"Dedicated","server_os":"Linux","password":true,"vac":true,"version":"7961495","steam_id":85568392924742827,"keywords":["cp","nocrits","nodmgspread","uncletopia"],"game_id":440,"stv_port":27076,"stv_name":"Uncletopia | Frankfurt | 7 | Stopwatch Beta | STV","players":null},{"server_id":24,"name":"Uncletopia | Frankfurt | 8 | Community","name_short":"frk-8","host":"frk-1.de.uncletopia.com","port":27085,"enabled":true,"region":"eu","cc":"de","latitude":50.110924,"longitude":8.682127,"reserved":0,"last_update":"0001-01-01T00:00:00Z","name_a2s":"Uncletopia | Frankfurt | 8 | Community","protocol":17,"map":"workshop/cp_indulge.ugc528106646","folder":"tf","game":"Team Fortress","app_id":440,"player_count":0,"max_players":24,"Bots":0,"server_type":"Dedicated","server_os":"Linux","password":true,"vac":true,"version":"7961495","steam_id":85568392924742828,"keywords":["cp","nocrits","nodmgspread","uncletopia"],"game_id":440,"stv_port":27086,"stv_name":"Uncletopia | Frankfurt | 8 | Community | STV","players":null},{"server_id":202,"name":"Uncletopia | Hong Kong | 1 | All Maps","name_short":"hgk-1","host":"hgk-1.hk.uncletopia.com","port":27015,"enabled":true,"region":"asia","cc":"hk","latitude":22.302711,"longitude":114.177216,"reserved":0,"last_update":"0001-01-01T00:00:00Z","name_a2s":"Uncletopia | Hong Kong | 1 | All Maps","protocol":17,"map":"pl_thundermountain","folder":"tf","game":"Team Fortress","app_id":440,"player_count":24,"max_players":24,"Bots":0,"server_type":"Dedicated","server_os":"Linux","password":true,"vac":true,"version":"7961495","steam_id":85568392924494504,"keywords":["nocrits","nodmgspread","payload","uncletopia"],"game_id":440,"stv_port":27016,"stv_name":"Uncletopia | Hong Kong | 1 | All Maps | STV","players":[{"user_id":304,"name":"ÊØç„ÅÆËÇâÂõ£Â≠ê@hao123.com","steam_id":76561198069561896,"connected_time":2252000000000,"state":"active","ping":44},{"user_id":272,"name":"Weecasca","steam_id":76561198358138376,"connected_time":6981000000000,"state":"active","ping":94},{"user_id":321,"name":"lsf","steam_id":76561198095278714,"connected_time":1114000000000,"state":"active","ping":43},{"user_id":330,"name":"salami üêß","steam_id":76561198306834480,"connected_time":98000000000,"state":"active","ping":94},{"user_id":318,"name":"Michael Scott","steam_id":76561198023082794,"connected_time":1553000000000,"state":"active","ping":54},{"user_id":324,"name":"screaming sniper","steam_id":76561199085568674,"connected_time":927000000000,"state":"active","ping":69},{"user_id":274,"name":"(1)17","steam_id":76561198113401862,"connected_time":6530000000000,"state":"active","ping":178},{"user_id":102,"name":"silverhouse7","steam_id":76561198349634906,"connected_time":20306000000000,"state":"active","ping":67},{"user_id":327,"name":"mirror","steam_id":76561199019601193,"connected_time":264000000000,"state":"active","ping":96},{"user_id":288,"name":"Samoyed","steam_id":76561198299150410,"connected_time":3570000000000,"state":"active","ping":77},{"user_id":222,"name":"nefarious nigel","steam_id":76561198055553140,"connected_time":9804000000000,"state":"active","ping":77},{"user_id":313,"name":"TomProPlayer","steam_id":76561199223292521,"connected_time":2155000000000,"state":"active","ping":74},{"user_id":216,"name":"Stewb","steam_id":76561198131423270,"connected_time":10496000000000,"state":"active","ping":103},{"user_id":325,"name":"nhatminhvn.2008@gmail.com","steam_id":76561198413116920,"connected_time":919000000000,"state":"active","ping":87},{"user_id":280,"name":"Ïø†ÌÇ§","steam_id":76561197997220367,"connected_time":5311000000000,"state":"active","ping":55},{"user_id":320,"name":"Kairos","steam_id":76561198079927520,"connected_time":1368000000000,"state":"active","ping":75},{"user_id":323,"name":"Othopeus","steam_id":76561198283534382,"connected_time":1043000000000,"state":"active","ping":68},{"user_id":326,"name":"Spider Dog","steam_id":76561198403834864,"connected_time":387000000000,"state":"active","ping":94},{"user_id":312,"name":"17","steam_id":76561198241530712,"connected_time":2189000000000,"state":"active","ping":96},{"user_id":283,"name":"toad","steam_id":76561198082199290,"connected_time":4678000000000,"state":"active","ping":63},{"user_id":302,"name":"Wx","steam_id":76561199217780897,"connected_time":2599000000000,"state":"active","ping":121},{"user_id":308,"name":"Hay","steam_id":76561199438952901,"connected_time":2230000000000,"state":"active","ping":56},{"user_id":285,"name":"Alan The Annihilator","steam_id":76561198346128694,"connected_time":4631000000000,"state":"active","ping":100},{"user_id":264,"name":"Pillboi","steam_id":76561198011172886,"connected_time":7346000000000,"state":"active","ping":44}]},{"server_id":1,"name":"Uncletopia | Los Angeles | 1 | All Maps","name_short":"lax-1","host":"lax-1.us.uncletopia.com","port":27015,"enabled":true,"region":"us-west","cc":"us","latitude":33.94279,"longitude":-118.41004,"reserved":0,"last_update":"0001-01-01T00:00:00Z","name_a2s":"Uncletopia | Los Angeles | 1 | All Maps","protocol":17,"map":"cp_mountainlab","folder":"tf","game":"Team Fortress","app_id":440,"player_count":0,"max_players":24,"Bots":0,"server_type":"Dedicated","server_os":"Linux","password":true,"vac":true,"version":"7961495","steam_id":85568392924469991,"keywords":["cp","nocrits","nodmgspread","uncletopia"],"game_id":440,"stv_port":27016,"stv_name":"Uncletopia | Los Angeles | 1 | All Maps | STV","players":null},{"server_id":112,"name":"Uncletopia | Los Angeles | 2 | All Maps","name_short":"lax-2","host":"lax-1.us.uncletopia.com","port":27025,"enabled":true,"region":"us-west","cc":"us","latitude":33.94279,"longitude":-118.41004,"reserved":0,"last_update":"0001-01-01T00:00:00Z","name_a2s":"Uncletopia | Los Angeles | 2 | All Maps","protocol":17,"map":"pl_borneo","folder":"tf","game":"Team Fortress","app_id":440,"player_count":0,"max_players":24,"Bots":0,"server_type":"Dedicated","server_os":"Linux","password":true,"vac":true,"version":"7961495","steam_id":85568392924469992,"keywords":["nocrits","nodmgspread","payload","uncletopia"],"game_id":440,"stv_port":27026,"stv_name":"Uncletopia | Los Angeles | 2 | All Maps | STV","players":null},{"server_id":324,"name":"Uncletopia | Los Angeles | 3 | All Maps","name_short":"lax-3","host":"lax-1.us.uncletopia.com","port":27035,"enabled":true,"region":"us-west","cc":"us","latitude":33.94279,"longitude":-118.41004,"reserved":0,"last_update":"0001-01-01T00:00:00Z","name_a2s":"Uncletopia | Los Angeles | 3 | All Maps","protocol":17,"map":"cp_process_final","folder":"tf","game":"Team Fortress","app_id":440,"player_count":0,"max_players":24,"Bots":0,"server_type":"Dedicated","server_os":"Linux","password":true,"vac":true,"version":"7961495","steam_id":85568392924510198,"keywords":["cp","nocrits","nodmgspread","uncletopia"],"game_id":440,"stv_port":27036,"stv_name":"Uncletopia | Los Angeles | 3 | All Maps | STV","players":null},{"server_id":25,"name":"Uncletopia | Los Angeles | 4 | Stopwatch Beta","name_short":"lax-4","host":"lax-1.us.uncletopia.com","port":27045,"enabled":true,"region":"us-west","cc":"us","latitude":33.94279,"longitude":-118.41004,"reserved":0,"last_update":"0001-01-01T00:00:00Z","name_a2s":"Uncletopia | Los Angeles | 4 | Stopwatch Beta","protocol":17,"map":"pl_upward","folder":"tf","game":"Team Fortress","app_id":440,"player_count":0,"max_players":24,"Bots":0,"server_type":"Dedicated","server_os":"Linux","password":true,"vac":true,"version":"7961495","steam_id":85568392924510199,"keywords":["nocrits","nodmgspread","payload","uncletopia"],"game_id":440,"stv_port":27046,"stv_name":"Uncletopia | Los Angeles | 4 | Stopwatch Beta | STV","players":null},{"server_id":11,"name":"Uncletopia | London | 1 | All Maps","name_short":"lon-1","host":"lon-1.uk.uncletopia.com","port":27015,"enabled":true,"region":"eu","cc":"gb","latitude":51.509865,"longitude":-0.118092,"reserved":0,"last_update":"0001-01-01T00:00:00Z","name_a2s":"Uncletopia | London | 1 | All Maps","protocol":17,"map":"pl_snowycoast","folder":"tf","game":"Team Fortress","app_id":440,"player_count":23,"max_players":24,"Bots":0,"server_type":"Dedicated","server_os":"Linux","password":true,"vac":true,"version":"7961495","steam_id":85568392924367362,"keywords":["nocrits","nodmgspread","payload","uncletopia"],"game_id":440,"stv_port":27016,"stv_name":"Uncletopia | London | 1 | All Maps | STV","players":[{"user_id":147,"name":"WonderOfU","steam_id":76561199172036471,"connected_time":154000000000,"state":"active","ping":57},{"user_id":135,"name":"Joy","steam_id":76561198155314925,"connected_time":912000000000,"state":"active","ping":59},{"user_id":110,"name":"Bluth Banana","steam_id":76561197997642178,"connected_time":2604000000000,"state":"active","ping":66},{"user_id":139,"name":"Vitamin Weee","steam_id":76561199183937747,"connected_time":593000000000,"state":"active","ping":96},{"user_id":142,"name":"KnugenIV","steam_id":76561198127091993,"connected_time":270000000000,"state":"active","ping":61},{"user_id":74,"name":"Rai_to","steam_id":76561199013720618,"connected_time":5335000000000,"state":"active","ping":84},{"user_id":72,"name":"Ullr","steam_id":76561198140547483,"connected_time":5897000000000,"state":"active","ping":45},{"user_id":148,"name":"howabe","steam_id":76561197996486818,"connected_time":138000000000,"state":"active","ping":58},{"user_id":114,"name":"vanillabarrel","steam_id":76561199242251815,"connected_time":2411000000000,"state":"active","ping":73},{"user_id":126,"name":"Average Medic Enjoyer","steam_id":76561198048867302,"connected_time":1657000000000,"state":"active","ping":62},{"user_id":152,"name":"Enter new website now!","steam_id":76561198143614322,"connected_time":70000000000,"state":"active","ping":57},{"user_id":128,"name":"Kahvi","steam_id":76561198723244199,"connected_time":1119000000000,"state":"active","ping":75},{"user_id":143,"name":"eon","steam_id":76561197971360276,"connected_time":176000000000,"state":"active","ping":69},{"user_id":144,"name":"Haha?","steam_id":76561198056882245,"connected_time":172000000000,"state":"active","ping":31},{"user_id":149,"name":"ashley","steam_id":76561198448551449,"connected_time":136000000000,"state":"active","ping":30},{"user_id":151,"name":"kilo","steam_id":76561198015641339,"connected_time":73000000000,"state":"active","ping":86},{"user_id":146,"name":"Princess Fuzz","steam_id":76561198025783000,"connected_time":159000000000,"state":"active","ping":35},{"user_id":77,"name":"Grillem Dafoe","steam_id":76561198306874574,"connected_time":5284000000000,"state":"active","ping":64},{"user_id":150,"name":"scrunt","steam_id":76561198128250460,"connected_time":87000000000,"state":"active","ping":110},{"user_id":133,"name":"Fat Pigeon","steam_id":76561198817940142,"connected_time":947000000000,"state":"active","ping":53},{"user_id":108,"name":"RuinLucky","steam_id":76561199481172481,"connected_time":2875000000000,"state":"active","ping":154},{"user_id":81,"name":"Virgil","steam_id":76561198248786778,"connected_time":4874000000000,"state":"active","ping":119},{"user_id":145,"name":"Tuc","steam_id":76561198088975546,"connected_time":170000000000,"state":"active","ping":84}]},{"server_id":114,"name":"Uncletopia | London | 2 | All Maps","name_short":"lon-2","host":"lon-1.uk.uncletopia.com","port":27025,"enabled":true,"region":"eu","cc":"gb","latitude":51.509865,"longitude":-0.118092,"reserved":0,"last_update":"0001-01-01T00:00:00Z","name_a2s":"Uncletopia | London | 2 | All Maps","protocol":17,"map":"koth_viaduct","folder":"tf","game":"Team Fortress","app_id":440,"player_count":5,"max_players":24,"Bots":0,"server_type":"Dedicated","server_os":"Linux","password":true,"vac":true,"version":"7961495","steam_id":85568392924470941,"keywords":["cp","nocrits","nodmgspread","uncletopia"],"game_id":440,"stv_port":27026,"stv_name":"Uncletopia | London | 2 | All Maps | STV","players":[{"user_id":18,"name":"Labomarcelo","steam_id":76561198211186473,"connected_time":578000000000,"state":"active","ping":78},{"user_id":16,"name":"The Spy from teamfortress 2","steam_id":76561198061332068,"connected_time":655000000000,"state":"active","ping":67},{"user_id":22,"name":"Purpurea","steam_id":76561198075376419,"connected_time":80000000000,"state":"active","ping":57},{"user_id":19,"name":"8 BALL ALCATRAZ","steam_id":76561198306663190,"connected_time":508000000000,"state":"active","ping":102},{"user_id":20,"name":"Glyphid","steam_id":76561198998832900,"connected_time":267000000000,"state":"active","ping":102}]},{"server_id":320,"name":"Uncletopia | London | 3 | All Maps","name_short":"lon-3","host":"lon-1.uk.uncletopia.com","port":27035,"enabled":true,"region":"eu","cc":"gb","latitude":51.509865,"longitude":-0.118092,"reserved":0,"last_update":"0001-01-01T00:00:00Z","name_a2s":"Uncletopia | London | 3 | All Maps","protocol":17,"map":"pl_swiftwater_final1","folder":"tf","game":"Team Fortress","app_id":440,"player_count":0,"max_players":24,"Bots":0,"server_type":"Dedicated","server_os":"Linux","password":true,"vac":true,"version":"7961495","steam_id":85568392924510192,"keywords":["nocrits","nodmgspread","payload","uncletopia"],"game_id":440,"stv_port":27036,"stv_name":"Uncletopia | London | 3 | All Maps | STV","players":null},{"server_id":321,"name":"Uncletopia | London | 4 | All Maps","name_short":"lon-4","host":"lon-1.uk.uncletopia.com","port":27045,"enabled":true,"region":"eu","cc":"gb","latitude":51.509865,"longitude":-0.118092,"reserved":0,"last_update":"0001-01-01T00:00:00Z","name_a2s":"Uncletopia | London | 4 | All Maps","protocol":17,"map":"pl_swiftwater_final1","folder":"tf","game":"Team Fortress","app_id":440,"player_count":24,"max_players":24,"Bots":0,"server_type":"Dedicated","server_os":"Linux","password":true,"vac":true,"version":"7961495","steam_id":85568392924510193,"keywords":["nocrits","nodmgspread","payload","uncletopia"],"game_id":440,"stv_port":27046,"stv_name":"Uncletopia | London | 4 | All Maps | STV","players":[{"user_id":7,"name":"georgeiscool3","steam_id":76561199116151412,"connected_time":5876000000000,"state":"active","ping":66},{"user_id":70,"name":"mr gaming","steam_id":76561198110103308,"connected_time":1242000000000,"state":"active","ping":47},{"user_id":74,"name":"Spinya","steam_id":76561198086653667,"connected_time":1137000000000,"state":"active","ping":57},{"user_id":77,"name":"Ljubi Te Brat . . .","steam_id":76561198054582971,"connected_time":365000000000,"state":"active","ping":85},{"user_id":64,"name":"Kkikok","steam_id":76561198055767709,"connected_time":1593000000000,"state":"active","ping":82},{"user_id":79,"name":"romaingallo","steam_id":76561198268112907,"connected_time":183000000000,"state":"active","ping":62},{"user_id":34,"name":"cactusj4","steam_id":76561199243398487,"connected_time":3231000000000,"state":"active","ping":64},{"user_id":75,"name":"Scrooge Mc Clunk","steam_id":76561198885945084,"connected_time":998000000000,"state":"active","ping":55},{"user_id":58,"name":"Delta Flowers ‚ô°","steam_id":76561198434811706,"connected_time":1797000000000,"state":"active","ping":44},{"user_id":76,"name":"JamesPepega","steam_id":76561198019156154,"connected_time":592000000000,"state":"active","ping":83},{"user_id":54,"name":"FlukeY","steam_id":76561198026137327,"connected_time":2337000000000,"state":"active","ping":60},{"user_id":72,"name":"c4ctus","steam_id":76561198925655488,"connected_time":1194000000000,"state":"active","ping":83},{"user_id":78,"name":"your_local_penguin","steam_id":76561199224954346,"connected_time":309000000000,"state":"active","ping":101},{"user_id":80,"name":"Dolcelatte","steam_id":76561198038501770,"connected_time":171000000000,"state":"active","ping":61},{"user_id":46,"name":"UltimateSlayer","steam_id":76561198384109309,"connected_time":2847000000000,"state":"active","ping":46},{"user_id":36,"name":"outlaw","steam_id":76561198323805289,"connected_time":3212000000000,"state":"active","ping":39},{"user_id":37,"name":"Suspicious Cabin","steam_id":76561198083261198,"connected_time":3173000000000,"state":"active","ping":64},{"user_id":68,"name":"TheArmyGuy","steam_id":76561198024821078,"connected_time":1331000000000,"state":"active","ping":55},{"user_id":67,"name":"[Dz| VOZO","steam_id":76561197999093652,"connected_time":1409000000000,"state":"active","ping":129},{"user_id":47,"name":"JoJo","steam_id":76561198067837685,"connected_time":2830000000000,"state":"active","ping":58},{"user_id":83,"name":"thorstianer","steam_id":76561199090304505,"connected_time":63000000000,"state":"active","ping":71},{"user_id":71,"name":"D0kai","steam_id":76561198389271720,"connected_time":1209000000000,"state":"active","ping":52},{"user_id":82,"name":"Niko","steam_id":76561199006295285,"connected_time":123000000000,"state":"active","ping":71},{"user_id":65,"name":"Wolfdad Duke","steam_id":76561197986442930,"connected_time":1588000000000,"state":"active","ping":61}]},{"server_id":21,"name":"Uncletopia | London | 5 | All Maps","name_short":"lon-5","host":"lon-1.uk.uncletopia.com","port":27055,"enabled":true,"region":"eu","cc":"gb","latitude":51.509865,"longitude":-0.118092,"reserved":0,"last_update":"0001-01-01T00:00:00Z","name_a2s":"Uncletopia | London | 5 | All Maps","protocol":17,"map":"pl_barnblitz","folder":"tf","game":"Team Fortress","app_id":440,"player_count":0,"max_players":24,"Bots":0,"server_type":"Dedicated","server_os":"Linux","password":true,"vac":true,"version":"7961495","steam_id":85568392924742829,"keywords":["nocrits","nodmgspread","payload","uncletopia"],"game_id":440,"stv_port":27056,"stv_name":"Uncletopia | London | 5 | All Maps | STV","players":null},{"server_id":22,"name":"Uncletopia | London | 6 | All Maps","name_short":"lon-6","host":"lon-1.uk.uncletopia.com","port":27065,"enabled":true,"region":"eu","cc":"gb","latitude":51.509865,"longitude":-0.118092,"reserved":0,"last_update":"0001-01-01T00:00:00Z","name_a2s":"Uncletopia | London | 6 | All Maps","protocol":17,"map":"koth_lakeside_final","folder":"tf","game":"Team Fortress","app_id":440,"player_count":23,"max_players":24,"Bots":0,"server_type":"Dedicated","server_os":"Linux","password":true,"vac":true,"version":"7961495","steam_id":85568392924742830,"keywords":["cp","nocrits","nodmgspread","uncletopia"],"game_id":440,"stv_port":27066,"stv_name":"Uncletopia | London | 6 | All Maps | STV","players":[{"user_id":131,"name":"Andy","steam_id":76561198046918834,"connected_time":159000000000,"state":"active","ping":71},{"user_id":129,"name":"TheSciencePerson","steam_id":76561198352592448,"connected_time":252000000000,"state":"active","ping":54},{"user_id":110,"name":"SparteonRage","steam_id":76561197963401834,"connected_time":1258000000000,"state":"active","ping":57},{"user_id":77,"name":"Ash","steam_id":76561198148738525,"connected_time":3851000000000,"state":"active","ping":103},{"user_id":43,"name":"xavier","steam_id":76561198076494034,"connected_time":6775000000000,"state":"active","ping":49},{"user_id":80,"name":"antonio.jurjevic@brazzers.hr","steam_id":76561198179392402,"connected_time":3158000000000,"state":"active","ping":60},{"user_id":122,"name":"Craig Crusade","steam_id":76561199225918086,"connected_time":809000000000,"state":"active","ping":57},{"user_id":100,"name":"juicy","steam_id":76561198127264835,"connected_time":1995000000000,"state":"active","ping":45},{"user_id":126,"name":"Strafely","steam_id":76561199242567438,"connected_time":476000000000,"state":"active","ping":65},{"user_id":125,"name":"you can go anywhere","steam_id":76561199085984801,"connected_time":502000000000,"state":"active","ping":60},{"user_id":132,"name":"Hugee  „Åè„Ç≥:ÂΩ°","steam_id":76561198245495152,"connected_time":125000000000,"state":"active","ping":60},{"user_id":117,"name":"m909","steam_id":76561198279621400,"connected_time":888000000000,"state":"active","ping":86},{"user_id":130,"name":"Cotton Eye Joe","steam_id":76561198080594207,"connected_time":189000000000,"state":"active","ping":53},{"user_id":85,"name":"fronin","steam_id":76561198189553021,"connected_time":3108000000000,"state":"active","ping":75},{"user_id":118,"name":"kluri","steam_id":76561198084518962,"connected_time":870000000000,"state":"active","ping":79},{"user_id":95,"name":"Robik575","steam_id":76561198058506229,"connected_time":2330000000000,"state":"active","ping":92},{"user_id":33,"name":"‚ôÇ Animan ‚ôÇ Studios ‚ôÇ","steam_id":76561198308302932,"connected_time":7234000000000,"state":"active","ping":98},{"user_id":123,"name":"Real (Real)","steam_id":76561198323425034,"connected_time":736000000000,"state":"active","ping":86},{"user_id":124,"name":"Syd","steam_id":76561198020515027,"connected_time":660000000000,"state":"active","ping":78},{"user_id":120,"name":"collin","steam_id":76561198067030681,"connected_time":865000000000,"state":"active","ping":46},{"user_id":45,"name":"hyvakii705","steam_id":76561198086630552,"connected_time":6510000000000,"state":"active","ping":96},{"user_id":121,"name":"Andrea","steam_id":76561199487380678,"connected_time":862000000000,"state":"active","ping":100},{"user_id":50,"name":"gagalak","steam_id":76561198089979108,"connected_time":6418000000000,"state":"active","ping":105}]},{"server_id":40,"name":"Uncletopia | London | 7 | No Payload","name_short":"lon-7","host":"lon-1.uk.uncletopia.com","port":27075,"enabled":true,"region":"eu","cc":"gb","latitude":51.509865,"longitude":-0.118092,"reserved":0,"last_update":"0001-01-01T00:00:00Z","name_a2s":"Uncletopia | London | 7 | No Payload","protocol":17,"map":"pl_pier","folder":"tf","game":"Team Fortress","app_id":440,"player_count":22,"max_players":24,"Bots":0,"server_type":"Dedicated","server_os":"Linux","password":true,"vac":true,"version":"7961495","steam_id":85568392924964314,"keywords":["nocrits","nodmgspread","payload","uncletopia"],"game_id":440,"stv_port":27076,"stv_name":"Uncletopia | London | 7 | No Payload | STV","players":[{"user_id":5,"name":"sushii","steam_id":76561198297987372,"connected_time":2013000000000,"state":"active","ping":56},{"user_id":6,"name":"Cold Heart","steam_id":76561198109838745,"connected_time":1924000000000,"state":"active","ping":62},{"user_id":12,"name":"PapaMaxy","steam_id":76561198256362726,"connected_time":1517000000000,"state":"active","ping":75},{"user_id":18,"name":"Bacon","steam_id":76561198207625063,"connected_time":1159000000000,"state":"active","ping":153},{"user_id":9,"name":"DiamondArcade","steam_id":76561199367737652,"connected_time":1798000000000,"state":"active","ping":69},{"user_id":49,"name":"Chiken | F","steam_id":76561198196440701,"connected_time":264000000000,"state":"active","ping":72},{"user_id":14,"name":"–î–µ–Ω–∏—Å –ë–∞–∑—É–∫–∞","steam_id":76561198835849082,"connected_time":1403000000000,"state":"active","ping":89},{"user_id":16,"name":"WHUSSKEY","steam_id":76561198137827441,"connected_time":1279000000000,"state":"active","ping":78},{"user_id":44,"name":"A fish and sea","steam_id":76561198194745827,"connected_time":746000000000,"state":"active","ping":61},{"user_id":20,"name":"1HitPoint","steam_id":76561198263295245,"connected_time":1127000000000,"state":"active","ping":56},{"user_id":21,"name":"germinator","steam_id":76561199387893648,"connected_time":1125000000000,"state":"active","ping":106},{"user_id":52,"name":"mod300000","steam_id":76561199166823105,"connected_time":110000000000,"state":"active","ping":48},{"user_id":47,"name":"xpitipitx","steam_id":76561198343333412,"connected_time":382000000000,"state":"active","ping":91},{"user_id":45,"name":"ff:ff:ff:ff:ff:ff","steam_id":76561198072122983,"connected_time":618000000000,"state":"active","ping":80},{"user_id":50,"name":"RedPyro2009","steam_id":76561198935824363,"connected_time":206000000000,"state":"active","ping":66},{"user_id":29,"name":"Pomson 6000","steam_id":76561198344588858,"connected_time":946000000000,"state":"active","ping":56},{"user_id":54,"name":"Borat","steam_id":76561198122226417,"connected_time":86000000000,"state":"active","ping":44},{"user_id":31,"name":"quickfast","steam_id":76561199438900919,"connected_time":937000000000,"state":"active","ping":43},{"user_id":32,"name":"bp","steam_id":76561198353083018,"connected_time":933000000000,"state":"active","ping":51},{"user_id":39,"name":"Penis Contortionist","steam_id":76561198073663784,"connected_time":839000000000,"state":"active","ping":40},{"user_id":46,"name":"Incomus","steam_id":76561198058342600,"connected_time":603000000000,"state":"active","ping":91},{"user_id":41,"name":"jill sandwich","steam_id":76561198075068529,"connected_time":819000000000,"state":"active","ping":60}]},{"server_id":41,"name":"Uncletopia | London | 8 | Community","name_short":"lon-8","host":"lon-1.uk.uncletopia.com","port":27085,"enabled":true,"region":"eu","cc":"gb","latitude":51.509865,"longitude":-0.118092,"reserved":0,"last_update":"0001-01-01T00:00:00Z","name_a2s":"Uncletopia | London | 8 | Community","protocol":17,"map":"workshop/cp_overgrown_rc8.ugc503939302","folder":"tf","game":"Team Fortress","app_id":440,"player_count":0,"max_players":24,"Bots":0,"server_type":"Dedicated","server_os":"Linux","password":true,"vac":true,"version":"7961495","steam_id":85568392924964315,"keywords":["cp","nocrits","nodmgspread","uncletopia"],"game_id":440,"stv_port":27086,"stv_name":"Uncletopia | London | 8 | Community | STV","players":null},{"server_id":300,"name":"Uncletopia | Montr√©al | 1 | All Maps","name_short":"mtl-1","host":"mtl-1.ca.uncletopia.com","port":27015,"enabled":true,"region":"us-east","cc":"ca","latitude":45.50889,"longitude":-73.56167,"reserved":0,"last_update":"0001-01-01T00:00:00Z","name_a2s":"Uncletopia | Montr√©al | 1 | All Maps","protocol":17,"map":"pl_swiftwater_final1","folder":"tf","game":"Team Fortress","app_id":440,"player_count":0,"max_players":24,"Bots":0,"server_type":"Dedicated","server_os":"Linux","password":true,"vac":true,"version":"7961495","steam_id":85568392924500087,"keywords":["nocrits","nodmgspread","payload","uncletopia"],"game_id":440,"stv_port":27016,"stv_name":"Uncletopia | Montr√©al | 1 | All Maps | STV","players":null},{"server_id":301,"name":"Uncletopia | Montr√©al | 2 | All Maps","name_short":"mtl-2","host":"mtl-1.ca.uncletopia.com","port":27025,"enabled":true,"region":"us-east","cc":"ca","latitude":45.50889,"longitude":-73.56167,"reserved":0,"last_update":"0001-01-01T00:00:00Z","name_a2s":"Uncletopia | Montr√©al | 2 | All Maps","protocol":17,"map":"cp_dustbowl","folder":"tf","game":"Team Fortress","app_id":440,"player_count":0,"max_players":24,"Bots":0,"server_type":"Dedicated","server_os":"Linux","password":true,"vac":true,"version":"7961495","steam_id":85568392924500088,"keywords":["cp","nocrits","nodmgspread","uncletopia"],"game_id":440,"stv_port":27026,"stv_name":"Uncletopia | Montr√©al | 2 | All Maps | STV","players":null},{"server_id":302,"name":"Uncletopia | Montr√©al | 3 | All Maps","name_short":"mtl-3","host":"mtl-1.ca.uncletopia.com","port":27035,"enabled":true,"region":"us-east","cc":"ca","latitude":45.50889,"longitude":-73.56167,"reserved":0,"last_update":"0001-01-01T00:00:00Z","name_a2s":"Uncletopia | Montr√©al | 3 | All Maps","protocol":17,"map":"koth_cascade","folder":"tf","game":"Team Fortress","app_id":440,"player_count":0,"max_players":24,"Bots":0,"server_type":"Dedicated","server_os":"Linux","password":true,"vac":true,"version":"7961495","steam_id":85568392924500089,"keywords":["cp","nocrits","nodmgspread","uncletopia"],"game_id":440,"stv_port":27036,"stv_name":"Uncletopia | Montr√©al | 3 | All Maps | STV","players":null},{"server_id":303,"name":"Uncletopia | Montr√©al | 4 | No Payload","name_short":"mtl-4","host":"mtl-1.ca.uncletopia.com","port":27045,"enabled":true,"region":"us-east","cc":"ca","latitude":45.50889,"longitude":-73.56167,"reserved":0,"last_update":"0001-01-01T00:00:00Z","name_a2s":"Uncletopia | Montr√©al | 4 | No Payload","protocol":17,"map":"koth_lakeside_final","folder":"tf","game":"Team Fortress","app_id":440,"player_count":0,"max_players":24,"Bots":0,"server_type":"Dedicated","server_os":"Linux","password":true,"vac":true,"version":"7961495","steam_id":85568392924500090,"keywords":["cp","nocrits","nodmgspread","uncletopia"],"game_id":440,"stv_port":27046,"stv_name":"Uncletopia | Montr√©al | 4 | No Payload | STV","players":null},{"server_id":13,"name":"Uncletopia | New York City | 1 | All Maps","name_short":"nyc-1","host":"nyc-1.us.uncletopia.com","port":27015,"enabled":true,"region":"us-east","cc":"us","latitude":40.73061,"longitude":-73.93524,"reserved":0,"last_update":"0001-01-01T00:00:00Z","name_a2s":"Uncletopia | New York City | 1 | All Maps","protocol":17,"map":"cp_sunshine","folder":"tf","game":"Team Fortress","app_id":440,"player_count":0,"max_players":24,"Bots":0,"server_type":"Dedicated","server_os":"Linux","password":true,"vac":true,"version":"7961495","steam_id":85568392924469993,"keywords":["cp","nocrits","nodmgspread","uncletopia"],"game_id":440,"stv_port":27016,"stv_name":"Uncletopia | New York City | 1 | All Maps | STV","players":null},{"server_id":14,"name":"Uncletopia | New York City | 2 | All Maps","name_short":"nyc-2","host":"nyc-1.us.uncletopia.com","port":27025,"enabled":true,"region":"us-east","cc":"us","latitude":40.73061,"longitude":-73.93524,"reserved":0,"last_update":"0001-01-01T00:00:00Z","name_a2s":"Uncletopia | New York City | 2 | All Maps","protocol":17,"map":"pl_upward","folder":"tf","game":"Team Fortress","app_id":440,"player_count":0,"max_players":24,"Bots":0,"server_type":"Dedicated","server_os":"Linux","password":true,"vac":true,"version":"7961495","steam_id":85568392924469994,"keywords":["nocrits","nodmgspread","payload","uncletopia"],"game_id":440,"stv_port":27026,"stv_name":"Uncletopia | New York City | 2 | All Maps | STV","players":null},{"server_id":15,"name":"Uncletopia | New York City | 3 | Stopwatch Beta","name_short":"nyc-3","host":"nyc-1.us.uncletopia.com","port":27035,"enabled":true,"region":"us-east","cc":"us","latitude":40.73061,"longitude":-73.93524,"reserved":0,"last_update":"0001-01-01T00:00:00Z","name_a2s":"Uncletopia | New York City | 3 | Stopwatch Beta","protocol":17,"map":"cp_mountainlab","folder":"tf","game":"Team Fortress","app_id":440,"player_count":0,"max_players":24,"Bots":0,"server_type":"Dedicated","server_os":"Linux","password":true,"vac":true,"version":"7961495","steam_id":85568392924742820,"keywords":["cp","nocrits","nodmgspread","uncletopia"],"game_id":440,"stv_port":27036,"stv_name":"Uncletopia | New York City | 3 | Stopwatch Beta | STV","players":null},{"server_id":16,"name":"Uncletopia | New York City | 4 | Community","name_short":"nyc-4","host":"nyc-1.us.uncletopia.com","port":27045,"enabled":true,"region":"us-east","cc":"us","latitude":40.73061,"longitude":-73.93524,"reserved":0,"last_update":"0001-01-01T00:00:00Z","name_a2s":"Uncletopia | New York City | 4 | Community","protocol":17,"map":"koth_lakeside_final","folder":"tf","game":"Team Fortress","app_id":440,"player_count":0,"max_players":24,"Bots":0,"server_type":"Dedicated","server_os":"Linux","password":true,"vac":true,"version":"7961495","steam_id":85568392924742821,"keywords":["cp","nocrits","nodmgspread","uncletopia"],"game_id":440,"stv_port":27046,"stv_name":"Uncletopia | New York City | 4 | Community | STV","players":null},{"server_id":142,"name":"Uncletopia | S√£o Paulo | 1 | All Maps","name_short":"sao-1","host":"sao-1.br.uncletopia.com","port":27015,"enabled":true,"region":"sa","cc":"br","latitude":-23.533773,"longitude":-46.62529,"reserved":0,"last_update":"0001-01-01T00:00:00Z","name_a2s":"Uncletopia | S√£o Paulo | 1 | All Maps","protocol":17,"map":"koth_highpass","folder":"tf","game":"Team Fortress","app_id":440,"player_count":0,"max_players":24,"Bots":0,"server_type":"Dedicated","server_os":"Linux","password":true,"vac":true,"version":"7961495","steam_id":85568392924469996,"keywords":["cp","nocrits","nodmgspread","uncletopia"],"game_id":440,"stv_port":27016,"stv_name":"Uncletopia | S√£o Paulo | 1 | All Maps | STV","players":null},{"server_id":143,"name":"Uncletopia | S√£o Paulo | 2 | Community","name_short":"sao-2","host":"sao-2.br.uncletopia.com","port":27015,"enabled":true,"region":"sa","cc":"br","latitude":-23.533773,"longitude":-46.62529,"reserved":0,"last_update":"0001-01-01T00:00:00Z","name_a2s":"Uncletopia | S√£o Paulo | 2 | Community","protocol":17,"map":"cp_snakewater_final1","folder":"tf","game":"Team Fortress","app_id":440,"player_count":0,"max_players":24,"Bots":0,"server_type":"Dedicated","server_os":"Linux","password":true,"vac":true,"version":"7961495","steam_id":85568392924485349,"keywords":["cp","nocrits","nodmgspread","uncletopia"],"game_id":440,"stv_port":27016,"stv_name":"Uncletopia | S√£o Paulo | 2 | Community | STV","players":null},{"server_id":7,"name":"Uncletopia | Seattle | 1 | All Maps","name_short":"sea-1","host":"sea-1.us.uncletopia.com","port":27015,"enabled":true,"region":"us-west","cc":"us","latitude":47.608013,"longitude":-122.33517,"reserved":0,"last_update":"0001-01-01T00:00:00Z","name_a2s":"Uncletopia | Seattle | 1 | All Maps","protocol":17,"map":"koth_lakeside_final","folder":"tf","game":"Team Fortress","app_id":440,"player_count":0,"max_players":24,"Bots":0,"server_type":"Dedicated","server_os":"Linux","password":true,"vac":true,"version":"7961495","steam_id":85568392924469997,"keywords":["cp","nocrits","nodmgspread","uncletopia"],"game_id":440,"stv_port":27016,"stv_name":"Uncletopia | Seattle | 1 | All Maps | STV","players":null},{"server_id":119,"name":"Uncletopia | Seattle | 2 | All Maps","name_short":"sea-2","host":"sea-1.us.uncletopia.com","port":27025,"enabled":true,"region":"us-west","cc":"us","latitude":47.608013,"longitude":-122.33517,"reserved":0,"last_update":"0001-01-01T00:00:00Z","name_a2s":"Uncletopia | Seattle | 2 | All Maps","protocol":17,"map":"pl_upward","folder":"tf","game":"Team Fortress","app_id":440,"player_count":24,"max_players":24,"Bots":0,"server_type":"Dedicated","server_os":"Linux","password":true,"vac":true,"version":"7961495","steam_id":85568392924469998,"keywords":["nocrits","nodmgspread","payload","uncletopia"],"game_id":440,"stv_port":27026,"stv_name":"Uncletopia | Seattle | 2 | All Maps | STV","players":[{"user_id":25,"name":"summerlis","steam_id":76561198165324438,"connected_time":6190000000000,"state":"active","ping":61},{"user_id":90,"name":"Cream Cheese Man","steam_id":76561198229959588,"connected_time":1993000000000,"state":"active","ping":85},{"user_id":71,"name":"strabes","steam_id":76561197961480297,"connected_time":3211000000000,"state":"active","ping":75},{"user_id":102,"name":"Hope","steam_id":76561199182558088,"connected_time":1404000000000,"state":"active","ping":75},{"user_id":114,"name":"Feet Gangbang (Ascended)","steam_id":76561198873979109,"connected_time":894000000000,"state":"active","ping":55},{"user_id":103,"name":"dust | she/it","steam_id":76561198045218909,"connected_time":1365000000000,"state":"active","ping":39},{"user_id":105,"name":"Ventastega","steam_id":76561197999366317,"connected_time":1315000000000,"state":"active","ping":126},{"user_id":86,"name":"Paul Allen","steam_id":76561198036032168,"connected_time":2216000000000,"state":"active","ping":94},{"user_id":107,"name":"THE CUMEST LORD","steam_id":76561198061412592,"connected_time":1260000000000,"state":"active","ping":132},{"user_id":87,"name":"Purchase","steam_id":76561198821991700,"connected_time":2202000000000,"state":"active","ping":96},{"user_id":110,"name":"BobBallin","steam_id":76561198355299724,"connected_time":1107000000000,"state":"active","ping":66},{"user_id":77,"name":"I can‚Äôt believe its not butte","steam_id":76561199122875712,"connected_time":2902000000000,"state":"active","ping":143},{"user_id":79,"name":"Goose","steam_id":76561198036774894,"connected_time":2649000000000,"state":"active","ping":60},{"user_id":115,"name":"Bobby Dazzler È≠îÈêò","steam_id":76561198007405067,"connected_time":756000000000,"state":"active","ping":76},{"user_id":119,"name":"kasper","steam_id":76561198263271697,"connected_time":90000000000,"state":"active","ping":89},{"user_id":113,"name":"ùí•ùëúùìáùìâùìà","steam_id":76561198111878431,"connected_time":929000000000,"state":"active","ping":66},{"user_id":108,"name":"Rodgedan","steam_id":76561198226236524,"connected_time":1223000000000,"state":"active","ping":137},{"user_id":88,"name":"spy","steam_id":76561199062242958,"connected_time":2191000000000,"state":"active","ping":79},{"user_id":117,"name":"Headmouth","steam_id":76561198019789855,"connected_time":368000000000,"state":"active","ping":166},{"user_id":116,"name":"dillpickle","steam_id":76561198156957191,"connected_time":528000000000,"state":"active","ping":47},{"user_id":94,"name":"TheEmeraldDuck","steam_id":76561197999692032,"connected_time":1827000000000,"state":"active","ping":120},{"user_id":95,"name":"AllThatJazz","steam_id":76561198296914213,"connected_time":1805000000000,"state":"active","ping":131},{"user_id":99,"name":"The Last Thing","steam_id":76561198047192080,"connected_time":1636000000000,"state":"active","ping":127},{"user_id":112,"name":"Cooki","steam_id":76561198051705314,"connected_time":1073000000000,"state":"active","ping":118}]},{"server_id":406,"name":"Uncletopia | Seattle | 3 | Stopwatch Beta","name_short":"sea-3","host":"sea-1.us.uncletopia.com","port":27035,"enabled":true,"region":"us-west","cc":"us","latitude":47.608013,"longitude":-122.33517,"reserved":0,"last_update":"0001-01-01T00:00:00Z","name_a2s":"Uncletopia | Seattle | 3 | Stopwatch Beta","protocol":17,"map":"koth_lakeside_final","folder":"tf","game":"Team Fortress","app_id":440,"player_count":0,"max_players":24,"Bots":0,"server_type":"Dedicated","server_os":"Linux","password":true,"vac":true,"version":"7961495","steam_id":85568392924515217,"keywords":["cp","nocrits","nodmgspread","uncletopia"],"game_id":440,"stv_port":27036,"stv_name":"Uncletopia | Seattle | 3 | Stopwatch Beta | STV","players":null},{"server_id":17,"name":"Uncletopia | San Francisco | 1 | All Maps","name_short":"sfo-1","host":"sfo-1.us.uncletopia.com","port":27015,"enabled":true,"region":"us-west","cc":"us","latitude":37.77397,"longitude":-122.4313,"reserved":0,"last_update":"0001-01-01T00:00:00Z","name_a2s":"Uncletopia | San Francisco | 1 | All Maps","protocol":17,"map":"pl_snowycoast","folder":"tf","game":"Team Fortress","app_id":440,"player_count":0,"max_players":24,"Bots":0,"server_type":"Dedicated","server_os":"Linux","password":true,"vac":true,"version":"7961495","steam_id":85568392924469999,"keywords":["nocrits","nodmgspread","payload","uncletopia"],"game_id":440,"stv_port":27016,"stv_name":"Uncletopia | San Francisco | 1 | All Maps | STV","players":null},{"server_id":18,"name":"Uncletopia | San Francisco | 2 | All Maps","name_short":"sfo-2","host":"sfo-1.us.uncletopia.com","port":27025,"enabled":true,"region":"us-west","cc":"us","latitude":37.77397,"longitude":-122.4313,"reserved":0,"last_update":"0001-01-01T00:00:00Z","name_a2s":"Uncletopia | San Francisco | 2 | All Maps","protocol":17,"map":"cp_process_final","folder":"tf","game":"Team Fortress","app_id":440,"player_count":0,"max_players":24,"Bots":0,"server_type":"Dedicated","server_os":"Linux","password":true,"vac":true,"version":"7961495","steam_id":85568392924470000,"keywords":["cp","nocrits","nodmgspread","uncletopia"],"game_id":440,"stv_port":27026,"stv_name":"Uncletopia | San Francisco | 2 | All Maps | STV","players":null},{"server_id":19,"name":"Uncletopia | San Francisco | 3 | Stopwatch Beta","name_short":"sfo-3","host":"sfo-1.us.uncletopia.com","port":27035,"enabled":true,"region":"us-west","cc":"us","latitude":37.77397,"longitude":-122.4313,"reserved":0,"last_update":"0001-01-01T00:00:00Z","name_a2s":"Uncletopia | San Francisco | 3 | Stopwatch Beta","protocol":17,"map":"pl_borneo","folder":"tf","game":"Team Fortress","app_id":440,"player_count":0,"max_players":24,"Bots":0,"server_type":"Dedicated","server_os":"Linux","password":true,"vac":true,"version":"7961495","steam_id":85568392924742824,"keywords":["nocrits","nodmgspread","payload","uncletopia"],"game_id":440,"stv_port":27036,"stv_name":"Uncletopia | San Francisco | 3 | Stopwatch Beta | STV","players":null},{"server_id":20,"name":"Uncletopia | San Francisco | 4 | Community","name_short":"sfo-4","host":"sfo-1.us.uncletopia.com","port":27045,"enabled":true,"region":"us-west","cc":"us","latitude":37.77397,"longitude":-122.4313,"reserved":0,"last_update":"0001-01-01T00:00:00Z","name_a2s":"Uncletopia | San Francisco | 4 | Community","protocol":17,"map":"koth_viaduct","folder":"tf","game":"Team Fortress","app_id":440,"player_count":0,"max_players":24,"Bots":0,"server_type":"Dedicated","server_os":"Linux","password":true,"vac":true,"version":"7961495","steam_id":85568392924742826,"keywords":["cp","nocrits","nodmgspread","uncletopia"],"game_id":440,"stv_port":27046,"stv_name":"Uncletopia | San Francisco | 4 | Community | STV","players":null},{"server_id":141,"name":"Uncletopia | Sydney | 1 | All Maps","name_short":"syd-1","host":"syd-1.au.uncletopia.com","port":27015,"enabled":true,"region":"au","cc":"au","latitude":-33.865143,"longitude":151.2099,"reserved":0,"last_update":"0001-01-01T00:00:00Z","name_a2s":"Uncletopia | Sydney | 1 | All Maps","protocol":17,"map":"cp_snakewater_final1","folder":"tf","game":"Team Fortress","app_id":440,"player_count":0,"max_players":24,"Bots":0,"server_type":"Dedicated","server_os":"Linux","password":true,"vac":true,"version":"7961495","steam_id":85568392924470001,"keywords":["cp","nocrits","nodmgspread","uncletopia"],"game_id":440,"stv_port":27016,"stv_name":"Uncletopia | Sydney | 1 | All Maps | STV","players":null},{"server_id":123,"name":"Uncletopia | Sydney | 2 | All Maps","name_short":"syd-2","host":"syd-1.au.uncletopia.com","port":27025,"enabled":true,"region":"au","cc":"au","latitude":-33.865143,"longitude":151.2099,"reserved":0,"last_update":"0001-01-01T00:00:00Z","name_a2s":"Uncletopia | Sydney | 2 | All Maps","protocol":17,"map":"cp_altitude","folder":"tf","game":"Team Fortress","app_id":440,"player_count":0,"max_players":24,"Bots":0,"server_type":"Dedicated","server_os":"Linux","password":true,"vac":true,"version":"7961495","steam_id":85568392924470002,"keywords":["cp","nocrits","nodmgspread","uncletopia"],"game_id":440,"stv_port":27026,"stv_name":"Uncletopia | Sydney | 2 | All Maps | STV","players":null},{"server_id":395,"name":"Uncletopia | Sydney | 3 | All Maps","name_short":"syd-3","host":"syd-1.au.uncletopia.com","port":27035,"enabled":true,"region":"au","cc":"au","latitude":-33.865143,"longitude":151.2099,"reserved":0,"last_update":"0001-01-01T00:00:00Z","name_a2s":"Uncletopia | Sydney | 3 | All Maps","protocol":17,"map":"pl_borneo","folder":"tf","game":"Team Fortress","app_id":440,"player_count":0,"max_players":24,"Bots":0,"server_type":"Dedicated","server_os":"Linux","password":true,"vac":true,"version":"7961495","steam_id":85568392925194467,"keywords":["nocrits","nodmgspread","payload","uncletopia"],"game_id":440,"stv_port":27036,"stv_name":"Uncletopia | Sydney | 3 | All Maps | STV","players":null},{"server_id":396,"name":"Uncletopia | Sydney | 4 | All Maps","name_short":"syd-4","host":"syd-1.au.uncletopia.com","port":27045,"enabled":true,"region":"au","cc":"au","latitude":-33.865143,"longitude":151.2099,"reserved":0,"last_update":"0001-01-01T00:00:00Z","name_a2s":"Uncletopia | Sydney | 4 | All Maps","protocol":17,"map":"koth_highpass","folder":"tf","game":"Team Fortress","app_id":440,"player_count":0,"max_players":24,"Bots":0,"server_type":"Dedicated","server_os":"Linux","password":true,"vac":true,"version":"7961495","steam_id":85568392925397958,"keywords":["cp","nocrits","nodmgspread","uncletopia"],"game_id":440,"stv_port":27046,"stv_name":"Uncletopia | Sydney | 4 | All Maps | STV","players":null},{"server_id":58,"name":"Uncletopia | Sydney | 5 | Stopwatch Beta","name_short":"syd-5","host":"syd-1.au.uncletopia.com","port":27055,"enabled":true,"region":"au","cc":"au","latitude":-33.865143,"longitude":151.2099,"reserved":0,"last_update":"0001-01-01T00:00:00Z","name_a2s":"Uncletopia | Sydney | 5 | Stopwatch Beta","protocol":17,"map":"koth_viaduct","folder":"tf","game":"Team Fortress","app_id":440,"player_count":0,"max_players":24,"Bots":0,"server_type":"Dedicated","server_os":"Linux","password":true,"vac":true,"version":"7961495","steam_id":85568392925397959,"keywords":["cp","nocrits","nodmgspread","uncletopia"],"game_id":440,"stv_port":27056,"stv_name":"Uncletopia | Sydney | 5 | Stopwatch Beta | STV","players":null},{"server_id":59,"name":"Uncletopia | Sydney | 6 | Community","name_short":"syd-6","host":"syd-1.au.uncletopia.com","port":27065,"enabled":true,"region":"au","cc":"au","latitude":-33.865143,"longitude":151.2099,"reserved":0,"last_update":"0001-01-01T00:00:00Z","name_a2s":"Uncletopia | Sydney | 6 | Community","protocol":17,"map":"koth_cascade","folder":"tf","game":"Team Fortress","app_id":440,"player_count":0,"max_players":24,"Bots":0,"server_type":"Dedicated","server_os":"Linux","password":true,"vac":true,"version":"7961495","steam_id":85568392925397960,"keywords":["cp","nocrits","nodmgspread","uncletopia"],"game_id":440,"stv_port":27066,"stv_name":"Uncletopia | Sydney | 6 | Community | STV","players":null},{"server_id":49,"name":"Uncletopia | Warsaw | 1 | All Maps","name_short":"waw-1","host":"waw-1.pl.uncletopia.com","port":27015,"enabled":true,"region":"eu","cc":"pl","latitude":52.2297,"longitude":21.017532,"reserved":0,"last_update":"0001-01-01T00:00:00Z","name_a2s":"Uncletopia | Warsaw | 1 | All Maps","protocol":17,"map":"cp_altitude","folder":"tf","game":"Team Fortress","app_id":440,"player_count":0,"max_players":24,"Bots":0,"server_type":"Dedicated","server_os":"Linux","password":true,"vac":true,"version":"7961495","steam_id":85568392925397850,"keywords":["cp","nocrits","nodmgspread","uncletopia"],"game_id":440,"stv_port":27016,"stv_name":"Uncletopia | Warsaw | 1 | All Maps | STV","players":null},{"server_id":50,"name":"Uncletopia | Warsaw | 2 | All Maps","name_short":"waw-2","host":"waw-1.pl.uncletopia.com","port":27025,"enabled":true,"region":"eu","cc":"pl","latitude":52.2297,"longitude":21.017532,"reserved":0,"last_update":"0001-01-01T00:00:00Z","name_a2s":"Uncletopia | Warsaw | 2 | All Maps","protocol":17,"map":"koth_lakeside_final","folder":"tf","game":"Team Fortress","app_id":440,"player_count":0,"max_players":24,"Bots":0,"server_type":"Dedicated","server_os":"Linux","password":true,"vac":true,"version":"7961495","steam_id":85568392925397851,"keywords":["cp","nocrits","nodmgspread","uncletopia"],"game_id":440,"stv_port":27026,"stv_name":"Uncletopia | Warsaw | 2 | All Maps | STV","players":null},{"server_id":51,"name":"Uncletopia | Warsaw | 3 | All Maps","name_short":"waw-3","host":"waw-1.pl.uncletopia.com","port":27035,"enabled":true,"region":"eu","cc":"pl","latitude":52.2297,"longitude":21.017532,"reserved":0,"last_update":"0001-01-01T00:00:00Z","name_a2s":"Uncletopia | Warsaw | 3 | All Maps","protocol":17,"map":"cp_snakewater_final1","folder":"tf","game":"Team Fortress","app_id":440,"player_count":0,"max_players":24,"Bots":0,"server_type":"Dedicated","server_os":"Linux","password":true,"vac":true,"version":"7961495","steam_id":85568392925397852,"keywords":["cp","nocrits","nodmgspread","uncletopia"],"game_id":440,"stv_port":27036,"stv_name":"Uncletopia | Warsaw | 3 | All Maps | STV","players":null},{"server_id":52,"name":"Uncletopia | Warsaw | 4 | All Maps","name_short":"waw-4","host":"waw-1.pl.uncletopia.com","port":27045,"enabled":true,"region":"eu","cc":"pl","latitude":52.2297,"longitude":21.017532,"reserved":0,"last_update":"0001-01-01T00:00:00Z","name_a2s":"Uncletopia | Warsaw | 4 | All Maps","protocol":17,"map":"koth_viaduct","folder":"tf","game":"Team Fortress","app_id":440,"player_count":0,"max_players":24,"Bots":0,"server_type":"Dedicated","server_os":"Linux","password":true,"vac":true,"version":"7961495","steam_id":85568392925397853,"keywords":["cp","nocrits","nodmgspread","uncletopia"],"game_id":440,"stv_port":27046,"stv_name":"Uncletopia | Warsaw | 4 | All Maps | STV","players":null},{"server_id":53,"name":"Uncletopia | Warsaw | 5 | Stopwatch Beta","name_short":"waw-5","host":"waw-1.pl.uncletopia.com","port":27055,"enabled":true,"region":"eu","cc":"pl","latitude":52.2297,"longitude":21.017532,"reserved":0,"last_update":"0001-01-01T00:00:00Z","name_a2s":"Uncletopia | Warsaw | 5 | Stopwatch Beta","protocol":17,"map":"pl_swiftwater_final1","folder":"tf","game":"Team Fortress","app_id":440,"player_count":0,"max_players":24,"Bots":0,"server_type":"Dedicated","server_os":"Linux","password":true,"vac":true,"version":"7961495","steam_id":85568392925397854,"keywords":["nocrits","nodmgspread","payload","uncletopia"],"game_id":440,"stv_port":27056,"stv_name":"Uncletopia | Warsaw | 5 | Stopwatch Beta | STV","players":null},{"server_id":54,"name":"Uncletopia | Warsaw | 6 | Community","name_short":"waw-6","host":"waw-1.pl.uncletopia.com","port":27065,"enabled":true,"region":"eu","cc":"pl","latitude":52.2297,"longitude":21.017532,"reserved":0,"last_update":"0001-01-01T00:00:00Z","name_a2s":"Uncletopia | Warsaw | 6 | Community","protocol":17,"map":"workshop/cp_glacier_rc6.ugc2905735376","folder":"tf","game":"Team Fortress","app_id":440,"player_count":0,"max_players":24,"Bots":0,"server_type":"Dedicated","server_os":"Linux","password":true,"vac":true,"version":"7961495","steam_id":85568392925397856,"keywords":["cp","nocrits","nodmgspread","uncletopia"],"game_id":440,"stv_port":27066,"stv_name":"Uncletopia | Warsaw | 6 | Community | STV","players":null}]}