{"status":true,"message":"","result":[{"server_id":9,"name":"Uncletopia | Atlanta | 1 | All Maps","name_short":"atl-1","host":"atl-1.us.uncletopia.com","port":27015,"enabled":true,"region":"us-east","cc":"us","latitude":33.753746,"longitude":-84.38633,"reserved":0,"last_update":"0001-01-01T00:00:00Z","name_a2s":"Uncletopia | Atlanta | 1 | All Maps","protocol":17,"map":"pl_upward","folder":"tf","game":"Team Fortress","app_id":440,"player_count":22,"max_players":24,"Bots":0,"server_type":"Dedicated","server_os":"Linux","password":true,"vac":true,"version":"7882260","steam_id":85568392924469982,"keywords":["nocrits","nodmgspread","payload","uncletopia"],"game_id":440,"stv_port":27016,"stv_name":"Uncletopia | Atlanta | 1 | All Maps | STV","players":[{"user_id":445,"name":"Bag","steam_id":76561198012395490,"connected_time":9488000000000,"state":"active","ping":54},{"user_id":537,"name":"gun_go_bang","steam_id":76561199148459825,"connected_time":3170000000000,"state":"active","ping":58},{"user_id":570,"name":"minty","steam_id":76561198096347625,"connected_time":22000000000,"state":"active","ping":47},{"user_id":560,"name":"Mr. Gainsalot","steam_id":76561198083851689,"connected_time":755000000000,"state":"active","ping":52},{"user_id":568,"name":"an inebriated newt fancier","steam_id":76561197985428155,"connected_time":56000000000,"state":"active","ping":77},{"user_id":566,"name":"â™¥Bunnyâ™¥Slutâ™¥","steam_id":76561198206376851,"connected_time":151000000000,"state":"active","ping":113},{"user_id":565,"name":"Jin","steam_id":76561198119873148,"connected_time":525000000000,"state":"active","ping":74},{"user_id":563,"name":"Terrorist Yui","steam_id":76561199068672553,"connected_time":604000000000,"state":"active","ping":86},{"user_id":549,"name":"Jesse","steam_id":76561198157305426,"connected_time":1664000000000,"state":"active","ping":66},{"user_id":547,"name":"Sprinklze","steam_id":76561198163562681,"connected_time":1670000000000,"state":"active","ping":61},{"user_id":553,"name":"Little Minty","steam_id":76561198070061535,"connected_time":1629000000000,"state":"active","ping":68},{"user_id":480,"name":"Oddball","steam_id":76561198040440984,"connected_time":7131000000000,"state":"active","ping":79},{"user_id":571,"name":"lil hog","steam_id":76561199230929836,"connected_time":19000000000,"state":"active","ping":73},{"user_id":554,"name":"Theodore Roosevelt","steam_id":76561197993295656,"connected_time":1622000000000,"state":"active","ping":60},{"user_id":564,"name":"ShadowWasUhOh","steam_id":76561198400361935,"connected_time":603000000000,"state":"active","ping":54},{"user_id":533,"name":"Pancakes","steam_id":76561198097983190,"connected_time":3804000000000,"state":"active","ping":67},{"user_id":557,"name":"SadVeggie","steam_id":76561198163430099,"connected_time":1206000000000,"state":"active","ping":112},{"user_id":507,"name":"MotorolÂª","steam_id":76561198358119669,"connected_time":5855000000000,"state":"active","ping":108},{"user_id":561,"name":"Alkivo","steam_id":76561198315999766,"connected_time":701000000000,"state":"active","ping":74},{"user_id":542,"name":"Walt","steam_id":76561198964107245,"connected_time":2359000000000,"state":"active","ping":88},{"user_id":555,"name":"Voodo133","steam_id":76561198042670351,"connected_time":1610000000000,"state":"active","ping":79},{"user_id":556,"name":"Monochrome | Cashmoney","steam_id":76561198377320040,"connected_time":1250000000000,"state":"active","ping":60}]},{"server_id":104,"name":"Uncletopia | Atlanta | 2 | All Maps","name_short":"atl-2","host":"atl-1.us.uncletopia.com","port":27025,"enabled":true,"region":"us-east","cc":"us","latitude":33.753746,"longitude":-84.38633,"reserved":0,"last_update":"0001-01-01T00:00:00Z","name_a2s":"Uncletopia | Atlanta | 2 | All Maps","protocol":17,"map":"cp_altitude","folder":"tf","game":"Team Fortress","app_id":440,"player_count":24,"max_players":24,"Bots":0,"server_type":"Dedicated","server_os":"Linux","password":true,"vac":true,"version":"7882260","steam_id":85568392924469983,"keywords":["cp","nocrits","nodmgspread","uncletopia"],"game_id":440,"stv_port":27026,"stv_name":"Uncletopia | Atlanta | 2 | All Maps | STV","players":[{"user_id":358,"name":"Battery","steam_id":76561199053078059,"connected_time":1009000000000,"state":"active","ping":76},{"user_id":342,"name":"Maverick","steam_id":76561198049193435,"connected_time":3311000000000,"state":"active","ping":72},{"user_id":270,"name":"troll","steam_id":76561198040890252,"connected_time":9768000000000,"state":"active","ping":52},{"user_id":346,"name":"UnkownGamerLOL","steam_id":76561198225902368,"connected_time":2740000000000,"state":"active","ping":87},{"user_id":359,"name":"boy from the rafters","steam_id":76561198042926224,"connected_time":978000000000,"state":"active","ping":55},{"user_id":334,"name":"Communist Killing Candy Cactus\ufffd","steam_id":76561198074980635,"connected_time":4129000000000,"state":"active","ping":115},{"user_id":360,"name":"craf","steam_id":76561198163535075,"connected_time":976000000000,"state":"active","ping":76},{"user_id":370,"name":"ALBINO LESBIAN MIDGET","steam_id":76561198122691714,"connected_time":267000000000,"state":"active","ping":66},{"user_id":329,"name":"FancyBones","steam_id":76561198180198885,"connected_time":4445000000000,"state":"active","ping":75},{"user_id":369,"name":"Vertio","steam_id":76561198330391335,"connected_time":803000000000,"state":"active","ping":127},{"user_id":371,"name":"mcjuice","steam_id":76561198087730829,"connected_time":187000000000,"state":"active","ping":55},{"user_id":341,"name":"A Civic driver","steam_id":76561198041090364,"connected_time":3567000000000,"state":"active","ping":153},{"user_id":313,"name":"The Juice","steam_id":76561198065307144,"connected_time":6220000000000,"state":"active","ping":76},{"user_id":362,"name":"SapphireSundew [Lotus]","steam_id":76561198040904890,"connected_time":969000000000,"state":"active","ping":88},{"user_id":363,"name":"counterstrike","steam_id":76561198050338907,"connected_time":943000000000,"state":"active","ping":60},{"user_id":316,"name":"machineclone","steam_id":76561198076320219,"connected_time":6157000000000,"state":"active","ping":174},{"user_id":372,"name":"Tomato","steam_id":76561197996472649,"connected_time":176000000000,"state":"active","ping":70},{"user_id":364,"name":"greeno","steam_id":76561198109901138,"connected_time":916000000000,"state":"active","ping":76},{"user_id":367,"name":"Moody","steam_id":76561199013442105,"connected_time":862000000000,"state":"active","ping":63},{"user_id":351,"name":"DaMultiversalist","steam_id":76561198239552412,"connected_time":2092000000000,"state":"active","ping":84},{"user_id":366,"name":"Rudy","steam_id":76561198013456828,"connected_time":909000000000,"state":"active","ping":69},{"user_id":309,"name":"Marshmallow Supreme","steam_id":76561198057291909,"connected_time":6522000000000,"state":"active","ping":71},{"user_id":353,"name":"Neclipse","steam_id":76561197986244028,"connected_time":1751000000000,"state":"active","ping":84},{"user_id":344,"name":"sunshine","steam_id":76561199261298547,"connected_time":2965000000000,"state":"active","ping":138}]},{"server_id":400,"name":"Uncletopia | Atlanta | 3 | Community","name_short":"atl-3","host":"atl-1.us.uncletopia.com","port":27035,"enabled":true,"region":"us-east","cc":"us","latitude":33.753746,"longitude":-84.38633,"reserved":0,"last_update":"0001-01-01T00:00:00Z","name_a2s":"Uncletopia | Atlanta | 3 | Community","protocol":17,"map":"workshop/pl_boundary_final1.ugc456799153","folder":"tf","game":"Team Fortress","app_id":440,"player_count":0,"max_players":24,"Bots":0,"server_type":"Dedicated","server_os":"Linux","password":true,"vac":true,"version":"7882260","steam_id":85568392924515187,"keywords":["nocrits","nodmgspread","payload","uncletopia"],"game_id":440,"stv_port":27036,"stv_name":"Uncletopia | Atlanta | 3 | Community | STV","players":null},{"server_id":401,"name":"Uncletopia | Atlanta | 4 | No Payload","name_short":"atl-4","host":"atl-1.us.uncletopia.com","port":27045,"enabled":true,"region":"us-east","cc":"us","latitude":33.753746,"longitude":-84.38633,"reserved":0,"last_update":"0001-01-01T00:00:00Z","name_a2s":"","protocol":0,"map":"","folder":"","game":"","app_id":0,"player_count":0,"max_players":0,"Bots":0,"server_type":"","server_os":"","password":false,"vac":false,"version":"","steam_id":0,"keywords":null,"game_id":0,"stv_port":0,"stv_name":"","players":null},{"server_id":2,"name":"Uncletopia | Chicago | 1 | All Maps","name_short":"chi-1","host":"chi-1.us.uncletopia.com","port":27015,"enabled":true,"region":"us-central","cc":"us","latitude":41.881832,"longitude":-87.62318,"reserved":0,"last_update":"0001-01-01T00:00:00Z","name_a2s":"Uncletopia | Chicago | 1 | All Maps","protocol":17,"map":"pl_barnblitz","folder":"tf","game":"Team Fortress","app_id":440,"player_count":23,"max_players":24,"Bots":0,"server_type":"Dedicated","server_os":"Linux","password":true,"vac":true,"version":"7882260","steam_id":85568392924469984,"keywords":["nocrits","nodmgspread","payload","uncletopia"],"game_id":440,"stv_port":27016,"stv_name":"Uncletopia | Chicago | 1 | All Maps | STV","players":[{"user_id":804,"name":"Praise_to_the_Flashlight!","steam_id":76561199001728789,"connected_time":131000000000,"state":"active","ping":55},{"user_id":785,"name":"Swshbcklr","steam_id":76561197969421355,"connected_time":876000000000,"state":"active","ping":61},{"user_id":782,"name":"DetectiveHorse","steam_id":76561198278726152,"connected_time":915000000000,"state":"active","ping":65},{"user_id":805,"name":"spy sex â˜¾ï¸Žâ™šï¸Žâ˜½","steam_id":76561199138738952,"connected_time":122000000000,"state":"active","ping":78},{"user_id":760,"name":"peakmeta","steam_id":76561199053600691,"connected_time":1801000000000,"state":"active","ping":61},{"user_id":731,"name":"noobkiller69","steam_id":76561198079416036,"connected_time":5257000000000,"state":"active","ping":44},{"user_id":751,"name":"rat eater","steam_id":76561199216874750,"connected_time":2520000000000,"state":"active","ping":56},{"user_id":756,"name":"Mank","steam_id":76561198189421005,"connected_time":2214000000000,"state":"active","ping":55},{"user_id":803,"name":"jpuzza","steam_id":76561198035535731,"connected_time":136000000000,"state":"active","ping":74},{"user_id":799,"name":"Murph","steam_id":76561198354099991,"connected_time":568000000000,"state":"active","ping":74},{"user_id":780,"name":"Yam Jazzy Jim","steam_id":76561198000788950,"connected_time":1132000000000,"state":"active","ping":60},{"user_id":755,"name":"ARGON| Soulidity","steam_id":76561198429603550,"connected_time":2265000000000,"state":"active","ping":75},{"user_id":735,"name":"Jabawakai","steam_id":76561198088881254,"connected_time":4814000000000,"state":"active","ping":55},{"user_id":762,"name":"Sneaky_Tank","steam_id":76561198078814793,"connected_time":1793000000000,"state":"active","ping":58},{"user_id":765,"name":"I am a mooshroom","steam_id":76561198104198295,"connected_time":1746000000000,"state":"active","ping":88},{"user_id":800,"name":"healthy boundaries","steam_id":76561198025760608,"connected_time":347000000000,"state":"active","ping":63},{"user_id":781,"name":"paetho YT","steam_id":76561198152690003,"connected_time":1047000000000,"state":"active","ping":57},{"user_id":734,"name":"Waddlehi","steam_id":76561198072553840,"connected_time":4894000000000,"state":"active","ping":56},{"user_id":739,"name":"Dr.Drake","steam_id":76561198328826853,"connected_time":3945000000000,"state":"active","ping":78},{"user_id":787,"name":"Lia_Rein","steam_id":76561198151569597,"connected_time":829000000000,"state":"active","ping":142},{"user_id":758,"name":"Doubting Dave","steam_id":76561198066410749,"connected_time":2182000000000,"state":"active","ping":77},{"user_id":779,"name":"noobfrotter69","steam_id":76561198249206656,"connected_time":1439000000000,"state":"active","ping":62},{"user_id":744,"name":"AYAYA!!!","steam_id":76561198992102180,"connected_time":3908000000000,"state":"active","ping":46}]},{"server_id":106,"name":"Uncletopia | Chicago | 2 | All Maps","name_short":"chi-2","host":"chi-1.us.uncletopia.com","port":27025,"enabled":true,"region":"us-central","cc":"us","latitude":41.881832,"longitude":-87.62318,"reserved":0,"last_update":"0001-01-01T00:00:00Z","name_a2s":"Uncletopia | Chicago | 2 | All Maps","protocol":17,"map":"cp_process_final","folder":"tf","game":"Team Fortress","app_id":440,"player_count":24,"max_players":24,"Bots":0,"server_type":"Dedicated","server_os":"Linux","password":true,"vac":true,"version":"7882260","steam_id":85568392924469985,"keywords":["cp","nocrits","nodmgspread","uncletopia"],"game_id":440,"stv_port":27026,"stv_name":"Uncletopia | Chicago | 2 | All Maps | STV","players":[{"user_id":554,"name":"waltuh","steam_id":76561198363541736,"connected_time":684000000000,"state":"active","ping":93},{"user_id":548,"name":"Cream Corn","steam_id":76561198043791586,"connected_time":1083000000000,"state":"active","ping":56},{"user_id":552,"name":"pirate pete","steam_id":76561198151048590,"connected_time":699000000000,"state":"active","ping":56},{"user_id":553,"name":"V. G. Sunderland","steam_id":76561198161839980,"connected_time":698000000000,"state":"active","ping":57},{"user_id":482,"name":"minecraft","steam_id":76561198104345201,"connected_time":6038000000000,"state":"active","ping":85},{"user_id":563,"name":"hatsune mikuâ™¡","steam_id":76561199445009981,"connected_time":536000000000,"state":"active","ping":102},{"user_id":556,"name":"drwwby","steam_id":76561198067741339,"connected_time":641000000000,"state":"active","ping":49},{"user_id":557,"name":"FADED THAN A HOE","steam_id":76561199001348474,"connected_time":612000000000,"state":"active","ping":62},{"user_id":512,"name":"Yakz750","steam_id":76561199064164846,"connected_time":3496000000000,"state":"active","ping":115},{"user_id":569,"name":"kree","steam_id":76561197979960008,"connected_time":112000000000,"state":"active","ping":54},{"user_id":558,"name":"Treehouse","steam_id":76561198918927598,"connected_time":596000000000,"state":"active","ping":75},{"user_id":519,"name":"wedoalittletrolling TF2EASY.COM","steam_id":76561198984807162,"connected_time":3181000000000,"state":"active","ping":62},{"user_id":543,"name":"Ringo x Seiran","steam_id":76561198357437908,"connected_time":1199000000000,"state":"active","ping":61},{"user_id":572,"name":"Burt Macklin","steam_id":76561198038080028,"connected_time":8000000000,"state":"active","ping":89},{"user_id":559,"name":"threethree","steam_id":76561198177354155,"connected_time":594000000000,"state":"active","ping":46},{"user_id":529,"name":"freak ya nature","steam_id":76561198310502474,"connected_time":2503000000000,"state":"active","ping":46},{"user_id":560,"name":"reatardhole","steam_id":76561198141217941,"connected_time":575000000000,"state":"active","ping":70},{"user_id":422,"name":"YesMargaret","steam_id":76561198127971751,"connected_time":10427000000000,"state":"active","ping":70},{"user_id":549,"name":"Coconut Gun","steam_id":76561198017331048,"connected_time":1072000000000,"state":"active","ping":52},{"user_id":561,"name":"theloneflute","steam_id":76561198109316816,"connected_time":574000000000,"state":"active","ping":87},{"user_id":562,"name":"Aradia","steam_id":76561198255575892,"connected_time":571000000000,"state":"active","ping":118},{"user_id":566,"name":"TF2C | fac -AA-","steam_id":76561198009818412,"connected_time":427000000000,"state":"active","ping":74},{"user_id":564,"name":"Fred Frightz","steam_id":76561198252442712,"connected_time":506000000000,"state":"active","ping":72},{"user_id":571,"name":"Skuz","steam_id":76561199039810812,"connected_time":32000000000,"state":"active","ping":85}]},{"server_id":402,"name":"Uncletopia | Chicago | 3 | All Maps","name_short":"chi-3","host":"chi-1.us.uncletopia.com","port":27035,"enabled":true,"region":"us-central","cc":"us","latitude":41.881832,"longitude":-87.62318,"reserved":0,"last_update":"0001-01-01T00:00:00Z","name_a2s":"Uncletopia | Chicago | 3 | All Maps","protocol":17,"map":"cp_mountainlab","folder":"tf","game":"Team Fortress","app_id":440,"player_count":24,"max_players":24,"Bots":0,"server_type":"Dedicated","server_os":"Linux","password":true,"vac":true,"version":"7882260","steam_id":85568392924515191,"keywords":["cp","nocrits","nodmgspread","uncletopia"],"game_id":440,"stv_port":27036,"stv_name":"Uncletopia | Chicago | 3 | All Maps | STV","players":[{"user_id":702,"name":"Donnie Blasto","steam_id":76561198043432005,"connected_time":575000000000,"state":"active","ping":54},{"user_id":714,"name":"Cusven","steam_id":76561198319658526,"connected_time":112000000000,"state":"active","ping":53},{"user_id":698,"name":"Confodio","steam_id":76561198068367876,"connected_time":623000000000,"state":"active","ping":60},{"user_id":715,"name":"NerdyEnforcement","steam_id":76561198437710820,"connected_time":110000000000,"state":"active","ping":65},{"user_id":704,"name":"evilstuntman","steam_id":76561198056911537,"connected_time":560000000000,"state":"active","ping":46},{"user_id":689,"name":"Sharky Smooth","steam_id":76561198094759458,"connected_time":1372000000000,"state":"active","ping":58},{"user_id":705,"name":"Apetometrist","steam_id":76561198045391635,"connected_time":556000000000,"state":"active","ping":59},{"user_id":655,"name":"Peter Popoff","steam_id":76561198027171160,"connected_time":3857000000000,"state":"active","ping":33},{"user_id":671,"name":"The Muffin Man","steam_id":76561199084805759,"connected_time":2615000000000,"state":"active","ping":93},{"user_id":718,"name":"Mikael_01","steam_id":76561199080253129,"connected_time":51000000000,"state":"active","ping":188},{"user_id":687,"name":"Grand Wizard Autismo","steam_id":76561198069834979,"connected_time":1658000000000,"state":"active","ping":74},{"user_id":697,"name":"Ekuseebia","steam_id":76561198037504112,"connected_time":732000000000,"state":"active","ping":71},{"user_id":692,"name":"HollyBlocky","steam_id":76561198030156100,"connected_time":1002000000000,"state":"active","ping":71},{"user_id":670,"name":"aphexjh","steam_id":76561197985854658,"connected_time":2640000000000,"state":"active","ping":53},{"user_id":690,"name":"rumes","steam_id":76561198349219467,"connected_time":1329000000000,"state":"active","ping":90},{"user_id":677,"name":"Himmself","steam_id":76561197981348814,"connected_time":2554000000000,"state":"active","ping":98},{"user_id":706,"name":"Objectionist","steam_id":76561199006818518,"connected_time":483000000000,"state":"active","ping":60},{"user_id":595,"name":"Snazzy_","steam_id":76561198014803098,"connected_time":6790000000000,"state":"active","ping":61},{"user_id":707,"name":"Báµ¢g Bâ‚’â‚›â‚›","steam_id":76561198090271815,"connected_time":476000000000,"state":"active","ping":125},{"user_id":708,"name":"CookieFox","steam_id":76561198401204010,"connected_time":431000000000,"state":"active","ping":78},{"user_id":680,"name":"Mr. Crispy Lips","steam_id":76561198028157625,"connected_time":2263000000000,"state":"active","ping":79},{"user_id":693,"name":"Professor Piper","steam_id":76561198156041205,"connected_time":979000000000,"state":"active","ping":45},{"user_id":711,"name":"Also Known As Assteeth","steam_id":76561198049837377,"connected_time":352000000000,"state":"active","ping":50},{"user_id":713,"name":"Gingoguy","steam_id":76561198088931297,"connected_time":177000000000,"state":"active","ping":56}]},{"server_id":403,"name":"Uncletopia | Chicago | 4 | All Maps","name_short":"chi-4","host":"chi-1.us.uncletopia.com","port":27045,"enabled":true,"region":"us-central","cc":"us","latitude":41.881832,"longitude":-87.62318,"reserved":0,"last_update":"0001-01-01T00:00:00Z","name_a2s":"Uncletopia | Chicago | 4 | All Maps","protocol":17,"map":"cp_mossrock","folder":"tf","game":"Team Fortress","app_id":440,"player_count":18,"max_players":24,"Bots":0,"server_type":"Dedicated","server_os":"Linux","password":true,"vac":true,"version":"7882260","steam_id":85568392924515193,"keywords":["cp","nocrits","nodmgspread","uncletopia"],"game_id":440,"stv_port":27046,"stv_name":"Uncletopia | Chicago | 4 | All Maps | STV","players":[{"user_id":196,"name":"Flowers","steam_id":76561198031669899,"connected_time":2444000000000,"state":"active","ping":76},{"user_id":221,"name":"Ghworg","steam_id":76561198324891401,"connected_time":135000000000,"state":"active","ping":46},{"user_id":219,"name":"Bullwinkle J. Moose","steam_id":76561198075977196,"connected_time":230000000000,"state":"active","ping":75},{"user_id":223,"name":"Communist Cat","steam_id":76561199122212093,"connected_time":32000000000,"state":"active","ping":144},{"user_id":192,"name":"vyx","steam_id":76561198037205391,"connected_time":3230000000000,"state":"active","ping":56},{"user_id":224,"name":"Kaas","steam_id":76561198049640387,"connected_time":3000000000,"state":"spawning","ping":59},{"user_id":225,"name":"Sahbi","steam_id":76561199196292242,"connected_time":1000000000,"state":"spawning","ping":36},{"user_id":218,"name":"Elias","steam_id":76561198106431732,"connected_time":361000000000,"state":"active","ping":44},{"user_id":189,"name":"JtsRes","steam_id":76561197994809241,"connected_time":3628000000000,"state":"active","ping":61},{"user_id":214,"name":"dashfire","steam_id":76561198177343947,"connected_time":878000000000,"state":"active","ping":49},{"user_id":167,"name":"WALL-E","steam_id":76561198154701370,"connected_time":5607000000000,"state":"active","ping":84},{"user_id":200,"name":"Sillier-NA","steam_id":76561198112171949,"connected_time":2338000000000,"state":"active","ping":71},{"user_id":209,"name":"Ry","steam_id":76561198325802137,"connected_time":1548000000000,"state":"active","ping":72},{"user_id":210,"name":"The Spanked Monkey","steam_id":76561198128293111,"connected_time":1544000000000,"state":"active","ping":69},{"user_id":183,"name":"n_sacco","steam_id":76561198432818448,"connected_time":3668000000000,"state":"active","ping":72},{"user_id":206,"name":"AJTarcza","steam_id":76561198070800190,"connected_time":1585000000000,"state":"active","ping":85},{"user_id":207,"name":"The_atom_bomb","steam_id":76561198139944683,"connected_time":1574000000000,"state":"active","ping":61},{"user_id":212,"name":"johnand1214","steam_id":76561199376334629,"connected_time":1529000000000,"state":"active","ping":63}]},{"server_id":36,"name":"Uncletopia | Chicago | 5 | All Maps","name_short":"chi-5","host":"chi-2.us.uncletopia.com","port":27015,"enabled":true,"region":"us-central","cc":"us","latitude":41.881832,"longitude":-87.62318,"reserved":0,"last_update":"0001-01-01T00:00:00Z","name_a2s":"Uncletopia | Chicago | 5 | All Maps","protocol":17,"map":"pl_upward","folder":"tf","game":"Team Fortress","app_id":440,"player_count":20,"max_players":24,"Bots":0,"server_type":"Dedicated","server_os":"Linux","password":true,"vac":true,"version":"7882260","steam_id":85568392924866362,"keywords":["nocrits","nodmgspread","payload","uncletopia"],"game_id":440,"stv_port":27016,"stv_name":"Uncletopia | Chicago | 5 | All Maps | STV","players":[{"user_id":225,"name":"Sir Iasis","steam_id":76561198035666760,"connected_time":817000000000,"state":"connecting","ping":64},{"user_id":18,"name":"SunNc","steam_id":76561198097711843,"connected_time":12174000000000,"state":"connecting","ping":126},{"user_id":171,"name":"SpongedSocks","steam_id":76561198374009086,"connected_time":4240000000000,"state":"connecting","ping":67},{"user_id":226,"name":"helikopter","steam_id":76561198881026292,"connected_time":592000000000,"state":"connecting","ping":67},{"user_id":230,"name":"hopeless","steam_id":76561198305056374,"connected_time":421000000000,"state":"connecting","ping":78},{"user_id":221,"name":"x3 â™¡","steam_id":76561198132011077,"connected_time":1033000000000,"state":"connecting","ping":79},{"user_id":201,"name":"Tako","steam_id":76561199264073138,"connected_time":2574000000000,"state":"connecting","ping":122},{"user_id":193,"name":"larguu","steam_id":76561197994336210,"connected_time":3592000000000,"state":"connecting","ping":76},{"user_id":231,"name":"Stapler","steam_id":76561198099295077,"connected_time":321000000000,"state":"connecting","ping":118},{"user_id":220,"name":"Derpydude2002","steam_id":76561198811719519,"connected_time":1089000000000,"state":"connecting","ping":64},{"user_id":233,"name":"Lionel Messi","steam_id":76561198226207032,"connected_time":209000000000,"state":"connecting","ping":65},{"user_id":227,"name":"spiderguy","steam_id":76561198412074955,"connected_time":559000000000,"state":"connecting","ping":107},{"user_id":204,"name":"lost in spaaaaace","steam_id":76561199085974120,"connected_time":2525000000000,"state":"connecting","ping":77},{"user_id":205,"name":"derz","steam_id":76561198010742216,"connected_time":2515000000000,"state":"connecting","ping":61},{"user_id":234,"name":"LilGoBonkers","steam_id":76561198275780924,"connected_time":48000000000,"state":"connecting","ping":118},{"user_id":217,"name":"MellowBoy-2354","steam_id":76561199080630632,"connected_time":1591000000000,"state":"connecting","ping":99},{"user_id":228,"name":"its joever","steam_id":76561198213521937,"connected_time":546000000000,"state":"connecting","ping":60}]},{"server_id":37,"name":"Uncletopia | Chicago | 6 | All Maps","name_short":"chi-6","host":"chi-2.us.uncletopia.com","port":27025,"enabled":true,"region":"us-central","cc":"us","latitude":41.881832,"longitude":-87.62318,"reserved":0,"last_update":"0001-01-01T00:00:00Z","name_a2s":"Uncletopia | Chicago | 6 | All Maps","protocol":17,"map":"pl_frontier_final","folder":"tf","game":"Team Fortress","app_id":440,"player_count":24,"max_players":24,"Bots":0,"server_type":"Dedicated","server_os":"Linux","password":true,"vac":true,"version":"7882260","steam_id":85568392924866363,"keywords":["nocrits","nodmgspread","payload","uncletopia"],"game_id":440,"stv_port":27026,"stv_name":"Uncletopia | Chicago | 6 | All Maps | STV","players":[{"user_id":680,"name":"slep.py","steam_id":76561197988287144,"connected_time":939000000000,"state":"active","ping":55},{"user_id":683,"name":"YASAI JUICE","steam_id":76561198131971992,"connected_time":484000000000,"state":"active","ping":38},{"user_id":684,"name":"Thurricane","steam_id":76561198410724666,"connected_time":452000000000,"state":"active","ping":65},{"user_id":685,"name":"Save","steam_id":76561198032740584,"connected_time":419000000000,"state":"active","ping":79},{"user_id":681,"name":"Drapph","steam_id":76561199384213314,"connected_time":601000000000,"state":"active","ping":73},{"user_id":668,"name":"The Big Iron","steam_id":76561198117276391,"connected_time":1861000000000,"state":"active","ping":71},{"user_id":664,"name":"onion","steam_id":76561198242311084,"connected_time":1923000000000,"state":"active","ping":64},{"user_id":675,"name":"blockchain culture","steam_id":76561198040996386,"connected_time":1172000000000,"state":"active","ping":78},{"user_id":676,"name":"Quark","steam_id":76561198328155605,"connected_time":1162000000000,"state":"active","ping":62},{"user_id":686,"name":"Grilled Jizo","steam_id":76561199250875340,"connected_time":409000000000,"state":"active","ping":77},{"user_id":639,"name":"Gigglesâ„¢","steam_id":76561198058708019,"connected_time":3618000000000,"state":"active","ping":56},{"user_id":687,"name":"pigfarmer.gov","steam_id":76561199071167548,"connected_time":336000000000,"state":"active","ping":68},{"user_id":665,"name":"Ka Xin Yu","steam_id":76561198057116531,"connected_time":1910000000000,"state":"active","ping":60},{"user_id":655,"name":"violent monkey porn","steam_id":76561199285074344,"connected_time":2741000000000,"state":"active","ping":59},{"user_id":691,"name":"Therealmelo","steam_id":76561199278385822,"connected_time":334000000000,"state":"active","ping":123},{"user_id":669,"name":"jolo","steam_id":76561198042831480,"connected_time":1851000000000,"state":"active","ping":67},{"user_id":670,"name":"m yfrogs","steam_id":76561198371149432,"connected_time":1837000000000,"state":"active","ping":47},{"user_id":677,"name":"aiming with drawing tablet","steam_id":76561198397662124,"connected_time":1160000000000,"state":"active","ping":90},{"user_id":694,"name":"Bunny of Epicness","steam_id":76561198003897012,"connected_time":235000000000,"state":"active","ping":70},{"user_id":618,"name":"Bread Zoo","steam_id":76561198013732450,"connected_time":5734000000000,"state":"active","ping":52},{"user_id":692,"name":"Tone","steam_id":76561198139386202,"connected_time":331000000000,"state":"active","ping":46},{"user_id":659,"name":"bobby \"bolo\" peanstalk","steam_id":76561198040495463,"connected_time":2593000000000,"state":"active","ping":73},{"user_id":696,"name":"slafflow","steam_id":76561199381012350,"connected_time":69000000000,"state":"active","ping":83},{"user_id":657,"name":"EvilMrPotoo ï½¡â—•â€¿â—•ï½¡","steam_id":76561198012566870,"connected_time":2728000000000,"state":"active","ping":74}]},{"server_id":38,"name":"Uncletopia | Chicago | 7 | Stopwatch Beta","name_short":"chi-7","host":"chi-2.us.uncletopia.com","port":27035,"enabled":true,"region":"us-central","cc":"us","latitude":41.881832,"longitude":-87.62318,"reserved":0,"last_update":"0001-01-01T00:00:00Z","name_a2s":"Uncletopia | Chicago | 7 | Stopwatch Beta","protocol":17,"map":"workshop/koth_clearcut_b15.ugc2107050255","folder":"tf","game":"Team Fortress","app_id":440,"player_count":0,"max_players":24,"Bots":0,"server_type":"Dedicated","server_os":"Linux","password":true,"vac":true,"version":"7882260","steam_id":85568392924866364,"keywords":["cp","nocrits","nodmgspread","uncletopia"],"game_id":440,"stv_port":27036,"stv_name":"Uncletopia | Chicago | 7 | Stopwatch Beta | STV","players":null},{"server_id":39,"name":"Uncletopia | Chicago | 8 | Community","name_short":"chi-8","host":"chi-2.us.uncletopia.com","port":27045,"enabled":true,"region":"us-central","cc":"us","latitude":41.881832,"longitude":-87.62318,"reserved":0,"last_update":"0001-01-01T00:00:00Z","name_a2s":"Uncletopia | Chicago | 8 | Community","protocol":17,"map":"workshop/koth_slaughter_rc1.ugc1712845210","folder":"tf","game":"Team Fortress","app_id":440,"player_count":24,"max_players":24,"Bots":0,"server_type":"Dedicated","server_os":"Linux","password":true,"vac":true,"version":"7882260","steam_id":85568392924866365,"keywords":["cp","nocrits","nodmgspread","uncletopia"],"game_id":440,"stv_port":27046,"stv_name":"Uncletopia | Chicago | 8 | Community | STV","players":[{"user_id":67,"name":"dude","steam_id":76561198323384949,"connected_time":458000000000,"state":"active","ping":52},{"user_id":64,"name":"Pika","steam_id":76561198068063436,"connected_time":630000000000,"state":"active","ping":54},{"user_id":63,"name":"[DEEP] Danmar33","steam_id":76561198056453091,"connected_time":645000000000,"state":"active","ping":51},{"user_id":66,"name":"Mablinlok","steam_id":76561197992718242,"connected_time":585000000000,"state":"active","ping":78},{"user_id":34,"name":"PootisPowHAHA","steam_id":76561199023536209,"connected_time":2672000000000,"state":"active","ping":89},{"user_id":19,"name":"ZzPips","steam_id":76561198035131832,"connected_time":3390000000000,"state":"active","ping":71},{"user_id":61,"name":"Hoob.egfug","steam_id":76561197980557818,"connected_time":1174000000000,"state":"active","ping":85},{"user_id":68,"name":"Ohio Survivor","steam_id":76561198031675881,"connected_time":399000000000,"state":"active","ping":44},{"user_id":69,"name":"Westwood","steam_id":76561199387699252,"connected_time":381000000000,"state":"active","ping":90},{"user_id":58,"name":"FizzleWizard","steam_id":76561198045990868,"connected_time":1357000000000,"state":"active","ping":65},{"user_id":70,"name":"Virtual-Gamer","steam_id":76561198046628392,"connected_time":337000000000,"state":"active","ping":101},{"user_id":75,"name":"Induce Salt","steam_id":76561198116645978,"connected_time":163000000000,"state":"active","ping":61},{"user_id":74,"name":"dark souls boss","steam_id":76561198316610724,"connected_time":233000000000,"state":"active","ping":97},{"user_id":72,"name":"Capt.Swag","steam_id":76561198088340994,"connected_time":254000000000,"state":"active","ping":80},{"user_id":32,"name":"Franklin M. Hooverville","steam_id":76561198245109084,"connected_time":2759000000000,"state":"active","ping":85},{"user_id":60,"name":"Wolf Hat","steam_id":76561198099996051,"connected_time":1194000000000,"state":"active","ping":64},{"user_id":73,"name":"ItsBrieDude","steam_id":76561198051971306,"connected_time":242000000000,"state":"active","ping":60},{"user_id":53,"name":"Chagalicious","steam_id":76561198044128240,"connected_time":1564000000000,"state":"active","ping":86},{"user_id":54,"name":"who is gavin?","steam_id":76561198069415057,"connected_time":1530000000000,"state":"active","ping":60},{"user_id":38,"name":"VixianUwU","steam_id":76561198948815060,"connected_time":2639000000000,"state":"active","ping":80},{"user_id":51,"name":"bisonist","steam_id":76561198376231372,"connected_time":1740000000000,"state":"active","ping":76},{"user_id":59,"name":"SirKnight5067","steam_id":76561198377306047,"connected_time":1347000000000,"state":"active","ping":60},{"user_id":41,"name":"Bread_Lord","steam_id":76561199164265826,"connected_time":2591000000000,"state":"active","ping":85},{"user_id":46,"name":"Infinitytacos","steam_id":76561198884260211,"connected_time":2402000000000,"state":"active","ping":54}]},{"server_id":8,"name":"Uncletopia | Dallas | 1 | All Maps","name_short":"dal-1","host":"dal-1.us.uncletopia.com","port":27015,"enabled":true,"region":"us-central","cc":"us","latitude":32.779167,"longitude":-96.80889,"reserved":0,"last_update":"0001-01-01T00:00:00Z","name_a2s":"Uncletopia | Dallas | 1 | All Maps","protocol":17,"map":"pl_upward","folder":"tf","game":"Team Fortress","app_id":440,"player_count":23,"max_players":24,"Bots":0,"server_type":"Dedicated","server_os":"Linux","password":true,"vac":true,"version":"7882260","steam_id":85568392924469986,"keywords":["nocrits","nodmgspread","payload","uncletopia"],"game_id":440,"stv_port":27016,"stv_name":"Uncletopia | Dallas | 1 | All Maps | STV","players":[{"user_id":511,"name":"Dylanxp300","steam_id":76561198271974937,"connected_time":242000000000,"state":"active","ping":100},{"user_id":499,"name":"Minlit","steam_id":76561198205832799,"connected_time":985000000000,"state":"active","ping":51},{"user_id":500,"name":"Ambatukam","steam_id":76561198838586562,"connected_time":980000000000,"state":"active","ping":82},{"user_id":495,"name":"Sup m8","steam_id":76561198081659121,"connected_time":1623000000000,"state":"active","ping":39},{"user_id":497,"name":"Enderbro","steam_id":76561198353813386,"connected_time":1523000000000,"state":"active","ping":86},{"user_id":454,"name":"A SlimJim Meat Bicycle","steam_id":76561198358757709,"connected_time":5075000000000,"state":"active","ping":92},{"user_id":436,"name":"errant","steam_id":76561197961758410,"connected_time":5963000000000,"state":"active","ping":43},{"user_id":457,"name":"Ballista","steam_id":76561197983182562,"connected_time":4544000000000,"state":"active","ping":56},{"user_id":471,"name":"Cole Boye","steam_id":76561198282449106,"connected_time":3742000000000,"state":"active","ping":49},{"user_id":491,"name":"GimliLOTR","steam_id":76561198163746000,"connected_time":1688000000000,"state":"active","ping":87},{"user_id":503,"name":"...","steam_id":76561198312298321,"connected_time":891000000000,"state":"active","ping":85},{"user_id":512,"name":"trobin120","steam_id":76561199122420273,"connected_time":196000000000,"state":"active","ping":88},{"user_id":496,"name":"Iron","steam_id":76561198247918478,"connected_time":1602000000000,"state":"active","ping":76},{"user_id":486,"name":"Kingclinton1","steam_id":76561198052956772,"connected_time":2319000000000,"state":"active","ping":88},{"user_id":506,"name":"Cartwright","steam_id":76561197975491705,"connected_time":816000000000,"state":"active","ping":78},{"user_id":504,"name":"vera","steam_id":76561198318851246,"connected_time":876000000000,"state":"active","ping":75},{"user_id":479,"name":"blobb","steam_id":76561198950448488,"connected_time":2908000000000,"state":"active","ping":76},{"user_id":505,"name":"dikclan","steam_id":76561198081847001,"connected_time":869000000000,"state":"active","ping":75},{"user_id":513,"name":"Medic Boyfriend","steam_id":76561198104086771,"connected_time":175000000000,"state":"active","ping":75},{"user_id":449,"name":"Bedtime for Bonzo","steam_id":76561198121256258,"connected_time":5265000000000,"state":"active","ping":68},{"user_id":487,"name":"FluttyPutty","steam_id":76561198218446556,"connected_time":2256000000000,"state":"active","ping":67},{"user_id":475,"name":"Little Shuriken","steam_id":76561199020477560,"connected_time":3637000000000,"state":"active","ping":70},{"user_id":488,"name":"dad vibes","steam_id":76561197990714447,"connected_time":1914000000000,"state":"active","ping":56}]},{"server_id":108,"name":"Uncletopia | Dallas | 2 | All Maps","name_short":"dal-2","host":"dal-1.us.uncletopia.com","port":27025,"enabled":true,"region":"us-central","cc":"us","latitude":32.779167,"longitude":-96.80889,"reserved":0,"last_update":"0001-01-01T00:00:00Z","name_a2s":"Uncletopia | Dallas | 2 | All Maps","protocol":17,"map":"pl_pier","folder":"tf","game":"Team Fortress","app_id":440,"player_count":23,"max_players":24,"Bots":0,"server_type":"Dedicated","server_os":"Linux","password":true,"vac":true,"version":"7882260","steam_id":85568392924469988,"keywords":["nocrits","nodmgspread","payload","uncletopia"],"game_id":440,"stv_port":27026,"stv_name":"Uncletopia | Dallas | 2 | All Maps | STV","players":[{"user_id":702,"name":"plague doctor","steam_id":76561198348387126,"connected_time":957000000000,"state":"active","ping":84},{"user_id":690,"name":"klopse","steam_id":76561198314981454,"connected_time":1459000000000,"state":"active","ping":75},{"user_id":709,"name":"Â¿skitt1eS?","steam_id":76561198330093211,"connected_time":289000000000,"state":"active","ping":64},{"user_id":701,"name":"2JZ_","steam_id":76561198064027289,"connected_time":1015000000000,"state":"active","ping":70},{"user_id":673,"name":"DragonHeart","steam_id":76561198013245625,"connected_time":2111000000000,"state":"active","ping":69},{"user_id":651,"name":"Kuvorious","steam_id":76561198153729934,"connected_time":3486000000000,"state":"active","ping":56},{"user_id":710,"name":"isucktoomuch****","steam_id":76561198075165369,"connected_time":283000000000,"state":"active","ping":85},{"user_id":707,"name":"Twissim","steam_id":76561198141842291,"connected_time":354000000000,"state":"active","ping":118},{"user_id":686,"name":"Dollar Store Coke","steam_id":76561198970866572,"connected_time":1552000000000,"state":"active","ping":65},{"user_id":711,"name":"ðŸ…œðŸ…”ðŸ…”ðŸ…šðŸ…¢ðŸ…£ðŸ…”\ufffd\ufffd\ufffd","steam_id":76561197999748343,"connected_time":271000000000,"state":"active","ping":45},{"user_id":658,"name":"AzuriousAlex","steam_id":76561198158026405,"connected_time":3181000000000,"state":"active","ping":71},{"user_id":672,"name":"illious","steam_id":76561198169925494,"connected_time":2147000000000,"state":"active","ping":84},{"user_id":657,"name":"Null | Crack Clan","steam_id":76561198895762836,"connected_time":3196000000000,"state":"active","ping":70},{"user_id":712,"name":"V5 â–£","steam_id":76561198094469642,"connected_time":269000000000,"state":"active","ping":59},{"user_id":695,"name":"MarioFazPooTis","steam_id":76561198319462783,"connected_time":1125000000000,"state":"active","ping":101},{"user_id":576,"name":"Jattiti","steam_id":76561199214217870,"connected_time":5179000000000,"state":"active","ping":78},{"user_id":708,"name":"Silly Lil Fella | trade.tf","steam_id":76561199014196854,"connected_time":321000000000,"state":"active","ping":104},{"user_id":713,"name":"capeeKo","steam_id":76561197970346623,"connected_time":160000000000,"state":"active","ping":105},{"user_id":688,"name":"Dawg","steam_id":76561198214090164,"connected_time":1545000000000,"state":"active","ping":85},{"user_id":704,"name":"mfwjuarez","steam_id":76561198856769712,"connected_time":917000000000,"state":"active","ping":64},{"user_id":706,"name":"ZerBase","steam_id":76561198145301375,"connected_time":371000000000,"state":"active","ping":45},{"user_id":714,"name":"saina","steam_id":76561198057685475,"connected_time":146000000000,"state":"active","ping":75},{"user_id":679,"name":"white woman","steam_id":76561199116679777,"connected_time":1826000000000,"state":"active","ping":71}]},{"server_id":5,"name":"Uncletopia | Frankfurt | 1 | All Maps","name_short":"frk-1","host":"frk-1.de.uncletopia.com","port":27015,"enabled":true,"region":"eu","cc":"de","latitude":50.110924,"longitude":8.682127,"reserved":0,"last_update":"0001-01-01T00:00:00Z","name_a2s":"Uncletopia | Frankfurt | 1 | All Maps","protocol":17,"map":"koth_highpass","folder":"tf","game":"Team Fortress","app_id":440,"player_count":0,"max_players":24,"Bots":0,"server_type":"Dedicated","server_os":"Linux","password":true,"vac":true,"version":"7882260","steam_id":85568392924469989,"keywords":["cp","nocrits","nodmgspread","uncletopia"],"game_id":440,"stv_port":27016,"stv_name":"Uncletopia | Frankfurt | 1 | All Maps | STV","players":null},{"server_id":110,"name":"Uncletopia | Frankfurt | 2 | All Maps","name_short":"frk-2","host":"frk-1.de.uncletopia.com","port":27025,"enabled":true,"region":"eu","cc":"de","latitude":50.110924,"longitude":8.682127,"reserved":0,"last_update":"0001-01-01T00:00:00Z","name_a2s":"Uncletopia | Frankfurt | 2 | All Maps","protocol":17,"map":"koth_viaduct","folder":"tf","game":"Team Fortress","app_id":440,"player_count":0,"max_players":24,"Bots":0,"server_type":"Dedicated","server_os":"Linux","password":true,"vac":true,"version":"7882260","steam_id":85568392924469990,"keywords":["cp","nocrits","nodmgspread","uncletopia"],"game_id":440,"stv_port":27026,"stv_name":"Uncletopia | Frankfurt | 2 | All Maps | STV","players":null},{"server_id":308,"name":"Uncletopia | Frankfurt | 3 | All Maps","name_short":"frk-3","host":"frk-1.de.uncletopia.com","port":27035,"enabled":true,"region":"eu","cc":"de","latitude":50.110924,"longitude":8.682127,"reserved":0,"last_update":"0001-01-01T00:00:00Z","name_a2s":"Uncletopia | Frankfurt | 3 | All Maps","protocol":17,"map":"koth_viaduct","folder":"tf","game":"Team Fortress","app_id":440,"player_count":0,"max_players":24,"Bots":0,"server_type":"Dedicated","server_os":"Linux","password":true,"vac":true,"version":"7882260","steam_id":85568392924504274,"keywords":["cp","nocrits","nodmgspread","uncletopia"],"game_id":440,"stv_port":27036,"stv_name":"Uncletopia | Frankfurt | 3 | All Maps | STV","players":null},{"server_id":309,"name":"Uncletopia | Frankfurt | 4 | All Maps","name_short":"frk-4","host":"frk-1.de.uncletopia.com","port":27045,"enabled":true,"region":"eu","cc":"de","latitude":50.110924,"longitude":8.682127,"reserved":0,"last_update":"0001-01-01T00:00:00Z","name_a2s":"Uncletopia | Frankfurt | 4 | All Maps","protocol":17,"map":"pl_barnblitz","folder":"tf","game":"Team Fortress","app_id":440,"player_count":0,"max_players":24,"Bots":0,"server_type":"Dedicated","server_os":"Linux","password":true,"vac":true,"version":"7882260","steam_id":85568392924504275,"keywords":["nocrits","nodmgspread","payload","uncletopia"],"game_id":440,"stv_port":27046,"stv_name":"Uncletopia | Frankfurt | 4 | All Maps | STV","players":null},{"server_id":310,"name":"Uncletopia | Frankfurt | 5 | All Maps","name_short":"frk-5","host":"frk-1.de.uncletopia.com","port":27055,"enabled":true,"region":"eu","cc":"de","latitude":50.110924,"longitude":8.682127,"reserved":0,"last_update":"0001-01-01T00:00:00Z","name_a2s":"Uncletopia | Frankfurt | 5 | All Maps","protocol":17,"map":"pl_snowycoast","folder":"tf","game":"Team Fortress","app_id":440,"player_count":0,"max_players":24,"Bots":0,"server_type":"Dedicated","server_os":"Linux","password":true,"vac":true,"version":"7882260","steam_id":85568392924504277,"keywords":["nocrits","nodmgspread","payload","uncletopia"],"game_id":440,"stv_port":27056,"stv_name":"Uncletopia | Frankfurt | 5 | All Maps | STV","players":null},{"server_id":311,"name":"Uncletopia | Frankfurt | 6 | All Maps","name_short":"frk-6","host":"frk-1.de.uncletopia.com","port":27065,"enabled":true,"region":"eu","cc":"de","latitude":50.110924,"longitude":8.682127,"reserved":0,"last_update":"0001-01-01T00:00:00Z","name_a2s":"Uncletopia | Frankfurt | 6 | All Maps","protocol":17,"map":"koth_lakeside_final","folder":"tf","game":"Team Fortress","app_id":440,"player_count":0,"max_players":24,"Bots":0,"server_type":"Dedicated","server_os":"Linux","password":true,"vac":true,"version":"7882260","steam_id":85568392924504278,"keywords":["cp","nocrits","nodmgspread","uncletopia"],"game_id":440,"stv_port":27066,"stv_name":"Uncletopia | Frankfurt | 6 | All Maps | STV","players":null},{"server_id":23,"name":"Uncletopia | Frankfurt | 7 | Stopwatch Beta","name_short":"frk-7","host":"frk-1.de.uncletopia.com","port":27075,"enabled":true,"region":"eu","cc":"de","latitude":50.110924,"longitude":8.682127,"reserved":0,"last_update":"0001-01-01T00:00:00Z","name_a2s":"Uncletopia | Frankfurt | 7 | Stopwatch Beta","protocol":17,"map":"workshop/koth_bagel_rc6.ugc2514036946","folder":"tf","game":"Team Fortress","app_id":440,"player_count":0,"max_players":24,"Bots":0,"server_type":"Dedicated","server_os":"Linux","password":true,"vac":true,"version":"7882260","steam_id":85568392924742827,"keywords":["cp","nocrits","nodmgspread","uncletopia"],"game_id":440,"stv_port":27076,"stv_name":"Uncletopia | Frankfurt | 7 | Stopwatch Beta | STV","players":null},{"server_id":24,"name":"Uncletopia | Frankfurt | 8 | Community","name_short":"frk-8","host":"frk-1.de.uncletopia.com","port":27085,"enabled":true,"region":"eu","cc":"de","latitude":50.110924,"longitude":8.682127,"reserved":0,"last_update":"0001-01-01T00:00:00Z","name_a2s":"Uncletopia | Frankfurt | 8 | Community","protocol":17,"map":"workshop/cp_fulgur_rc2a.ugc2068252300","folder":"tf","game":"Team Fortress","app_id":440,"player_count":0,"max_players":24,"Bots":0,"server_type":"Dedicated","server_os":"Linux","password":true,"vac":true,"version":"7882260","steam_id":85568392924742828,"keywords":["cp","nocrits","nodmgspread","uncletopia"],"game_id":440,"stv_port":27086,"stv_name":"Uncletopia | Frankfurt | 8 | Community | STV","players":null},{"server_id":202,"name":"Uncletopia | Hong Kong | 1 | All Maps","name_short":"hgk-1","host":"hgk-1.hk.uncletopia.com","port":27015,"enabled":true,"region":"asia","cc":"hk","latitude":22.302711,"longitude":114.177216,"reserved":0,"last_update":"0001-01-01T00:00:00Z","name_a2s":"Uncletopia | Hong Kong | 1 | All Maps","protocol":17,"map":"koth_viaduct","folder":"tf","game":"Team Fortress","app_id":440,"player_count":0,"max_players":24,"Bots":0,"server_type":"Dedicated","server_os":"Linux","password":true,"vac":true,"version":"7882260","steam_id":85568392924494504,"keywords":["cp","nocrits","nodmgspread","uncletopia"],"game_id":440,"stv_port":27016,"stv_name":"Uncletopia | Hong Kong | 1 | All Maps | STV","players":null},{"server_id":1,"name":"Uncletopia | Los Angeles | 1 | All Maps","name_short":"lax-1","host":"lax-1.us.uncletopia.com","port":27015,"enabled":true,"region":"us-west","cc":"us","latitude":33.94279,"longitude":-118.41004,"reserved":0,"last_update":"0001-01-01T00:00:00Z","name_a2s":"Uncletopia | Los Angeles | 1 | All Maps","protocol":17,"map":"pl_frontier_final","folder":"tf","game":"Team Fortress","app_id":440,"player_count":24,"max_players":24,"Bots":0,"server_type":"Dedicated","server_os":"Linux","password":true,"vac":true,"version":"7882260","steam_id":85568392924469991,"keywords":["nocrits","nodmgspread","payload","uncletopia"],"game_id":440,"stv_port":27016,"stv_name":"Uncletopia | Los Angeles | 1 | All Maps | STV","players":[{"user_id":305,"name":"Schnitz","steam_id":76561198265484253,"connected_time":5144000000000,"state":"active","ping":52},{"user_id":369,"name":"zacaroni","steam_id":76561199387124493,"connected_time":797000000000,"state":"active","ping":59},{"user_id":380,"name":"Stocking Anarchy","steam_id":76561199013422135,"connected_time":246000000000,"state":"active","ping":103},{"user_id":371,"name":"NFL.com","steam_id":76561198113405376,"connected_time":637000000000,"state":"active","ping":60},{"user_id":345,"name":"don","steam_id":76561198204410892,"connected_time":3010000000000,"state":"active","ping":99},{"user_id":383,"name":"Spaceman","steam_id":76561198349305249,"connected_time":160000000000,"state":"active","ping":83},{"user_id":349,"name":"SanitysEdge","steam_id":76561198130732813,"connected_time":2508000000000,"state":"active","ping":48},{"user_id":372,"name":"playing tf2 in a van?","steam_id":76561198380018244,"connected_time":626000000000,"state":"active","ping":137},{"user_id":364,"name":"Bonohelp","steam_id":76561199014864183,"connected_time":1845000000000,"state":"active","ping":119},{"user_id":381,"name":"Auburn","steam_id":76561198199541493,"connected_time":211000000000,"state":"active","ping":56},{"user_id":330,"name":"jayzak24","steam_id":76561198354267509,"connected_time":4230000000000,"state":"active","ping":58},{"user_id":373,"name":"Life Grips","steam_id":76561198082089317,"connected_time":486000000000,"state":"active","ping":65},{"user_id":354,"name":"[DATSâž¡] Sugar Meowth","steam_id":76561197995251793,"connected_time":2378000000000,"state":"active","ping":65},{"user_id":366,"name":"Leaf","steam_id":76561198880728513,"connected_time":1285000000000,"state":"active","ping":95},{"user_id":386,"name":"Zenire","steam_id":76561199087298510,"connected_time":106000000000,"state":"active","ping":89},{"user_id":384,"name":"Dreamzapp","steam_id":76561199084936632,"connected_time":153000000000,"state":"active","ping":66},{"user_id":385,"name":"Edboi","steam_id":76561198117849098,"connected_time":152000000000,"state":"active","ping":66},{"user_id":387,"name":"r u guys going trick or treatin","steam_id":76561199074585110,"connected_time":97000000000,"state":"active","ping":45},{"user_id":377,"name":"antlrod00","steam_id":76561199020188346,"connected_time":316000000000,"state":"active","ping":60},{"user_id":328,"name":"lker","steam_id":76561197976975075,"connected_time":4495000000000,"state":"active","ping":75},{"user_id":378,"name":"BrightOrangeMango","steam_id":76561198023144607,"connected_time":308000000000,"state":"active","ping":62},{"user_id":379,"name":"Loashes","steam_id":76561198119608299,"connected_time":298000000000,"state":"active","ping":91},{"user_id":362,"name":"Krewson","steam_id":76561199233067013,"connected_time":1944000000000,"state":"active","ping":71},{"user_id":370,"name":"Snooter","steam_id":76561198042435225,"connected_time":733000000000,"state":"active","ping":64}]},{"server_id":112,"name":"Uncletopia | Los Angeles | 2 | All Maps","name_short":"lax-2","host":"lax-1.us.uncletopia.com","port":27025,"enabled":true,"region":"us-west","cc":"us","latitude":33.94279,"longitude":-118.41004,"reserved":0,"last_update":"0001-01-01T00:00:00Z","name_a2s":"Uncletopia | Los Angeles | 2 | All Maps","protocol":17,"map":"pl_badwater","folder":"tf","game":"Team Fortress","app_id":440,"player_count":24,"max_players":24,"Bots":0,"server_type":"Dedicated","server_os":"Linux","password":true,"vac":true,"version":"7882260","steam_id":85568392924469992,"keywords":["nocrits","nodmgspread","payload","uncletopia"],"game_id":440,"stv_port":27026,"stv_name":"Uncletopia | Los Angeles | 2 | All Maps | STV","players":[{"user_id":152,"name":"HoaroBatty","steam_id":76561198120361221,"connected_time":1240000000000,"state":"active","ping":75},{"user_id":139,"name":"Avem","steam_id":76561198058763710,"connected_time":2251000000000,"state":"active","ping":45},{"user_id":141,"name":"Chongo","steam_id":76561198017604393,"connected_time":1647000000000,"state":"active","ping":46},{"user_id":155,"name":"Zippy","steam_id":76561198279229422,"connected_time":684000000000,"state":"active","ping":118},{"user_id":99,"name":"Detective KOnan","steam_id":76561198046702519,"connected_time":5286000000000,"state":"active","ping":100},{"user_id":143,"name":"H. P. Corbcraft","steam_id":76561198119470355,"connected_time":1512000000000,"state":"active","ping":84},{"user_id":144,"name":"Collyn","steam_id":76561198278496956,"connected_time":1504000000000,"state":"active","ping":76},{"user_id":90,"name":"Keb","steam_id":76561198095467734,"connected_time":5965000000000,"state":"active","ping":107},{"user_id":125,"name":"Caster","steam_id":76561198131592341,"connected_time":3414000000000,"state":"active","ping":57},{"user_id":134,"name":"flo rida","steam_id":76561198226169704,"connected_time":3067000000000,"state":"active","ping":49},{"user_id":114,"name":"Onepunchkid","steam_id":76561199235127610,"connected_time":4273000000000,"state":"active","ping":60},{"user_id":145,"name":"DAInstant","steam_id":76561198861615617,"connected_time":1497000000000,"state":"active","ping":70},{"user_id":89,"name":"HooDoo","steam_id":76561198088994018,"connected_time":6119000000000,"state":"active","ping":74},{"user_id":150,"name":"Magical.Puffin","steam_id":76561198129039275,"connected_time":1324000000000,"state":"active","ping":65},{"user_id":156,"name":"BuncusBeffer","steam_id":76561198285936616,"connected_time":672000000000,"state":"active","ping":70},{"user_id":154,"name":"Ralph Kramden (Slim Charles)","steam_id":76561197981687895,"connected_time":1081000000000,"state":"active","ping":61},{"user_id":35,"name":"nori_420","steam_id":76561199117134203,"connected_time":8812000000000,"state":"active","ping":54},{"user_id":133,"name":"J.G. Klaus","steam_id":76561198001111196,"connected_time":3194000000000,"state":"active","ping":87},{"user_id":157,"name":"Antifa Supersoldier","steam_id":76561198141816516,"connected_time":655000000000,"state":"active","ping":88},{"user_id":116,"name":"SomeRandomBetaFish","steam_id":76561198827731399,"connected_time":4270000000000,"state":"active","ping":123},{"user_id":153,"name":"toes","steam_id":76561198221151676,"connected_time":1209000000000,"state":"active","ping":79},{"user_id":43,"name":"A UsedNom","steam_id":76561198402832756,"connected_time":8628000000000,"state":"active","ping":45},{"user_id":132,"name":"starry","steam_id":76561198989740125,"connected_time":3310000000000,"state":"active","ping":145},{"user_id":159,"name":"camp3r","steam_id":76561197992870439,"connected_time":348000000000,"state":"active","ping":64}]},{"server_id":324,"name":"Uncletopia | Los Angeles | 3 | All Maps","name_short":"lax-3","host":"lax-1.us.uncletopia.com","port":27035,"enabled":true,"region":"us-west","cc":"us","latitude":33.94279,"longitude":-118.41004,"reserved":0,"last_update":"0001-01-01T00:00:00Z","name_a2s":"Uncletopia | Los Angeles | 3 | All Maps","protocol":17,"map":"cp_altitude","folder":"tf","game":"Team Fortress","app_id":440,"player_count":0,"max_players":24,"Bots":0,"server_type":"Dedicated","server_os":"Linux","password":true,"vac":true,"version":"7882260","steam_id":85568392924510198,"keywords":["cp","nocrits","nodmgspread","uncletopia"],"game_id":440,"stv_port":27036,"stv_name":"Uncletopia | Los Angeles | 3 | All Maps | STV","players":null},{"server_id":25,"name":"Uncletopia | Los Angeles | 4 | Stopwatch Beta","name_short":"lax-4","host":"lax-1.us.uncletopia.com","port":27045,"enabled":true,"region":"us-west","cc":"us","latitude":33.94279,"longitude":-118.41004,"reserved":0,"last_update":"0001-01-01T00:00:00Z","name_a2s":"Uncletopia | Los Angeles | 4 | Stopwatch Beta","protocol":17,"map":"koth_viaduct","folder":"tf","game":"Team Fortress","app_id":440,"player_count":0,"max_players":24,"Bots":0,"server_type":"Dedicated","server_os":"Linux","password":true,"vac":true,"version":"7882260","steam_id":85568392924510199,"keywords":["cp","nocrits","nodmgspread","uncletopia"],"game_id":440,"stv_port":27046,"stv_name":"Uncletopia | Los Angeles | 4 | Stopwatch Beta | STV","players":null},{"server_id":11,"name":"Uncletopia | London | 1 | All Maps","name_short":"lon-1","host":"lon-1.uk.uncletopia.com","port":27015,"enabled":true,"region":"eu","cc":"gb","latitude":51.509865,"longitude":-0.118092,"reserved":0,"last_update":"0001-01-01T00:00:00Z","name_a2s":"Uncletopia | London | 1 | All Maps","protocol":17,"map":"pl_snowycoast","folder":"tf","game":"Team Fortress","app_id":440,"player_count":24,"max_players":24,"Bots":0,"server_type":"Dedicated","server_os":"Linux","password":true,"vac":true,"version":"7882260","steam_id":85568392924367362,"keywords":["nocrits","nodmgspread","payload","uncletopia"],"game_id":440,"stv_port":27016,"stv_name":"Uncletopia | London | 1 | All Maps | STV","players":[{"user_id":1023,"name":"Cynosure","steam_id":76561198121286517,"connected_time":4130000000000,"state":"active","ping":44},{"user_id":1060,"name":"Frazzle","steam_id":76561198262577951,"connected_time":931000000000,"state":"active","ping":70},{"user_id":1024,"name":"hmscole09","steam_id":76561198811362788,"connected_time":4128000000000,"state":"active","ping":55},{"user_id":1048,"name":"shits in urinals","steam_id":76561199480942903,"connected_time":2158000000000,"state":"active","ping":75},{"user_id":1066,"name":"dirty rascal","steam_id":76561198000871038,"connected_time":462000000000,"state":"active","ping":48},{"user_id":1017,"name":"Evix","steam_id":76561198418450671,"connected_time":4780000000000,"state":"active","ping":64},{"user_id":1045,"name":"Veltek","steam_id":76561198112681438,"connected_time":2203000000000,"state":"active","ping":91},{"user_id":1057,"name":"Glitcher","steam_id":76561198141465292,"connected_time":1768000000000,"state":"active","ping":89},{"user_id":1027,"name":"Zlyron","steam_id":76561198951447833,"connected_time":3939000000000,"state":"active","ping":88},{"user_id":1068,"name":"B O R F","steam_id":76561197962461333,"connected_time":327000000000,"state":"active","ping":46},{"user_id":926,"name":"beebo","steam_id":76561199120277007,"connected_time":11546000000000,"state":"active","ping":53},{"user_id":1042,"name":":D","steam_id":76561198083505031,"connected_time":2950000000000,"state":"active","ping":44},{"user_id":1051,"name":"killbind irl","steam_id":76561198180637374,"connected_time":1968000000000,"state":"active","ping":91},{"user_id":1052,"name":"Pariah","steam_id":76561198300479600,"connected_time":1958000000000,"state":"active","ping":119},{"user_id":1044,"name":"weedda","steam_id":76561198449953655,"connected_time":2404000000000,"state":"active","ping":75},{"user_id":1047,"name":"Uncletopia's Scariest Pootis","steam_id":76561197970114051,"connected_time":2188000000000,"state":"active","ping":44},{"user_id":1058,"name":"SirSangoor","steam_id":76561198044462559,"connected_time":1752000000000,"state":"active","ping":116},{"user_id":1064,"name":"t.tv/Montreetor","steam_id":76561198088729562,"connected_time":576000000000,"state":"active","ping":61},{"user_id":1063,"name":"Alice in Rubberland","steam_id":76561198087328346,"connected_time":707000000000,"state":"active","ping":134},{"user_id":1038,"name":"CakeMan","steam_id":76561198070701305,"connected_time":3049000000000,"state":"active","ping":146},{"user_id":1025,"name":"t.tv/anguishjumps","steam_id":76561198086442571,"connected_time":4096000000000,"state":"active","ping":49},{"user_id":1069,"name":"SuperBob103","steam_id":76561199175360012,"connected_time":306000000000,"state":"active","ping":56},{"user_id":1059,"name":"the willy","steam_id":76561199179563808,"connected_time":1111000000000,"state":"active","ping":154},{"user_id":1040,"name":"etc","steam_id":76561197998394797,"connected_time":3046000000000,"state":"active","ping":52}]},{"server_id":114,"name":"Uncletopia | London | 2 | All Maps","name_short":"lon-2","host":"lon-1.uk.uncletopia.com","port":27025,"enabled":true,"region":"eu","cc":"gb","latitude":51.509865,"longitude":-0.118092,"reserved":0,"last_update":"0001-01-01T00:00:00Z","name_a2s":"Uncletopia | London | 2 | All Maps","protocol":17,"map":"cp_sunshine","folder":"tf","game":"Team Fortress","app_id":440,"player_count":0,"max_players":24,"Bots":0,"server_type":"Dedicated","server_os":"Linux","password":true,"vac":true,"version":"7882260","steam_id":85568392924470941,"keywords":["cp","nocrits","nodmgspread","uncletopia"],"game_id":440,"stv_port":27026,"stv_name":"Uncletopia | London | 2 | All Maps | STV","players":null},{"server_id":320,"name":"Uncletopia | London | 3 | All Maps","name_short":"lon-3","host":"lon-1.uk.uncletopia.com","port":27035,"enabled":true,"region":"eu","cc":"gb","latitude":51.509865,"longitude":-0.118092,"reserved":0,"last_update":"0001-01-01T00:00:00Z","name_a2s":"Uncletopia | London | 3 | All Maps","protocol":17,"map":"koth_lakeside_final","folder":"tf","game":"Team Fortress","app_id":440,"player_count":0,"max_players":24,"Bots":0,"server_type":"Dedicated","server_os":"Linux","password":true,"vac":true,"version":"7882260","steam_id":85568392924510192,"keywords":["cp","nocrits","nodmgspread","uncletopia"],"game_id":440,"stv_port":27036,"stv_name":"Uncletopia | London | 3 | All Maps | STV","players":null},{"server_id":321,"name":"Uncletopia | London | 4 | All Maps","name_short":"lon-4","host":"lon-1.uk.uncletopia.com","port":27045,"enabled":true,"region":"eu","cc":"gb","latitude":51.509865,"longitude":-0.118092,"reserved":0,"last_update":"0001-01-01T00:00:00Z","name_a2s":"Uncletopia | London | 4 | All Maps","protocol":17,"map":"pl_badwater","folder":"tf","game":"Team Fortress","app_id":440,"player_count":0,"max_players":24,"Bots":0,"server_type":"Dedicated","server_os":"Linux","password":true,"vac":true,"version":"7882260","steam_id":85568392924510193,"keywords":["nocrits","nodmgspread","payload","uncletopia"],"game_id":440,"stv_port":27046,"stv_name":"Uncletopia | London | 4 | All Maps | STV","players":null},{"server_id":21,"name":"Uncletopia | London | 5 | All Maps","name_short":"lon-5","host":"lon-1.uk.uncletopia.com","port":27055,"enabled":true,"region":"eu","cc":"gb","latitude":51.509865,"longitude":-0.118092,"reserved":0,"last_update":"0001-01-01T00:00:00Z","name_a2s":"Uncletopia | London | 5 | All Maps","protocol":17,"map":"pl_upward","folder":"tf","game":"Team Fortress","app_id":440,"player_count":24,"max_players":24,"Bots":0,"server_type":"Dedicated","server_os":"Linux","password":true,"vac":true,"version":"7882260","steam_id":85568392924742829,"keywords":["nocrits","nodmgspread","payload","uncletopia"],"game_id":440,"stv_port":27056,"stv_name":"Uncletopia | London | 5 | All Maps | STV","players":[{"user_id":720,"name":"Pythius","steam_id":76561199435854673,"connected_time":4204000000000,"state":"active","ping":45},{"user_id":746,"name":"KittyKate â¤","steam_id":76561198116340817,"connected_time":3243000000000,"state":"active","ping":60},{"user_id":755,"name":"ja","steam_id":76561199228540618,"connected_time":2788000000000,"state":"active","ping":78},{"user_id":783,"name":"triplePunk","steam_id":76561198119449463,"connected_time":580000000000,"state":"active","ping":60},{"user_id":757,"name":"1 toke 4 mars bars","steam_id":76561198056460000,"connected_time":2735000000000,"state":"active","ping":45},{"user_id":796,"name":"tiia","steam_id":76561198046196005,"connected_time":184000000000,"state":"active","ping":54},{"user_id":801,"name":"I_Forgot_My_Name","steam_id":76561198173424578,"connected_time":7000000000,"state":"active","ping":88},{"user_id":797,"name":"Leonic","steam_id":76561198067699203,"connected_time":158000000000,"state":"active","ping":48},{"user_id":758,"name":"Doctor Marijuana","steam_id":76561198288289879,"connected_time":2713000000000,"state":"active","ping":45},{"user_id":800,"name":"MITE FUZZ","steam_id":76561198008653550,"connected_time":13000000000,"state":"spawning","ping":185},{"user_id":784,"name":"minn","steam_id":76561198099101232,"connected_time":535000000000,"state":"active","ping":51},{"user_id":760,"name":"Philosophos_Alpha","steam_id":76561198951264580,"connected_time":2693000000000,"state":"active","ping":107},{"user_id":786,"name":"Dinner","steam_id":76561198093689301,"connected_time":487000000000,"state":"active","ping":48},{"user_id":787,"name":"esports gamer","steam_id":76561198088426580,"connected_time":467000000000,"state":"active","ping":72},{"user_id":777,"name":"jonbob","steam_id":76561197963506620,"connected_time":1163000000000,"state":"active","ping":49},{"user_id":789,"name":"man","steam_id":76561198064193305,"connected_time":453000000000,"state":"active","ping":48},{"user_id":778,"name":"senior pomidor","steam_id":76561198123659806,"connected_time":845000000000,"state":"active","ping":99},{"user_id":724,"name":"Steen","steam_id":76561198122992510,"connected_time":4151000000000,"state":"active","ping":44},{"user_id":790,"name":"Matteo Besho","steam_id":76561199159657855,"connected_time":279000000000,"state":"active","ping":70},{"user_id":794,"name":"FifiQ","steam_id":76561198838130862,"connected_time":260000000000,"state":"active","ping":74},{"user_id":765,"name":"Cosmetic brain","steam_id":76561198055936410,"connected_time":2442000000000,"state":"active","ping":83},{"user_id":795,"name":"Jaydyn","steam_id":76561198140326797,"connected_time":227000000000,"state":"active","ping":137},{"user_id":799,"name":"munchkinmas","steam_id":76561198877359527,"connected_time":131000000000,"state":"active","ping":53},{"user_id":767,"name":"Jugg","steam_id":76561198384417257,"connected_time":2377000000000,"state":"active","ping":56}]},{"server_id":22,"name":"Uncletopia | London | 6 | All Maps","name_short":"lon-6","host":"lon-1.uk.uncletopia.com","port":27065,"enabled":true,"region":"eu","cc":"gb","latitude":51.509865,"longitude":-0.118092,"reserved":0,"last_update":"0001-01-01T00:00:00Z","name_a2s":"Uncletopia | London | 6 | All Maps","protocol":17,"map":"koth_cascade","folder":"tf","game":"Team Fortress","app_id":440,"player_count":0,"max_players":24,"Bots":0,"server_type":"Dedicated","server_os":"Linux","password":true,"vac":true,"version":"7882260","steam_id":85568392924742830,"keywords":["cp","nocrits","nodmgspread","uncletopia"],"game_id":440,"stv_port":27066,"stv_name":"Uncletopia | London | 6 | All Maps | STV","players":null},{"server_id":40,"name":"Uncletopia | London | 7 | No Payload","name_short":"lon-7","host":"lon-1.uk.uncletopia.com","port":27075,"enabled":true,"region":"eu","cc":"gb","latitude":51.509865,"longitude":-0.118092,"reserved":0,"last_update":"0001-01-01T00:00:00Z","name_a2s":"Uncletopia | London | 7 | No Payload","protocol":17,"map":"koth_viaduct","folder":"tf","game":"Team Fortress","app_id":440,"player_count":0,"max_players":24,"Bots":0,"server_type":"Dedicated","server_os":"Linux","password":true,"vac":true,"version":"7882260","steam_id":85568392924964314,"keywords":["cp","nocrits","nodmgspread","uncletopia"],"game_id":440,"stv_port":27076,"stv_name":"Uncletopia | London | 7 | No Payload | STV","players":null},{"server_id":41,"name":"Uncletopia | London | 8 | Community","name_short":"lon-8","host":"lon-1.uk.uncletopia.com","port":27085,"enabled":true,"region":"eu","cc":"gb","latitude":51.509865,"longitude":-0.118092,"reserved":0,"last_update":"0001-01-01T00:00:00Z","name_a2s":"Uncletopia | London | 8 | Community","protocol":17,"map":"workshop/koth_bagel_rc6.ugc2514036946","folder":"tf","game":"Team Fortress","app_id":440,"player_count":0,"max_players":24,"Bots":0,"server_type":"Dedicated","server_os":"Linux","password":true,"vac":true,"version":"7882260","steam_id":85568392924964315,"keywords":["cp","nocrits","nodmgspread","uncletopia"],"game_id":440,"stv_port":27086,"stv_name":"Uncletopia | London | 8 | Community | STV","players":null},{"server_id":300,"name":"Uncletopia | MontrÃ©al | 1 | All Maps","name_short":"mtl-1","host":"mtl-1.ca.uncletopia.com","port":27015,"enabled":true,"region":"us-east","cc":"ca","latitude":45.50889,"longitude":-73.56167,"reserved":0,"last_update":"0001-01-01T00:00:00Z","name_a2s":"Uncletopia | MontrÃ©al | 1 | All Maps","protocol":17,"map":"koth_cascade","folder":"tf","game":"Team Fortress","app_id":440,"player_count":0,"max_players":24,"Bots":0,"server_type":"Dedicated","server_os":"Linux","password":true,"vac":true,"version":"7882260","steam_id":85568392924500087,"keywords":["cp","nocrits","nodmgspread","uncletopia"],"game_id":440,"stv_port":27016,"stv_name":"Uncletopia | MontrÃ©al | 1 | All Maps | STV","players":null},{"server_id":301,"name":"Uncletopia | MontrÃ©al | 2 | All Maps","name_short":"mtl-2","host":"mtl-1.ca.uncletopia.com","port":27025,"enabled":true,"region":"us-east","cc":"ca","latitude":45.50889,"longitude":-73.56167,"reserved":0,"last_update":"0001-01-01T00:00:00Z","name_a2s":"Uncletopia | MontrÃ©al | 2 | All Maps","protocol":17,"map":"pl_snowycoast","folder":"tf","game":"Team Fortress","app_id":440,"player_count":0,"max_players":24,"Bots":0,"server_type":"Dedicated","server_os":"Linux","password":true,"vac":true,"version":"7882260","steam_id":85568392924500088,"keywords":["nocrits","nodmgspread","payload","uncletopia"],"game_id":440,"stv_port":27026,"stv_name":"Uncletopia | MontrÃ©al | 2 | All Maps | STV","players":null},{"server_id":302,"name":"Uncletopia | MontrÃ©al | 3 | All Maps","name_short":"mtl-3","host":"mtl-1.ca.uncletopia.com","port":27035,"enabled":true,"region":"us-east","cc":"ca","latitude":45.50889,"longitude":-73.56167,"reserved":0,"last_update":"0001-01-01T00:00:00Z","name_a2s":"Uncletopia | MontrÃ©al | 3 | All Maps","protocol":17,"map":"koth_viaduct","folder":"tf","game":"Team Fortress","app_id":440,"player_count":1,"max_players":24,"Bots":0,"server_type":"Dedicated","server_os":"Linux","password":true,"vac":true,"version":"7882260","steam_id":85568392924500089,"keywords":["cp","nocrits","nodmgspread","uncletopia"],"game_id":440,"stv_port":27036,"stv_name":"Uncletopia | MontrÃ©al | 3 | All Maps | STV","players":[{"user_id":10,"name":"Combatspok","steam_id":76561197971598115,"connected_time":206000000000,"state":"active","ping":41}]},{"server_id":303,"name":"Uncletopia | MontrÃ©al | 4 | No Payload","name_short":"mtl-4","host":"mtl-1.ca.uncletopia.com","port":27045,"enabled":true,"region":"us-east","cc":"ca","latitude":45.50889,"longitude":-73.56167,"reserved":0,"last_update":"0001-01-01T00:00:00Z","name_a2s":"Uncletopia | MontrÃ©al | 4 | No Payload","protocol":17,"map":"koth_highpass","folder":"tf","game":"Team Fortress","app_id":440,"player_count":0,"max_players":24,"Bots":0,"server_type":"Dedicated","server_os":"Linux","password":true,"vac":true,"version":"7882260","steam_id":85568392924500090,"keywords":["cp","nocrits","nodmgspread","uncletopia"],"game_id":440,"stv_port":27046,"stv_name":"Uncletopia | MontrÃ©al | 4 | No Payload | STV","players":null},{"server_id":13,"name":"Uncletopia | New York City | 1 | All Maps","name_short":"nyc-1","host":"nyc-1.us.uncletopia.com","port":27015,"enabled":true,"region":"us-east","cc":"us","latitude":40.73061,"longitude":-73.93524,"reserved":0,"last_update":"0001-01-01T00:00:00Z","name_a2s":"Uncletopia | New York City | 1 | All Maps","protocol":17,"map":"cp_dustbowl","folder":"tf","game":"Team Fortress","app_id":440,"player_count":24,"max_players":24,"Bots":0,"server_type":"Dedicated","server_os":"Linux","password":true,"vac":true,"version":"7882260","steam_id":85568392924469993,"keywords":["cp","nocrits","nodmgspread","uncletopia"],"game_id":440,"stv_port":27016,"stv_name":"Uncletopia | New York City | 1 | All Maps | STV","players":[{"user_id":311,"name":"concrete_car","steam_id":76561198388207363,"connected_time":1741000000000,"state":"active","ping":65},{"user_id":325,"name":"kman_kangaroo","steam_id":76561199379271462,"connected_time":596000000000,"state":"active","ping":75},{"user_id":298,"name":"Homura Simp","steam_id":76561198246080762,"connected_time":2837000000000,"state":"active","ping":46},{"user_id":308,"name":"Turk Turkleton","steam_id":76561198073265101,"connected_time":2013000000000,"state":"active","ping":67},{"user_id":328,"name":"SirCleric","steam_id":76561198353556457,"connected_time":335000000000,"state":"active","ping":57},{"user_id":294,"name":"Fishman_200","steam_id":76561198152455167,"connected_time":2942000000000,"state":"active","ping":59},{"user_id":329,"name":"SALTe","steam_id":76561197996295408,"connected_time":289000000000,"state":"active","ping":90},{"user_id":317,"name":"Gary Sinfeld","steam_id":76561198042274074,"connected_time":1225000000000,"state":"active","ping":120},{"user_id":292,"name":"Heropon","steam_id":76561198105224481,"connected_time":3363000000000,"state":"active","ping":66},{"user_id":268,"name":"Carl, Good to see you","steam_id":76561198070574075,"connected_time":5018000000000,"state":"active","ping":78},{"user_id":319,"name":"you forgot the sauce","steam_id":76561198387016713,"connected_time":1194000000000,"state":"active","ping":65},{"user_id":286,"name":"TheNickster99","steam_id":76561198054513753,"connected_time":3443000000000,"state":"active","ping":53},{"user_id":332,"name":"Poppeloco","steam_id":76561199201527202,"connected_time":161000000000,"state":"active","ping":258},{"user_id":322,"name":"Queso2469","steam_id":76561197993024580,"connected_time":721000000000,"state":"active","ping":54},{"user_id":331,"name":"Ice Jackal","steam_id":76561197986979870,"connected_time":223000000000,"state":"active","ping":82},{"user_id":326,"name":"Kalbor87","steam_id":76561198314673987,"connected_time":450000000000,"state":"active","ping":90},{"user_id":245,"name":"ë¼ë‹ˆ","steam_id":76561198399201495,"connected_time":6513000000000,"state":"active","ping":105},{"user_id":318,"name":"A Normal Wheelchair","steam_id":76561199454378870,"connected_time":1198000000000,"state":"active","ping":73},{"user_id":327,"name":"Gentoo Linux Gaming","steam_id":76561197999657118,"connected_time":394000000000,"state":"active","ping":74},{"user_id":323,"name":"meggy","steam_id":76561199084466907,"connected_time":636000000000,"state":"active","ping":65},{"user_id":304,"name":"n8","steam_id":76561198306380767,"connected_time":2460000000000,"state":"active","ping":59},{"user_id":248,"name":"Bananadu","steam_id":76561198078062042,"connected_time":6347000000000,"state":"active","ping":45},{"user_id":321,"name":"bepo","steam_id":76561199029030831,"connected_time":972000000000,"state":"active","ping":64},{"user_id":291,"name":"Redninka","steam_id":76561198426721366,"connected_time":3381000000000,"state":"active","ping":59}]},{"server_id":14,"name":"Uncletopia | New York City | 2 | All Maps","name_short":"nyc-2","host":"nyc-1.us.uncletopia.com","port":27025,"enabled":true,"region":"us-east","cc":"us","latitude":40.73061,"longitude":-73.93524,"reserved":0,"last_update":"0001-01-01T00:00:00Z","name_a2s":"Uncletopia | New York City | 2 | All Maps","protocol":17,"map":"plr_hightower","folder":"tf","game":"Team Fortress","app_id":440,"player_count":24,"max_players":24,"Bots":0,"server_type":"Dedicated","server_os":"Linux","password":true,"vac":true,"version":"7882260","steam_id":85568392924469994,"keywords":["nocrits","nodmgspread","payload","uncletopia"],"game_id":440,"stv_port":27026,"stv_name":"Uncletopia | New York City | 2 | All Maps | STV","players":[{"user_id":301,"name":"mashallah","steam_id":76561198075111427,"connected_time":683000000000,"state":"active","ping":67},{"user_id":295,"name":"Mr_Frosty","steam_id":76561199380389079,"connected_time":1890000000000,"state":"active","ping":76},{"user_id":312,"name":"mike","steam_id":76561198099412571,"connected_time":206000000000,"state":"active","ping":46},{"user_id":314,"name":"sigmoodus hamoodus gardoodus","steam_id":76561198222776116,"connected_time":133000000000,"state":"active","ping":68},{"user_id":290,"name":"0","steam_id":76561198046065237,"connected_time":2396000000000,"state":"active","ping":58},{"user_id":315,"name":"Cj","steam_id":76561198412786186,"connected_time":115000000000,"state":"active","ping":109},{"user_id":316,"name":"Spinning Robo","steam_id":76561197995928555,"connected_time":107000000000,"state":"active","ping":76},{"user_id":299,"name":"Sky","steam_id":76561198145016581,"connected_time":1101000000000,"state":"active","ping":61},{"user_id":317,"name":"Ch4rl33","steam_id":76561198037008621,"connected_time":104000000000,"state":"active","ping":65},{"user_id":302,"name":"scrotal recall","steam_id":76561198135945598,"connected_time":669000000000,"state":"active","ping":90},{"user_id":248,"name":"Dr.Holiday","steam_id":76561198353465692,"connected_time":4615000000000,"state":"active","ping":61},{"user_id":285,"name":"Fatal Top Deficiency","steam_id":76561198141738612,"connected_time":2728000000000,"state":"active","ping":84},{"user_id":318,"name":"zanutty","steam_id":76561198092418389,"connected_time":96000000000,"state":"active","ping":52},{"user_id":319,"name":"cesarcasv","steam_id":76561198325641258,"connected_time":95000000000,"state":"active","ping":116},{"user_id":320,"name":"LalitoTV","steam_id":76561198334302951,"connected_time":75000000000,"state":"active","ping":130},{"user_id":321,"name":"Centipede on a Game Boy","steam_id":76561199016285746,"connected_time":66000000000,"state":"active","ping":106},{"user_id":306,"name":"Bolarroza","steam_id":76561198806968845,"connected_time":621000000000,"state":"active","ping":32},{"user_id":259,"name":"Bad Medic Buddy","steam_id":76561198093222632,"connected_time":4206000000000,"state":"active","ping":100},{"user_id":277,"name":"alset333","steam_id":76561198405345260,"connected_time":3254000000000,"state":"active","ping":45},{"user_id":297,"name":"uzr","steam_id":76561198799343084,"connected_time":1621000000000,"state":"active","ping":115},{"user_id":282,"name":"N U T T","steam_id":76561198139661511,"connected_time":3042000000000,"state":"active","ping":89},{"user_id":322,"name":"afterlife leading bio-exorcist","steam_id":76561199100342013,"connected_time":61000000000,"state":"active","ping":117},{"user_id":177,"name":"pisslow peter","steam_id":76561198153669555,"connected_time":8888000000000,"state":"active","ping":72}]},{"server_id":15,"name":"Uncletopia | New York City | 3 | Stopwatch Beta","name_short":"nyc-3","host":"nyc-1.us.uncletopia.com","port":27035,"enabled":true,"region":"us-east","cc":"us","latitude":40.73061,"longitude":-73.93524,"reserved":0,"last_update":"0001-01-01T00:00:00Z","name_a2s":"Uncletopia | New York City | 3 | Stopwatch Beta","protocol":17,"map":"pl_borneo","folder":"tf","game":"Team Fortress","app_id":440,"player_count":0,"max_players":24,"Bots":0,"server_type":"Dedicated","server_os":"Linux","password":true,"vac":true,"version":"7882260","steam_id":85568392924742820,"keywords":["nocrits","nodmgspread","payload","uncletopia"],"game_id":440,"stv_port":27036,"stv_name":"Uncletopia | New York City | 3 | Stopwatch Beta | STV","players":null},{"server_id":16,"name":"Uncletopia | New York City | 4 | Community","name_short":"nyc-4","host":"nyc-1.us.uncletopia.com","port":27045,"enabled":true,"region":"us-east","cc":"us","latitude":40.73061,"longitude":-73.93524,"reserved":0,"last_update":"0001-01-01T00:00:00Z","name_a2s":"Uncletopia | New York City | 4 | Community","protocol":17,"map":"workshop/pl_cactuscanyon_redux_final2.ugc2579644293","folder":"tf","game":"Team Fortress","app_id":440,"player_count":0,"max_players":24,"Bots":0,"server_type":"Dedicated","server_os":"Linux","password":true,"vac":true,"version":"7882260","steam_id":85568392924742821,"keywords":["nocrits","nodmgspread","payload","uncletopia"],"game_id":440,"stv_port":27046,"stv_name":"Uncletopia | New York City | 4 | Community | STV","players":null},{"server_id":142,"name":"Uncletopia | SÃ£o Paulo | 1 | All Maps","name_short":"sao-1","host":"sao-1.br.uncletopia.com","port":27015,"enabled":true,"region":"sa","cc":"br","latitude":-23.533773,"longitude":-46.62529,"reserved":0,"last_update":"0001-01-01T00:00:00Z","name_a2s":"Uncletopia | SÃ£o Paulo | 1 | All Maps","protocol":17,"map":"pl_pier","folder":"tf","game":"Team Fortress","app_id":440,"player_count":0,"max_players":24,"Bots":0,"server_type":"Dedicated","server_os":"Linux","password":true,"vac":true,"version":"7882260","steam_id":85568392924469996,"keywords":["nocrits","nodmgspread","payload","uncletopia"],"game_id":440,"stv_port":27016,"stv_name":"Uncletopia | SÃ£o Paulo | 1 | All Maps | STV","players":null},{"server_id":143,"name":"Uncletopia | SÃ£o Paulo | 2 | All Maps","name_short":"sao-2","host":"sao-2.br.uncletopia.com","port":27015,"enabled":true,"region":"sa","cc":"br","latitude":-23.533773,"longitude":-46.62529,"reserved":0,"last_update":"0001-01-01T00:00:00Z","name_a2s":"Uncletopia | SÃ£o Paulo | 2 | All Maps","protocol":17,"map":"pl_barnblitz","folder":"tf","game":"Team Fortress","app_id":440,"player_count":0,"max_players":24,"Bots":0,"server_type":"Dedicated","server_os":"Linux","password":true,"vac":true,"version":"7882260","steam_id":85568392924485349,"keywords":["nocrits","nodmgspread","payload","uncletopia"],"game_id":440,"stv_port":27016,"stv_name":"Uncletopia | SÃ£o Paulo | 2 | All Maps | STV","players":null},{"server_id":7,"name":"Uncletopia | Seattle | 1 | All Maps","name_short":"sea-1","host":"sea-1.us.uncletopia.com","port":27015,"enabled":true,"region":"us-west","cc":"us","latitude":47.608013,"longitude":-122.33517,"reserved":0,"last_update":"0001-01-01T00:00:00Z","name_a2s":"Uncletopia | Seattle | 1 | All Maps","protocol":17,"map":"cp_dustbowl","folder":"tf","game":"Team Fortress","app_id":440,"player_count":23,"max_players":24,"Bots":0,"server_type":"Dedicated","server_os":"Linux","password":true,"vac":true,"version":"7882260","steam_id":85568392924469997,"keywords":["cp","nocrits","nodmgspread","uncletopia"],"game_id":440,"stv_port":27016,"stv_name":"Uncletopia | Seattle | 1 | All Maps | STV","players":[{"user_id":479,"name":"[TrC] Dackstrus","steam_id":76561197973518509,"connected_time":297000000000,"state":"active","ping":56},{"user_id":470,"name":"Reggie","steam_id":76561198835737236,"connected_time":1101000000000,"state":"active","ping":115},{"user_id":400,"name":"Honeybunch","steam_id":76561198014850580,"connected_time":4641000000000,"state":"active","ping":43},{"user_id":482,"name":"cassielee13","steam_id":76561198272718759,"connected_time":138000000000,"state":"active","ping":65},{"user_id":458,"name":"Mina's Ninas","steam_id":76561198046502179,"connected_time":1683000000000,"state":"active","ping":87},{"user_id":442,"name":"Integral","steam_id":76561198158225481,"connected_time":2210000000000,"state":"active","ping":68},{"user_id":483,"name":"BlazedBunny","steam_id":76561198243610560,"connected_time":107000000000,"state":"active","ping":70},{"user_id":464,"name":"Qas","steam_id":76561198067564482,"connected_time":1136000000000,"state":"active","ping":75},{"user_id":469,"name":"merkury731","steam_id":76561198110565430,"connected_time":1106000000000,"state":"active","ping":114},{"user_id":478,"name":"[TrC] Nosy","steam_id":76561197978859310,"connected_time":303000000000,"state":"active","ping":61},{"user_id":462,"name":"âœ¿ Flores","steam_id":76561198106938500,"connected_time":1310000000000,"state":"active","ping":82},{"user_id":471,"name":"HiFivr","steam_id":76561198285190162,"connected_time":1097000000000,"state":"active","ping":65},{"user_id":417,"name":"Jorge","steam_id":76561198118227556,"connected_time":4006000000000,"state":"active","ping":98},{"user_id":480,"name":"Bendidy","steam_id":76561198041964300,"connected_time":242000000000,"state":"active","ping":71},{"user_id":461,"name":"sammy -bt","steam_id":76561199001307670,"connected_time":1442000000000,"state":"active","ping":57},{"user_id":457,"name":"Keamy","steam_id":76561199471434875,"connected_time":1717000000000,"state":"active","ping":45},{"user_id":472,"name":"Greskrendtregk","steam_id":76561197969553142,"connected_time":1080000000000,"state":"active","ping":71},{"user_id":465,"name":"Chairdog","steam_id":76561197980385816,"connected_time":1135000000000,"state":"active","ping":59},{"user_id":473,"name":"Haydob13","steam_id":76561198110378191,"connected_time":780000000000,"state":"active","ping":56},{"user_id":481,"name":"lo","steam_id":76561199011185438,"connected_time":242000000000,"state":"active","ping":100},{"user_id":443,"name":"ever your fool","steam_id":76561198042913843,"connected_time":2176000000000,"state":"active","ping":54},{"user_id":455,"name":"Bald Rice","steam_id":76561199019142767,"connected_time":2010000000000,"state":"active","ping":55},{"user_id":456,"name":"...","steam_id":76561198121508845,"connected_time":1997000000000,"state":"active","ping":88}]},{"server_id":119,"name":"Uncletopia | Seattle | 2 | All Maps","name_short":"sea-2","host":"sea-1.us.uncletopia.com","port":27025,"enabled":true,"region":"us-west","cc":"us","latitude":47.608013,"longitude":-122.33517,"reserved":0,"last_update":"0001-01-01T00:00:00Z","name_a2s":"Uncletopia | Seattle | 2 | All Maps","protocol":17,"map":"pl_upward","folder":"tf","game":"Team Fortress","app_id":440,"player_count":24,"max_players":24,"Bots":0,"server_type":"Dedicated","server_os":"Linux","password":true,"vac":true,"version":"7882260","steam_id":85568392924469998,"keywords":["nocrits","nodmgspread","payload","uncletopia"],"game_id":440,"stv_port":27026,"stv_name":"Uncletopia | Seattle | 2 | All Maps | STV","players":[{"user_id":271,"name":"Plague of locusts","steam_id":76561198217229039,"connected_time":3702000000000,"state":"active","ping":49},{"user_id":316,"name":"Socialism Enjoyer","steam_id":76561197991817974,"connected_time":773000000000,"state":"active","ping":69},{"user_id":314,"name":"Jasmine Rice","steam_id":76561198163163590,"connected_time":958000000000,"state":"active","ping":71},{"user_id":305,"name":"team foolery 2","steam_id":76561199118049168,"connected_time":1698000000000,"state":"active","ping":76},{"user_id":320,"name":"Ozzyhalen","steam_id":76561198025207814,"connected_time":381000000000,"state":"active","ping":86},{"user_id":302,"name":"John Johnson","steam_id":76561198347510093,"connected_time":1820000000000,"state":"active","ping":63},{"user_id":264,"name":"lil_blu_elephant","steam_id":76561198272955552,"connected_time":4050000000000,"state":"active","ping":84},{"user_id":310,"name":"|-HyperCube-|","steam_id":76561198167133597,"connected_time":1076000000000,"state":"active","ping":79},{"user_id":324,"name":"âŒžpizzaguyâŒ","steam_id":76561197963710485,"connected_time":248000000000,"state":"active","ping":60},{"user_id":325,"name":"Mom","steam_id":76561198207936000,"connected_time":119000000000,"state":"active","ping":60},{"user_id":301,"name":"Tibetan Pop Star","steam_id":76561198844903984,"connected_time":1822000000000,"state":"active","ping":84},{"user_id":319,"name":"geyrats","steam_id":76561198042941628,"connected_time":493000000000,"state":"active","ping":82},{"user_id":221,"name":"chicken wit dah eggrow","steam_id":76561198115458307,"connected_time":6939000000000,"state":"active","ping":75},{"user_id":291,"name":"Surfing Garchomp","steam_id":76561199107236884,"connected_time":2237000000000,"state":"active","ping":51},{"user_id":249,"name":"Smuckers Jelly","steam_id":76561198066114874,"connected_time":4733000000000,"state":"active","ping":57},{"user_id":303,"name":"ClosetBotany","steam_id":76561198088324821,"connected_time":1816000000000,"state":"active","ping":57},{"user_id":312,"name":"Linkletter","steam_id":76561197970292524,"connected_time":1063000000000,"state":"active","ping":40},{"user_id":322,"name":"JellyParrot","steam_id":76561199190990163,"connected_time":340000000000,"state":"active","ping":117},{"user_id":253,"name":"biscuit","steam_id":76561198149443710,"connected_time":4684000000000,"state":"active","ping":87},{"user_id":309,"name":"Strikerbolt","steam_id":76561199095622897,"connected_time":1104000000000,"state":"active","ping":90},{"user_id":315,"name":"â™¥ Milo Stefferson â™¥ (Soupca","steam_id":76561198056269538,"connected_time":809000000000,"state":"active","ping":62},{"user_id":298,"name":"Idontknow","steam_id":76561199207044048,"connected_time":1993000000000,"state":"active","ping":43},{"user_id":283,"name":"Faefanger","steam_id":76561198201871002,"connected_time":2736000000000,"state":"active","ping":64}]},{"server_id":406,"name":"Uncletopia | Seattle | 3 | Stopwatch Beta","name_short":"sea-3","host":"sea-1.us.uncletopia.com","port":27035,"enabled":true,"region":"us-west","cc":"us","latitude":47.608013,"longitude":-122.33517,"reserved":0,"last_update":"0001-01-01T00:00:00Z","name_a2s":"Uncletopia | Seattle | 3 | Stopwatch Beta","protocol":17,"map":"workshop/koth_ramjam_rc1.ugc459778887","folder":"tf","game":"Team Fortress","app_id":440,"player_count":17,"max_players":24,"Bots":0,"server_type":"Dedicated","server_os":"Linux","password":true,"vac":true,"version":"7882260","steam_id":85568392924515217,"keywords":["cp","nocrits","nodmgspread","uncletopia"],"game_id":440,"stv_port":27036,"stv_name":"Uncletopia | Seattle | 3 | Stopwatch Beta | STV","players":[{"user_id":3,"name":"Owl Of Delos","steam_id":76561198437116566,"connected_time":4585000000000,"state":"active","ping":61},{"user_id":80,"name":"kr1tsurf3r","steam_id":76561198076402476,"connected_time":56000000000,"state":"active","ping":86},{"user_id":72,"name":"Larry Laffer","steam_id":76561198171666514,"connected_time":577000000000,"state":"active","ping":65},{"user_id":68,"name":"rxqueen","steam_id":76561198049258493,"connected_time":640000000000,"state":"active","ping":45},{"user_id":73,"name":"thatbedrockblock","steam_id":76561199069286524,"connected_time":491000000000,"state":"active","ping":73},{"user_id":79,"name":"Spectre","steam_id":76561198025652246,"connected_time":132000000000,"state":"active","ping":82},{"user_id":22,"name":"JOHNBOYEGAMURDERMYSTERY","steam_id":76561198398957339,"connected_time":2410000000000,"state":"active","ping":64},{"user_id":71,"name":"DudeBro42","steam_id":76561198021838197,"connected_time":590000000000,"state":"active","ping":60},{"user_id":56,"name":"Fiestaknight","steam_id":76561198037847385,"connected_time":956000000000,"state":"active","ping":60},{"user_id":54,"name":"goldgardian","steam_id":76561198319471339,"connected_time":1173000000000,"state":"active","ping":122},{"user_id":57,"name":"The Unfriendly Friendly","steam_id":76561199216559937,"connected_time":862000000000,"state":"active","ping":47},{"user_id":67,"name":"Add me on MapleStory","steam_id":76561198068654532,"connected_time":663000000000,"state":"active","ping":124},{"user_id":75,"name":"Chocc","steam_id":76561198068070211,"connected_time":356000000000,"state":"active","ping":82},{"user_id":69,"name":"vessel of ruin","steam_id":76561198094512992,"connected_time":639000000000,"state":"active","ping":101},{"user_id":70,"name":"pandy fackler","steam_id":76561198833099152,"connected_time":620000000000,"state":"active","ping":57},{"user_id":76,"name":"patjiaviar","steam_id":76561199465783209,"connected_time":247000000000,"state":"active","ping":46},{"user_id":78,"name":"Feral Femboy","steam_id":76561198130714378,"connected_time":229000000000,"state":"active","ping":63}]},{"server_id":17,"name":"Uncletopia | San Francisco | 1 | All Maps","name_short":"sfo-1","host":"sfo-1.us.uncletopia.com","port":27015,"enabled":true,"region":"us-west","cc":"us","latitude":37.77397,"longitude":-122.4313,"reserved":0,"last_update":"0001-01-01T00:00:00Z","name_a2s":"Uncletopia | San Francisco | 1 | All Maps","protocol":17,"map":"cp_dustbowl","folder":"tf","game":"Team Fortress","app_id":440,"player_count":23,"max_players":24,"Bots":0,"server_type":"Dedicated","server_os":"Linux","password":true,"vac":true,"version":"7882260","steam_id":85568392924469999,"keywords":["cp","nocrits","nodmgspread","uncletopia"],"game_id":440,"stv_port":27016,"stv_name":"Uncletopia | San Francisco | 1 | All Maps | STV","players":[{"user_id":83,"name":"Petroleum Jelly","steam_id":76561198118778800,"connected_time":2672000000000,"state":"active","ping":56},{"user_id":19,"name":"aisu","steam_id":76561198043768507,"connected_time":5939000000000,"state":"active","ping":102},{"user_id":84,"name":"Surprise Garlic Bread Party","steam_id":76561197995246546,"connected_time":2638000000000,"state":"active","ping":45},{"user_id":108,"name":"à¶ž#savetf2","steam_id":76561198432226673,"connected_time":651000000000,"state":"active","ping":74},{"user_id":85,"name":"BlipBloop","steam_id":76561198205320223,"connected_time":2198000000000,"state":"active","ping":106},{"user_id":24,"name":"Spectre1578","steam_id":76561198953243633,"connected_time":5581000000000,"state":"active","ping":73},{"user_id":50,"name":"\u003cM\u003e","steam_id":76561198028068603,"connected_time":4709000000000,"state":"active","ping":56},{"user_id":109,"name":"Ice cream sandwich","steam_id":76561198172748357,"connected_time":609000000000,"state":"active","ping":55},{"user_id":110,"name":"â˜¸","steam_id":76561199092000534,"connected_time":609000000000,"state":"active","ping":62},{"user_id":100,"name":"piebluedog","steam_id":76561198141362745,"connected_time":1340000000000,"state":"active","ping":111},{"user_id":29,"name":"tweet","steam_id":76561198166515735,"connected_time":5413000000000,"state":"active","ping":47},{"user_id":111,"name":"ã€Crimeã€‘","steam_id":76561198319631200,"connected_time":572000000000,"state":"active","ping":63},{"user_id":95,"name":"krd","steam_id":76561198347660282,"connected_time":1787000000000,"state":"active","ping":87},{"user_id":106,"name":"â›§Alkahestry","steam_id":76561198109641497,"connected_time":797000000000,"state":"active","ping":46},{"user_id":112,"name":"DrD","steam_id":76561198067266383,"connected_time":551000000000,"state":"active","ping":66},{"user_id":77,"name":"geen","steam_id":76561197999318398,"connected_time":3199000000000,"state":"active","ping":142},{"user_id":116,"name":"RaixaR","steam_id":76561198025289430,"connected_time":208000000000,"state":"active","ping":79},{"user_id":55,"name":"narwool :D","steam_id":76561198175955138,"connected_time":4446000000000,"state":"active","ping":63},{"user_id":82,"name":"Chunky Little Chongus","steam_id":76561199094873145,"connected_time":2686000000000,"state":"active","ping":140},{"user_id":114,"name":"Ricedot","steam_id":76561199053075527,"connected_time":527000000000,"state":"active","ping":50},{"user_id":102,"name":"Dim","steam_id":76561198061411324,"connected_time":1312000000000,"state":"active","ping":106},{"user_id":115,"name":"SDL","steam_id":76561198859719985,"connected_time":485000000000,"state":"active","ping":109},{"user_id":101,"name":"Colonel Dissapointment","steam_id":76561198181891649,"connected_time":1336000000000,"state":"active","ping":122}]},{"server_id":18,"name":"Uncletopia | San Francisco | 2 | All Maps","name_short":"sfo-2","host":"sfo-1.us.uncletopia.com","port":27025,"enabled":true,"region":"us-west","cc":"us","latitude":37.77397,"longitude":-122.4313,"reserved":0,"last_update":"0001-01-01T00:00:00Z","name_a2s":"Uncletopia | San Francisco | 2 | All Maps","protocol":17,"map":"pl_goldrush","folder":"tf","game":"Team Fortress","app_id":440,"player_count":24,"max_players":24,"Bots":0,"server_type":"Dedicated","server_os":"Linux","password":true,"vac":true,"version":"7882260","steam_id":85568392924470000,"keywords":["nocrits","nodmgspread","payload","uncletopia"],"game_id":440,"stv_port":27026,"stv_name":"Uncletopia | San Francisco | 2 | All Maps | STV","players":[{"user_id":200,"name":"Yesu","steam_id":76561198026522528,"connected_time":1784000000000,"state":"active","ping":105},{"user_id":222,"name":"Ok then","steam_id":76561198891914787,"connected_time":306000000000,"state":"active","ping":70},{"user_id":187,"name":"dry water, just add water","steam_id":76561199012897027,"connected_time":2361000000000,"state":"active","ping":75},{"user_id":217,"name":"Perfume Department","steam_id":76561198128299594,"connected_time":648000000000,"state":"active","ping":54},{"user_id":202,"name":"wizorb","steam_id":76561198002172674,"connected_time":1728000000000,"state":"active","ping":76},{"user_id":227,"name":"Chief Diggery K.","steam_id":76561198066629137,"connected_time":111000000000,"state":"active","ping":112},{"user_id":210,"name":"iamoctopii","steam_id":76561198876901076,"connected_time":1408000000000,"state":"active","ping":159},{"user_id":223,"name":"A Minority","steam_id":76561198056583581,"connected_time":298000000000,"state":"active","ping":66},{"user_id":219,"name":"Zorlovo","steam_id":76561198006443283,"connected_time":495000000000,"state":"active","ping":87},{"user_id":228,"name":"Lucky_Shot","steam_id":76561199208835578,"connected_time":111000000000,"state":"active","ping":94},{"user_id":220,"name":"Vortiger","steam_id":76561198275813176,"connected_time":488000000000,"state":"active","ping":57},{"user_id":224,"name":"zeplinnn","steam_id":76561198301300987,"connected_time":276000000000,"state":"active","ping":77},{"user_id":214,"name":"zinnk","steam_id":76561198092081825,"connected_time":1118000000000,"state":"active","ping":44},{"user_id":198,"name":"MonkeyBoy9614","steam_id":76561198927872209,"connected_time":1913000000000,"state":"active","ping":56},{"user_id":195,"name":"TeriyakiDynamite","steam_id":76561198050049346,"connected_time":2056000000000,"state":"active","ping":143},{"user_id":229,"name":"skao","steam_id":76561198133360797,"connected_time":39000000000,"state":"active","ping":63},{"user_id":155,"name":"nav","steam_id":76561198872608266,"connected_time":4329000000000,"state":"active","ping":129},{"user_id":151,"name":"HideOnTate","steam_id":76561198209880837,"connected_time":4798000000000,"state":"active","ping":63},{"user_id":230,"name":"â–³endfallâ–³","steam_id":76561198453166960,"connected_time":36000000000,"state":"active","ping":266},{"user_id":215,"name":"pyhn","steam_id":76561198096412192,"connected_time":1098000000000,"state":"active","ping":110},{"user_id":226,"name":"brandon hoesli","steam_id":76561198156333207,"connected_time":188000000000,"state":"active","ping":61},{"user_id":181,"name":"rye bread","steam_id":76561198067289381,"connected_time":2596000000000,"state":"active","ping":159},{"user_id":209,"name":"system_error","steam_id":76561199081837220,"connected_time":1498000000000,"state":"active","ping":115},{"user_id":213,"name":"Walmus","steam_id":76561198111416393,"connected_time":1265000000000,"state":"active","ping":71}]},{"server_id":19,"name":"Uncletopia | San Francisco | 3 | Stopwatch Beta","name_short":"sfo-3","host":"sfo-1.us.uncletopia.com","port":27035,"enabled":true,"region":"us-west","cc":"us","latitude":37.77397,"longitude":-122.4313,"reserved":0,"last_update":"0001-01-01T00:00:00Z","name_a2s":"Uncletopia | San Francisco | 3 | Stopwatch Beta","protocol":17,"map":"workshop/pl_barnblitz_pro7.ugc582280235","folder":"tf","game":"Team Fortress","app_id":440,"player_count":0,"max_players":24,"Bots":0,"server_type":"Dedicated","server_os":"Linux","password":true,"vac":true,"version":"7882260","steam_id":85568392924742824,"keywords":["nocrits","nodmgspread","payload","uncletopia"],"game_id":440,"stv_port":27036,"stv_name":"Uncletopia | San Francisco | 3 | Stopwatch Beta | STV","players":null},{"server_id":20,"name":"Uncletopia | San Francisco | 4 | Community","name_short":"sfo-4","host":"sfo-1.us.uncletopia.com","port":27045,"enabled":true,"region":"us-west","cc":"us","latitude":37.77397,"longitude":-122.4313,"reserved":0,"last_update":"0001-01-01T00:00:00Z","name_a2s":"Uncletopia | San Francisco | 4 | Community","protocol":17,"map":"workshop/cp_overgrown_rc7b.ugc503939302","folder":"tf","game":"Team Fortress","app_id":440,"player_count":0,"max_players":24,"Bots":0,"server_type":"Dedicated","server_os":"Linux","password":true,"vac":true,"version":"7882260","steam_id":85568392924742826,"keywords":["cp","nocrits","nodmgspread","uncletopia"],"game_id":440,"stv_port":27046,"stv_name":"Uncletopia | San Francisco | 4 | Community | STV","players":null},{"server_id":141,"name":"Uncletopia | Sydney | 1 | All Maps","name_short":"syd-1","host":"syd-1.au.uncletopia.com","port":27015,"enabled":true,"region":"au","cc":"au","latitude":-33.865143,"longitude":151.2099,"reserved":0,"last_update":"0001-01-01T00:00:00Z","name_a2s":"Uncletopia | Sydney | 1 | All Maps","protocol":17,"map":"cp_snakewater_final1","folder":"tf","game":"Team Fortress","app_id":440,"player_count":4,"max_players":24,"Bots":0,"server_type":"Dedicated","server_os":"Linux","password":true,"vac":true,"version":"7882260","steam_id":85568392924470001,"keywords":["cp","nocrits","nodmgspread","uncletopia"],"game_id":440,"stv_port":27016,"stv_name":"Uncletopia | Sydney | 1 | All Maps | STV","players":[{"user_id":13,"name":"ä¸­æ–‡å•è¯","steam_id":76561199017211623,"connected_time":1120000000000,"state":"active","ping":75},{"user_id":15,"name":"zeaphg","steam_id":76561199014878539,"connected_time":1060000000000,"state":"active","ping":75},{"user_id":18,"name":"Second Lieutenant Pisser","steam_id":76561198866538028,"connected_time":159000000000,"state":"active","ping":75},{"user_id":19,"name":"marink","steam_id":76561198446126519,"connected_time":22000000000,"state":"spawning","ping":66}]},{"server_id":123,"name":"Uncletopia | Sydney | 2 | All Maps","name_short":"syd-2","host":"syd-1.au.uncletopia.com","port":27025,"enabled":true,"region":"au","cc":"au","latitude":-33.865143,"longitude":151.2099,"reserved":0,"last_update":"0001-01-01T00:00:00Z","name_a2s":"Uncletopia | Sydney | 2 | All Maps","protocol":17,"map":"koth_highpass","folder":"tf","game":"Team Fortress","app_id":440,"player_count":0,"max_players":24,"Bots":0,"server_type":"Dedicated","server_os":"Linux","password":true,"vac":true,"version":"7882260","steam_id":85568392924470002,"keywords":["cp","nocrits","nodmgspread","uncletopia"],"game_id":440,"stv_port":27026,"stv_name":"Uncletopia | Sydney | 2 | All Maps | STV","players":null},{"server_id":395,"name":"Uncletopia | Sydney | 3 | All Maps","name_short":"syd-3","host":"syd-1.au.uncletopia.com","port":27035,"enabled":true,"region":"au","cc":"au","latitude":-33.865143,"longitude":151.2099,"reserved":0,"last_update":"0001-01-01T00:00:00Z","name_a2s":"Uncletopia | Sydney | 3 | All Maps","protocol":17,"map":"koth_viaduct","folder":"tf","game":"Team Fortress","app_id":440,"player_count":0,"max_players":24,"Bots":0,"server_type":"Dedicated","server_os":"Linux","password":true,"vac":true,"version":"7882260","steam_id":85568392925194467,"keywords":["cp","nocrits","nodmgspread","uncletopia"],"game_id":440,"stv_port":27036,"stv_name":"Uncletopia | Sydney | 3 | All Maps | STV","players":null},{"server_id":396,"name":"Uncletopia | Sydney | 4 | All Maps","name_short":"syd-4","host":"syd-1.au.uncletopia.com","port":27045,"enabled":true,"region":"au","cc":"au","latitude":-33.865143,"longitude":151.2099,"reserved":0,"last_update":"0001-01-01T00:00:00Z","name_a2s":"Uncletopia | Sydney | 4 | All Maps","protocol":17,"map":"pl_barnblitz","folder":"tf","game":"Team Fortress","app_id":440,"player_count":0,"max_players":24,"Bots":0,"server_type":"Dedicated","server_os":"Linux","password":true,"vac":true,"version":"7882260","steam_id":85568392925397958,"keywords":["nocrits","nodmgspread","payload","uncletopia"],"game_id":440,"stv_port":27046,"stv_name":"Uncletopia | Sydney | 4 | All Maps | STV","players":null},{"server_id":58,"name":"Uncletopia | Sydney | 5 | Stopwatch Beta","name_short":"syd-5","host":"syd-1.au.uncletopia.com","port":27055,"enabled":true,"region":"au","cc":"au","latitude":-33.865143,"longitude":151.2099,"reserved":0,"last_update":"0001-01-01T00:00:00Z","name_a2s":"Uncletopia | Sydney | 5 | Stopwatch Beta","protocol":17,"map":"koth_viaduct","folder":"tf","game":"Team Fortress","app_id":440,"player_count":0,"max_players":24,"Bots":0,"server_type":"Dedicated","server_os":"Linux","password":true,"vac":true,"version":"7882260","steam_id":85568392925397959,"keywords":["cp","nocrits","nodmgspread","uncletopia"],"game_id":440,"stv_port":27056,"stv_name":"Uncletopia | Sydney | 5 | Stopwatch Beta | STV","players":null},{"server_id":59,"name":"Uncletopia | Sydney | 6 | Community","name_short":"syd-6","host":"syd-1.au.uncletopia.com","port":27065,"enabled":true,"region":"au","cc":"au","latitude":-33.865143,"longitude":151.2099,"reserved":0,"last_update":"0001-01-01T00:00:00Z","name_a2s":"Uncletopia | Sydney | 6 | Community","protocol":17,"map":"workshop/koth_ashville_final.ugc2130459942","folder":"tf","game":"Team Fortress","app_id":440,"player_count":0,"max_players":24,"Bots":0,"server_type":"Dedicated","server_os":"Linux","password":true,"vac":true,"version":"7882260","steam_id":85568392925397960,"keywords":["cp","nocrits","nodmgspread","uncletopia"],"game_id":440,"stv_port":27066,"stv_name":"Uncletopia | Sydney | 6 | Community | STV","players":null},{"server_id":49,"name":"Uncletopia | Warsaw | 1 | All Maps","name_short":"waw-1","host":"waw-1.pl.uncletopia.com","port":27015,"enabled":true,"region":"eu","cc":"pl","latitude":52.2297,"longitude":21.017532,"reserved":0,"last_update":"0001-01-01T00:00:00Z","name_a2s":"","protocol":0,"map":"","folder":"","game":"","app_id":0,"player_count":0,"max_players":0,"Bots":0,"server_type":"","server_os":"","password":false,"vac":false,"version":"","steam_id":0,"keywords":null,"game_id":0,"stv_port":0,"stv_name":"","players":null},{"server_id":50,"name":"Uncletopia | Warsaw | 2 | All Maps","name_short":"waw-2","host":"waw-1.pl.uncletopia.com","port":27025,"enabled":true,"region":"eu","cc":"pl","latitude":52.2297,"longitude":21.017532,"reserved":0,"last_update":"0001-01-01T00:00:00Z","name_a2s":"Uncletopia | Warsaw | 2 | All Maps","protocol":17,"map":"koth_lakeside_final","folder":"tf","game":"Team Fortress","app_id":440,"player_count":0,"max_players":24,"Bots":0,"server_type":"Dedicated","server_os":"Linux","password":true,"vac":true,"version":"7882260","steam_id":85568392925397851,"keywords":["cp","nocrits","nodmgspread","uncletopia"],"game_id":440,"stv_port":27026,"stv_name":"Uncletopia | Warsaw | 2 | All Maps | STV","players":null},{"server_id":51,"name":"Uncletopia | Warsaw | 3 | All Maps","name_short":"waw-3","host":"waw-1.pl.uncletopia.com","port":27035,"enabled":true,"region":"eu","cc":"pl","latitude":52.2297,"longitude":21.017532,"reserved":0,"last_update":"0001-01-01T00:00:00Z","name_a2s":"Uncletopia | Warsaw | 3 | All Maps","protocol":17,"map":"koth_lakeside_final","folder":"tf","game":"Team Fortress","app_id":440,"player_count":0,"max_players":24,"Bots":0,"server_type":"Dedicated","server_os":"Linux","password":true,"vac":true,"version":"7882260","steam_id":85568392925397852,"keywords":["cp","nocrits","nodmgspread","uncletopia"],"game_id":440,"stv_port":27036,"stv_name":"Uncletopia | Warsaw | 3 | All Maps | STV","players":null},{"server_id":52,"name":"Uncletopia | Warsaw | 4 | All Maps","name_short":"waw-4","host":"waw-1.pl.uncletopia.com","port":27045,"enabled":true,"region":"eu","cc":"pl","latitude":52.2297,"longitude":21.017532,"reserved":0,"last_update":"0001-01-01T00:00:00Z","name_a2s":"Uncletopia | Warsaw | 4 | All Maps","protocol":17,"map":"koth_cascade","folder":"tf","game":"Team Fortress","app_id":440,"player_count":0,"max_players":24,"Bots":0,"server_type":"Dedicated","server_os":"Linux","password":true,"vac":true,"version":"7882260","steam_id":85568392925397853,"keywords":["cp","nocrits","nodmgspread","uncletopia"],"game_id":440,"stv_port":27046,"stv_name":"Uncletopia | Warsaw | 4 | All Maps | STV","players":null},{"server_id":53,"name":"Uncletopia | Warsaw | 5 | Stopwatch Beta","name_short":"waw-5","host":"waw-1.pl.uncletopia.com","port":27055,"enabled":true,"region":"eu","cc":"pl","latitude":52.2297,"longitude":21.017532,"reserved":0,"last_update":"0001-01-01T00:00:00Z","name_a2s":"Uncletopia | Warsaw | 5 | Stopwatch Beta","protocol":17,"map":"koth_lakeside_final","folder":"tf","game":"Team Fortress","app_id":440,"player_count":0,"max_players":24,"Bots":0,"server_type":"Dedicated","server_os":"Linux","password":true,"vac":true,"version":"7882260","steam_id":85568392925397854,"keywords":["cp","nocrits","nodmgspread","uncletopia"],"game_id":440,"stv_port":27056,"stv_name":"Uncletopia | Warsaw | 5 | Stopwatch Beta | STV","players":null},{"server_id":54,"name":"Uncletopia | Warsaw | 6 | Community","name_short":"waw-6","host":"waw-1.pl.uncletopia.com","port":27065,"enabled":true,"region":"eu","cc":"pl","latitude":52.2297,"longitude":21.017532,"reserved":0,"last_update":"0001-01-01T00:00:00Z","name_a2s":"Uncletopia | Warsaw | 6 | Community","protocol":17,"map":"workshop/koth_ashville_final.ugc2130459942","folder":"tf","game":"Team Fortress","app_id":440,"player_count":0,"max_players":24,"Bots":0,"server_type":"Dedicated","server_os":"Linux","password":true,"vac":true,"version":"7882260","steam_id":85568392925397856,"keywords":["cp","nocrits","nodmgspread","uncletopia"],"game_id":440,"stv_port":27066,"stv_name":"Uncletopia | Warsaw | 6 | Community | STV","players":null}]}