{"status":true,"message":"","result":[{"server_id":9,"name":"Uncletopia | Atlanta | 1 | All Maps","name_short":"atl-1","host":"atl-1.us.uncletopia.com","port":27015,"enabled":true,"region":"us-east","cc":"us","latitude":33.753746,"longitude":-84.38633,"reserved":0,"last_update":"0001-01-01T00:00:00Z","name_a2s":"Uncletopia | Atlanta | 1 | All Maps","protocol":17,"map":"pl_borneo","folder":"tf","game":"Team Fortress","app_id":440,"player_count":0,"max_players":24,"Bots":0,"server_type":"Dedicated","server_os":"Linux","password":true,"vac":true,"version":"7757534","steam_id":85568392924469982,"keywords":["nocrits","nodmgspread","payload","uncletopia"],"game_id":440,"stv_port":27016,"stv_name":"Uncletopia | Atlanta | 1 | All Maps | STV","players":null},{"server_id":400,"name":"Uncletopia | Atlanta | 3 | Community","name_short":"atl-3","host":"atl-1.us.uncletopia.com","port":27035,"enabled":true,"region":"us-east","cc":"us","latitude":33.753746,"longitude":-84.38633,"reserved":0,"last_update":"0001-01-01T00:00:00Z","name_a2s":"Uncletopia | Atlanta | 3 | Community","protocol":17,"map":"workshop/koth_product_final.ugc454272353","folder":"tf","game":"Team Fortress","app_id":440,"player_count":0,"max_players":32,"Bots":0,"server_type":"Dedicated","server_os":"Linux","password":true,"vac":true,"version":"7757534","steam_id":85568392924515187,"keywords":["cp","increased_maxplayers","nocrits","nodmgspread","uncletopia"],"game_id":440,"stv_port":27036,"stv_name":"Uncletopia | Atlanta | 3 | Community | STV","players":null},{"server_id":401,"name":"Uncletopia | Atlanta | 4 | No Payload","name_short":"atl-4","host":"atl-1.us.uncletopia.com","port":27045,"enabled":true,"region":"us-east","cc":"us","latitude":33.753746,"longitude":-84.38633,"reserved":0,"last_update":"0001-01-01T00:00:00Z","name_a2s":"","protocol":0,"map":"","folder":"","game":"","app_id":0,"player_count":0,"max_players":0,"Bots":0,"server_type":"","server_os":"","password":false,"vac":false,"version":"","steam_id":0,"keywords":null,"game_id":0,"stv_port":0,"stv_name":"","players":null},{"server_id":2,"name":"Uncletopia | Chicago | 1 | All Maps","name_short":"chi-1","host":"chi-1.us.uncletopia.com","port":27015,"enabled":true,"region":"us-central","cc":"us","latitude":41.881832,"longitude":-87.62318,"reserved":0,"last_update":"0001-01-01T00:00:00Z","name_a2s":"Uncletopia | Chicago | 1 | All Maps","protocol":17,"map":"koth_lakeside_final","folder":"tf","game":"Team Fortress","app_id":440,"player_count":24,"max_players":24,"Bots":0,"server_type":"Dedicated","server_os":"Linux","password":true,"vac":true,"version":"7757534","steam_id":85568392924469984,"keywords":["cp","nocrits","nodmgspread","uncletopia"],"game_id":440,"stv_port":27016,"stv_name":"Uncletopia | Chicago | 1 | All Maps | STV","players":[{"user_id":158,"name":"how do i girl???","steam_id":76561198050290565,"connected_time":1048000000000,"state":"active","ping":75},{"user_id":133,"name":"Towns","steam_id":76561198984662863,"connected_time":2165000000000,"state":"active","ping":67},{"user_id":155,"name":"Motorol¬™","steam_id":76561198358119669,"connected_time":1205000000000,"state":"active","ping":125},{"user_id":135,"name":"Orenge","steam_id":76561199164397613,"connected_time":2144000000000,"state":"active","ping":59},{"user_id":153,"name":"Fiendish Frog","steam_id":76561198029478821,"connected_time":1278000000000,"state":"active","ping":69},{"user_id":168,"name":"Franz","steam_id":76561198041929745,"connected_time":243000000000,"state":"active","ping":101},{"user_id":173,"name":"LightBulbGlue #SaveTF2","steam_id":76561198329573529,"connected_time":108000000000,"state":"active","ping":69},{"user_id":165,"name":"TATARA","steam_id":76561199098759517,"connected_time":634000000000,"state":"active","ping":134},{"user_id":169,"name":"KingTeddy","steam_id":76561198131757499,"connected_time":114000000000,"state":"active","ping":153},{"user_id":170,"name":"MaybeMars","steam_id":76561198084736804,"connected_time":112000000000,"state":"active","ping":82},{"user_id":122,"name":"i should go","steam_id":76561198194614289,"connected_time":3213000000000,"state":"active","ping":59},{"user_id":171,"name":"Spiderfight1","steam_id":76561199189991528,"connected_time":111000000000,"state":"active","ping":90},{"user_id":138,"name":"pikapika","steam_id":76561198106844042,"connected_time":2135000000000,"state":"active","ping":90},{"user_id":159,"name":"creamgravy573","steam_id":76561198093308746,"connected_time":1011000000000,"state":"active","ping":75},{"user_id":172,"name":"debin","steam_id":76561198070711217,"connected_time":110000000000,"state":"active","ping":85},{"user_id":157,"name":"han YOLO","steam_id":76561198337719478,"connected_time":1152000000000,"state":"active","ping":50},{"user_id":166,"name":"Huge","steam_id":76561199030987614,"connected_time":414000000000,"state":"active","ping":85},{"user_id":141,"name":"DOGE??","steam_id":76561198331098675,"connected_time":2107000000000,"state":"active","ping":124},{"user_id":142,"name":"Mr. Something","steam_id":76561198169921754,"connected_time":2103000000000,"state":"active","ping":83},{"user_id":164,"name":"Kasey","steam_id":76561198055510230,"connected_time":645000000000,"state":"active","ping":60},{"user_id":163,"name":"ItsTanleyCrunch","steam_id":76561198037915942,"connected_time":681000000000,"state":"active","ping":80},{"user_id":167,"name":"PeopleOrderOurPatties","steam_id":76561198323144922,"connected_time":273000000000,"state":"active","ping":61},{"user_id":90,"name":"PKBEAST_7","steam_id":76561198177136537,"connected_time":5526000000000,"state":"active","ping":89},{"user_id":91,"name":"98","steam_id":76561198134813102,"connected_time":5524000000000,"state":"active","ping":59}]},{"server_id":106,"name":"Uncletopia | Chicago | 2 | All Maps","name_short":"chi-2","host":"chi-1.us.uncletopia.com","port":27025,"enabled":true,"region":"us-central","cc":"us","latitude":41.881832,"longitude":-87.62318,"reserved":0,"last_update":"0001-01-01T00:00:00Z","name_a2s":"Uncletopia | Chicago | 2 | All Maps","protocol":17,"map":"koth_viaduct","folder":"tf","game":"Team Fortress","app_id":440,"player_count":0,"max_players":24,"Bots":0,"server_type":"Dedicated","server_os":"Linux","password":true,"vac":true,"version":"7757534","steam_id":85568392924469985,"keywords":["cp","nocrits","nodmgspread","uncletopia"],"game_id":440,"stv_port":27026,"stv_name":"Uncletopia | Chicago | 2 | All Maps | STV","players":null},{"server_id":402,"name":"Uncletopia | Chicago | 3 | All Maps","name_short":"chi-3","host":"chi-1.us.uncletopia.com","port":27035,"enabled":true,"region":"us-central","cc":"us","latitude":41.881832,"longitude":-87.62318,"reserved":0,"last_update":"0001-01-01T00:00:00Z","name_a2s":"Uncletopia | Chicago | 3 | All Maps","protocol":17,"map":"pl_swiftwater_final1","folder":"tf","game":"Team Fortress","app_id":440,"player_count":24,"max_players":24,"Bots":0,"server_type":"Dedicated","server_os":"Linux","password":true,"vac":true,"version":"7757534","steam_id":85568392924515191,"keywords":["nocrits","nodmgspread","payload","uncletopia"],"game_id":440,"stv_port":27036,"stv_name":"Uncletopia | Chicago | 3 | All Maps | STV","players":[{"user_id":48,"name":"·≤º·≤º·≤º·≤º·≤º·≤º·≤º·≤º·≤ºjao","steam_id":76561198408082822,"connected_time":2677000000000,"state":"active","ping":192},{"user_id":85,"name":"topsilk420 Trade.tf","steam_id":76561198308903387,"connected_time":17000000000,"state":"active","ping":109},{"user_id":6,"name":"Doctor Bear  ï ‚Ä¢·¥•‚Ä¢ î","steam_id":76561197968103161,"connected_time":5849000000000,"state":"active","ping":66},{"user_id":52,"name":"yitz","steam_id":76561198375575841,"connected_time":2545000000000,"state":"active","ping":49},{"user_id":80,"name":"S0M3T1M3S","steam_id":76561199016117890,"connected_time":225000000000,"state":"active","ping":198},{"user_id":86,"name":"Poison Ivy","steam_id":76561198072384574,"connected_time":17000000000,"state":"active","ping":62},{"user_id":68,"name":"shadow wizard","steam_id":76561198165212575,"connected_time":870000000000,"state":"active","ping":75},{"user_id":50,"name":"TheGreatDong","steam_id":76561198000634178,"connected_time":2674000000000,"state":"active","ping":110},{"user_id":59,"name":"Julia","steam_id":76561198175727790,"connected_time":1114000000000,"state":"active","ping":102},{"user_id":66,"name":"The Bombinomicon","steam_id":76561198209881263,"connected_time":969000000000,"state":"active","ping":107},{"user_id":69,"name":"1000 Ping","steam_id":76561198098330939,"connected_time":857000000000,"state":"active","ping":124},{"user_id":63,"name":"dj beter greffen","steam_id":76561198079603532,"connected_time":1042000000000,"state":"active","ping":88},{"user_id":16,"name":"MY LEG","steam_id":76561198103496593,"connected_time":5249000000000,"state":"active","ping":69},{"user_id":54,"name":"1972","steam_id":76561198099591549,"connected_time":2457000000000,"state":"active","ping":67},{"user_id":81,"name":"the entire cast of shrek 2","steam_id":76561198367019006,"connected_time":221000000000,"state":"active","ping":69},{"user_id":75,"name":"Bailster","steam_id":76561198091530428,"connected_time":451000000000,"state":"active","ping":66},{"user_id":20,"name":"31","steam_id":76561198232617936,"connected_time":5171000000000,"state":"active","ping":78},{"user_id":47,"name":"B)","steam_id":76561198093921290,"connected_time":2790000000000,"state":"active","ping":46},{"user_id":72,"name":"SMHTMFTTF","steam_id":76561199079614516,"connected_time":745000000000,"state":"active","ping":45},{"user_id":73,"name":"WaterWorks","steam_id":76561198801899310,"connected_time":613000000000,"state":"active","ping":93},{"user_id":27,"name":"deadlypootis (friendly)","steam_id":76561198249206656,"connected_time":5069000000000,"state":"active","ping":77},{"user_id":74,"name":"Norman","steam_id":76561198154715990,"connected_time":535000000000,"state":"active","ping":97},{"user_id":79,"name":"ricky dicky doo dah grimes","steam_id":76561198373170503,"connected_time":232000000000,"state":"active","ping":75},{"user_id":37,"name":"creeeeeee","steam_id":76561198392539722,"connected_time":4290000000000,"state":"active","ping":83}]},{"server_id":403,"name":"Uncletopia | Chicago | 4 | All Maps","name_short":"chi-4","host":"chi-1.us.uncletopia.com","port":27045,"enabled":true,"region":"us-central","cc":"us","latitude":41.881832,"longitude":-87.62318,"reserved":0,"last_update":"0001-01-01T00:00:00Z","name_a2s":"Uncletopia | Chicago | 4 | All Maps","protocol":17,"map":"pl_borneo","folder":"tf","game":"Team Fortress","app_id":440,"player_count":24,"max_players":24,"Bots":0,"server_type":"Dedicated","server_os":"Linux","password":true,"vac":true,"version":"7757534","steam_id":85568392924515193,"keywords":["nocrits","nodmgspread","payload","uncletopia"],"game_id":440,"stv_port":27046,"stv_name":"Uncletopia | Chicago | 4 | All Maps | STV","players":[{"user_id":163,"name":"cat (real)","steam_id":76561198885041703,"connected_time":3433000000000,"state":"active","ping":70},{"user_id":175,"name":"3fu23141wv6fn46y","steam_id":76561199383789041,"connected_time":2546000000000,"state":"active","ping":177},{"user_id":182,"name":"...","steam_id":76561198312298321,"connected_time":2008000000000,"state":"active","ping":59},{"user_id":195,"name":"OneFestiveCorvid","steam_id":76561199012953221,"connected_time":0,"state":"spawning","ping":22},{"user_id":193,"name":"barbara","steam_id":76561198072417792,"connected_time":85000000000,"state":"active","ping":121},{"user_id":191,"name":"lite","steam_id":76561198300633951,"connected_time":597000000000,"state":"active","ping":105},{"user_id":186,"name":"plap plap plap","steam_id":76561198054925421,"connected_time":1121000000000,"state":"active","ping":50},{"user_id":166,"name":"Joosh","steam_id":76561198214599739,"connected_time":3122000000000,"state":"active","ping":124},{"user_id":101,"name":"700000 rabid chihuahuas in Ohio","steam_id":76561198130772096,"connected_time":9280000000000,"state":"active","ping":60},{"user_id":183,"name":"captain red","steam_id":76561198191587983,"connected_time":1948000000000,"state":"active","ping":75},{"user_id":176,"name":"Seru","steam_id":76561199219827214,"connected_time":2543000000000,"state":"active","ping":87},{"user_id":188,"name":"Rat Bastard","steam_id":76561198153443658,"connected_time":959000000000,"state":"active","ping":95},{"user_id":180,"name":"a table","steam_id":76561198158461279,"connected_time":2510000000000,"state":"active","ping":57},{"user_id":185,"name":"Aeris","steam_id":76561198287271028,"connected_time":1374000000000,"state":"active","ping":52},{"user_id":190,"name":"Chrisjongun","steam_id":76561198331685904,"connected_time":933000000000,"state":"active","ping":72},{"user_id":173,"name":"pipepeepi","steam_id":76561198845905873,"connected_time":2623000000000,"state":"active","ping":61},{"user_id":171,"name":"Superman123389","steam_id":76561198267472539,"connected_time":2953000000000,"state":"active","ping":86},{"user_id":181,"name":"N√©oGothiqueüïØ","steam_id":76561198003467269,"connected_time":2266000000000,"state":"active","ping":109},{"user_id":158,"name":"Massa Gaming","steam_id":76561198881383557,"connected_time":3756000000000,"state":"active","ping":85},{"user_id":128,"name":"Gumit","steam_id":76561198208126512,"connected_time":6384000000000,"state":"active","ping":80},{"user_id":184,"name":"The Rambler","steam_id":76561198109648603,"connected_time":1707000000000,"state":"active","ping":86},{"user_id":113,"name":"NavyDinosaur","steam_id":76561198088459962,"connected_time":8479000000000,"state":"active","ping":104},{"user_id":149,"name":"Zeek","steam_id":76561197987204351,"connected_time":4495000000000,"state":"active","ping":52},{"user_id":115,"name":"Clean Lines","steam_id":76561197960691518,"connected_time":8469000000000,"state":"active","ping":45}]},{"server_id":36,"name":"Uncletopia | Chicago | 5 | All Maps","name_short":"chi-5","host":"chi-2.us.uncletopia.com","port":27015,"enabled":true,"region":"us-central","cc":"us","latitude":41.881832,"longitude":-87.62318,"reserved":0,"last_update":"0001-01-01T00:00:00Z","name_a2s":"Uncletopia | Chicago | 5 | All Maps","protocol":17,"map":"koth_cascade","folder":"tf","game":"Team Fortress","app_id":440,"player_count":0,"max_players":24,"Bots":0,"server_type":"Dedicated","server_os":"Linux","password":true,"vac":true,"version":"7757534","steam_id":85568392924866362,"keywords":["cp","nocrits","nodmgspread","uncletopia"],"game_id":440,"stv_port":27016,"stv_name":"Uncletopia | Chicago | 5 | All Maps | STV","players":null},{"server_id":37,"name":"Uncletopia | Chicago | 6 | All Maps","name_short":"chi-6","host":"chi-2.us.uncletopia.com","port":27025,"enabled":true,"region":"us-central","cc":"us","latitude":41.881832,"longitude":-87.62318,"reserved":0,"last_update":"0001-01-01T00:00:00Z","name_a2s":"Uncletopia | Chicago | 6 | All Maps","protocol":17,"map":"koth_cascade","folder":"tf","game":"Team Fortress","app_id":440,"player_count":0,"max_players":24,"Bots":0,"server_type":"Dedicated","server_os":"Linux","password":true,"vac":true,"version":"7757534","steam_id":85568392924866363,"keywords":["cp","nocrits","nodmgspread","uncletopia"],"game_id":440,"stv_port":27026,"stv_name":"Uncletopia | Chicago | 6 | All Maps | STV","players":null},{"server_id":38,"name":"Uncletopia | Chicago | 7 | Stopwatch Beta","name_short":"chi-7","host":"chi-2.us.uncletopia.com","port":27035,"enabled":true,"region":"us-central","cc":"us","latitude":41.881832,"longitude":-87.62318,"reserved":0,"last_update":"0001-01-01T00:00:00Z","name_a2s":"Uncletopia | Chicago | 7 | Stopwatch Beta","protocol":17,"map":"pl_upward","folder":"tf","game":"Team Fortress","app_id":440,"player_count":0,"max_players":24,"Bots":0,"server_type":"Dedicated","server_os":"Linux","password":true,"vac":true,"version":"7757534","steam_id":85568392924866364,"keywords":["nocrits","nodmgspread","payload","uncletopia"],"game_id":440,"stv_port":27036,"stv_name":"Uncletopia | Chicago | 7 | Stopwatch Beta | STV","players":null},{"server_id":39,"name":"Uncletopia | Chicago | 8 | Community","name_short":"chi-8","host":"chi-2.us.uncletopia.com","port":27045,"enabled":true,"region":"us-central","cc":"us","latitude":41.881832,"longitude":-87.62318,"reserved":0,"last_update":"0001-01-01T00:00:00Z","name_a2s":"Uncletopia | Chicago | 8 | Community","protocol":17,"map":"pl_barnblitz","folder":"tf","game":"Team Fortress","app_id":440,"player_count":0,"max_players":24,"Bots":0,"server_type":"Dedicated","server_os":"Linux","password":true,"vac":true,"version":"7757534","steam_id":85568392924866365,"keywords":["nocrits","nodmgspread","payload","uncletopia"],"game_id":440,"stv_port":27046,"stv_name":"Uncletopia | Chicago | 8 | Community | STV","players":null},{"server_id":8,"name":"Uncletopia | Dallas | 1 | All Maps","name_short":"dal-1","host":"dal-1.us.uncletopia.com","port":27015,"enabled":true,"region":"us-central","cc":"us","latitude":32.779167,"longitude":-96.80889,"reserved":0,"last_update":"0001-01-01T00:00:00Z","name_a2s":"Uncletopia | Dallas | 1 | All Maps","protocol":17,"map":"pl_badwater","folder":"tf","game":"Team Fortress","app_id":440,"player_count":24,"max_players":24,"Bots":0,"server_type":"Dedicated","server_os":"Linux","password":true,"vac":true,"version":"7757534","steam_id":85568392924469986,"keywords":["nocrits","nodmgspread","payload","uncletopia"],"game_id":440,"stv_port":27016,"stv_name":"Uncletopia | Dallas | 1 | All Maps | STV","players":[{"user_id":40,"name":"Krampus Kraut","steam_id":76561198018912093,"connected_time":93000000000,"state":"active","ping":102},{"user_id":21,"name":"William Wallace","steam_id":76561199343316814,"connected_time":1383000000000,"state":"active","ping":85},{"user_id":22,"name":"Satori Komeiji","steam_id":76561198158211423,"connected_time":1361000000000,"state":"active","ping":72},{"user_id":41,"name":"bo scrungulus","steam_id":76561198038036122,"connected_time":87000000000,"state":"active","ping":74},{"user_id":38,"name":"Dragus","steam_id":76561198032967285,"connected_time":141000000000,"state":"active","ping":61},{"user_id":9,"name":"-W3E- grim10465","steam_id":76561198045698581,"connected_time":1920000000000,"state":"active","ping":74},{"user_id":10,"name":"chill frog","steam_id":76561199471943472,"connected_time":1866000000000,"state":"active","ping":75},{"user_id":36,"name":"wafflehamster2000","steam_id":76561198849161820,"connected_time":951000000000,"state":"active","ping":98},{"user_id":20,"name":"Luna","steam_id":76561198131342156,"connected_time":1435000000000,"state":"active","ping":69},{"user_id":13,"name":"Roberto Del Fuego","steam_id":76561198043458554,"connected_time":1747000000000,"state":"active","ping":72},{"user_id":23,"name":"medic bag enjoyer","steam_id":76561198958115026,"connected_time":1354000000000,"state":"active","ping":97},{"user_id":42,"name":"Robocop","steam_id":76561198096306325,"connected_time":74000000000,"state":"active","ping":91},{"user_id":35,"name":"shinon","steam_id":76561198373626848,"connected_time":974000000000,"state":"active","ping":75},{"user_id":45,"name":"‚àÄ…ê","steam_id":76561198139718219,"connected_time":2000000000,"state":"spawning","ping":73},{"user_id":18,"name":"Chaotic Rushu","steam_id":76561198170054407,"connected_time":1611000000000,"state":"active","ping":94},{"user_id":33,"name":"Drive-By-Fish-Guy","steam_id":76561198105513652,"connected_time":1238000000000,"state":"active","ping":95},{"user_id":25,"name":"Anax'em","steam_id":76561198082071324,"connected_time":1343000000000,"state":"active","ping":157},{"user_id":26,"name":"Smiles","steam_id":76561198107197973,"connected_time":1312000000000,"state":"active","ping":100},{"user_id":39,"name":"BLAKESTER","steam_id":76561198076370493,"connected_time":95000000000,"state":"active","ping":82},{"user_id":28,"name":"mcgram2","steam_id":76561199121850792,"connected_time":1291000000000,"state":"active","ping":69},{"user_id":29,"name":"soultheori","steam_id":76561198065538342,"connected_time":1288000000000,"state":"active","ping":51},{"user_id":34,"name":"zapato","steam_id":76561198142278437,"connected_time":1180000000000,"state":"active","ping":97},{"user_id":32,"name":"Protoshake","steam_id":76561198840276176,"connected_time":1268000000000,"state":"active","ping":38},{"user_id":44,"name":"jori","steam_id":76561199094011458,"connected_time":57000000000,"state":"active","ping":69}]},{"server_id":108,"name":"Uncletopia | Dallas | 2 | All Maps","name_short":"dal-2","host":"dal-1.us.uncletopia.com","port":27025,"enabled":true,"region":"us-central","cc":"us","latitude":32.779167,"longitude":-96.80889,"reserved":0,"last_update":"0001-01-01T00:00:00Z","name_a2s":"Uncletopia | Dallas | 2 | All Maps","protocol":17,"map":"pl_swiftwater_final1","folder":"tf","game":"Team Fortress","app_id":440,"player_count":0,"max_players":24,"Bots":0,"server_type":"Dedicated","server_os":"Linux","password":true,"vac":true,"version":"7757534","steam_id":85568392924469988,"keywords":["nocrits","nodmgspread","payload","uncletopia"],"game_id":440,"stv_port":27026,"stv_name":"Uncletopia | Dallas | 2 | All Maps | STV","players":null},{"server_id":5,"name":"Uncletopia | Frankfurt | 1 | All Maps","name_short":"frk-1","host":"frk-1.de.uncletopia.com","port":27015,"enabled":true,"region":"eu","cc":"de","latitude":50.110924,"longitude":8.682127,"reserved":0,"last_update":"0001-01-01T00:00:00Z","name_a2s":"Uncletopia | Frankfurt | 1 | All Maps","protocol":17,"map":"pl_upward","folder":"tf","game":"Team Fortress","app_id":440,"player_count":24,"max_players":24,"Bots":0,"server_type":"Dedicated","server_os":"Linux","password":true,"vac":true,"version":"7757534","steam_id":85568392924469989,"keywords":["nocrits","nodmgspread","payload","uncletopia"],"game_id":440,"stv_port":27016,"stv_name":"Uncletopia | Frankfurt | 1 | All Maps | STV","players":[{"user_id":406,"name":"Toast","steam_id":76561198073226265,"connected_time":2010000000000,"state":"active","ping":93},{"user_id":408,"name":"Towercat","steam_id":76561198013141793,"connected_time":1938000000000,"state":"active","ping":69},{"user_id":426,"name":"Gnarville","steam_id":76561198006373329,"connected_time":233000000000,"state":"active","ping":61},{"user_id":390,"name":"MoistMomMauler","steam_id":76561198069359049,"connected_time":3043000000000,"state":"active","ping":79},{"user_id":305,"name":"whatever","steam_id":76561198095943461,"connected_time":7592000000000,"state":"active","ping":61},{"user_id":323,"name":"i'm bad at this game","steam_id":76561198120166752,"connected_time":6524000000000,"state":"active","ping":80},{"user_id":415,"name":"0xDEADBEEF","steam_id":76561199075416111,"connected_time":1276000000000,"state":"active","ping":92},{"user_id":409,"name":"Cotton Eye Joe","steam_id":76561198080594207,"connected_time":1920000000000,"state":"active","ping":69},{"user_id":419,"name":"Uncle Owen","steam_id":76561198157999291,"connected_time":1184000000000,"state":"active","ping":79},{"user_id":424,"name":"Daniel Day-Lewis","steam_id":76561198147249160,"connected_time":597000000000,"state":"active","ping":102},{"user_id":398,"name":"iki","steam_id":76561198119607160,"connected_time":2732000000000,"state":"active","ping":70},{"user_id":383,"name":"dollar foot long","steam_id":76561199250808808,"connected_time":3660000000000,"state":"active","ping":78},{"user_id":407,"name":"After8","steam_id":76561198090750865,"connected_time":2002000000000,"state":"active","ping":62},{"user_id":420,"name":"I want to mars","steam_id":76561198872387519,"connected_time":1155000000000,"state":"active","ping":69},{"user_id":417,"name":"ThatGamingKiwi","steam_id":76561199170522237,"connected_time":1260000000000,"state":"active","ping":162},{"user_id":412,"name":"Ruth(-less bitch)","steam_id":76561198150006573,"connected_time":1302000000000,"state":"active","ping":70},{"user_id":427,"name":"G6 sherlock","steam_id":76561198802967796,"connected_time":153000000000,"state":"active","ping":127},{"user_id":413,"name":"Potat Master |Potato Industries","steam_id":76561199112380553,"connected_time":1302000000000,"state":"active","ping":90},{"user_id":425,"name":"BSantos57","steam_id":76561198000597094,"connected_time":337000000000,"state":"active","ping":96},{"user_id":418,"name":"W√ºstenfuchs","steam_id":76561198453885708,"connected_time":1257000000000,"state":"active","ping":70},{"user_id":389,"name":"hora","steam_id":76561198404470526,"connected_time":3074000000000,"state":"active","ping":85},{"user_id":421,"name":"The 4th Doctor","steam_id":76561198191516706,"connected_time":1141000000000,"state":"active","ping":69},{"user_id":423,"name":"relic_","steam_id":76561199053114167,"connected_time":712000000000,"state":"active","ping":84},{"user_id":316,"name":"trk","steam_id":76561198079111788,"connected_time":6665000000000,"state":"active","ping":85}]},{"server_id":110,"name":"Uncletopia | Frankfurt | 2 | All Maps","name_short":"frk-2","host":"frk-1.de.uncletopia.com","port":27025,"enabled":true,"region":"eu","cc":"de","latitude":50.110924,"longitude":8.682127,"reserved":0,"last_update":"0001-01-01T00:00:00Z","name_a2s":"Uncletopia | Frankfurt | 2 | All Maps","protocol":17,"map":"pl_borneo","folder":"tf","game":"Team Fortress","app_id":440,"player_count":24,"max_players":24,"Bots":0,"server_type":"Dedicated","server_os":"Linux","password":true,"vac":true,"version":"7757534","steam_id":85568392924469990,"keywords":["nocrits","nodmgspread","payload","uncletopia"],"game_id":440,"stv_port":27026,"stv_name":"Uncletopia | Frankfurt | 2 | All Maps | STV","players":[{"user_id":308,"name":"·óúÀ∞·óú","steam_id":76561198148074472,"connected_time":2995000000000,"state":"active","ping":37},{"user_id":324,"name":"soopeli","steam_id":76561198003350251,"connected_time":1983000000000,"state":"active","ping":63},{"user_id":342,"name":"zaleek69","steam_id":76561198058877595,"connected_time":546000000000,"state":"active","ping":63},{"user_id":326,"name":"IronHawk‚ú® @ no sound","steam_id":76561198008959448,"connected_time":1846000000000,"state":"active","ping":65},{"user_id":336,"name":"MR.CRAB","steam_id":76561198329833659,"connected_time":1227000000000,"state":"active","ping":70},{"user_id":339,"name":"padillacampos","steam_id":76561198161923970,"connected_time":676000000000,"state":"active","ping":88},{"user_id":313,"name":"Proto-arc","steam_id":76561198012776747,"connected_time":2448000000000,"state":"active","ping":60},{"user_id":314,"name":"Piellino","steam_id":76561198156873276,"connected_time":2430000000000,"state":"active","ping":117},{"user_id":205,"name":"Spieller","steam_id":76561198057197847,"connected_time":9277000000000,"state":"active","ping":68},{"user_id":346,"name":"Guwop","steam_id":76561197970425737,"connected_time":139000000000,"state":"active","ping":171},{"user_id":340,"name":"thekoolest88","steam_id":76561199022415672,"connected_time":656000000000,"state":"active","ping":143},{"user_id":307,"name":"Salih","steam_id":76561198287934839,"connected_time":3179000000000,"state":"active","ping":51},{"user_id":343,"name":"ArikMor","steam_id":76561199124472513,"connected_time":427000000000,"state":"active","ping":119},{"user_id":323,"name":"Fred","steam_id":76561198976120912,"connected_time":2054000000000,"state":"active","ping":60},{"user_id":331,"name":"Doctor Marijuana","steam_id":76561198288289879,"connected_time":1395000000000,"state":"active","ping":65},{"user_id":333,"name":"lyra","steam_id":76561198043601838,"connected_time":1386000000000,"state":"active","ping":60},{"user_id":298,"name":"vanderflight","steam_id":76561198236326550,"connected_time":3697000000000,"state":"active","ping":56},{"user_id":322,"name":"luma","steam_id":76561198081649669,"connected_time":2077000000000,"state":"active","ping":61},{"user_id":341,"name":"Randomer","steam_id":76561198010533981,"connected_time":623000000000,"state":"active","ping":75},{"user_id":311,"name":"Pit from Kid Icarus (Real)","steam_id":76561198032359132,"connected_time":2644000000000,"state":"active","ping":61},{"user_id":290,"name":"Dolcelatte","steam_id":76561198038501770,"connected_time":4397000000000,"state":"active","ping":60},{"user_id":276,"name":"Melon","steam_id":76561198150893860,"connected_time":5519000000000,"state":"active","ping":62},{"user_id":337,"name":"Mr.TEA","steam_id":76561198014381591,"connected_time":1043000000000,"state":"active","ping":68},{"user_id":320,"name":"Hey, I¬¥m Andy!","steam_id":76561198060337777,"connected_time":2175000000000,"state":"active","ping":102}]},{"server_id":308,"name":"Uncletopia | Frankfurt | 3 | All Maps","name_short":"frk-3","host":"frk-1.de.uncletopia.com","port":27035,"enabled":true,"region":"eu","cc":"de","latitude":50.110924,"longitude":8.682127,"reserved":0,"last_update":"0001-01-01T00:00:00Z","name_a2s":"Uncletopia | Frankfurt | 3 | All Maps","protocol":17,"map":"pl_frontier_final","folder":"tf","game":"Team Fortress","app_id":440,"player_count":24,"max_players":24,"Bots":0,"server_type":"Dedicated","server_os":"Linux","password":true,"vac":true,"version":"7757534","steam_id":85568392924504274,"keywords":["nocrits","nodmgspread","payload","uncletopia"],"game_id":440,"stv_port":27036,"stv_name":"Uncletopia | Frankfurt | 3 | All Maps | STV","players":[{"user_id":151,"name":"Metrocop","steam_id":76561198051046801,"connected_time":188000000000,"state":"active","ping":60},{"user_id":155,"name":"astigmatic","steam_id":76561199103959197,"connected_time":108000000000,"state":"active","ping":93},{"user_id":127,"name":"The Wolf Leader","steam_id":76561198038007462,"connected_time":1259000000000,"state":"active","ping":67},{"user_id":94,"name":"Prusher","steam_id":76561198086173878,"connected_time":3475000000000,"state":"active","ping":114},{"user_id":120,"name":"„Äå‚óÜRaku‚Ä¢ „Äç","steam_id":76561198059283183,"connected_time":1897000000000,"state":"active","ping":78},{"user_id":95,"name":"nvs","steam_id":76561198120668070,"connected_time":3469000000000,"state":"active","ping":61},{"user_id":152,"name":"Tangra","steam_id":76561199216124328,"connected_time":180000000000,"state":"active","ping":71},{"user_id":153,"name":"S2/S0","steam_id":76561198131577749,"connected_time":180000000000,"state":"active","ping":92},{"user_id":108,"name":"The Mask","steam_id":76561198040009439,"connected_time":2690000000000,"state":"active","ping":72},{"user_id":146,"name":"James","steam_id":76561198138558005,"connected_time":389000000000,"state":"active","ping":69},{"user_id":141,"name":"medium rare chicken enjoyer","steam_id":76561198050214002,"connected_time":805000000000,"state":"active","ping":60},{"user_id":154,"name":"Russenluster","steam_id":76561198118016220,"connected_time":179000000000,"state":"active","ping":55},{"user_id":80,"name":"barni","steam_id":76561198170420173,"connected_time":4382000000000,"state":"active","ping":79},{"user_id":134,"name":"AWJ ÀÜ-ÀÜ","steam_id":76561198053628243,"connected_time":1087000000000,"state":"active","ping":60},{"user_id":136,"name":"Bostrash641","steam_id":76561199447225685,"connected_time":1072000000000,"state":"active","ping":83},{"user_id":88,"name":"lyudmilakh","steam_id":76561198362779878,"connected_time":3984000000000,"state":"active","ping":94},{"user_id":156,"name":"Tobi lft 6v6","steam_id":76561198049890080,"connected_time":97000000000,"state":"active","ping":52},{"user_id":148,"name":"hellrunner","steam_id":76561198205309695,"connected_time":279000000000,"state":"active","ping":171},{"user_id":150,"name":"spejs 30fps","steam_id":76561198000513793,"connected_time":222000000000,"state":"active","ping":71},{"user_id":149,"name":"poliakov.noam","steam_id":76561199259322961,"connected_time":242000000000,"state":"active","ping":105},{"user_id":50,"name":"Littleyoshifan","steam_id":76561198445491045,"connected_time":6419000000000,"state":"active","ping":58},{"user_id":143,"name":"CAMON ENGELAND","steam_id":76561198054301125,"connected_time":775000000000,"state":"active","ping":94},{"user_id":147,"name":"Don Quixote","steam_id":76561197999454313,"connected_time":358000000000,"state":"active","ping":76},{"user_id":138,"name":"LErik9858","steam_id":76561198808654852,"connected_time":1058000000000,"state":"active","ping":72}]},{"server_id":309,"name":"Uncletopia | Frankfurt | 4 | All Maps","name_short":"frk-4","host":"frk-1.de.uncletopia.com","port":27045,"enabled":true,"region":"eu","cc":"de","latitude":50.110924,"longitude":8.682127,"reserved":0,"last_update":"0001-01-01T00:00:00Z","name_a2s":"Uncletopia | Frankfurt | 4 | All Maps","protocol":17,"map":"koth_cascade","folder":"tf","game":"Team Fortress","app_id":440,"player_count":8,"max_players":24,"Bots":0,"server_type":"Dedicated","server_os":"Linux","password":true,"vac":true,"version":"7757534","steam_id":85568392924504275,"keywords":["cp","nocrits","nodmgspread","uncletopia"],"game_id":440,"stv_port":27046,"stv_name":"Uncletopia | Frankfurt | 4 | All Maps | STV","players":[{"user_id":406,"name":"Stragnov‚òÜ","steam_id":76561198074702465,"connected_time":420000000000,"state":"active","ping":53},{"user_id":407,"name":"cast iron skillet","steam_id":76561199105861570,"connected_time":319000000000,"state":"active","ping":95},{"user_id":408,"name":"F","steam_id":76561199149462792,"connected_time":319000000000,"state":"active","ping":62},{"user_id":409,"name":"Me and 4 Cuties","steam_id":76561198173119214,"connected_time":184000000000,"state":"active","ping":69},{"user_id":395,"name":"justin_ (f2p) (real)","steam_id":76561198839843428,"connected_time":2399000000000,"state":"active","ping":120},{"user_id":390,"name":"ran is running","steam_id":76561199443185667,"connected_time":2787000000000,"state":"active","ping":134},{"user_id":410,"name":"Merasmus' Book","steam_id":76561199312878490,"connected_time":164000000000,"state":"active","ping":186},{"user_id":411,"name":"Syringe Trooper","steam_id":76561199114290266,"connected_time":21000000000,"state":"active","ping":173}]},{"server_id":310,"name":"Uncletopia | Frankfurt | 5 | All Maps","name_short":"frk-5","host":"frk-1.de.uncletopia.com","port":27055,"enabled":true,"region":"eu","cc":"de","latitude":50.110924,"longitude":8.682127,"reserved":0,"last_update":"0001-01-01T00:00:00Z","name_a2s":"Uncletopia | Frankfurt | 5 | All Maps","protocol":17,"map":"cp_badlands","folder":"tf","game":"Team Fortress","app_id":440,"player_count":24,"max_players":24,"Bots":0,"server_type":"Dedicated","server_os":"Linux","password":true,"vac":true,"version":"7757534","steam_id":85568392924504277,"keywords":["cp","nocrits","nodmgspread","uncletopia"],"game_id":440,"stv_port":27056,"stv_name":"Uncletopia | Frankfurt | 5 | All Maps | STV","players":[{"user_id":146,"name":"Hydro","steam_id":76561199081791855,"connected_time":610000000000,"state":"active","ping":64},{"user_id":150,"name":"JustACoomer","steam_id":76561198151433181,"connected_time":525000000000,"state":"active","ping":63},{"user_id":112,"name":"X-tis","steam_id":76561198043837480,"connected_time":2001000000000,"state":"active","ping":66},{"user_id":113,"name":"Posture Check","steam_id":76561198053897197,"connected_time":1990000000000,"state":"active","ping":46},{"user_id":69,"name":"MEDiUM","steam_id":76561198112328561,"connected_time":4246000000000,"state":"active","ping":79},{"user_id":134,"name":"Gabriel","steam_id":76561198283934869,"connected_time":1021000000000,"state":"active","ping":81},{"user_id":131,"name":"Doctor Pyro","steam_id":76561198240400118,"connected_time":1137000000000,"state":"active","ping":183},{"user_id":141,"name":"zya","steam_id":76561198043935491,"connected_time":754000000000,"state":"active","ping":105},{"user_id":123,"name":"BROOMSTER","steam_id":76561198344833818,"connected_time":1769000000000,"state":"active","ping":87},{"user_id":126,"name":"Ohad","steam_id":76561198067989324,"connected_time":1610000000000,"state":"active","ping":109},{"user_id":72,"name":"sisto majesto","steam_id":76561198073532776,"connected_time":4232000000000,"state":"active","ping":85},{"user_id":133,"name":"DiD√∂nerrei","steam_id":76561198954416604,"connected_time":1060000000000,"state":"active","ping":51},{"user_id":139,"name":"Pills","steam_id":76561198163561677,"connected_time":809000000000,"state":"active","ping":62},{"user_id":140,"name":"Nesquik","steam_id":76561198064748535,"connected_time":774000000000,"state":"active","ping":65},{"user_id":142,"name":"X45Y","steam_id":76561198112534025,"connected_time":750000000000,"state":"active","ping":44},{"user_id":119,"name":"Fat Pigeon","steam_id":76561198817940142,"connected_time":1886000000000,"state":"active","ping":59},{"user_id":153,"name":"cowboy","steam_id":76561198080361351,"connected_time":56000000000,"state":"active","ping":60},{"user_id":152,"name":"KingHasamala","steam_id":76561198298147876,"connected_time":86000000000,"state":"active","ping":63},{"user_id":121,"name":"Egor Pomidor","steam_id":76561199175688390,"connected_time":1859000000000,"state":"active","ping":76},{"user_id":147,"name":"lemon demon","steam_id":76561199094161843,"connected_time":598000000000,"state":"active","ping":69},{"user_id":151,"name":"Sniffz_2","steam_id":76561199433459491,"connected_time":405000000000,"state":"active","ping":102},{"user_id":148,"name":"Lolbyte","steam_id":76561199239627724,"connected_time":595000000000,"state":"active","ping":102},{"user_id":132,"name":"Evil weed wizard","steam_id":76561198076137526,"connected_time":1129000000000,"state":"active","ping":66},{"user_id":149,"name":"‚ô• ‚ô• Sp3ll soo SeXy ÊÆ∫Êâã#1","steam_id":76561197970593737,"connected_time":550000000000,"state":"active","ping":68}]},{"server_id":311,"name":"Uncletopia | Frankfurt | 6 | All Maps","name_short":"frk-6","host":"frk-1.de.uncletopia.com","port":27065,"enabled":true,"region":"eu","cc":"de","latitude":50.110924,"longitude":8.682127,"reserved":0,"last_update":"0001-01-01T00:00:00Z","name_a2s":"Uncletopia | Frankfurt | 6 | All Maps","protocol":17,"map":"pl_upward","folder":"tf","game":"Team Fortress","app_id":440,"player_count":24,"max_players":24,"Bots":0,"server_type":"Dedicated","server_os":"Linux","password":true,"vac":true,"version":"7757534","steam_id":85568392924504278,"keywords":["nocrits","nodmgspread","payload","uncletopia"],"game_id":440,"stv_port":27066,"stv_name":"Uncletopia | Frankfurt | 6 | All Maps | STV","players":[{"user_id":211,"name":"Penis Contortionist","steam_id":76561198073663784,"connected_time":2713000000000,"state":"active","ping":50},{"user_id":260,"name":"logantf","steam_id":76561198259668029,"connected_time":1088000000000,"state":"active","ping":59},{"user_id":261,"name":"IRA LOBBY","steam_id":76561198006329148,"connected_time":1087000000000,"state":"active","ping":55},{"user_id":262,"name":"tim","steam_id":76561198143626955,"connected_time":1006000000000,"state":"active","ping":44},{"user_id":276,"name":"1 nanosecond no zaza","steam_id":76561198984169933,"connected_time":417000000000,"state":"active","ping":94},{"user_id":217,"name":"birb","steam_id":76561198268611952,"connected_time":2500000000000,"state":"active","ping":66},{"user_id":263,"name":"yeldad","steam_id":76561198447264153,"connected_time":1001000000000,"state":"active","ping":178},{"user_id":89,"name":"Luuk","steam_id":76561198088266026,"connected_time":10535000000000,"state":"active","ping":41},{"user_id":183,"name":"Boki","steam_id":76561198044553351,"connected_time":4054000000000,"state":"active","ping":75},{"user_id":264,"name":"GardenFungus","steam_id":76561198054894337,"connected_time":988000000000,"state":"active","ping":53},{"user_id":275,"name":"Chicote","steam_id":76561198054689637,"connected_time":443000000000,"state":"active","ping":71},{"user_id":274,"name":"Archos","steam_id":76561198282952165,"connected_time":544000000000,"state":"active","ping":80},{"user_id":203,"name":"Flash","steam_id":76561198067379855,"connected_time":2990000000000,"state":"active","ping":59},{"user_id":224,"name":"Flint","steam_id":76561197995920776,"connected_time":2125000000000,"state":"active","ping":45},{"user_id":225,"name":"Radegast the Brown","steam_id":76561198075489505,"connected_time":2080000000000,"state":"active","ping":70},{"user_id":226,"name":"Destinys","steam_id":76561198056132894,"connected_time":1986000000000,"state":"active","ping":66},{"user_id":272,"name":"Kylul_","steam_id":76561198042981061,"connected_time":789000000000,"state":"active","ping":55},{"user_id":266,"name":"redditsexdefender","steam_id":76561198255904077,"connected_time":958000000000,"state":"active","ping":65},{"user_id":267,"name":"Bob","steam_id":76561198211772015,"connected_time":947000000000,"state":"active","ping":84},{"user_id":268,"name":"Oxer","steam_id":76561198055942412,"connected_time":930000000000,"state":"active","ping":76},{"user_id":278,"name":"Solymr ibn Wali Barad","steam_id":76561198044008976,"connected_time":204000000000,"state":"active","ping":76},{"user_id":269,"name":"Aelkyr","steam_id":76561198112349210,"connected_time":856000000000,"state":"active","ping":60},{"user_id":279,"name":"Senna","steam_id":76561198047270798,"connected_time":3000000000,"state":"spawning","ping":49},{"user_id":277,"name":"angel","steam_id":76561198121408313,"connected_time":358000000000,"state":"active","ping":77}]},{"server_id":23,"name":"Uncletopia | Frankfurt | 7 | Stopwatch Beta","name_short":"frk-7","host":"frk-1.de.uncletopia.com","port":27075,"enabled":true,"region":"eu","cc":"de","latitude":50.110924,"longitude":8.682127,"reserved":0,"last_update":"0001-01-01T00:00:00Z","name_a2s":"Uncletopia | Frankfurt | 7 | Stopwatch Beta","protocol":17,"map":"pl_frontier_final","folder":"tf","game":"Team Fortress","app_id":440,"player_count":0,"max_players":24,"Bots":0,"server_type":"Dedicated","server_os":"Linux","password":true,"vac":true,"version":"7757534","steam_id":85568392924742827,"keywords":["nocrits","nodmgspread","payload","uncletopia"],"game_id":440,"stv_port":27076,"stv_name":"Uncletopia | Frankfurt | 7 | Stopwatch Beta | STV","players":null},{"server_id":24,"name":"Uncletopia | Frankfurt | 8 | Community","name_short":"frk-8","host":"frk-1.de.uncletopia.com","port":27085,"enabled":true,"region":"eu","cc":"de","latitude":50.110924,"longitude":8.682127,"reserved":0,"last_update":"0001-01-01T00:00:00Z","name_a2s":"Uncletopia | Frankfurt | 8 | Community","protocol":17,"map":"workshop/pl_badwater_pro_v12.ugc2142942074","folder":"tf","game":"Team Fortress","app_id":440,"player_count":24,"max_players":24,"Bots":0,"server_type":"Dedicated","server_os":"Linux","password":true,"vac":true,"version":"7757534","steam_id":85568392924742828,"keywords":["nocrits","nodmgspread","payload","uncletopia"],"game_id":440,"stv_port":27086,"stv_name":"Uncletopia | Frankfurt | 8 | Community | STV","players":[{"user_id":295,"name":"silicon based life form","steam_id":76561199127121346,"connected_time":1827000000000,"state":"active","ping":62},{"user_id":312,"name":"—Å—ã–Ω_—Å—Ç–µ–ø–µ–π256","steam_id":76561198129314304,"connected_time":284000000000,"state":"active","ping":135},{"user_id":309,"name":"R A S M U S","steam_id":76561198279799226,"connected_time":399000000000,"state":"active","ping":73},{"user_id":241,"name":"akakez","steam_id":76561198095432821,"connected_time":5177000000000,"state":"active","ping":118},{"user_id":310,"name":"Lamar","steam_id":76561199149905723,"connected_time":349000000000,"state":"active","ping":69},{"user_id":275,"name":"Wants in Schememes","steam_id":76561198102091599,"connected_time":3183000000000,"state":"active","ping":117},{"user_id":311,"name":"Demoknight tf2","steam_id":76561199040929336,"connected_time":334000000000,"state":"active","ping":57},{"user_id":209,"name":"the kiler [RU]","steam_id":76561198074917015,"connected_time":6620000000000,"state":"active","ping":73},{"user_id":308,"name":"Michael","steam_id":76561198106684566,"connected_time":493000000000,"state":"active","ping":76},{"user_id":313,"name":"GuSkand","steam_id":76561198043775605,"connected_time":276000000000,"state":"active","ping":75},{"user_id":323,"name":"Duke Fishlord","steam_id":76561198079928327,"connected_time":21000000000,"state":"active","ping":62},{"user_id":290,"name":"Acid","steam_id":76561198102110680,"connected_time":2307000000000,"state":"active","ping":98},{"user_id":288,"name":"MIMI:CS","steam_id":76561198255389232,"connected_time":2378000000000,"state":"active","ping":70},{"user_id":307,"name":"Gandhi the Grater","steam_id":76561198051198555,"connected_time":587000000000,"state":"active","ping":71},{"user_id":314,"name":"ToniGAM3S","steam_id":76561198128605351,"connected_time":259000000000,"state":"active","ping":62},{"user_id":315,"name":"mxti","steam_id":76561198269678940,"connected_time":228000000000,"state":"active","ping":74},{"user_id":316,"name":"Yassine","steam_id":76561198140565712,"connected_time":196000000000,"state":"active","ping":56},{"user_id":283,"name":"Churaq Cyril","steam_id":76561198125381319,"connected_time":2889000000000,"state":"active","ping":92},{"user_id":317,"name":"wicked","steam_id":76561198164376035,"connected_time":193000000000,"state":"active","ping":72},{"user_id":285,"name":"New","steam_id":76561198402195911,"connected_time":2784000000000,"state":"active","ping":124},{"user_id":324,"name":"Qosmo","steam_id":76561197980806182,"connected_time":1000000000,"state":"spawning","ping":60},{"user_id":319,"name":"Herbert","steam_id":76561198384246286,"connected_time":187000000000,"state":"active","ping":57},{"user_id":289,"name":"Qwerty","steam_id":76561198023525894,"connected_time":2350000000000,"state":"active","ping":84},{"user_id":322,"name":"—Å–ø–∞—Ä–∏–Ω–≥ –ø–∞—Ä—Ç–Ω—ë—Ä46","steam_id":76561197974177672,"connected_time":97000000000,"state":"active","ping":88}]},{"server_id":202,"name":"Uncletopia | Hong Kong | 1 | All Maps","name_short":"hgk-1","host":"hgk-1.hk.uncletopia.com","port":27015,"enabled":true,"region":"asia","cc":"hk","latitude":22.302711,"longitude":114.177216,"reserved":0,"last_update":"0001-01-01T00:00:00Z","name_a2s":"Uncletopia | Hong Kong | 1 | All Maps","protocol":17,"map":"pl_frontier_final","folder":"tf","game":"Team Fortress","app_id":440,"player_count":0,"max_players":24,"Bots":0,"server_type":"Dedicated","server_os":"Linux","password":true,"vac":true,"version":"7757534","steam_id":85568392924494504,"keywords":["nocrits","nodmgspread","payload","uncletopia"],"game_id":440,"stv_port":27016,"stv_name":"Uncletopia | Hong Kong | 1 | All Maps | STV","players":null},{"server_id":1,"name":"Uncletopia | Los Angeles | 1 | All Maps","name_short":"lax-1","host":"lax-1.us.uncletopia.com","port":27015,"enabled":true,"region":"us-west","cc":"us","latitude":33.94279,"longitude":-118.41004,"reserved":0,"last_update":"0001-01-01T00:00:00Z","name_a2s":"Uncletopia | Los Angeles | 1 | All Maps","protocol":17,"map":"pl_borneo","folder":"tf","game":"Team Fortress","app_id":440,"player_count":0,"max_players":24,"Bots":0,"server_type":"Dedicated","server_os":"Linux","password":true,"vac":true,"version":"7757534","steam_id":85568392924469991,"keywords":["nocrits","nodmgspread","payload","uncletopia"],"game_id":440,"stv_port":27016,"stv_name":"Uncletopia | Los Angeles | 1 | All Maps | STV","players":null},{"server_id":112,"name":"Uncletopia | Los Angeles | 2 | All Maps","name_short":"lax-2","host":"lax-1.us.uncletopia.com","port":27025,"enabled":true,"region":"us-west","cc":"us","latitude":33.94279,"longitude":-118.41004,"reserved":0,"last_update":"0001-01-01T00:00:00Z","name_a2s":"Uncletopia | Los Angeles | 2 | All Maps","protocol":17,"map":"koth_cascade","folder":"tf","game":"Team Fortress","app_id":440,"player_count":0,"max_players":24,"Bots":0,"server_type":"Dedicated","server_os":"Linux","password":true,"vac":true,"version":"7757534","steam_id":85568392924469992,"keywords":["cp","nocrits","nodmgspread","uncletopia"],"game_id":440,"stv_port":27026,"stv_name":"Uncletopia | Los Angeles | 2 | All Maps | STV","players":null},{"server_id":324,"name":"Uncletopia | Los Angeles | 3 | All Maps","name_short":"lax-3","host":"lax-1.us.uncletopia.com","port":27035,"enabled":true,"region":"us-west","cc":"us","latitude":33.94279,"longitude":-118.41004,"reserved":0,"last_update":"0001-01-01T00:00:00Z","name_a2s":"Uncletopia | Los Angeles | 3 | All Maps","protocol":17,"map":"pl_pier","folder":"tf","game":"Team Fortress","app_id":440,"player_count":0,"max_players":24,"Bots":0,"server_type":"Dedicated","server_os":"Linux","password":true,"vac":true,"version":"7757534","steam_id":85568392924510198,"keywords":["nocrits","nodmgspread","payload","uncletopia"],"game_id":440,"stv_port":27036,"stv_name":"Uncletopia | Los Angeles | 3 | All Maps | STV","players":null},{"server_id":25,"name":"Uncletopia | Los Angeles | 4 | Stopwatch Beta","name_short":"lax-4","host":"lax-1.us.uncletopia.com","port":27045,"enabled":true,"region":"us-west","cc":"us","latitude":33.94279,"longitude":-118.41004,"reserved":0,"last_update":"0001-01-01T00:00:00Z","name_a2s":"Uncletopia | Los Angeles | 4 | Stopwatch Beta","protocol":17,"map":"pl_frontier_final","folder":"tf","game":"Team Fortress","app_id":440,"player_count":2,"max_players":24,"Bots":0,"server_type":"Dedicated","server_os":"Linux","password":true,"vac":true,"version":"7757534","steam_id":85568392924510199,"keywords":["nocrits","nodmgspread","payload","uncletopia"],"game_id":440,"stv_port":27046,"stv_name":"Uncletopia | Los Angeles | 4 | Stopwatch Beta | STV","players":[{"user_id":4,"name":"Ivy","steam_id":76561198208996573,"connected_time":515000000000,"state":"active","ping":41},{"user_id":5,"name":"GonzaBruhPyro","steam_id":76561199375645709,"connected_time":16000000000,"state":"spawning","ping":3013}]},{"server_id":11,"name":"Uncletopia | London | 1 | All Maps","name_short":"lon-1","host":"lon-1.uk.uncletopia.com","port":27015,"enabled":true,"region":"eu","cc":"gb","latitude":51.509865,"longitude":-0.118092,"reserved":0,"last_update":"0001-01-01T00:00:00Z","name_a2s":"Uncletopia | London | 1 | All Maps","protocol":17,"map":"cp_snakewater_final1","folder":"tf","game":"Team Fortress","app_id":440,"player_count":24,"max_players":24,"Bots":0,"server_type":"Dedicated","server_os":"Linux","password":true,"vac":true,"version":"7757534","steam_id":85568392924367362,"keywords":["cp","nocrits","nodmgspread","uncletopia"],"game_id":440,"stv_port":27016,"stv_name":"Uncletopia | London | 1 | All Maps | STV","players":[{"user_id":564,"name":"CosminSL","steam_id":76561198055827684,"connected_time":1326000000000,"state":"active","ping":76},{"user_id":552,"name":"ShIpDI De Tartle","steam_id":76561198033099511,"connected_time":1617000000000,"state":"active","ping":79},{"user_id":583,"name":"Minimi","steam_id":76561198873850443,"connected_time":896000000000,"state":"active","ping":40},{"user_id":591,"name":"Outbackscientist428","steam_id":76561198236015392,"connected_time":440000000000,"state":"active","ping":119},{"user_id":517,"name":"Senator Armstrong","steam_id":76561198984346408,"connected_time":4444000000000,"state":"active","ping":75},{"user_id":568,"name":"TallestPerson","steam_id":76561198097923550,"connected_time":1261000000000,"state":"active","ping":56},{"user_id":569,"name":"Rodia","steam_id":76561197968293161,"connected_time":1256000000000,"state":"active","ping":74},{"user_id":562,"name":"WHUSSKEY","steam_id":76561198137827441,"connected_time":1367000000000,"state":"active","ping":69},{"user_id":594,"name":"MelvinIsANiceBoy","steam_id":76561198178415634,"connected_time":350000000000,"state":"active","ping":59},{"user_id":559,"name":"Aaron","steam_id":76561197990046953,"connected_time":1481000000000,"state":"active","ping":70},{"user_id":442,"name":"tactical783","steam_id":76561199051688560,"connected_time":9609000000000,"state":"active","ping":65},{"user_id":545,"name":"jimmy bob","steam_id":76561198319583692,"connected_time":2702000000000,"state":"active","ping":58},{"user_id":581,"name":"Kapitan Polska","steam_id":76561197968069413,"connected_time":1050000000000,"state":"active","ping":85},{"user_id":566,"name":"robsan","steam_id":76561198137375391,"connected_time":1311000000000,"state":"active","ping":81},{"user_id":586,"name":"Slimeby","steam_id":76561198353438688,"connected_time":829000000000,"state":"active","ping":85},{"user_id":570,"name":"Pesky Plumber","steam_id":76561198241999094,"connected_time":1249000000000,"state":"active","ping":88},{"user_id":571,"name":"roblan11","steam_id":76561198066839258,"connected_time":1236000000000,"state":"active","ping":56},{"user_id":572,"name":"M@T!X „Éû„ÉÜ„Ç£","steam_id":76561198273121669,"connected_time":1235000000000,"state":"active","ping":93},{"user_id":574,"name":"VORTEX(COMMS OPEN)","steam_id":76561199074746528,"connected_time":1197000000000,"state":"active","ping":72},{"user_id":575,"name":"matt.roser","steam_id":76561198200195855,"connected_time":1147000000000,"state":"active","ping":55},{"user_id":587,"name":"‚ú™ Danny","steam_id":76561198104483241,"connected_time":822000000000,"state":"active","ping":48},{"user_id":577,"name":"ThatTFguy","steam_id":76561198056794321,"connected_time":1103000000000,"state":"active","ping":57},{"user_id":593,"name":"Hkitchen","steam_id":76561198194779526,"connected_time":427000000000,"state":"active","ping":42},{"user_id":579,"name":"eidis","steam_id":76561198314954479,"connected_time":1086000000000,"state":"active","ping":117}]},{"server_id":114,"name":"Uncletopia | London | 2 | All Maps","name_short":"lon-2","host":"lon-1.uk.uncletopia.com","port":27025,"enabled":true,"region":"eu","cc":"gb","latitude":51.509865,"longitude":-0.118092,"reserved":0,"last_update":"0001-01-01T00:00:00Z","name_a2s":"Uncletopia | London | 2 | All Maps","protocol":17,"map":"pl_barnblitz","folder":"tf","game":"Team Fortress","app_id":440,"player_count":0,"max_players":24,"Bots":0,"server_type":"Dedicated","server_os":"Linux","password":true,"vac":true,"version":"7757534","steam_id":85568392924470941,"keywords":["nocrits","nodmgspread","payload","uncletopia"],"game_id":440,"stv_port":27026,"stv_name":"Uncletopia | London | 2 | All Maps | STV","players":null},{"server_id":320,"name":"Uncletopia | London | 3 | All Maps","name_short":"lon-3","host":"lon-1.uk.uncletopia.com","port":27035,"enabled":true,"region":"eu","cc":"gb","latitude":51.509865,"longitude":-0.118092,"reserved":0,"last_update":"0001-01-01T00:00:00Z","name_a2s":"Uncletopia | London | 3 | All Maps","protocol":17,"map":"koth_viaduct","folder":"tf","game":"Team Fortress","app_id":440,"player_count":0,"max_players":24,"Bots":0,"server_type":"Dedicated","server_os":"Linux","password":true,"vac":true,"version":"7757534","steam_id":85568392924510192,"keywords":["cp","nocrits","nodmgspread","uncletopia"],"game_id":440,"stv_port":27036,"stv_name":"Uncletopia | London | 3 | All Maps | STV","players":null},{"server_id":321,"name":"Uncletopia | London | 4 | All Maps","name_short":"lon-4","host":"lon-1.uk.uncletopia.com","port":27045,"enabled":true,"region":"eu","cc":"gb","latitude":51.509865,"longitude":-0.118092,"reserved":0,"last_update":"0001-01-01T00:00:00Z","name_a2s":"Uncletopia | London | 4 | All Maps","protocol":17,"map":"koth_viaduct","folder":"tf","game":"Team Fortress","app_id":440,"player_count":0,"max_players":24,"Bots":0,"server_type":"Dedicated","server_os":"Linux","password":true,"vac":true,"version":"7757534","steam_id":85568392924510193,"keywords":["cp","nocrits","nodmgspread","uncletopia"],"game_id":440,"stv_port":27046,"stv_name":"Uncletopia | London | 4 | All Maps | STV","players":null},{"server_id":21,"name":"Uncletopia | London | 5 | All Maps","name_short":"lon-5","host":"lon-1.uk.uncletopia.com","port":27055,"enabled":true,"region":"eu","cc":"gb","latitude":51.509865,"longitude":-0.118092,"reserved":0,"last_update":"0001-01-01T00:00:00Z","name_a2s":"Uncletopia | London | 5 | All Maps","protocol":17,"map":"pl_swiftwater_final1","folder":"tf","game":"Team Fortress","app_id":440,"player_count":24,"max_players":24,"Bots":0,"server_type":"Dedicated","server_os":"Linux","password":true,"vac":true,"version":"7757534","steam_id":85568392924742829,"keywords":["nocrits","nodmgspread","payload","uncletopia"],"game_id":440,"stv_port":27056,"stv_name":"Uncletopia | London | 5 | All Maps | STV","players":[{"user_id":164,"name":"nils","steam_id":76561198254882979,"connected_time":337000000000,"state":"active","ping":60},{"user_id":151,"name":"glass of water and a baguette","steam_id":76561198188642265,"connected_time":2256000000000,"state":"active","ping":74},{"user_id":158,"name":"static","steam_id":76561198836825741,"connected_time":1417000000000,"state":"active","ping":44},{"user_id":159,"name":"Noob_with_source","steam_id":76561198870362103,"connected_time":1385000000000,"state":"active","ping":59},{"user_id":135,"name":"Yakub","steam_id":76561198014279521,"connected_time":3710000000000,"state":"active","ping":116},{"user_id":120,"name":"Zogg","steam_id":76561198352683491,"connected_time":4482000000000,"state":"active","ping":38},{"user_id":165,"name":"Ripper","steam_id":76561197977547003,"connected_time":323000000000,"state":"active","ping":85},{"user_id":171,"name":"Fuvuk","steam_id":76561198044458593,"connected_time":238000000000,"state":"active","ping":96},{"user_id":143,"name":"frosty","steam_id":76561198094560834,"connected_time":2810000000000,"state":"active","ping":45},{"user_id":167,"name":"Grand Piano Tuna","steam_id":76561198135137213,"connected_time":302000000000,"state":"active","ping":160},{"user_id":43,"name":"Boof it","steam_id":76561198531978435,"connected_time":9507000000000,"state":"active","ping":70},{"user_id":161,"name":"Harpenden, Harpenden, Harpenden","steam_id":76561198118138546,"connected_time":1052000000000,"state":"active","ping":48},{"user_id":145,"name":"Jon (alt)","steam_id":76561199380849468,"connected_time":2410000000000,"state":"active","ping":61},{"user_id":168,"name":"EGirlGang","steam_id":76561198257435792,"connected_time":294000000000,"state":"active","ping":75},{"user_id":117,"name":"UberMedicFully","steam_id":76561198325144630,"connected_time":4577000000000,"state":"active","ping":52},{"user_id":163,"name":"Jack","steam_id":76561198325505238,"connected_time":371000000000,"state":"active","ping":86},{"user_id":95,"name":"Orange","steam_id":76561198073769916,"connected_time":6229000000000,"state":"active","ping":54},{"user_id":81,"name":"Lyell","steam_id":76561198350329389,"connected_time":7010000000000,"state":"active","ping":79},{"user_id":169,"name":"DarthRevan","steam_id":76561198164492361,"connected_time":278000000000,"state":"active","ping":147},{"user_id":136,"name":"Avocado [Ham Mafia]","steam_id":76561199007231261,"connected_time":3213000000000,"state":"active","ping":79},{"user_id":154,"name":"Christmas Ham","steam_id":76561198119601623,"connected_time":2048000000000,"state":"active","ping":55},{"user_id":170,"name":"Blacksheep","steam_id":76561198019621063,"connected_time":260000000000,"state":"active","ping":47},{"user_id":155,"name":"jerf","steam_id":76561199213901239,"connected_time":2046000000000,"state":"active","ping":45},{"user_id":82,"name":"Bonca","steam_id":76561198137503531,"connected_time":6952000000000,"state":"active","ping":75}]},{"server_id":22,"name":"Uncletopia | London | 6 | All Maps","name_short":"lon-6","host":"lon-1.uk.uncletopia.com","port":27065,"enabled":true,"region":"eu","cc":"gb","latitude":51.509865,"longitude":-0.118092,"reserved":0,"last_update":"0001-01-01T00:00:00Z","name_a2s":"Uncletopia | London | 6 | All Maps","protocol":17,"map":"koth_cascade","folder":"tf","game":"Team Fortress","app_id":440,"player_count":0,"max_players":24,"Bots":0,"server_type":"Dedicated","server_os":"Linux","password":true,"vac":true,"version":"7757534","steam_id":85568392924742830,"keywords":["cp","nocrits","nodmgspread","uncletopia"],"game_id":440,"stv_port":27066,"stv_name":"Uncletopia | London | 6 | All Maps | STV","players":null},{"server_id":40,"name":"Uncletopia | London | 7 | No Payload","name_short":"lon-7","host":"lon-1.uk.uncletopia.com","port":27075,"enabled":true,"region":"eu","cc":"gb","latitude":51.509865,"longitude":-0.118092,"reserved":0,"last_update":"0001-01-01T00:00:00Z","name_a2s":"Uncletopia | London | 7 | No Payload","protocol":17,"map":"ctf_2fort","folder":"tf","game":"Team Fortress","app_id":440,"player_count":11,"max_players":24,"Bots":0,"server_type":"Dedicated","server_os":"Linux","password":true,"vac":true,"version":"7757534","steam_id":85568392924964314,"keywords":["ctf","nocrits","nodmgspread","uncletopia"],"game_id":440,"stv_port":27076,"stv_name":"Uncletopia | London | 7 | No Payload | STV","players":[{"user_id":96,"name":"Pinkchup","steam_id":76561198106802803,"connected_time":490000000000,"state":"active","ping":78},{"user_id":94,"name":"Glendyr ‚ô•","steam_id":76561198037676279,"connected_time":656000000000,"state":"active","ping":72},{"user_id":92,"name":"ParisXavi","steam_id":76561199451487415,"connected_time":1345000000000,"state":"active","ping":83},{"user_id":95,"name":"Ash üíõ","steam_id":76561198260495385,"connected_time":609000000000,"state":"active","ping":63},{"user_id":102,"name":"Scarlett-Platinum","steam_id":76561198200503134,"connected_time":80000000000,"state":"active","ping":150},{"user_id":82,"name":"KFC Enjoyer","steam_id":76561198840259819,"connected_time":1622000000000,"state":"active","ping":49},{"user_id":98,"name":"nhstefanov","steam_id":76561198811811405,"connected_time":384000000000,"state":"active","ping":72},{"user_id":99,"name":"Bread Man","steam_id":76561199227056699,"connected_time":337000000000,"state":"active","ping":54},{"user_id":70,"name":"John Fortress","steam_id":76561198043743881,"connected_time":2017000000000,"state":"active","ping":42},{"user_id":100,"name":"cardboardwarrior1","steam_id":76561199145044693,"connected_time":301000000000,"state":"active","ping":230},{"user_id":74,"name":"Windows 95 Soda Can","steam_id":76561198378357559,"connected_time":1916000000000,"state":"active","ping":41}]},{"server_id":41,"name":"Uncletopia | London | 8 | Community","name_short":"lon-8","host":"lon-1.uk.uncletopia.com","port":27085,"enabled":true,"region":"eu","cc":"gb","latitude":51.509865,"longitude":-0.118092,"reserved":0,"last_update":"0001-01-01T00:00:00Z","name_a2s":"Uncletopia | London | 8 | Community","protocol":17,"map":"pl_upward","folder":"tf","game":"Team Fortress","app_id":440,"player_count":0,"max_players":24,"Bots":0,"server_type":"Dedicated","server_os":"Linux","password":true,"vac":true,"version":"7757534","steam_id":85568392924964315,"keywords":["nocrits","nodmgspread","payload","uncletopia"],"game_id":440,"stv_port":27086,"stv_name":"Uncletopia | London | 8 | Community | STV","players":null},{"server_id":300,"name":"Uncletopia | Montr√©al | 1 | All Maps","name_short":"mtl-1","host":"mtl-1.ca.uncletopia.com","port":27015,"enabled":true,"region":"us-east","cc":"ca","latitude":45.50889,"longitude":-73.56167,"reserved":0,"last_update":"0001-01-01T00:00:00Z","name_a2s":"Uncletopia | Montr√©al | 1 | All Maps","protocol":17,"map":"pl_borneo","folder":"tf","game":"Team Fortress","app_id":440,"player_count":0,"max_players":24,"Bots":0,"server_type":"Dedicated","server_os":"Linux","password":true,"vac":true,"version":"7757534","steam_id":85568392924500087,"keywords":["nocrits","nodmgspread","payload","uncletopia"],"game_id":440,"stv_port":27016,"stv_name":"Uncletopia | Montr√©al | 1 | All Maps | STV","players":null},{"server_id":301,"name":"Uncletopia | Montr√©al | 2 | All Maps","name_short":"mtl-2","host":"mtl-1.ca.uncletopia.com","port":27025,"enabled":true,"region":"us-east","cc":"ca","latitude":45.50889,"longitude":-73.56167,"reserved":0,"last_update":"0001-01-01T00:00:00Z","name_a2s":"Uncletopia | Montr√©al | 2 | All Maps","protocol":17,"map":"koth_viaduct","folder":"tf","game":"Team Fortress","app_id":440,"player_count":0,"max_players":24,"Bots":0,"server_type":"Dedicated","server_os":"Linux","password":true,"vac":true,"version":"7757534","steam_id":85568392924500088,"keywords":["cp","nocrits","nodmgspread","uncletopia"],"game_id":440,"stv_port":27026,"stv_name":"Uncletopia | Montr√©al | 2 | All Maps | STV","players":null},{"server_id":302,"name":"Uncletopia | Montr√©al | 3 | All Maps","name_short":"mtl-3","host":"mtl-1.ca.uncletopia.com","port":27035,"enabled":true,"region":"us-east","cc":"ca","latitude":45.50889,"longitude":-73.56167,"reserved":0,"last_update":"0001-01-01T00:00:00Z","name_a2s":"Uncletopia | Montr√©al | 3 | All Maps","protocol":17,"map":"cp_dustbowl","folder":"tf","game":"Team Fortress","app_id":440,"player_count":0,"max_players":24,"Bots":0,"server_type":"Dedicated","server_os":"Linux","password":true,"vac":true,"version":"7757534","steam_id":85568392924500089,"keywords":["cp","nocrits","nodmgspread","uncletopia"],"game_id":440,"stv_port":27036,"stv_name":"Uncletopia | Montr√©al | 3 | All Maps | STV","players":null},{"server_id":303,"name":"Uncletopia | Montr√©al | 4 | No Payload","name_short":"mtl-4","host":"mtl-1.ca.uncletopia.com","port":27045,"enabled":true,"region":"us-east","cc":"ca","latitude":45.50889,"longitude":-73.56167,"reserved":0,"last_update":"0001-01-01T00:00:00Z","name_a2s":"Uncletopia | Montr√©al | 4 | No Payload","protocol":17,"map":"pl_borneo","folder":"tf","game":"Team Fortress","app_id":440,"player_count":0,"max_players":24,"Bots":0,"server_type":"Dedicated","server_os":"Linux","password":true,"vac":true,"version":"7757534","steam_id":85568392924500090,"keywords":["nocrits","nodmgspread","payload","uncletopia"],"game_id":440,"stv_port":27046,"stv_name":"Uncletopia | Montr√©al | 4 | No Payload | STV","players":null},{"server_id":13,"name":"Uncletopia | New York City | 1 | All Maps","name_short":"nyc-1","host":"nyc-1.us.uncletopia.com","port":27015,"enabled":true,"region":"us-east","cc":"us","latitude":40.73061,"longitude":-73.93524,"reserved":0,"last_update":"0001-01-01T00:00:00Z","name_a2s":"Uncletopia | New York City | 1 | All Maps","protocol":17,"map":"koth_viaduct","folder":"tf","game":"Team Fortress","app_id":440,"player_count":24,"max_players":24,"Bots":0,"server_type":"Dedicated","server_os":"Linux","password":true,"vac":true,"version":"7757534","steam_id":85568392924469993,"keywords":["cp","nocrits","nodmgspread","uncletopia"],"game_id":440,"stv_port":27016,"stv_name":"Uncletopia | New York City | 1 | All Maps | STV","players":[{"user_id":220,"name":"triangleman","steam_id":76561198972733542,"connected_time":169000000000,"state":"active","ping":72},{"user_id":152,"name":"lker","steam_id":76561197976975075,"connected_time":4368000000000,"state":"active","ping":61},{"user_id":193,"name":"Vulapa","steam_id":76561198003216819,"connected_time":1821000000000,"state":"active","ping":60},{"user_id":182,"name":"Kasane","steam_id":76561198209006780,"connected_time":2467000000000,"state":"active","ping":82},{"user_id":222,"name":"frank","steam_id":76561198045436159,"connected_time":99000000000,"state":"active","ping":67},{"user_id":130,"name":"The Drunk Clown","steam_id":76561197986850426,"connected_time":7498000000000,"state":"active","ping":76},{"user_id":170,"name":"King Col","steam_id":76561198033384990,"connected_time":3434000000000,"state":"active","ping":54},{"user_id":218,"name":"[OC2TM] CF-TF2","steam_id":76561198145893044,"connected_time":224000000000,"state":"active","ping":61},{"user_id":213,"name":"BearAteMahoney","steam_id":76561198020439356,"connected_time":573000000000,"state":"active","ping":51},{"user_id":204,"name":"The Land Admiral","steam_id":76561198159356609,"connected_time":831000000000,"state":"active","ping":57},{"user_id":145,"name":"Terumi","steam_id":76561198086172358,"connected_time":5088000000000,"state":"active","ping":43},{"user_id":187,"name":"DiscoTraveler","steam_id":76561199240168088,"connected_time":2295000000000,"state":"active","ping":45},{"user_id":142,"name":"mashallah","steam_id":76561198075111427,"connected_time":6186000000000,"state":"active","ping":63},{"user_id":191,"name":"dreamsuitee","steam_id":76561198060077761,"connected_time":1999000000000,"state":"active","ping":50},{"user_id":221,"name":"money getter","steam_id":76561199065645094,"connected_time":137000000000,"state":"active","ping":98},{"user_id":165,"name":"Cleetus","steam_id":76561198055879094,"connected_time":3817000000000,"state":"active","ping":92},{"user_id":188,"name":"Ramblet","steam_id":76561199026783260,"connected_time":2258000000000,"state":"active","ping":56},{"user_id":208,"name":"DSM-IVCE","steam_id":76561199438515797,"connected_time":670000000000,"state":"active","ping":104},{"user_id":212,"name":"IGuy","steam_id":76561197996590728,"connected_time":611000000000,"state":"active","ping":62},{"user_id":189,"name":"U_______U","steam_id":76561198126358045,"connected_time":2237000000000,"state":"active","ping":59},{"user_id":210,"name":"Crystallixed","steam_id":76561198072263515,"connected_time":658000000000,"state":"active","ping":76},{"user_id":198,"name":"Swaggot","steam_id":76561199104492369,"connected_time":1628000000000,"state":"active","ping":112},{"user_id":219,"name":"Hi, I'm Jesus","steam_id":76561198015327152,"connected_time":180000000000,"state":"active","ping":51},{"user_id":203,"name":"Ellokids202","steam_id":76561199466585816,"connected_time":1342000000000,"state":"active","ping":113}]},{"server_id":14,"name":"Uncletopia | New York City | 2 | All Maps","name_short":"nyc-2","host":"nyc-1.us.uncletopia.com","port":27025,"enabled":true,"region":"us-east","cc":"us","latitude":40.73061,"longitude":-73.93524,"reserved":0,"last_update":"0001-01-01T00:00:00Z","name_a2s":"Uncletopia | New York City | 2 | All Maps","protocol":17,"map":"pl_frontier_final","folder":"tf","game":"Team Fortress","app_id":440,"player_count":0,"max_players":24,"Bots":0,"server_type":"Dedicated","server_os":"Linux","password":true,"vac":true,"version":"7757534","steam_id":85568392924469994,"keywords":["nocrits","nodmgspread","payload","uncletopia"],"game_id":440,"stv_port":27026,"stv_name":"Uncletopia | New York City | 2 | All Maps | STV","players":null},{"server_id":15,"name":"Uncletopia | New York City | 3 | Stopwatch Beta","name_short":"nyc-3","host":"nyc-1.us.uncletopia.com","port":27035,"enabled":true,"region":"us-east","cc":"us","latitude":40.73061,"longitude":-73.93524,"reserved":0,"last_update":"0001-01-01T00:00:00Z","name_a2s":"Uncletopia | New York City | 3 | Stopwatch Beta","protocol":17,"map":"koth_highpass","folder":"tf","game":"Team Fortress","app_id":440,"player_count":0,"max_players":24,"Bots":0,"server_type":"Dedicated","server_os":"Linux","password":true,"vac":true,"version":"7757534","steam_id":85568392924742820,"keywords":["cp","nocrits","nodmgspread","uncletopia"],"game_id":440,"stv_port":27036,"stv_name":"Uncletopia | New York City | 3 | Stopwatch Beta | STV","players":null},{"server_id":16,"name":"Uncletopia | New York City | 4 | Community","name_short":"nyc-4","host":"nyc-1.us.uncletopia.com","port":27045,"enabled":true,"region":"us-east","cc":"us","latitude":40.73061,"longitude":-73.93524,"reserved":0,"last_update":"0001-01-01T00:00:00Z","name_a2s":"Uncletopia | New York City | 4 | Community","protocol":17,"map":"workshop/cp_caldera_rc2.ugc2834196889","folder":"tf","game":"Team Fortress","app_id":440,"player_count":0,"max_players":24,"Bots":0,"server_type":"Dedicated","server_os":"Linux","password":true,"vac":true,"version":"7757534","steam_id":85568392924742821,"keywords":["cp","nocrits","nodmgspread","uncletopia"],"game_id":440,"stv_port":27046,"stv_name":"Uncletopia | New York City | 4 | Community | STV","players":null},{"server_id":142,"name":"Uncletopia | S√£o Paulo | 1 | All Maps","name_short":"sao-1","host":"sao-1.br.uncletopia.com","port":27015,"enabled":true,"region":"sa","cc":"br","latitude":-23.533773,"longitude":-46.62529,"reserved":0,"last_update":"0001-01-01T00:00:00Z","name_a2s":"Uncletopia | S√£o Paulo | 1 | All Maps","protocol":17,"map":"koth_highpass","folder":"tf","game":"Team Fortress","app_id":440,"player_count":0,"max_players":24,"Bots":0,"server_type":"Dedicated","server_os":"Linux","password":true,"vac":true,"version":"7757534","steam_id":85568392924469996,"keywords":["cp","nocrits","nodmgspread","uncletopia"],"game_id":440,"stv_port":27016,"stv_name":"Uncletopia | S√£o Paulo | 1 | All Maps | STV","players":null},{"server_id":143,"name":"Uncletopia | S√£o Paulo | 2 | All Maps","name_short":"sao-2","host":"sao-2.br.uncletopia.com","port":27015,"enabled":true,"region":"sa","cc":"br","latitude":-23.533773,"longitude":-46.62529,"reserved":0,"last_update":"0001-01-01T00:00:00Z","name_a2s":"Uncletopia | S√£o Paulo | 2 | All Maps","protocol":17,"map":"koth_highpass","folder":"tf","game":"Team Fortress","app_id":440,"player_count":0,"max_players":24,"Bots":0,"server_type":"Dedicated","server_os":"Linux","password":true,"vac":true,"version":"7757534","steam_id":85568392924485349,"keywords":["cp","nocrits","nodmgspread","uncletopia"],"game_id":440,"stv_port":27016,"stv_name":"Uncletopia | S√£o Paulo | 2 | All Maps | STV","players":null},{"server_id":7,"name":"Uncletopia | Seattle | 1 | All Maps","name_short":"sea-1","host":"sea-1.us.uncletopia.com","port":27015,"enabled":true,"region":"us-west","cc":"us","latitude":47.608013,"longitude":-122.33517,"reserved":0,"last_update":"0001-01-01T00:00:00Z","name_a2s":"Uncletopia | Seattle | 1 | All Maps","protocol":17,"map":"pl_borneo","folder":"tf","game":"Team Fortress","app_id":440,"player_count":24,"max_players":24,"Bots":0,"server_type":"Dedicated","server_os":"Linux","password":true,"vac":true,"version":"7757534","steam_id":85568392924469997,"keywords":["nocrits","nodmgspread","payload","uncletopia"],"game_id":440,"stv_port":27016,"stv_name":"Uncletopia | Seattle | 1 | All Maps | STV","players":[{"user_id":222,"name":"FlusteredWolf758","steam_id":76561198119191002,"connected_time":1963000000000,"state":"active","ping":97},{"user_id":212,"name":"Ashley H√©lo√Øse","steam_id":76561198103653429,"connected_time":2811000000000,"state":"active","ping":78},{"user_id":243,"name":"G3rockwood","steam_id":76561198103583658,"connected_time":118000000000,"state":"active","ping":112},{"user_id":164,"name":"goongremlin","steam_id":76561198278196215,"connected_time":7005000000000,"state":"active","ping":66},{"user_id":174,"name":"David.Smith.2009","steam_id":76561198309760791,"connected_time":6227000000000,"state":"active","ping":132},{"user_id":244,"name":"ShaiKai","steam_id":76561198333319986,"connected_time":44000000000,"state":"active","ping":143},{"user_id":241,"name":"Ziggie Smalls","steam_id":76561198804592809,"connected_time":152000000000,"state":"active","ping":50},{"user_id":236,"name":"Quick","steam_id":76561198047992935,"connected_time":167000000000,"state":"active","ping":82},{"user_id":181,"name":"Kit Carson","steam_id":76561198115691546,"connected_time":5050000000000,"state":"active","ping":93},{"user_id":191,"name":"o o o o o o o o o","steam_id":76561197993757506,"connected_time":3871000000000,"state":"active","ping":71},{"user_id":224,"name":"‚úø PoutyBun ‚úø","steam_id":76561197965762847,"connected_time":1746000000000,"state":"active","ping":30},{"user_id":178,"name":"„Ä£dust„Ä£ -she/her-","steam_id":76561198045218909,"connected_time":5122000000000,"state":"active","ping":37},{"user_id":210,"name":"THE NUT","steam_id":76561198067813626,"connected_time":3010000000000,"state":"active","ping":51},{"user_id":226,"name":"Legendary Fro","steam_id":76561198099981980,"connected_time":1677000000000,"state":"active","ping":88},{"user_id":207,"name":"Sloppy John (Extra Sauce)","steam_id":76561198359703432,"connected_time":3288000000000,"state":"active","ping":77},{"user_id":242,"name":"Dimple #TF2Center","steam_id":76561198980324190,"connected_time":151000000000,"state":"active","ping":50},{"user_id":218,"name":"Spirit","steam_id":76561199069322627,"connected_time":2169000000000,"state":"active","ping":129},{"user_id":237,"name":"bodie._.","steam_id":76561198079474904,"connected_time":166000000000,"state":"active","ping":69},{"user_id":50,"name":"4 Itchy Tasty","steam_id":76561198009869383,"connected_time":15203000000000,"state":"active","ping":126},{"user_id":231,"name":"laggy mcstab","steam_id":76561198106379962,"connected_time":1071000000000,"state":"active","ping":61},{"user_id":217,"name":"Cloud","steam_id":76561198272454184,"connected_time":2252000000000,"state":"active","ping":178},{"user_id":235,"name":"Klone","steam_id":76561198854485605,"connected_time":178000000000,"state":"active","ping":115},{"user_id":245,"name":"Mythical Lag","steam_id":76561198347031281,"connected_time":42000000000,"state":"active","ping":109},{"user_id":239,"name":"Toastedtoast222","steam_id":76561198120756409,"connected_time":165000000000,"state":"active","ping":61}]},{"server_id":119,"name":"Uncletopia | Seattle | 2 | All Maps","name_short":"sea-2","host":"sea-1.us.uncletopia.com","port":27025,"enabled":true,"region":"us-west","cc":"us","latitude":47.608013,"longitude":-122.33517,"reserved":0,"last_update":"0001-01-01T00:00:00Z","name_a2s":"Uncletopia | Seattle | 2 | All Maps","protocol":17,"map":"koth_cascade","folder":"tf","game":"Team Fortress","app_id":440,"player_count":0,"max_players":24,"Bots":0,"server_type":"Dedicated","server_os":"Linux","password":true,"vac":true,"version":"7757534","steam_id":85568392924469998,"keywords":["cp","nocrits","nodmgspread","uncletopia"],"game_id":440,"stv_port":27026,"stv_name":"Uncletopia | Seattle | 2 | All Maps | STV","players":null},{"server_id":406,"name":"Uncletopia | Seattle | 3 | Stopwatch Beta","name_short":"sea-3","host":"sea-1.us.uncletopia.com","port":27035,"enabled":true,"region":"us-west","cc":"us","latitude":47.608013,"longitude":-122.33517,"reserved":0,"last_update":"0001-01-01T00:00:00Z","name_a2s":"Uncletopia | Seattle | 3 | Stopwatch Beta","protocol":17,"map":"pl_barnblitz","folder":"tf","game":"Team Fortress","app_id":440,"player_count":0,"max_players":24,"Bots":0,"server_type":"Dedicated","server_os":"Linux","password":true,"vac":true,"version":"7757534","steam_id":85568392924515217,"keywords":["nocrits","nodmgspread","payload","uncletopia"],"game_id":440,"stv_port":27036,"stv_name":"Uncletopia | Seattle | 3 | Stopwatch Beta | STV","players":null},{"server_id":17,"name":"Uncletopia | San Francisco | 1 | All Maps","name_short":"sfo-1","host":"sfo-1.us.uncletopia.com","port":27015,"enabled":true,"region":"us-west","cc":"us","latitude":37.77397,"longitude":-122.4313,"reserved":0,"last_update":"0001-01-01T00:00:00Z","name_a2s":"Uncletopia | San Francisco | 1 | All Maps","protocol":17,"map":"cp_process_final","folder":"tf","game":"Team Fortress","app_id":440,"player_count":0,"max_players":24,"Bots":0,"server_type":"Dedicated","server_os":"Linux","password":true,"vac":true,"version":"7757534","steam_id":85568392924469999,"keywords":["cp","nocrits","nodmgspread","uncletopia"],"game_id":440,"stv_port":27016,"stv_name":"Uncletopia | San Francisco | 1 | All Maps | STV","players":null},{"server_id":18,"name":"Uncletopia | San Francisco | 2 | All Maps","name_short":"sfo-2","host":"sfo-1.us.uncletopia.com","port":27025,"enabled":true,"region":"us-west","cc":"us","latitude":37.77397,"longitude":-122.4313,"reserved":0,"last_update":"0001-01-01T00:00:00Z","name_a2s":"Uncletopia | San Francisco | 2 | All Maps","protocol":17,"map":"cp_sunshine","folder":"tf","game":"Team Fortress","app_id":440,"player_count":0,"max_players":24,"Bots":0,"server_type":"Dedicated","server_os":"Linux","password":true,"vac":true,"version":"7757534","steam_id":85568392924470000,"keywords":["cp","nocrits","nodmgspread","uncletopia"],"game_id":440,"stv_port":27026,"stv_name":"Uncletopia | San Francisco | 2 | All Maps | STV","players":null},{"server_id":19,"name":"Uncletopia | San Francisco | 3 | Stopwatch Beta","name_short":"sfo-3","host":"sfo-1.us.uncletopia.com","port":27035,"enabled":true,"region":"us-west","cc":"us","latitude":37.77397,"longitude":-122.4313,"reserved":0,"last_update":"0001-01-01T00:00:00Z","name_a2s":"Uncletopia | San Francisco | 3 | Stopwatch Beta","protocol":17,"map":"pl_borneo","folder":"tf","game":"Team Fortress","app_id":440,"player_count":0,"max_players":24,"Bots":0,"server_type":"Dedicated","server_os":"Linux","password":true,"vac":true,"version":"7757534","steam_id":85568392924742824,"keywords":["nocrits","nodmgspread","payload","uncletopia"],"game_id":440,"stv_port":27036,"stv_name":"Uncletopia | San Francisco | 3 | Stopwatch Beta | STV","players":null},{"server_id":20,"name":"Uncletopia | San Francisco | 4 | Community","name_short":"sfo-4","host":"sfo-1.us.uncletopia.com","port":27045,"enabled":true,"region":"us-west","cc":"us","latitude":37.77397,"longitude":-122.4313,"reserved":0,"last_update":"0001-01-01T00:00:00Z","name_a2s":"Uncletopia | San Francisco | 4 | Community","protocol":17,"map":"koth_highpass","folder":"tf","game":"Team Fortress","app_id":440,"player_count":0,"max_players":24,"Bots":0,"server_type":"Dedicated","server_os":"Linux","password":true,"vac":true,"version":"7757534","steam_id":85568392924742826,"keywords":["cp","nocrits","nodmgspread","uncletopia"],"game_id":440,"stv_port":27046,"stv_name":"Uncletopia | San Francisco | 4 | Community | STV","players":null},{"server_id":141,"name":"Uncletopia | Sydney | 1 | All Maps","name_short":"syd-1","host":"syd-1.au.uncletopia.com","port":27015,"enabled":true,"region":"au","cc":"au","latitude":-33.865143,"longitude":151.2099,"reserved":0,"last_update":"0001-01-01T00:00:00Z","name_a2s":"Uncletopia | Sydney | 1 | All Maps","protocol":17,"map":"koth_lakeside_final","folder":"tf","game":"Team Fortress","app_id":440,"player_count":1,"max_players":24,"Bots":0,"server_type":"Dedicated","server_os":"Linux","password":true,"vac":true,"version":"7757534","steam_id":85568392924470001,"keywords":["cp","nocrits","nodmgspread","uncletopia"],"game_id":440,"stv_port":27016,"stv_name":"Uncletopia | Sydney | 1 | All Maps | STV","players":[{"user_id":704,"name":"Boop \u003c3","steam_id":76561198274521571,"connected_time":291000000000,"state":"active","ping":45}]},{"server_id":123,"name":"Uncletopia | Sydney | 2 | All Maps","name_short":"syd-2","host":"syd-1.au.uncletopia.com","port":27025,"enabled":true,"region":"au","cc":"au","latitude":-33.865143,"longitude":151.2099,"reserved":0,"last_update":"0001-01-01T00:00:00Z","name_a2s":"Uncletopia | Sydney | 2 | All Maps","protocol":17,"map":"koth_lakeside_final","folder":"tf","game":"Team Fortress","app_id":440,"player_count":0,"max_players":24,"Bots":0,"server_type":"Dedicated","server_os":"Linux","password":true,"vac":true,"version":"7757534","steam_id":85568392924470002,"keywords":["cp","nocrits","nodmgspread","uncletopia"],"game_id":440,"stv_port":27026,"stv_name":"Uncletopia | Sydney | 2 | All Maps | STV","players":null},{"server_id":395,"name":"Uncletopia | Sydney | 3 | All Maps","name_short":"syd-3","host":"syd-1.au.uncletopia.com","port":27035,"enabled":true,"region":"au","cc":"au","latitude":-33.865143,"longitude":151.2099,"reserved":0,"last_update":"0001-01-01T00:00:00Z","name_a2s":"Uncletopia | Sydney | 3 | All Maps","protocol":17,"map":"koth_viaduct","folder":"tf","game":"Team Fortress","app_id":440,"player_count":0,"max_players":24,"Bots":0,"server_type":"Dedicated","server_os":"Linux","password":true,"vac":true,"version":"7757534","steam_id":85568392925194467,"keywords":["cp","nocrits","nodmgspread","uncletopia"],"game_id":440,"stv_port":27036,"stv_name":"Uncletopia | Sydney | 3 | All Maps | STV","players":null},{"server_id":396,"name":"Uncletopia | Sydney | 4 | All Maps","name_short":"syd-4","host":"syd-1.au.uncletopia.com","port":27045,"enabled":true,"region":"au","cc":"au","latitude":-33.865143,"longitude":151.2099,"reserved":0,"last_update":"0001-01-01T00:00:00Z","name_a2s":"Uncletopia | Sydney | 4 | All Maps","protocol":17,"map":"koth_lakeside_final","folder":"tf","game":"Team Fortress","app_id":440,"player_count":0,"max_players":24,"Bots":0,"server_type":"Dedicated","server_os":"Linux","password":true,"vac":true,"version":"7757534","steam_id":85568392925397958,"keywords":["cp","nocrits","nodmgspread","uncletopia"],"game_id":440,"stv_port":27046,"stv_name":"Uncletopia | Sydney | 4 | All Maps | STV","players":null},{"server_id":58,"name":"Uncletopia | Sydney | 5 | Stopwatch Beta","name_short":"syd-5","host":"syd-1.au.uncletopia.com","port":27055,"enabled":true,"region":"au","cc":"au","latitude":-33.865143,"longitude":151.2099,"reserved":0,"last_update":"0001-01-01T00:00:00Z","name_a2s":"Uncletopia | Sydney | 5 | Stopwatch Beta","protocol":17,"map":"koth_highpass","folder":"tf","game":"Team Fortress","app_id":440,"player_count":0,"max_players":24,"Bots":0,"server_type":"Dedicated","server_os":"Linux","password":true,"vac":true,"version":"7757534","steam_id":85568392925397959,"keywords":["cp","nocrits","nodmgspread","uncletopia"],"game_id":440,"stv_port":27056,"stv_name":"Uncletopia | Sydney | 5 | Stopwatch Beta | STV","players":null},{"server_id":59,"name":"Uncletopia | Sydney | 6 | Community","name_short":"syd-6","host":"syd-1.au.uncletopia.com","port":27065,"enabled":true,"region":"au","cc":"au","latitude":-33.865143,"longitude":151.2099,"reserved":0,"last_update":"0001-01-01T00:00:00Z","name_a2s":"Uncletopia | Sydney | 6 | Community","protocol":17,"map":"workshop/koth_trenchfoot_b1a.ugc731436616","folder":"tf","game":"Team Fortress","app_id":440,"player_count":0,"max_players":24,"Bots":0,"server_type":"Dedicated","server_os":"Linux","password":true,"vac":true,"version":"7757534","steam_id":85568392925397960,"keywords":["cp","nocrits","nodmgspread","uncletopia"],"game_id":440,"stv_port":27066,"stv_name":"Uncletopia | Sydney | 6 | Community | STV","players":null},{"server_id":49,"name":"Uncletopia | Warsaw | 1 | All Maps","name_short":"waw-1","host":"waw-1.pl.uncletopia.com","port":27015,"enabled":true,"region":"eu","cc":"pl","latitude":52.2297,"longitude":21.017532,"reserved":0,"last_update":"0001-01-01T00:00:00Z","name_a2s":"","protocol":0,"map":"","folder":"","game":"","app_id":0,"player_count":0,"max_players":0,"Bots":0,"server_type":"","server_os":"","password":false,"vac":false,"version":"","steam_id":0,"keywords":null,"game_id":0,"stv_port":0,"stv_name":"","players":null},{"server_id":50,"name":"Uncletopia | Warsaw | 2 | All Maps","name_short":"waw-2","host":"waw-1.pl.uncletopia.com","port":27025,"enabled":true,"region":"eu","cc":"pl","latitude":52.2297,"longitude":21.017532,"reserved":0,"last_update":"0001-01-01T00:00:00Z","name_a2s":"Uncletopia | Warsaw | 2 | All Maps","protocol":17,"map":"koth_highpass","folder":"tf","game":"Team Fortress","app_id":440,"player_count":0,"max_players":24,"Bots":0,"server_type":"Dedicated","server_os":"Linux","password":true,"vac":true,"version":"7757534","steam_id":85568392925397851,"keywords":["cp","nocrits","nodmgspread","uncletopia"],"game_id":440,"stv_port":27026,"stv_name":"Uncletopia | Warsaw | 2 | All Maps | STV","players":null},{"server_id":51,"name":"Uncletopia | Warsaw | 3 | All Maps","name_short":"waw-3","host":"waw-1.pl.uncletopia.com","port":27035,"enabled":true,"region":"eu","cc":"pl","latitude":52.2297,"longitude":21.017532,"reserved":0,"last_update":"0001-01-01T00:00:00Z","name_a2s":"Uncletopia | Warsaw | 3 | All Maps","protocol":17,"map":"pl_barnblitz","folder":"tf","game":"Team Fortress","app_id":440,"player_count":0,"max_players":24,"Bots":0,"server_type":"Dedicated","server_os":"Linux","password":true,"vac":true,"version":"7757534","steam_id":85568392925397852,"keywords":["nocrits","nodmgspread","payload","uncletopia"],"game_id":440,"stv_port":27036,"stv_name":"Uncletopia | Warsaw | 3 | All Maps | STV","players":null},{"server_id":52,"name":"Uncletopia | Warsaw | 4 | All Maps","name_short":"waw-4","host":"waw-1.pl.uncletopia.com","port":27045,"enabled":true,"region":"eu","cc":"pl","latitude":52.2297,"longitude":21.017532,"reserved":0,"last_update":"0001-01-01T00:00:00Z","name_a2s":"Uncletopia | Warsaw | 4 | All Maps","protocol":17,"map":"pl_borneo","folder":"tf","game":"Team Fortress","app_id":440,"player_count":0,"max_players":24,"Bots":0,"server_type":"Dedicated","server_os":"Linux","password":true,"vac":true,"version":"7757534","steam_id":85568392925397853,"keywords":["nocrits","nodmgspread","payload","uncletopia"],"game_id":440,"stv_port":27046,"stv_name":"Uncletopia | Warsaw | 4 | All Maps | STV","players":null},{"server_id":53,"name":"Uncletopia | Warsaw | 5 | Stopwatch Beta","name_short":"waw-5","host":"waw-1.pl.uncletopia.com","port":27055,"enabled":true,"region":"eu","cc":"pl","latitude":52.2297,"longitude":21.017532,"reserved":0,"last_update":"0001-01-01T00:00:00Z","name_a2s":"Uncletopia | Warsaw | 5 | Stopwatch Beta","protocol":17,"map":"pl_barnblitz","folder":"tf","game":"Team Fortress","app_id":440,"player_count":0,"max_players":24,"Bots":0,"server_type":"Dedicated","server_os":"Linux","password":true,"vac":true,"version":"7757534","steam_id":85568392925397854,"keywords":["nocrits","nodmgspread","payload","uncletopia"],"game_id":440,"stv_port":27056,"stv_name":"Uncletopia | Warsaw | 5 | Stopwatch Beta | STV","players":null},{"server_id":54,"name":"Uncletopia | Warsaw | 6 | Community","name_short":"waw-6","host":"waw-1.pl.uncletopia.com","port":27065,"enabled":true,"region":"eu","cc":"pl","latitude":52.2297,"longitude":21.017532,"reserved":0,"last_update":"0001-01-01T00:00:00Z","name_a2s":"Uncletopia | Warsaw | 6 | Community","protocol":17,"map":"workshop/rd_asteroid_redux_b1.ugc2154902912","folder":"tf","game":"Team Fortress","app_id":440,"player_count":0,"max_players":24,"Bots":0,"server_type":"Dedicated","server_os":"Linux","password":true,"vac":true,"version":"7757534","steam_id":85568392925397856,"keywords":["beta","nocrits","nodmgspread","rd","uncletopia"],"game_id":440,"stv_port":27066,"stv_name":"Uncletopia | Warsaw | 6 | Community | STV","players":null}]}