{"status":true,"message":"","result":[{"server_id":9,"name":"Uncletopia | Atlanta | 1 | All Maps","name_short":"atl-1","host":"atl-1.us.uncletopia.com","port":27015,"enabled":true,"region":"us-east","cc":"us","latitude":33.753746,"longitude":-84.38633,"reserved":0,"last_update":"0001-01-01T00:00:00Z","name_a2s":"Uncletopia | Atlanta | 1 | All Maps","protocol":17,"map":"pl_pier","folder":"tf","game":"Team Fortress","app_id":440,"player_count":13,"max_players":24,"Bots":0,"server_type":"Dedicated","server_os":"Linux","password":true,"vac":true,"version":"7723704","steam_id":85568392924469982,"keywords":["nocrits","nodmgspread","payload","uncletopia"],"game_id":440,"stv_port":27016,"stv_name":"Uncletopia | Atlanta | 1 | All Maps | STV","players":[{"user_id":44,"name":"collacot","steam_id":76561198243248798,"connected_time":1451000000000,"state":"spawning","ping":61},{"user_id":31,"name":"Souper Scott","steam_id":76561198045518926,"connected_time":2681000000000,"state":"spawning","ping":61},{"user_id":61,"name":"MyamE","steam_id":76561198133278462,"connected_time":240000000000,"state":"active","ping":97},{"user_id":60,"name":"santas.secret.sauce","steam_id":76561198042464635,"connected_time":303000000000,"state":"spawning","ping":381},{"user_id":40,"name":"SRV","steam_id":76561198026589960,"connected_time":1709000000000,"state":"spawning","ping":91},{"user_id":51,"name":"和平精益实干家","steam_id":76561198054697958,"connected_time":1014000000000,"state":"spawning","ping":117},{"user_id":56,"name":"Rat","steam_id":76561198137925582,"connected_time":679000000000,"state":"active","ping":225},{"user_id":43,"name":"veemo","steam_id":76561198003467221,"connected_time":1633000000000,"state":"spawning","ping":95},{"user_id":46,"name":"ToiletBowlJourney76","steam_id":76561198274112032,"connected_time":1432000000000,"state":"spawning","ping":96},{"user_id":48,"name":"Anxious Nerd Bird","steam_id":76561198112178602,"connected_time":1311000000000,"state":"active","ping":240},{"user_id":55,"name":"pinglefingle","steam_id":76561198216580197,"connected_time":700000000000,"state":"active","ping":104},{"user_id":57,"name":"Biscuit","steam_id":76561198219019759,"connected_time":654000000000,"state":"spawning","ping":174},{"user_id":58,"name":"megamamaddox","steam_id":76561199122454665,"connected_time":646000000000,"state":"spawning","ping":55}]},{"server_id":400,"name":"Uncletopia | Atlanta | 3 | All Maps","name_short":"atl-3","host":"atl-1.us.uncletopia.com","port":27035,"enabled":true,"region":"us-east","cc":"us","latitude":33.753746,"longitude":-84.38633,"reserved":0,"last_update":"0001-01-01T00:00:00Z","name_a2s":"Uncletopia | Atlanta | 3 | All Maps","protocol":17,"map":"cp_sunshine","folder":"tf","game":"Team Fortress","app_id":440,"player_count":0,"max_players":24,"Bots":0,"server_type":"Dedicated","server_os":"Linux","password":true,"vac":true,"version":"7723704","steam_id":85568392924515187,"keywords":["cp","nocrits","nodmgspread","uncletopia"],"game_id":440,"stv_port":27036,"stv_name":"Uncletopia | Atlanta | 3 | All Maps | STV","players":null},{"server_id":401,"name":"Uncletopia | Atlanta | 4 | No Payload","name_short":"atl-4","host":"atl-1.us.uncletopia.com","port":27045,"enabled":true,"region":"us-east","cc":"us","latitude":33.753746,"longitude":-84.38633,"reserved":0,"last_update":"0001-01-01T00:00:00Z","name_a2s":"Uncletopia | Atlanta | 4 | No Payload","protocol":17,"map":"pl_pier","folder":"tf","game":"Team Fortress","app_id":440,"player_count":0,"max_players":24,"Bots":0,"server_type":"Dedicated","server_os":"Linux","password":true,"vac":true,"version":"7723704","steam_id":85568392924515188,"keywords":["nocrits","nodmgspread","payload","uncletopia"],"game_id":440,"stv_port":27046,"stv_name":"Uncletopia | Atlanta | 4 | No Payload | STV","players":null},{"server_id":2,"name":"Uncletopia | Chicago | 1 | All Maps","name_short":"chi-1","host":"chi-1.us.uncletopia.com","port":27015,"enabled":true,"region":"us-central","cc":"us","latitude":41.881832,"longitude":-87.62318,"reserved":0,"last_update":"0001-01-01T00:00:00Z","name_a2s":"Uncletopia | Chicago | 1 | All Maps","protocol":17,"map":"pl_badwater","folder":"tf","game":"Team Fortress","app_id":440,"player_count":22,"max_players":24,"Bots":0,"server_type":"Dedicated","server_os":"Linux","password":true,"vac":true,"version":"7723704","steam_id":85568392924469984,"keywords":["nocrits","nodmgspread","payload","uncletopia"],"game_id":440,"stv_port":27016,"stv_name":"Uncletopia | Chicago | 1 | All Maps | STV","players":[{"user_id":36,"name":"MistakesWereMade","steam_id":76561199059220481,"connected_time":2339000000000,"state":"active","ping":104},{"user_id":34,"name":"Nolittle","steam_id":76561198239584280,"connected_time":2445000000000,"state":"active","ping":106},{"user_id":58,"name":"goblingon","steam_id":76561198157296770,"connected_time":63000000000,"state":"active","ping":56},{"user_id":6,"name":"CheeseCake488","steam_id":76561199407617942,"connected_time":3160000000000,"state":"active","ping":137},{"user_id":7,"name":"timestew","steam_id":76561198367583372,"connected_time":3159000000000,"state":"active","ping":81},{"user_id":44,"name":"Onymy.","steam_id":76561198171048015,"connected_time":1287000000000,"state":"active","ping":64},{"user_id":18,"name":"cirno","steam_id":76561198166081596,"connected_time":3096000000000,"state":"active","ping":97},{"user_id":48,"name":"Flora","steam_id":76561198358547464,"connected_time":1187000000000,"state":"active","ping":76},{"user_id":11,"name":"DSM-IVCE","steam_id":76561199438515797,"connected_time":3148000000000,"state":"active","ping":125},{"user_id":53,"name":"Epifiny","steam_id":76561198027958086,"connected_time":643000000000,"state":"active","ping":63},{"user_id":56,"name":"NoBoreGaming","steam_id":76561198044244547,"connected_time":101000000000,"state":"active","ping":186},{"user_id":38,"name":"lyra","steam_id":76561198200002859,"connected_time":2163000000000,"state":"active","ping":59},{"user_id":19,"name":"็","steam_id":76561198039763676,"connected_time":3091000000000,"state":"active","ping":62},{"user_id":59,"name":"SlimGrady","steam_id":76561198451231329,"connected_time":36000000000,"state":"active","ping":52},{"user_id":54,"name":"mommy claus","steam_id":76561199230929836,"connected_time":551000000000,"state":"active","ping":96},{"user_id":52,"name":"CassandraRC7 (She/her)","steam_id":76561198094123940,"connected_time":678000000000,"state":"active","ping":52},{"user_id":40,"name":"ItsRoy","steam_id":76561198119525485,"connected_time":2063000000000,"state":"active","ping":55},{"user_id":50,"name":"kebo","steam_id":76561198237159430,"connected_time":915000000000,"state":"active","ping":103},{"user_id":41,"name":"ccog","steam_id":76561198009314845,"connected_time":2028000000000,"state":"active","ping":92},{"user_id":29,"name":"HEFTY HOG","steam_id":76561198079923652,"connected_time":2769000000000,"state":"active","ping":75},{"user_id":55,"name":"Knoxx","steam_id":76561198260692541,"connected_time":545000000000,"state":"active","ping":143},{"user_id":57,"name":"paj","steam_id":76561198080026026,"connected_time":96000000000,"state":"active","ping":104}]},{"server_id":106,"name":"Uncletopia | Chicago | 2 | All Maps","name_short":"chi-2","host":"chi-1.us.uncletopia.com","port":27025,"enabled":true,"region":"us-central","cc":"us","latitude":41.881832,"longitude":-87.62318,"reserved":0,"last_update":"0001-01-01T00:00:00Z","name_a2s":"Uncletopia | Chicago | 2 | All Maps","protocol":17,"map":"cp_mountainlab","folder":"tf","game":"Team Fortress","app_id":440,"player_count":0,"max_players":24,"Bots":0,"server_type":"Dedicated","server_os":"Linux","password":true,"vac":true,"version":"7723704","steam_id":85568392924469985,"keywords":["cp","nocrits","nodmgspread","uncletopia"],"game_id":440,"stv_port":27026,"stv_name":"Uncletopia | Chicago | 2 | All Maps | STV","players":null},{"server_id":402,"name":"Uncletopia | Chicago | 3 | All Maps","name_short":"chi-3","host":"chi-1.us.uncletopia.com","port":27035,"enabled":true,"region":"us-central","cc":"us","latitude":41.881832,"longitude":-87.62318,"reserved":0,"last_update":"0001-01-01T00:00:00Z","name_a2s":"Uncletopia | Chicago | 3 | All Maps","protocol":17,"map":"pl_snowycoast","folder":"tf","game":"Team Fortress","app_id":440,"player_count":0,"max_players":24,"Bots":0,"server_type":"Dedicated","server_os":"Linux","password":true,"vac":true,"version":"7723704","steam_id":85568392924515191,"keywords":["nocrits","nodmgspread","payload","uncletopia"],"game_id":440,"stv_port":27036,"stv_name":"Uncletopia | Chicago | 3 | All Maps | STV","players":null},{"server_id":403,"name":"Uncletopia | Chicago | 4 | All Maps","name_short":"chi-4","host":"chi-1.us.uncletopia.com","port":27045,"enabled":true,"region":"us-central","cc":"us","latitude":41.881832,"longitude":-87.62318,"reserved":0,"last_update":"0001-01-01T00:00:00Z","name_a2s":"Uncletopia | Chicago | 4 | All Maps","protocol":17,"map":"cp_snakewater_final1","folder":"tf","game":"Team Fortress","app_id":440,"player_count":0,"max_players":24,"Bots":0,"server_type":"Dedicated","server_os":"Linux","password":true,"vac":true,"version":"7723704","steam_id":85568392924515193,"keywords":["cp","nocrits","nodmgspread","uncletopia"],"game_id":440,"stv_port":27046,"stv_name":"Uncletopia | Chicago | 4 | All Maps | STV","players":null},{"server_id":36,"name":"Uncletopia | Chicago | 5 | All Maps","name_short":"chi-5","host":"chi-2.us.uncletopia.com","port":27015,"enabled":true,"region":"us-central","cc":"us","latitude":41.881832,"longitude":-87.62318,"reserved":0,"last_update":"0001-01-01T00:00:00Z","name_a2s":"Uncletopia | Chicago | 5 | All Maps","protocol":17,"map":"koth_cascade","folder":"tf","game":"Team Fortress","app_id":440,"player_count":0,"max_players":24,"Bots":0,"server_type":"Dedicated","server_os":"Linux","password":true,"vac":true,"version":"7723704","steam_id":85568392924866362,"keywords":["cp","nocrits","nodmgspread","uncletopia"],"game_id":440,"stv_port":27016,"stv_name":"Uncletopia | Chicago | 5 | All Maps | STV","players":null},{"server_id":37,"name":"Uncletopia | Chicago | 6 | All Maps","name_short":"chi-6","host":"chi-2.us.uncletopia.com","port":27025,"enabled":true,"region":"us-central","cc":"us","latitude":41.881832,"longitude":-87.62318,"reserved":0,"last_update":"0001-01-01T00:00:00Z","name_a2s":"Uncletopia | Chicago | 6 | All Maps","protocol":17,"map":"cp_altitude","folder":"tf","game":"Team Fortress","app_id":440,"player_count":0,"max_players":24,"Bots":0,"server_type":"Dedicated","server_os":"Linux","password":true,"vac":true,"version":"7723704","steam_id":85568392924866363,"keywords":["cp","nocrits","nodmgspread","uncletopia"],"game_id":440,"stv_port":27026,"stv_name":"Uncletopia | Chicago | 6 | All Maps | STV","players":null},{"server_id":38,"name":"Uncletopia | Chicago | 7 | No Payload","name_short":"chi-7","host":"chi-2.us.uncletopia.com","port":27035,"enabled":true,"region":"us-central","cc":"us","latitude":41.881832,"longitude":-87.62318,"reserved":0,"last_update":"0001-01-01T00:00:00Z","name_a2s":"","protocol":0,"map":"","folder":"","game":"","app_id":0,"player_count":0,"max_players":0,"Bots":0,"server_type":"","server_os":"","password":false,"vac":false,"version":"","steam_id":0,"keywords":null,"game_id":0,"stv_port":0,"stv_name":"","players":null},{"server_id":39,"name":"Uncletopia | Chicago | 8 | Community","name_short":"chi-8","host":"chi-2.us.uncletopia.com","port":27045,"enabled":true,"region":"us-central","cc":"us","latitude":41.881832,"longitude":-87.62318,"reserved":0,"last_update":"0001-01-01T00:00:00Z","name_a2s":"Uncletopia | Chicago | 8 | Community","protocol":17,"map":"pl_frontier_final","folder":"tf","game":"Team Fortress","app_id":440,"player_count":0,"max_players":24,"Bots":0,"server_type":"Dedicated","server_os":"Linux","password":true,"vac":true,"version":"7723704","steam_id":85568392924866365,"keywords":["nocrits","nodmgspread","payload","uncletopia"],"game_id":440,"stv_port":27046,"stv_name":"Uncletopia | Chicago | 8 | Community | STV","players":null},{"server_id":8,"name":"Uncletopia | Dallas | 1 | All Maps","name_short":"dal-1","host":"dal-1.us.uncletopia.com","port":27015,"enabled":true,"region":"us-central","cc":"us","latitude":32.779167,"longitude":-96.80889,"reserved":0,"last_update":"0001-01-01T00:00:00Z","name_a2s":"Uncletopia | Dallas | 1 | All Maps","protocol":17,"map":"pl_swiftwater_final1","folder":"tf","game":"Team Fortress","app_id":440,"player_count":0,"max_players":24,"Bots":0,"server_type":"Dedicated","server_os":"Linux","password":true,"vac":true,"version":"7723704","steam_id":85568392924469986,"keywords":["nocrits","nodmgspread","payload","uncletopia"],"game_id":440,"stv_port":27016,"stv_name":"Uncletopia | Dallas | 1 | All Maps | STV","players":null},{"server_id":108,"name":"Uncletopia | Dallas | 2 | All Maps","name_short":"dal-2","host":"dal-1.us.uncletopia.com","port":27025,"enabled":true,"region":"us-central","cc":"us","latitude":32.779167,"longitude":-96.80889,"reserved":0,"last_update":"0001-01-01T00:00:00Z","name_a2s":"Uncletopia | Dallas | 2 | All Maps","protocol":17,"map":"cp_snakewater_final1","folder":"tf","game":"Team Fortress","app_id":440,"player_count":0,"max_players":24,"Bots":0,"server_type":"Dedicated","server_os":"Linux","password":true,"vac":true,"version":"7723704","steam_id":85568392924469988,"keywords":["cp","nocrits","nodmgspread","uncletopia"],"game_id":440,"stv_port":27026,"stv_name":"Uncletopia | Dallas | 2 | All Maps | STV","players":null},{"server_id":5,"name":"Uncletopia | Frankfurt | 1 | All Maps","name_short":"frk-1","host":"frk-1.de.uncletopia.com","port":27015,"enabled":true,"region":"eu","cc":"de","latitude":50.110924,"longitude":8.682127,"reserved":0,"last_update":"0001-01-01T00:00:00Z","name_a2s":"Uncletopia | Frankfurt | 1 | All Maps","protocol":17,"map":"koth_highpass","folder":"tf","game":"Team Fortress","app_id":440,"player_count":24,"max_players":24,"Bots":0,"server_type":"Dedicated","server_os":"Linux","password":true,"vac":true,"version":"7723704","steam_id":85568392924469989,"keywords":["cp","nocrits","nodmgspread","uncletopia"],"game_id":440,"stv_port":27016,"stv_name":"Uncletopia | Frankfurt | 1 | All Maps | STV","players":[{"user_id":87,"name":"RIZZtraining order","steam_id":76561198157406151,"connected_time":2317000000000,"state":"active","ping":108},{"user_id":127,"name":"reaz!","steam_id":76561199050138956,"connected_time":138000000000,"state":"active","ping":75},{"user_id":88,"name":"clems17","steam_id":76561199420685482,"connected_time":2310000000000,"state":"active","ping":47},{"user_id":61,"name":"Makeways","steam_id":76561198274466477,"connected_time":4727000000000,"state":"active","ping":65},{"user_id":121,"name":"Reloaded","steam_id":76561198814025386,"connected_time":418000000000,"state":"active","ping":80},{"user_id":111,"name":"Lukero","steam_id":76561198301594341,"connected_time":1565000000000,"state":"active","ping":53},{"user_id":119,"name":"pedrito.gonzales.2009","steam_id":76561199436238409,"connected_time":505000000000,"state":"active","ping":75},{"user_id":123,"name":"Perci","steam_id":76561198097789669,"connected_time":332000000000,"state":"active","ping":61},{"user_id":97,"name":"Gay Potato","steam_id":76561198018859519,"connected_time":1990000000000,"state":"active","ping":58},{"user_id":124,"name":"Mathieu.","steam_id":76561198039268163,"connected_time":312000000000,"state":"active","ping":65},{"user_id":54,"name":"bind m1 \"+attack;kill\"","steam_id":76561198093290934,"connected_time":5472000000000,"state":"active","ping":52},{"user_id":104,"name":"wtf cool","steam_id":76561198827362076,"connected_time":1810000000000,"state":"active","ping":79},{"user_id":115,"name":"BIG Dave Gaming","steam_id":76561199170843929,"connected_time":1420000000000,"state":"active","ping":61},{"user_id":101,"name":"Octoblue64","steam_id":76561198388997283,"connected_time":1910000000000,"state":"active","ping":62},{"user_id":128,"name":"SpyCrab  Erik Twice","steam_id":76561198009710309,"connected_time":130000000000,"state":"active","ping":70},{"user_id":102,"name":"xavier :)","steam_id":76561198076494034,"connected_time":1882000000000,"state":"active","ping":55},{"user_id":125,"name":"generic alias","steam_id":76561198271607226,"connected_time":311000000000,"state":"active","ping":98},{"user_id":126,"name":"The Funny Cat-Heaby","steam_id":76561198439978112,"connected_time":277000000000,"state":"active","ping":100},{"user_id":117,"name":"Francis","steam_id":76561198987134265,"connected_time":1225000000000,"state":"active","ping":69},{"user_id":118,"name":"Laxslow","steam_id":76561198065361846,"connected_time":1216000000000,"state":"active","ping":60},{"user_id":106,"name":"...","steam_id":76561198969234594,"connected_time":1744000000000,"state":"active","ping":60},{"user_id":108,"name":"ti ebanutiy?","steam_id":76561198244445226,"connected_time":1656000000000,"state":"active","ping":73},{"user_id":109,"name":"vissa","steam_id":76561198150680224,"connected_time":1639000000000,"state":"active","ping":84},{"user_id":83,"name":"Marcos","steam_id":76561198798925721,"connected_time":2514000000000,"state":"active","ping":67}]},{"server_id":110,"name":"Uncletopia | Frankfurt | 2 | All Maps","name_short":"frk-2","host":"frk-1.de.uncletopia.com","port":27025,"enabled":true,"region":"eu","cc":"de","latitude":50.110924,"longitude":8.682127,"reserved":0,"last_update":"0001-01-01T00:00:00Z","name_a2s":"Uncletopia | Frankfurt | 2 | All Maps","protocol":17,"map":"pl_frontier_final","folder":"tf","game":"Team Fortress","app_id":440,"player_count":24,"max_players":24,"Bots":0,"server_type":"Dedicated","server_os":"Linux","password":true,"vac":true,"version":"7723704","steam_id":85568392924469990,"keywords":["nocrits","nodmgspread","payload","uncletopia"],"game_id":440,"stv_port":27026,"stv_name":"Uncletopia | Frankfurt | 2 | All Maps | STV","players":[{"user_id":190,"name":"Eric LePorcEpic","steam_id":76561198141598439,"connected_time":133000000000,"state":"active","ping":67},{"user_id":179,"name":"please like and sucribe","steam_id":76561198189686075,"connected_time":559000000000,"state":"active","ping":53},{"user_id":180,"name":"Kodutah","steam_id":76561198203405574,"connected_time":514000000000,"state":"active","ping":60},{"user_id":183,"name":"Bepperman","steam_id":76561198397517828,"connected_time":327000000000,"state":"active","ping":66},{"user_id":164,"name":"Sylbar","steam_id":76561198065379590,"connected_time":1891000000000,"state":"active","ping":67},{"user_id":185,"name":"Wyvern786","steam_id":76561199137770636,"connected_time":260000000000,"state":"active","ping":59},{"user_id":129,"name":"Wolframen","steam_id":76561198074103958,"connected_time":3309000000000,"state":"active","ping":64},{"user_id":128,"name":"Videogamer","steam_id":76561198106012909,"connected_time":3364000000000,"state":"active","ping":58},{"user_id":186,"name":"lore","steam_id":76561198120984188,"connected_time":192000000000,"state":"active","ping":70},{"user_id":187,"name":"retard","steam_id":76561199042470246,"connected_time":181000000000,"state":"active","ping":52},{"user_id":188,"name":"eggslut","steam_id":76561198010752241,"connected_time":166000000000,"state":"active","ping":67},{"user_id":130,"name":"X-tis","steam_id":76561198043837480,"connected_time":3271000000000,"state":"active","ping":75},{"user_id":189,"name":"bruh","steam_id":76561198109262927,"connected_time":144000000000,"state":"active","ping":73},{"user_id":93,"name":"weird noises girl","steam_id":76561198404802175,"connected_time":6796000000000,"state":"active","ping":175},{"user_id":191,"name":"Coyote29","steam_id":76561198344502070,"connected_time":102000000000,"state":"active","ping":75},{"user_id":171,"name":"Kane Lives","steam_id":76561197998353859,"connected_time":995000000000,"state":"active","ping":80},{"user_id":153,"name":"Fat Pigeon","steam_id":76561198817940142,"connected_time":2434000000000,"state":"active","ping":52},{"user_id":144,"name":"Mclovin567","steam_id":76561198799105302,"connected_time":2936000000000,"state":"active","ping":100},{"user_id":192,"name":"lordwiadron420","steam_id":76561198073309557,"connected_time":77000000000,"state":"active","ping":74},{"user_id":193,"name":"Fischer","steam_id":76561198301481739,"connected_time":73000000000,"state":"active","ping":59},{"user_id":194,"name":"Maksivad","steam_id":76561198134394882,"connected_time":55000000000,"state":"spawning","ping":84},{"user_id":174,"name":"Gurgula","steam_id":76561198021253678,"connected_time":820000000000,"state":"active","ping":74},{"user_id":195,"name":"Accident","steam_id":76561198115160396,"connected_time":41000000000,"state":"active","ping":70},{"user_id":196,"name":"Mario la Maxim","steam_id":76561199137799215,"connected_time":15000000000,"state":"spawning","ping":81}]},{"server_id":308,"name":"Uncletopia | Frankfurt | 3 | All Maps","name_short":"frk-3","host":"frk-1.de.uncletopia.com","port":27035,"enabled":true,"region":"eu","cc":"de","latitude":50.110924,"longitude":8.682127,"reserved":0,"last_update":"0001-01-01T00:00:00Z","name_a2s":"Uncletopia | Frankfurt | 3 | All Maps","protocol":17,"map":"pl_thundermountain","folder":"tf","game":"Team Fortress","app_id":440,"player_count":24,"max_players":24,"Bots":0,"server_type":"Dedicated","server_os":"Linux","password":true,"vac":true,"version":"7723704","steam_id":85568392924504274,"keywords":["nocrits","nodmgspread","payload","uncletopia"],"game_id":440,"stv_port":27036,"stv_name":"Uncletopia | Frankfurt | 3 | All Maps | STV","players":[{"user_id":317,"name":"Shrimpeee","steam_id":76561199012689768,"connected_time":291000000000,"state":"active","ping":68},{"user_id":292,"name":"græy","steam_id":76561198024987293,"connected_time":2382000000000,"state":"active","ping":67},{"user_id":243,"name":"Guru","steam_id":76561198093853069,"connected_time":4538000000000,"state":"active","ping":54},{"user_id":299,"name":"juliuz","steam_id":76561198860026604,"connected_time":1949000000000,"state":"active","ping":63},{"user_id":310,"name":"Brimstone The Hasty","steam_id":76561198205637967,"connected_time":1001000000000,"state":"active","ping":45},{"user_id":238,"name":"hushhx","steam_id":76561198216200092,"connected_time":4774000000000,"state":"active","ping":61},{"user_id":314,"name":"partizan","steam_id":76561198440837262,"connected_time":906000000000,"state":"active","ping":56},{"user_id":311,"name":"3te Liga","steam_id":76561198009922500,"connected_time":982000000000,"state":"active","ping":54},{"user_id":278,"name":"jmp","steam_id":76561198168283286,"connected_time":3327000000000,"state":"active","ping":75},{"user_id":244,"name":"Rockwell Retro Encabulator","steam_id":76561198420349969,"connected_time":4522000000000,"state":"active","ping":88},{"user_id":294,"name":"DietOlive","steam_id":76561197997826973,"connected_time":2238000000000,"state":"active","ping":74},{"user_id":263,"name":"Welder","steam_id":76561198355300561,"connected_time":3719000000000,"state":"active","ping":66},{"user_id":316,"name":"SirLucky7","steam_id":76561198200377811,"connected_time":453000000000,"state":"active","ping":53},{"user_id":258,"name":"Greg","steam_id":76561198014131702,"connected_time":4179000000000,"state":"active","ping":121},{"user_id":282,"name":"Void_Walker","steam_id":76561199401516997,"connected_time":2935000000000,"state":"active","ping":68},{"user_id":315,"name":"Ash_Dies_Alone","steam_id":76561198136126828,"connected_time":642000000000,"state":"active","ping":51},{"user_id":288,"name":"Tryrn","steam_id":76561198075487436,"connected_time":2648000000000,"state":"active","ping":87},{"user_id":303,"name":"Whoopi Goldberg","steam_id":76561199378865926,"connected_time":1410000000000,"state":"active","ping":78},{"user_id":297,"name":"Keh-nee ツ","steam_id":76561197970352080,"connected_time":2032000000000,"state":"active","ping":75},{"user_id":302,"name":"Alice can't hit pipes","steam_id":76561198052410860,"connected_time":1533000000000,"state":"active","ping":129},{"user_id":285,"name":"ratoshin","steam_id":76561198194433657,"connected_time":2752000000000,"state":"active","ping":56},{"user_id":304,"name":"skYle | joe +.+ꜝ","steam_id":76561197981047264,"connected_time":1392000000000,"state":"active","ping":47},{"user_id":306,"name":"Fishy","steam_id":76561199079229553,"connected_time":1224000000000,"state":"active","ping":104},{"user_id":312,"name":"Ivan Poopovich","steam_id":76561198388750592,"connected_time":932000000000,"state":"active","ping":53}]},{"server_id":309,"name":"Uncletopia | Frankfurt | 4 | All Maps","name_short":"frk-4","host":"frk-1.de.uncletopia.com","port":27045,"enabled":true,"region":"eu","cc":"de","latitude":50.110924,"longitude":8.682127,"reserved":0,"last_update":"0001-01-01T00:00:00Z","name_a2s":"Uncletopia | Frankfurt | 4 | All Maps","protocol":17,"map":"cp_steel","folder":"tf","game":"Team Fortress","app_id":440,"player_count":24,"max_players":24,"Bots":0,"server_type":"Dedicated","server_os":"Linux","password":true,"vac":true,"version":"7723704","steam_id":85568392924504275,"keywords":["cp","nocrits","nodmgspread","uncletopia"],"game_id":440,"stv_port":27046,"stv_name":"Uncletopia | Frankfurt | 4 | All Maps | STV","players":[{"user_id":228,"name":"Godot","steam_id":76561198339980449,"connected_time":500000000000,"state":"active","ping":72},{"user_id":229,"name":"barosans FR","steam_id":76561198038109099,"connected_time":487000000000,"state":"active","ping":45},{"user_id":230,"name":"TKN_Paps997","steam_id":76561198419868465,"connected_time":482000000000,"state":"active","ping":86},{"user_id":233,"name":"draziw","steam_id":76561198429954935,"connected_time":49000000000,"state":"active","ping":55},{"user_id":189,"name":"Temka","steam_id":76561198331323738,"connected_time":3429000000000,"state":"active","ping":63},{"user_id":218,"name":"XfarisGamerX","steam_id":76561198367579380,"connected_time":829000000000,"state":"active","ping":124},{"user_id":223,"name":"Fidgett","steam_id":76561198349648942,"connected_time":666000000000,"state":"active","ping":104},{"user_id":210,"name":"fаt cսոt","steam_id":76561198845550388,"connected_time":1896000000000,"state":"active","ping":117},{"user_id":224,"name":"nuucleaar fusioyoyoyon-ah","steam_id":76561199064350902,"connected_time":660000000000,"state":"active","ping":105},{"user_id":220,"name":"OlkiSoup","steam_id":76561199209805904,"connected_time":690000000000,"state":"active","ping":65},{"user_id":235,"name":"Dolcelatte","steam_id":76561198038501770,"connected_time":40000000000,"state":"active","ping":60},{"user_id":219,"name":"Quartzy","steam_id":76561198313301520,"connected_time":706000000000,"state":"active","ping":52},{"user_id":236,"name":"Rambi","steam_id":76561199058078505,"connected_time":39000000000,"state":"active","ping":160},{"user_id":213,"name":"Cippo95","steam_id":76561198255311582,"connected_time":1517000000000,"state":"active","ping":75},{"user_id":200,"name":"Blue is ez","steam_id":76561198081239400,"connected_time":3038000000000,"state":"active","ping":59},{"user_id":194,"name":"Shawty","steam_id":76561198256704286,"connected_time":3314000000000,"state":"active","ping":60},{"user_id":204,"name":"Musicano","steam_id":76561198114541088,"connected_time":2678000000000,"state":"active","ping":94},{"user_id":217,"name":"MiGGo","steam_id":76561198041645362,"connected_time":879000000000,"state":"active","ping":85},{"user_id":190,"name":"Carpe diem.","steam_id":76561199065917088,"connected_time":3421000000000,"state":"active","ping":73},{"user_id":225,"name":"DIP-44 IC","steam_id":76561199360189459,"connected_time":656000000000,"state":"active","ping":82},{"user_id":226,"name":"aina","steam_id":76561197994492154,"connected_time":656000000000,"state":"active","ping":75},{"user_id":232,"name":"2004 Kanye","steam_id":76561198189000841,"connected_time":392000000000,"state":"active","ping":82},{"user_id":191,"name":"ChaserFogFi","steam_id":76561199119836596,"connected_time":3421000000000,"state":"active","ping":53},{"user_id":212,"name":"Dumb Monkey™","steam_id":76561198270165797,"connected_time":1798000000000,"state":"active","ping":76}]},{"server_id":310,"name":"Uncletopia | Frankfurt | 5 | All Maps","name_short":"frk-5","host":"frk-1.de.uncletopia.com","port":27055,"enabled":true,"region":"eu","cc":"de","latitude":50.110924,"longitude":8.682127,"reserved":0,"last_update":"0001-01-01T00:00:00Z","name_a2s":"Uncletopia | Frankfurt | 5 | All Maps","protocol":17,"map":"pl_frontier_final","folder":"tf","game":"Team Fortress","app_id":440,"player_count":24,"max_players":24,"Bots":0,"server_type":"Dedicated","server_os":"Linux","password":true,"vac":true,"version":"7723704","steam_id":85568392924504277,"keywords":["nocrits","nodmgspread","payload","uncletopia"],"game_id":440,"stv_port":27056,"stv_name":"Uncletopia | Frankfurt | 5 | All Maps | STV","players":[{"user_id":77,"name":"guarda-chuva","steam_id":76561198078694330,"connected_time":1365000000000,"state":"active","ping":54},{"user_id":83,"name":"videogames1000","steam_id":76561198086976963,"connected_time":1164000000000,"state":"active","ping":90},{"user_id":78,"name":"player","steam_id":76561198054474684,"connected_time":1356000000000,"state":"active","ping":76},{"user_id":102,"name":"Fayden","steam_id":76561199088873813,"connected_time":20000000000,"state":"spawning","ping":59},{"user_id":90,"name":"sorry \u003c3 Derék","steam_id":76561198159410471,"connected_time":890000000000,"state":"active","ping":73},{"user_id":67,"name":"Zepta","steam_id":76561199001659666,"connected_time":1658000000000,"state":"active","ping":100},{"user_id":10,"name":"deaf","steam_id":76561198074553845,"connected_time":4504000000000,"state":"active","ping":89},{"user_id":74,"name":"Trytard","steam_id":76561198094507220,"connected_time":1521000000000,"state":"active","ping":63},{"user_id":66,"name":"Sloppy polish handyman","steam_id":76561198126398022,"connected_time":1696000000000,"state":"active","ping":74},{"user_id":13,"name":"Piteras","steam_id":76561198858532207,"connected_time":4340000000000,"state":"active","ping":73},{"user_id":51,"name":"Lindbergan","steam_id":76561198226613312,"connected_time":2413000000000,"state":"active","ping":86},{"user_id":96,"name":"Redmailbox","steam_id":76561198042930322,"connected_time":365000000000,"state":"active","ping":61},{"user_id":16,"name":"Him","steam_id":76561198086400484,"connected_time":4217000000000,"state":"active","ping":68},{"user_id":84,"name":"heavy sings (real)","steam_id":76561199023804405,"connected_time":1146000000000,"state":"active","ping":142},{"user_id":81,"name":"Dario","steam_id":76561198262290148,"connected_time":1306000000000,"state":"active","ping":45},{"user_id":82,"name":"Michał","steam_id":76561198320346362,"connected_time":1241000000000,"state":"active","ping":67},{"user_id":97,"name":"T_G_G","steam_id":76561199114568070,"connected_time":326000000000,"state":"active","ping":92},{"user_id":85,"name":"Luc","steam_id":76561198250516264,"connected_time":1121000000000,"state":"active","ping":60},{"user_id":101,"name":"Farmercy","steam_id":76561198000038039,"connected_time":229000000000,"state":"active","ping":59},{"user_id":69,"name":"lulu","steam_id":76561199147764133,"connected_time":1623000000000,"state":"active","ping":69},{"user_id":94,"name":"Soya Suki","steam_id":76561197998106435,"connected_time":433000000000,"state":"active","ping":49},{"user_id":73,"name":"Left Boob","steam_id":76561199359780574,"connected_time":1561000000000,"state":"active","ping":158},{"user_id":75,"name":"Right Boob","steam_id":76561199160032242,"connected_time":1506000000000,"state":"active","ping":154},{"user_id":98,"name":"bart","steam_id":76561198025395216,"connected_time":323000000000,"state":"active","ping":72}]},{"server_id":311,"name":"Uncletopia | Frankfurt | 6 | All Maps","name_short":"frk-6","host":"frk-1.de.uncletopia.com","port":27065,"enabled":true,"region":"eu","cc":"de","latitude":50.110924,"longitude":8.682127,"reserved":0,"last_update":"0001-01-01T00:00:00Z","name_a2s":"Uncletopia | Frankfurt | 6 | All Maps","protocol":17,"map":"cp_sunshine","folder":"tf","game":"Team Fortress","app_id":440,"player_count":2,"max_players":24,"Bots":0,"server_type":"Dedicated","server_os":"Linux","password":true,"vac":true,"version":"7723704","steam_id":85568392924504278,"keywords":["cp","nocrits","nodmgspread","uncletopia"],"game_id":440,"stv_port":27066,"stv_name":"Uncletopia | Frankfurt | 6 | All Maps | STV","players":[{"user_id":8,"name":"Righty","steam_id":76561199224705434,"connected_time":93000000000,"state":"active","ping":119},{"user_id":7,"name":"rat","steam_id":76561199100632053,"connected_time":883000000000,"state":"active","ping":66}]},{"server_id":23,"name":"Uncletopia | Frankfurt | 7 | No Payload","name_short":"frk-7","host":"frk-1.de.uncletopia.com","port":27075,"enabled":true,"region":"eu","cc":"de","latitude":50.110924,"longitude":8.682127,"reserved":0,"last_update":"0001-01-01T00:00:00Z","name_a2s":"Uncletopia | Frankfurt | 7 | No Payload","protocol":17,"map":"cp_foundry","folder":"tf","game":"Team Fortress","app_id":440,"player_count":0,"max_players":24,"Bots":0,"server_type":"Dedicated","server_os":"Linux","password":true,"vac":true,"version":"7723704","steam_id":85568392924742827,"keywords":["cp","nocrits","nodmgspread","uncletopia"],"game_id":440,"stv_port":27076,"stv_name":"Uncletopia | Frankfurt | 7 | No Payload | STV","players":null},{"server_id":24,"name":"Uncletopia | Frankfurt | 8 | Community","name_short":"frk-8","host":"frk-1.de.uncletopia.com","port":27085,"enabled":true,"region":"eu","cc":"de","latitude":50.110924,"longitude":8.682127,"reserved":0,"last_update":"0001-01-01T00:00:00Z","name_a2s":"Uncletopia | Frankfurt | 8 | Community","protocol":17,"map":"workshop/cp_overgrown_rc7b.ugc503939302","folder":"tf","game":"Team Fortress","app_id":440,"player_count":4,"max_players":24,"Bots":0,"server_type":"Dedicated","server_os":"Linux","password":true,"vac":true,"version":"7723704","steam_id":85568392924742828,"keywords":["cp","nocrits","nodmgspread","uncletopia"],"game_id":440,"stv_port":27086,"stv_name":"Uncletopia | Frankfurt | 8 | Community | STV","players":[{"user_id":3,"name":"fried","steam_id":76561198307522022,"connected_time":2587000000000,"state":"active","ping":59},{"user_id":4,"name":"How2getgood","steam_id":76561199031303306,"connected_time":1705000000000,"state":"active","ping":59},{"user_id":6,"name":"steel_v41","steam_id":76561199014781716,"connected_time":472000000000,"state":"active","ping":64},{"user_id":7,"name":"gaz","steam_id":76561198843714742,"connected_time":24000000000,"state":"spawning","ping":190}]},{"server_id":202,"name":"Uncletopia | Hong Kong | 1 | All Maps","name_short":"hgk-1","host":"hgk-1.hk.uncletopia.com","port":27015,"enabled":true,"region":"asia","cc":"hk","latitude":22.302711,"longitude":114.177216,"reserved":0,"last_update":"0001-01-01T00:00:00Z","name_a2s":"Uncletopia | Hong Kong | 1 | All Maps","protocol":17,"map":"pl_swiftwater_final1","folder":"tf","game":"Team Fortress","app_id":440,"player_count":24,"max_players":24,"Bots":0,"server_type":"Dedicated","server_os":"Linux","password":true,"vac":true,"version":"7723704","steam_id":85568392924494504,"keywords":["nocrits","nodmgspread","payload","uncletopia"],"game_id":440,"stv_port":27016,"stv_name":"Uncletopia | Hong Kong | 1 | All Maps | STV","players":[{"user_id":343,"name":"Cá Tháng 4","steam_id":76561198047162026,"connected_time":12016000000000,"state":"active","ping":67},{"user_id":446,"name":"MS PowerPoint","steam_id":76561198369523192,"connected_time":4616000000000,"state":"active","ping":64},{"user_id":449,"name":"Ick","steam_id":76561198400698408,"connected_time":4361000000000,"state":"active","ping":90},{"user_id":457,"name":"cellum95","steam_id":76561198172146871,"connected_time":2634000000000,"state":"active","ping":73},{"user_id":403,"name":"MeeLee [ Enemy Med Phobic ]","steam_id":76561199227871384,"connected_time":6214000000000,"state":"active","ping":55},{"user_id":465,"name":"Crit-A-Cola Fan","steam_id":76561198836956034,"connected_time":2144000000000,"state":"active","ping":70},{"user_id":476,"name":"Jimi Hen-Dicks Excrements","steam_id":76561198826565047,"connected_time":864000000000,"state":"active","ping":83},{"user_id":482,"name":"Tume","steam_id":76561199117576868,"connected_time":555000000000,"state":"active","ping":117},{"user_id":471,"name":"Hyojin","steam_id":76561199277317248,"connected_time":1432000000000,"state":"active","ping":60},{"user_id":477,"name":"Cipher(#savetf2)","steam_id":76561198796591492,"connected_time":861000000000,"state":"active","ping":125},{"user_id":462,"name":"mching","steam_id":76561198044327754,"connected_time":2339000000000,"state":"active","ping":74},{"user_id":441,"name":"JayJ","steam_id":76561198324008555,"connected_time":4893000000000,"state":"active","ping":55},{"user_id":479,"name":"Cheesey","steam_id":76561198975684137,"connected_time":793000000000,"state":"active","ping":104},{"user_id":467,"name":"gave my love to a shooting star","steam_id":76561197990537324,"connected_time":2024000000000,"state":"active","ping":153},{"user_id":406,"name":"tiden2000","steam_id":76561198092969425,"connected_time":6105000000000,"state":"active","ping":72},{"user_id":473,"name":"+h","steam_id":76561198815455148,"connected_time":1329000000000,"state":"active","ping":134},{"user_id":466,"name":"bocchi = ryan gosling = me","steam_id":76561197994194946,"connected_time":2083000000000,"state":"active","ping":104},{"user_id":443,"name":"twitch.tv/vision515","steam_id":76561198065293729,"connected_time":4867000000000,"state":"active","ping":155},{"user_id":468,"name":"cet","steam_id":76561198070892013,"connected_time":1878000000000,"state":"active","ping":70},{"user_id":478,"name":"godhood","steam_id":76561198412329672,"connected_time":857000000000,"state":"active","ping":102},{"user_id":481,"name":"big","steam_id":76561199071192186,"connected_time":596000000000,"state":"active","ping":82},{"user_id":445,"name":"Nonexistent","steam_id":76561198980563251,"connected_time":4730000000000,"state":"active","ping":88},{"user_id":469,"name":"silversol","steam_id":76561198004570036,"connected_time":1874000000000,"state":"active","ping":103},{"user_id":474,"name":"derek.patriarca30","steam_id":76561199427230206,"connected_time":886000000000,"state":"active","ping":63}]},{"server_id":1,"name":"Uncletopia | Los Angeles | 1 | All Maps","name_short":"lax-1","host":"lax-1.us.uncletopia.com","port":27015,"enabled":true,"region":"us-west","cc":"us","latitude":33.94279,"longitude":-118.41004,"reserved":0,"last_update":"0001-01-01T00:00:00Z","name_a2s":"Uncletopia | Los Angeles | 1 | All Maps","protocol":17,"map":"pl_pier","folder":"tf","game":"Team Fortress","app_id":440,"player_count":0,"max_players":24,"Bots":0,"server_type":"Dedicated","server_os":"Linux","password":true,"vac":true,"version":"7723704","steam_id":85568392924469991,"keywords":["nocrits","nodmgspread","payload","uncletopia"],"game_id":440,"stv_port":27016,"stv_name":"Uncletopia | Los Angeles | 1 | All Maps | STV","players":null},{"server_id":112,"name":"Uncletopia | Los Angeles | 2 | All Maps","name_short":"lax-2","host":"lax-1.us.uncletopia.com","port":27025,"enabled":true,"region":"us-west","cc":"us","latitude":33.94279,"longitude":-118.41004,"reserved":0,"last_update":"0001-01-01T00:00:00Z","name_a2s":"Uncletopia | Los Angeles | 2 | All Maps","protocol":17,"map":"koth_lakeside_final","folder":"tf","game":"Team Fortress","app_id":440,"player_count":0,"max_players":24,"Bots":0,"server_type":"Dedicated","server_os":"Linux","password":true,"vac":true,"version":"7723704","steam_id":85568392924469992,"keywords":["cp","nocrits","nodmgspread","uncletopia"],"game_id":440,"stv_port":27026,"stv_name":"Uncletopia | Los Angeles | 2 | All Maps | STV","players":null},{"server_id":324,"name":"Uncletopia | Los Angeles | 3 | All Maps","name_short":"lax-3","host":"lax-1.us.uncletopia.com","port":27035,"enabled":true,"region":"us-west","cc":"us","latitude":33.94279,"longitude":-118.41004,"reserved":0,"last_update":"0001-01-01T00:00:00Z","name_a2s":"Uncletopia | Los Angeles | 3 | All Maps","protocol":17,"map":"koth_viaduct","folder":"tf","game":"Team Fortress","app_id":440,"player_count":0,"max_players":24,"Bots":0,"server_type":"Dedicated","server_os":"Linux","password":true,"vac":true,"version":"7723704","steam_id":85568392924510198,"keywords":["cp","nocrits","nodmgspread","uncletopia"],"game_id":440,"stv_port":27036,"stv_name":"Uncletopia | Los Angeles | 3 | All Maps | STV","players":null},{"server_id":25,"name":"Uncletopia | Los Angeles | 4 | No Payload","name_short":"lax-4","host":"lax-1.us.uncletopia.com","port":27045,"enabled":true,"region":"us-west","cc":"us","latitude":33.94279,"longitude":-118.41004,"reserved":0,"last_update":"0001-01-01T00:00:00Z","name_a2s":"Uncletopia | Los Angeles | 4 | No Payload","protocol":17,"map":"koth_lazarus","folder":"tf","game":"Team Fortress","app_id":440,"player_count":0,"max_players":24,"Bots":0,"server_type":"Dedicated","server_os":"Linux","password":true,"vac":true,"version":"7723704","steam_id":85568392924510199,"keywords":["cp","nocrits","nodmgspread","uncletopia"],"game_id":440,"stv_port":27046,"stv_name":"Uncletopia | Los Angeles | 4 | No Payload | STV","players":null},{"server_id":11,"name":"Uncletopia | London | 1 | All Maps","name_short":"lon-1","host":"lon-1.uk.uncletopia.com","port":27015,"enabled":true,"region":"eu","cc":"gb","latitude":51.509865,"longitude":-0.118092,"reserved":0,"last_update":"0001-01-01T00:00:00Z","name_a2s":"Uncletopia | London | 1 | All Maps","protocol":17,"map":"plr_hightower","folder":"tf","game":"Team Fortress","app_id":440,"player_count":24,"max_players":24,"Bots":0,"server_type":"Dedicated","server_os":"Linux","password":true,"vac":true,"version":"7723704","steam_id":85568392924367362,"keywords":["nocrits","nodmgspread","payload","uncletopia"],"game_id":440,"stv_port":27016,"stv_name":"Uncletopia | London | 1 | All Maps | STV","players":[{"user_id":130,"name":"Babatunde","steam_id":76561199032354633,"connected_time":445000000000,"state":"active","ping":104},{"user_id":82,"name":"mana","steam_id":76561198193802523,"connected_time":2597000000000,"state":"active","ping":39},{"user_id":89,"name":"Le Chevalier Pingouin","steam_id":76561198221355000,"connected_time":2423000000000,"state":"active","ping":36},{"user_id":113,"name":"LOBZIK","steam_id":76561198114830120,"connected_time":1038000000000,"state":"active","ping":79},{"user_id":124,"name":"cez","steam_id":76561198361380956,"connected_time":634000000000,"state":"active","ping":50},{"user_id":125,"name":"Kylute","steam_id":76561198447504417,"connected_time":562000000000,"state":"active","ping":43},{"user_id":68,"name":"Captain Brexit","steam_id":76561199025230103,"connected_time":4106000000000,"state":"active","ping":58},{"user_id":116,"name":"dont mad","steam_id":76561198313244930,"connected_time":996000000000,"state":"active","ping":46},{"user_id":131,"name":"Joff-tchoff-tchoffo-tchoffo-tch","steam_id":76561198044167743,"connected_time":347000000000,"state":"active","ping":106},{"user_id":108,"name":"Lizardly","steam_id":76561198176750238,"connected_time":1191000000000,"state":"active","ping":67},{"user_id":64,"name":"Инспектор Атас","steam_id":76561199175688390,"connected_time":4367000000000,"state":"active","ping":88},{"user_id":111,"name":"boldi","steam_id":76561198156527740,"connected_time":1066000000000,"state":"active","ping":86},{"user_id":83,"name":"Slooshie","steam_id":76561198008749909,"connected_time":2595000000000,"state":"active","ping":75},{"user_id":121,"name":"Jason","steam_id":76561198079170457,"connected_time":799000000000,"state":"active","ping":45},{"user_id":119,"name":"Just_chris","steam_id":76561199086468479,"connected_time":966000000000,"state":"active","ping":69},{"user_id":109,"name":"Lapa Mato","steam_id":76561199052049475,"connected_time":1141000000000,"state":"active","ping":88},{"user_id":133,"name":"Clitorina","steam_id":76561198077570815,"connected_time":270000000000,"state":"active","ping":44},{"user_id":61,"name":"germanhamburgers96","steam_id":76561198044189114,"connected_time":4562000000000,"state":"active","ping":68},{"user_id":132,"name":"Equinox","steam_id":76561199055592635,"connected_time":341000000000,"state":"active","ping":46},{"user_id":62,"name":"Blazmobins","steam_id":76561198082899401,"connected_time":4539000000000,"state":"active","ping":43},{"user_id":127,"name":"Smag","steam_id":76561198153675141,"connected_time":547000000000,"state":"active","ping":43},{"user_id":110,"name":"Suomenjuusto","steam_id":76561198991491758,"connected_time":1131000000000,"state":"active","ping":86},{"user_id":43,"name":"sPork","steam_id":76561198056880331,"connected_time":5987000000000,"state":"active","ping":75},{"user_id":120,"name":"ShoobyDooby","steam_id":76561198118473910,"connected_time":935000000000,"state":"active","ping":49}]},{"server_id":114,"name":"Uncletopia | London | 2 | All Maps","name_short":"lon-2","host":"lon-1.uk.uncletopia.com","port":27025,"enabled":true,"region":"eu","cc":"gb","latitude":51.509865,"longitude":-0.118092,"reserved":0,"last_update":"0001-01-01T00:00:00Z","name_a2s":"Uncletopia | London | 2 | All Maps","protocol":17,"map":"cp_process_final","folder":"tf","game":"Team Fortress","app_id":440,"player_count":16,"max_players":24,"Bots":0,"server_type":"Dedicated","server_os":"Linux","password":true,"vac":true,"version":"7723704","steam_id":85568392924470941,"keywords":["cp","nocrits","nodmgspread","uncletopia"],"game_id":440,"stv_port":27026,"stv_name":"Uncletopia | London | 2 | All Maps | STV","players":[{"user_id":161,"name":"rel","steam_id":76561198992148678,"connected_time":768000000000,"state":"active","ping":30},{"user_id":144,"name":"Majus","steam_id":76561198303243032,"connected_time":1516000000000,"state":"active","ping":75},{"user_id":167,"name":"lelop","steam_id":76561198277363229,"connected_time":60000000000,"state":"active","ping":45},{"user_id":168,"name":"Kahvi","steam_id":76561198723244199,"connected_time":22000000000,"state":"active","ping":75},{"user_id":90,"name":"fayaman","steam_id":76561198111807532,"connected_time":6632000000000,"state":"active","ping":58},{"user_id":105,"name":"Thesis","steam_id":76561199308784371,"connected_time":5326000000000,"state":"active","ping":66},{"user_id":142,"name":"Hugz","steam_id":76561198069572147,"connected_time":1581000000000,"state":"active","ping":52},{"user_id":126,"name":"souljawitch","steam_id":76561198161859335,"connected_time":3158000000000,"state":"active","ping":75},{"user_id":162,"name":"Mophee","steam_id":76561198078994817,"connected_time":433000000000,"state":"active","ping":78},{"user_id":164,"name":"Packet","steam_id":76561199173195875,"connected_time":216000000000,"state":"active","ping":79},{"user_id":165,"name":"Panzerwaffle","steam_id":76561198030382800,"connected_time":208000000000,"state":"active","ping":50},{"user_id":134,"name":"banrab","steam_id":76561198083615367,"connected_time":2174000000000,"state":"active","ping":32},{"user_id":157,"name":"adm1ral_plunge","steam_id":76561198035342559,"connected_time":1072000000000,"state":"active","ping":44},{"user_id":130,"name":"Pogi820","steam_id":76561198320573568,"connected_time":2759000000000,"state":"active","ping":119},{"user_id":158,"name":"[dopijus]","steam_id":76561198943009513,"connected_time":895000000000,"state":"active","ping":90},{"user_id":159,"name":"Mr.Twinkls","steam_id":76561197980803560,"connected_time":866000000000,"state":"active","ping":89}]},{"server_id":320,"name":"Uncletopia | London | 3 | All Maps","name_short":"lon-3","host":"lon-1.uk.uncletopia.com","port":27035,"enabled":true,"region":"eu","cc":"gb","latitude":51.509865,"longitude":-0.118092,"reserved":0,"last_update":"0001-01-01T00:00:00Z","name_a2s":"Uncletopia | London | 3 | All Maps","protocol":17,"map":"pl_upward","folder":"tf","game":"Team Fortress","app_id":440,"player_count":0,"max_players":24,"Bots":0,"server_type":"Dedicated","server_os":"Linux","password":true,"vac":true,"version":"7723704","steam_id":85568392924510192,"keywords":["nocrits","nodmgspread","payload","uncletopia"],"game_id":440,"stv_port":27036,"stv_name":"Uncletopia | London | 3 | All Maps | STV","players":null},{"server_id":321,"name":"Uncletopia | London | 4 | All Maps","name_short":"lon-4","host":"lon-1.uk.uncletopia.com","port":27045,"enabled":true,"region":"eu","cc":"gb","latitude":51.509865,"longitude":-0.118092,"reserved":0,"last_update":"0001-01-01T00:00:00Z","name_a2s":"Uncletopia | London | 4 | All Maps","protocol":17,"map":"koth_lakeside_final","folder":"tf","game":"Team Fortress","app_id":440,"player_count":16,"max_players":24,"Bots":0,"server_type":"Dedicated","server_os":"Linux","password":true,"vac":true,"version":"7723704","steam_id":85568392924510193,"keywords":["cp","nocrits","nodmgspread","uncletopia"],"game_id":440,"stv_port":27046,"stv_name":"Uncletopia | London | 4 | All Maps | STV","players":[{"user_id":58,"name":"Darky","steam_id":76561198004733239,"connected_time":4425000000000,"state":"active","ping":45},{"user_id":113,"name":"OverCat","steam_id":76561198451782141,"connected_time":327000000000,"state":"active","ping":47},{"user_id":112,"name":"brick","steam_id":76561198052465575,"connected_time":357000000000,"state":"active","ping":76},{"user_id":106,"name":"RexySeven","steam_id":76561198070107969,"connected_time":688000000000,"state":"active","ping":95},{"user_id":116,"name":"Shimas","steam_id":76561198867546842,"connected_time":100000000000,"state":"active","ping":71},{"user_id":114,"name":"No Weapons Guy","steam_id":76561198078041375,"connected_time":276000000000,"state":"active","ping":55},{"user_id":115,"name":"your_local_penguin","steam_id":76561199224954346,"connected_time":266000000000,"state":"active","ping":92},{"user_id":117,"name":"Z3C","steam_id":76561198150970640,"connected_time":6000000000,"state":"spawning","ping":278},{"user_id":78,"name":"Mr.breast the real one","steam_id":76561198941142018,"connected_time":3692000000000,"state":"active","ping":65},{"user_id":80,"name":"Albert Einstein","steam_id":76561198351190006,"connected_time":3376000000000,"state":"active","ping":96},{"user_id":92,"name":"john fluidmasterballwasher doe","steam_id":76561199006462039,"connected_time":1553000000000,"state":"active","ping":63},{"user_id":108,"name":"Max","steam_id":76561198138959361,"connected_time":571000000000,"state":"active","ping":62},{"user_id":66,"name":"coachnetworkoperared514","steam_id":76561198236015392,"connected_time":4255000000000,"state":"active","ping":123},{"user_id":52,"name":"Jonkheervanflep","steam_id":76561198006853101,"connected_time":5047000000000,"state":"active","ping":83},{"user_id":84,"name":"Litsuw","steam_id":76561198081785898,"connected_time":2303000000000,"state":"active","ping":67},{"user_id":81,"name":"Рэптилия","steam_id":76561198258401816,"connected_time":3358000000000,"state":"active","ping":89}]},{"server_id":21,"name":"Uncletopia | London | 5 | All Maps","name_short":"lon-5","host":"lon-1.uk.uncletopia.com","port":27055,"enabled":true,"region":"eu","cc":"gb","latitude":51.509865,"longitude":-0.118092,"reserved":0,"last_update":"0001-01-01T00:00:00Z","name_a2s":"Uncletopia | London | 5 | All Maps","protocol":17,"map":"pl_badwater","folder":"tf","game":"Team Fortress","app_id":440,"player_count":0,"max_players":24,"Bots":0,"server_type":"Dedicated","server_os":"Linux","password":true,"vac":true,"version":"7723704","steam_id":85568392924742829,"keywords":["nocrits","nodmgspread","payload","uncletopia"],"game_id":440,"stv_port":27056,"stv_name":"Uncletopia | London | 5 | All Maps | STV","players":null},{"server_id":22,"name":"Uncletopia | London | 6 | All Maps","name_short":"lon-6","host":"lon-1.uk.uncletopia.com","port":27065,"enabled":true,"region":"eu","cc":"gb","latitude":51.509865,"longitude":-0.118092,"reserved":0,"last_update":"0001-01-01T00:00:00Z","name_a2s":"Uncletopia | London | 6 | All Maps","protocol":17,"map":"cp_altitude","folder":"tf","game":"Team Fortress","app_id":440,"player_count":1,"max_players":24,"Bots":0,"server_type":"Dedicated","server_os":"Linux","password":true,"vac":true,"version":"7723704","steam_id":85568392924742830,"keywords":["cp","nocrits","nodmgspread","uncletopia"],"game_id":440,"stv_port":27066,"stv_name":"Uncletopia | London | 6 | All Maps | STV","players":[{"user_id":3,"name":"Bread 0f Box","steam_id":76561198165594721,"connected_time":56000000000,"state":"active","ping":46}]},{"server_id":40,"name":"Uncletopia | London | 7 | No Payload","name_short":"lon-7","host":"lon-1.uk.uncletopia.com","port":27075,"enabled":true,"region":"eu","cc":"gb","latitude":51.509865,"longitude":-0.118092,"reserved":0,"last_update":"0001-01-01T00:00:00Z","name_a2s":"Uncletopia | London | 7 | No Payload","protocol":17,"map":"koth_cascade","folder":"tf","game":"Team Fortress","app_id":440,"player_count":0,"max_players":24,"Bots":0,"server_type":"Dedicated","server_os":"Linux","password":true,"vac":true,"version":"7723704","steam_id":85568392924964314,"keywords":["cp","nocrits","nodmgspread","uncletopia"],"game_id":440,"stv_port":27076,"stv_name":"Uncletopia | London | 7 | No Payload | STV","players":null},{"server_id":41,"name":"Uncletopia | London | 8 | Community","name_short":"lon-8","host":"lon-1.uk.uncletopia.com","port":27085,"enabled":true,"region":"eu","cc":"gb","latitude":51.509865,"longitude":-0.118092,"reserved":0,"last_update":"0001-01-01T00:00:00Z","name_a2s":"Uncletopia | London | 8 | Community","protocol":17,"map":"workshop/koth_slaughter_rc1.ugc1712845210","folder":"tf","game":"Team Fortress","app_id":440,"player_count":0,"max_players":24,"Bots":0,"server_type":"Dedicated","server_os":"Linux","password":true,"vac":true,"version":"7723704","steam_id":85568392924964315,"keywords":["cp","nocrits","nodmgspread","uncletopia"],"game_id":440,"stv_port":27086,"stv_name":"Uncletopia | London | 8 | Community | STV","players":null},{"server_id":300,"name":"Uncletopia | Montréal | 1 | All Maps","name_short":"mtl-1","host":"mtl-1.ca.uncletopia.com","port":27015,"enabled":true,"region":"us-east","cc":"ca","latitude":45.50889,"longitude":-73.56167,"reserved":0,"last_update":"0001-01-01T00:00:00Z","name_a2s":"","protocol":0,"map":"","folder":"","game":"","app_id":0,"player_count":0,"max_players":0,"Bots":0,"server_type":"","server_os":"","password":false,"vac":false,"version":"","steam_id":0,"keywords":null,"game_id":0,"stv_port":0,"stv_name":"","players":null},{"server_id":301,"name":"Uncletopia | Montréal | 2 | All Maps","name_short":"mtl-2","host":"mtl-1.ca.uncletopia.com","port":27025,"enabled":true,"region":"us-east","cc":"ca","latitude":45.50889,"longitude":-73.56167,"reserved":0,"last_update":"0001-01-01T00:00:00Z","name_a2s":"","protocol":0,"map":"","folder":"","game":"","app_id":0,"player_count":0,"max_players":0,"Bots":0,"server_type":"","server_os":"","password":false,"vac":false,"version":"","steam_id":0,"keywords":null,"game_id":0,"stv_port":0,"stv_name":"","players":null},{"server_id":302,"name":"Uncletopia | Montréal | 3 | All Maps","name_short":"mtl-3","host":"mtl-1.ca.uncletopia.com","port":27035,"enabled":true,"region":"us-east","cc":"ca","latitude":45.50889,"longitude":-73.56167,"reserved":0,"last_update":"0001-01-01T00:00:00Z","name_a2s":"","protocol":0,"map":"","folder":"","game":"","app_id":0,"player_count":0,"max_players":0,"Bots":0,"server_type":"","server_os":"","password":false,"vac":false,"version":"","steam_id":0,"keywords":null,"game_id":0,"stv_port":0,"stv_name":"","players":null},{"server_id":303,"name":"Uncletopia | Montréal | 4 | No Payload","name_short":"mtl-4","host":"mtl-1.ca.uncletopia.com","port":27045,"enabled":true,"region":"us-east","cc":"ca","latitude":45.50889,"longitude":-73.56167,"reserved":0,"last_update":"0001-01-01T00:00:00Z","name_a2s":"","protocol":0,"map":"","folder":"","game":"","app_id":0,"player_count":0,"max_players":0,"Bots":0,"server_type":"","server_os":"","password":false,"vac":false,"version":"","steam_id":0,"keywords":null,"game_id":0,"stv_port":0,"stv_name":"","players":null},{"server_id":13,"name":"Uncletopia | New York City | 1 | All Maps","name_short":"nyc-1","host":"nyc-1.us.uncletopia.com","port":27015,"enabled":true,"region":"us-east","cc":"us","latitude":40.73061,"longitude":-73.93524,"reserved":0,"last_update":"0001-01-01T00:00:00Z","name_a2s":"Uncletopia | New York City | 1 | All Maps","protocol":17,"map":"cp_snakewater_final1","folder":"tf","game":"Team Fortress","app_id":440,"player_count":0,"max_players":24,"Bots":0,"server_type":"Dedicated","server_os":"Linux","password":true,"vac":true,"version":"7723704","steam_id":85568392924469993,"keywords":["cp","nocrits","nodmgspread","uncletopia"],"game_id":440,"stv_port":27016,"stv_name":"Uncletopia | New York City | 1 | All Maps | STV","players":null},{"server_id":14,"name":"Uncletopia | New York City | 2 | All Maps","name_short":"nyc-2","host":"nyc-1.us.uncletopia.com","port":27025,"enabled":true,"region":"us-east","cc":"us","latitude":40.73061,"longitude":-73.93524,"reserved":0,"last_update":"0001-01-01T00:00:00Z","name_a2s":"Uncletopia | New York City | 2 | All Maps","protocol":17,"map":"cp_dustbowl","folder":"tf","game":"Team Fortress","app_id":440,"player_count":0,"max_players":24,"Bots":0,"server_type":"Dedicated","server_os":"Linux","password":true,"vac":true,"version":"7723704","steam_id":85568392924469994,"keywords":["cp","nocrits","nodmgspread","uncletopia"],"game_id":440,"stv_port":27026,"stv_name":"Uncletopia | New York City | 2 | All Maps | STV","players":null},{"server_id":15,"name":"Uncletopia | New York City | 3 | All Maps","name_short":"nyc-3","host":"nyc-1.us.uncletopia.com","port":27035,"enabled":true,"region":"us-east","cc":"us","latitude":40.73061,"longitude":-73.93524,"reserved":0,"last_update":"0001-01-01T00:00:00Z","name_a2s":"Uncletopia | New York City | 3 | All Maps","protocol":17,"map":"pl_frontier_final","folder":"tf","game":"Team Fortress","app_id":440,"player_count":0,"max_players":24,"Bots":0,"server_type":"Dedicated","server_os":"Linux","password":true,"vac":true,"version":"7723704","steam_id":85568392924742820,"keywords":["nocrits","nodmgspread","payload","uncletopia"],"game_id":440,"stv_port":27036,"stv_name":"Uncletopia | New York City | 3 | All Maps | STV","players":null},{"server_id":16,"name":"Uncletopia | New York City | 4 | Community","name_short":"nyc-4","host":"nyc-1.us.uncletopia.com","port":27045,"enabled":true,"region":"us-east","cc":"us","latitude":40.73061,"longitude":-73.93524,"reserved":0,"last_update":"0001-01-01T00:00:00Z","name_a2s":"Uncletopia | New York City | 4 | Community","protocol":17,"map":"cp_process_final","folder":"tf","game":"Team Fortress","app_id":440,"player_count":0,"max_players":24,"Bots":0,"server_type":"Dedicated","server_os":"Linux","password":true,"vac":true,"version":"7723704","steam_id":85568392924742821,"keywords":["cp","nocrits","nodmgspread","uncletopia"],"game_id":440,"stv_port":27046,"stv_name":"Uncletopia | New York City | 4 | Community | STV","players":null},{"server_id":142,"name":"Uncletopia | São Paulo | 1 | All Maps","name_short":"sao-1","host":"sao-1.br.uncletopia.com","port":27015,"enabled":true,"region":"sa","cc":"br","latitude":-23.533773,"longitude":-46.62529,"reserved":0,"last_update":"0001-01-01T00:00:00Z","name_a2s":"Uncletopia | São Paulo | 1 | All Maps","protocol":17,"map":"pl_upward","folder":"tf","game":"Team Fortress","app_id":440,"player_count":0,"max_players":24,"Bots":0,"server_type":"Dedicated","server_os":"Linux","password":true,"vac":true,"version":"7723704","steam_id":85568392924469996,"keywords":["nocrits","nodmgspread","payload","uncletopia"],"game_id":440,"stv_port":27016,"stv_name":"Uncletopia | São Paulo | 1 | All Maps | STV","players":null},{"server_id":143,"name":"Uncletopia | São Paulo | 2 | All Maps","name_short":"sao-2","host":"sao-2.br.uncletopia.com","port":27015,"enabled":true,"region":"sa","cc":"br","latitude":-23.533773,"longitude":-46.62529,"reserved":0,"last_update":"0001-01-01T00:00:00Z","name_a2s":"Uncletopia | São Paulo | 2 | All Maps","protocol":17,"map":"pl_barnblitz","folder":"tf","game":"Team Fortress","app_id":440,"player_count":0,"max_players":24,"Bots":0,"server_type":"Dedicated","server_os":"Linux","password":true,"vac":true,"version":"7723704","steam_id":85568392924485349,"keywords":["nocrits","nodmgspread","payload","uncletopia"],"game_id":440,"stv_port":27016,"stv_name":"Uncletopia | São Paulo | 2 | All Maps | STV","players":null},{"server_id":7,"name":"Uncletopia | Seattle | 1 | All Maps","name_short":"sea-1","host":"sea-1.us.uncletopia.com","port":27015,"enabled":true,"region":"us-west","cc":"us","latitude":47.608013,"longitude":-122.33517,"reserved":0,"last_update":"0001-01-01T00:00:00Z","name_a2s":"Uncletopia | Seattle | 1 | All Maps","protocol":17,"map":"koth_highpass","folder":"tf","game":"Team Fortress","app_id":440,"player_count":0,"max_players":24,"Bots":0,"server_type":"Dedicated","server_os":"Linux","password":true,"vac":true,"version":"7723704","steam_id":85568392924469997,"keywords":["cp","nocrits","nodmgspread","uncletopia"],"game_id":440,"stv_port":27016,"stv_name":"Uncletopia | Seattle | 1 | All Maps | STV","players":null},{"server_id":119,"name":"Uncletopia | Seattle | 2 | All Maps","name_short":"sea-2","host":"sea-1.us.uncletopia.com","port":27025,"enabled":true,"region":"us-west","cc":"us","latitude":47.608013,"longitude":-122.33517,"reserved":0,"last_update":"0001-01-01T00:00:00Z","name_a2s":"Uncletopia | Seattle | 2 | All Maps","protocol":17,"map":"koth_highpass","folder":"tf","game":"Team Fortress","app_id":440,"player_count":0,"max_players":24,"Bots":0,"server_type":"Dedicated","server_os":"Linux","password":true,"vac":true,"version":"7723704","steam_id":85568392924469998,"keywords":["cp","nocrits","nodmgspread","uncletopia"],"game_id":440,"stv_port":27026,"stv_name":"Uncletopia | Seattle | 2 | All Maps | STV","players":null},{"server_id":17,"name":"Uncletopia | San Francisco | 1 | All Maps","name_short":"sfo-1","host":"sfo-1.us.uncletopia.com","port":27015,"enabled":true,"region":"us-west","cc":"us","latitude":37.77397,"longitude":-122.4313,"reserved":0,"last_update":"0001-01-01T00:00:00Z","name_a2s":"Uncletopia | San Francisco | 1 | All Maps","protocol":17,"map":"cp_dustbowl","folder":"tf","game":"Team Fortress","app_id":440,"player_count":0,"max_players":24,"Bots":0,"server_type":"Dedicated","server_os":"Linux","password":true,"vac":true,"version":"7723704","steam_id":85568392924469999,"keywords":["cp","nocrits","nodmgspread","uncletopia"],"game_id":440,"stv_port":27016,"stv_name":"Uncletopia | San Francisco | 1 | All Maps | STV","players":null},{"server_id":18,"name":"Uncletopia | San Francisco | 2 | All Maps","name_short":"sfo-2","host":"sfo-1.us.uncletopia.com","port":27025,"enabled":true,"region":"us-west","cc":"us","latitude":37.77397,"longitude":-122.4313,"reserved":0,"last_update":"0001-01-01T00:00:00Z","name_a2s":"Uncletopia | San Francisco | 2 | All Maps","protocol":17,"map":"koth_king","folder":"tf","game":"Team Fortress","app_id":440,"player_count":0,"max_players":24,"Bots":0,"server_type":"Dedicated","server_os":"Linux","password":true,"vac":true,"version":"7723704","steam_id":85568392924470000,"keywords":["cp","nocrits","nodmgspread","uncletopia"],"game_id":440,"stv_port":27026,"stv_name":"Uncletopia | San Francisco | 2 | All Maps | STV","players":null},{"server_id":19,"name":"Uncletopia | San Francisco | 3 | No Payload","name_short":"sfo-3","host":"sfo-1.us.uncletopia.com","port":27035,"enabled":true,"region":"us-west","cc":"us","latitude":37.77397,"longitude":-122.4313,"reserved":0,"last_update":"0001-01-01T00:00:00Z","name_a2s":"Uncletopia | San Francisco | 3 | No Payload","protocol":17,"map":"koth_badlands","folder":"tf","game":"Team Fortress","app_id":440,"player_count":0,"max_players":24,"Bots":0,"server_type":"Dedicated","server_os":"Linux","password":true,"vac":true,"version":"7723704","steam_id":85568392924742824,"keywords":["cp","nocrits","nodmgspread","uncletopia"],"game_id":440,"stv_port":27036,"stv_name":"Uncletopia | San Francisco | 3 | No Payload | STV","players":null},{"server_id":20,"name":"Uncletopia | San Francisco | 4 | Community","name_short":"sfo-4","host":"sfo-1.us.uncletopia.com","port":27045,"enabled":true,"region":"us-west","cc":"us","latitude":37.77397,"longitude":-122.4313,"reserved":0,"last_update":"0001-01-01T00:00:00Z","name_a2s":"Uncletopia | San Francisco | 4 | Community","protocol":17,"map":"workshop/koth_synthetic_rc6a.ugc1549817316","folder":"tf","game":"Team Fortress","app_id":440,"player_count":0,"max_players":24,"Bots":0,"server_type":"Dedicated","server_os":"Linux","password":true,"vac":true,"version":"7723704","steam_id":85568392924742826,"keywords":["cp","nocrits","nodmgspread","uncletopia"],"game_id":440,"stv_port":27046,"stv_name":"Uncletopia | San Francisco | 4 | Community | STV","players":null},{"server_id":141,"name":"Uncletopia | Sydney | 1 | All Maps","name_short":"syd-1","host":"syd-1.au.uncletopia.com","port":27015,"enabled":true,"region":"au","cc":"au","latitude":-33.865143,"longitude":151.2099,"reserved":0,"last_update":"0001-01-01T00:00:00Z","name_a2s":"Uncletopia | Sydney | 1 | All Maps","protocol":17,"map":"pl_swiftwater_final1","folder":"tf","game":"Team Fortress","app_id":440,"player_count":15,"max_players":24,"Bots":0,"server_type":"Dedicated","server_os":"Linux","password":true,"vac":true,"version":"7723704","steam_id":85568392924470001,"keywords":["nocrits","nodmgspread","payload","uncletopia"],"game_id":440,"stv_port":27016,"stv_name":"Uncletopia | Sydney | 1 | All Maps | STV","players":[{"user_id":611,"name":"doctor morbin' (real)","steam_id":76561199365241695,"connected_time":218000000000,"state":"active","ping":185},{"user_id":554,"name":"business rodent","steam_id":76561198141692187,"connected_time":6042000000000,"state":"active","ping":52},{"user_id":602,"name":"FrOStY","steam_id":76561198088155805,"connected_time":1532000000000,"state":"active","ping":111},{"user_id":606,"name":"Moral Sandwich","steam_id":76561198028535226,"connected_time":726000000000,"state":"active","ping":82},{"user_id":609,"name":"Campy McSpawnington","steam_id":76561197963420642,"connected_time":396000000000,"state":"active","ping":52},{"user_id":596,"name":"dc","steam_id":76561198040993425,"connected_time":2211000000000,"state":"active","ping":75},{"user_id":598,"name":"Rextron","steam_id":76561198086545752,"connected_time":1949000000000,"state":"active","ping":100},{"user_id":603,"name":"KeenyBro","steam_id":76561198289800573,"connected_time":1513000000000,"state":"active","ping":56},{"user_id":607,"name":"Blondie","steam_id":76561198257286963,"connected_time":710000000000,"state":"active","ping":64},{"user_id":605,"name":"SWAG DRAGON","steam_id":76561197960279341,"connected_time":1432000000000,"state":"active","ping":55},{"user_id":610,"name":"brute","steam_id":76561199361606568,"connected_time":323000000000,"state":"active","ping":188},{"user_id":590,"name":"tinkaton from pokemon gen 9 UU","steam_id":76561198079345240,"connected_time":2557000000000,"state":"active","ping":59},{"user_id":593,"name":"Gamzee","steam_id":76561198099153604,"connected_time":2455000000000,"state":"active","ping":64},{"user_id":592,"name":"hive","steam_id":76561199099744527,"connected_time":2484000000000,"state":"active","ping":45},{"user_id":594,"name":"JayCatnip","steam_id":76561198125106357,"connected_time":2430000000000,"state":"active","ping":66}]},{"server_id":123,"name":"Uncletopia | Sydney | 2 | All Maps","name_short":"syd-2","host":"syd-1.au.uncletopia.com","port":27025,"enabled":true,"region":"au","cc":"au","latitude":-33.865143,"longitude":151.2099,"reserved":0,"last_update":"0001-01-01T00:00:00Z","name_a2s":"Uncletopia | Sydney | 2 | All Maps","protocol":17,"map":"pl_badwater","folder":"tf","game":"Team Fortress","app_id":440,"player_count":20,"max_players":24,"Bots":0,"server_type":"Dedicated","server_os":"Linux","password":true,"vac":true,"version":"7723704","steam_id":85568392924470002,"keywords":["nocrits","nodmgspread","payload","uncletopia"],"game_id":440,"stv_port":27026,"stv_name":"Uncletopia | Sydney | 2 | All Maps | STV","players":[{"user_id":252,"name":"pepsb","steam_id":76561198066291166,"connected_time":91000000000,"state":"active","ping":99},{"user_id":236,"name":"Chops","steam_id":76561198071178936,"connected_time":1463000000000,"state":"active","ping":94},{"user_id":238,"name":"krandlez` (Any/All)","steam_id":76561198044839726,"connected_time":1198000000000,"state":"active","ping":36},{"user_id":215,"name":"Eddie","steam_id":76561198081031350,"connected_time":2864000000000,"state":"active","ping":45},{"user_id":176,"name":"ItsSnakey","steam_id":76561199187623513,"connected_time":5640000000000,"state":"active","ping":70},{"user_id":225,"name":"cimpact","steam_id":76561198452258917,"connected_time":2040000000000,"state":"spawning","ping":217},{"user_id":250,"name":"Skeptikal01","steam_id":76561199064694137,"connected_time":319000000000,"state":"active","ping":153},{"user_id":239,"name":"floop flub","steam_id":76561198418968979,"connected_time":1133000000000,"state":"active","ping":111},{"user_id":246,"name":"Lancer","steam_id":76561198122813810,"connected_time":544000000000,"state":"spawning","ping":67},{"user_id":234,"name":"Corn","steam_id":76561198086465847,"connected_time":1546000000000,"state":"active","ping":53},{"user_id":253,"name":"Definitely not Ray","steam_id":76561197991390018,"connected_time":28000000000,"state":"active","ping":290},{"user_id":222,"name":"berko","steam_id":76561198012286680,"connected_time":2507000000000,"state":"active","ping":55},{"user_id":254,"name":"wackel","steam_id":76561198091003826,"connected_time":24000000000,"state":"active","ping":63},{"user_id":249,"name":"rajjyboi","steam_id":76561198250874216,"connected_time":379000000000,"state":"spawning","ping":88},{"user_id":251,"name":"KenOAndStuff","steam_id":76561198438165878,"connected_time":263000000000,"state":"active","ping":173},{"user_id":216,"name":"Willsy","steam_id":76561198027119367,"connected_time":2833000000000,"state":"active","ping":50},{"user_id":213,"name":"Lateralus","steam_id":76561198007865860,"connected_time":3008000000000,"state":"active","ping":107},{"user_id":217,"name":"Phillip Copium Jr","steam_id":76561198081187571,"connected_time":2797000000000,"state":"active","ping":40},{"user_id":248,"name":"The Cake Is A Pie","steam_id":76561198043068402,"connected_time":508000000000,"state":"active","ping":76},{"user_id":201,"name":"Chowdermonkey","steam_id":76561198990121068,"connected_time":4169000000000,"state":"active","ping":60}]},{"server_id":395,"name":"Uncletopia | Sydney | 3 | All Maps","name_short":"syd-3","host":"syd-1.au.uncletopia.com","port":27035,"enabled":true,"region":"au","cc":"au","latitude":-33.865143,"longitude":151.2099,"reserved":0,"last_update":"0001-01-01T00:00:00Z","name_a2s":"Uncletopia | Sydney | 3 | All Maps","protocol":17,"map":"cp_altitude","folder":"tf","game":"Team Fortress","app_id":440,"player_count":0,"max_players":24,"Bots":0,"server_type":"Dedicated","server_os":"Linux","password":true,"vac":true,"version":"7723704","steam_id":85568392925194467,"keywords":["cp","nocrits","nodmgspread","uncletopia"],"game_id":440,"stv_port":27036,"stv_name":"Uncletopia | Sydney | 3 | All Maps | STV","players":null},{"server_id":396,"name":"Uncletopia | Sydney | 4 | All Maps","name_short":"syd-4","host":"syd-1.au.uncletopia.com","port":27045,"enabled":true,"region":"au","cc":"au","latitude":-33.865143,"longitude":151.2099,"reserved":0,"last_update":"0001-01-01T00:00:00Z","name_a2s":"Uncletopia | Sydney | 4 | All Maps","protocol":17,"map":"cp_altitude","folder":"tf","game":"Team Fortress","app_id":440,"player_count":0,"max_players":24,"Bots":0,"server_type":"Dedicated","server_os":"Linux","password":true,"vac":true,"version":"7723704","steam_id":85568392925397958,"keywords":["cp","nocrits","nodmgspread","uncletopia"],"game_id":440,"stv_port":27046,"stv_name":"Uncletopia | Sydney | 4 | All Maps | STV","players":null},{"server_id":58,"name":"Uncletopia | Sydney | 5 | No Payload","name_short":"syd-5","host":"syd-1.au.uncletopia.com","port":27055,"enabled":true,"region":"au","cc":"au","latitude":-33.865143,"longitude":151.2099,"reserved":0,"last_update":"0001-01-01T00:00:00Z","name_a2s":"Uncletopia | Sydney | 5 | No Payload","protocol":17,"map":"koth_cascade","folder":"tf","game":"Team Fortress","app_id":440,"player_count":0,"max_players":24,"Bots":0,"server_type":"Dedicated","server_os":"Linux","password":true,"vac":true,"version":"7723704","steam_id":85568392925397959,"keywords":["cp","nocrits","nodmgspread","uncletopia"],"game_id":440,"stv_port":27056,"stv_name":"Uncletopia | Sydney | 5 | No Payload | STV","players":null},{"server_id":59,"name":"Uncletopia | Sydney | 6 | Community","name_short":"syd-6","host":"syd-1.au.uncletopia.com","port":27065,"enabled":true,"region":"au","cc":"au","latitude":-33.865143,"longitude":151.2099,"reserved":0,"last_update":"0001-01-01T00:00:00Z","name_a2s":"Uncletopia | Sydney | 6 | Community","protocol":17,"map":"koth_lakeside_final","folder":"tf","game":"Team Fortress","app_id":440,"player_count":0,"max_players":24,"Bots":0,"server_type":"Dedicated","server_os":"Linux","password":true,"vac":true,"version":"7723704","steam_id":85568392925397960,"keywords":["cp","nocrits","nodmgspread","uncletopia"],"game_id":440,"stv_port":27066,"stv_name":"Uncletopia | Sydney | 6 | Community | STV","players":null},{"server_id":49,"name":"Uncletopia | Warsaw | 1 | All Maps","name_short":"waw-1","host":"waw-1.pl.uncletopia.com","port":27015,"enabled":true,"region":"eu","cc":"pl","latitude":52.2297,"longitude":21.017532,"reserved":0,"last_update":"0001-01-01T00:00:00Z","name_a2s":"Uncletopia | Warsaw | 1 | All Maps","protocol":17,"map":"pl_swiftwater_final1","folder":"tf","game":"Team Fortress","app_id":440,"player_count":0,"max_players":24,"Bots":0,"server_type":"Dedicated","server_os":"Linux","password":true,"vac":true,"version":"7723704","steam_id":85568392925397850,"keywords":["nocrits","nodmgspread","payload","uncletopia"],"game_id":440,"stv_port":27016,"stv_name":"Uncletopia | Warsaw | 1 | All Maps | STV","players":null},{"server_id":50,"name":"Uncletopia | Warsaw | 2 | All Maps","name_short":"waw-2","host":"waw-1.pl.uncletopia.com","port":27025,"enabled":true,"region":"eu","cc":"pl","latitude":52.2297,"longitude":21.017532,"reserved":0,"last_update":"0001-01-01T00:00:00Z","name_a2s":"Uncletopia | Warsaw | 2 | All Maps","protocol":17,"map":"pl_snowycoast","folder":"tf","game":"Team Fortress","app_id":440,"player_count":0,"max_players":24,"Bots":0,"server_type":"Dedicated","server_os":"Linux","password":true,"vac":true,"version":"7723704","steam_id":85568392925397851,"keywords":["nocrits","nodmgspread","payload","uncletopia"],"game_id":440,"stv_port":27026,"stv_name":"Uncletopia | Warsaw | 2 | All Maps | STV","players":null},{"server_id":51,"name":"Uncletopia | Warsaw | 3 | All Maps","name_short":"waw-3","host":"waw-1.pl.uncletopia.com","port":27035,"enabled":true,"region":"eu","cc":"pl","latitude":52.2297,"longitude":21.017532,"reserved":0,"last_update":"0001-01-01T00:00:00Z","name_a2s":"Uncletopia | Warsaw | 3 | All Maps","protocol":17,"map":"koth_lakeside_final","folder":"tf","game":"Team Fortress","app_id":440,"player_count":0,"max_players":24,"Bots":0,"server_type":"Dedicated","server_os":"Linux","password":true,"vac":true,"version":"7723704","steam_id":85568392925397852,"keywords":["cp","nocrits","nodmgspread","uncletopia"],"game_id":440,"stv_port":27036,"stv_name":"Uncletopia | Warsaw | 3 | All Maps | STV","players":null},{"server_id":52,"name":"Uncletopia | Warsaw | 4 | All Maps","name_short":"waw-4","host":"waw-1.pl.uncletopia.com","port":27045,"enabled":true,"region":"eu","cc":"pl","latitude":52.2297,"longitude":21.017532,"reserved":0,"last_update":"0001-01-01T00:00:00Z","name_a2s":"Uncletopia | Warsaw | 4 | All Maps","protocol":17,"map":"pl_swiftwater_final1","folder":"tf","game":"Team Fortress","app_id":440,"player_count":0,"max_players":24,"Bots":0,"server_type":"Dedicated","server_os":"Linux","password":true,"vac":true,"version":"7723704","steam_id":85568392925397853,"keywords":["nocrits","nodmgspread","payload","uncletopia"],"game_id":440,"stv_port":27046,"stv_name":"Uncletopia | Warsaw | 4 | All Maps | STV","players":null},{"server_id":53,"name":"Uncletopia | Warsaw | 5 | No Payload","name_short":"waw-5","host":"waw-1.pl.uncletopia.com","port":27055,"enabled":true,"region":"eu","cc":"pl","latitude":52.2297,"longitude":21.017532,"reserved":0,"last_update":"0001-01-01T00:00:00Z","name_a2s":"Uncletopia | Warsaw | 5 | No Payload","protocol":17,"map":"koth_highpass","folder":"tf","game":"Team Fortress","app_id":440,"player_count":0,"max_players":24,"Bots":0,"server_type":"Dedicated","server_os":"Linux","password":true,"vac":true,"version":"7723704","steam_id":85568392925397854,"keywords":["cp","nocrits","nodmgspread","uncletopia"],"game_id":440,"stv_port":27056,"stv_name":"Uncletopia | Warsaw | 5 | No Payload | STV","players":null},{"server_id":54,"name":"Uncletopia | Warsaw | 6 | Community","name_short":"waw-6","host":"waw-1.pl.uncletopia.com","port":27065,"enabled":true,"region":"eu","cc":"pl","latitude":52.2297,"longitude":21.017532,"reserved":0,"last_update":"0001-01-01T00:00:00Z","name_a2s":"Uncletopia | Warsaw | 6 | Community","protocol":17,"map":"koth_viaduct","folder":"tf","game":"Team Fortress","app_id":440,"player_count":0,"max_players":24,"Bots":0,"server_type":"Dedicated","server_os":"Linux","password":true,"vac":true,"version":"7723704","steam_id":85568392925397856,"keywords":["cp","nocrits","nodmgspread","uncletopia"],"game_id":440,"stv_port":27066,"stv_name":"Uncletopia | Warsaw | 6 | Community | STV","players":null}]}