{"status":true,"message":"","result":[{"server_id":9,"name":"Uncletopia | Atlanta | 1 | All Maps","name_short":"atl-1","host":"atl-1.us.uncletopia.com","port":27015,"enabled":true,"region":"us-east","cc":"us","latitude":33.753746,"longitude":-84.38633,"reserved":0,"last_update":"0001-01-01T00:00:00Z","name_a2s":"Uncletopia | Atlanta | 1 | All Maps","protocol":17,"map":"cp_steel","folder":"tf","game":"Team Fortress","app_id":440,"player_count":24,"max_players":24,"Bots":0,"server_type":"Dedicated","server_os":"Linux","password":true,"vac":true,"version":"7757534","steam_id":85568392924469982,"keywords":["cp","nocrits","nodmgspread","uncletopia"],"game_id":440,"stv_port":27016,"stv_name":"Uncletopia | Atlanta | 1 | All Maps | STV","players":[{"user_id":386,"name":"Ellis","steam_id":76561198072685954,"connected_time":695000000000,"state":"active","ping":142},{"user_id":376,"name":"LadyAnon","steam_id":76561198014709418,"connected_time":2991000000000,"state":"active","ping":53},{"user_id":391,"name":"lu","steam_id":76561198080731872,"connected_time":311000000000,"state":"active","ping":65},{"user_id":334,"name":"cheeks","steam_id":76561197993371179,"connected_time":6902000000000,"state":"active","ping":87},{"user_id":350,"name":"RED1 | mayhem","steam_id":76561199246637881,"connected_time":4045000000000,"state":"active","ping":54},{"user_id":268,"name":"RED1 | eish","steam_id":76561198089463603,"connected_time":11754000000000,"state":"active","ping":132},{"user_id":367,"name":"BLU1 | cola","steam_id":76561198374390458,"connected_time":3219000000000,"state":"active","ping":55},{"user_id":379,"name":"Bunt","steam_id":76561198124477567,"connected_time":1510000000000,"state":"active","ping":52},{"user_id":359,"name":"RED1 | Lylith!!!","steam_id":76561198386687546,"connected_time":3768000000000,"state":"active","ping":52},{"user_id":380,"name":"floofy","steam_id":76561198389769098,"connected_time":1431000000000,"state":"active","ping":82},{"user_id":393,"name":"zefir","steam_id":76561198041348890,"connected_time":304000000000,"state":"active","ping":71},{"user_id":381,"name":"vusu","steam_id":76561198838757422,"connected_time":1427000000000,"state":"active","ping":69},{"user_id":394,"name":"Karma","steam_id":76561198030565234,"connected_time":257000000000,"state":"active","ping":73},{"user_id":401,"name":"Monkey Mode","steam_id":76561197961267543,"connected_time":44000000000,"state":"active","ping":62},{"user_id":374,"name":"BLU1 | Flint","steam_id":76561198066547582,"connected_time":3025000000000,"state":"active","ping":104},{"user_id":383,"name":"ClutchyDeClutcher","steam_id":76561198043850269,"connected_time":1425000000000,"state":"active","ping":32},{"user_id":390,"name":"Uganda Knuckles lll","steam_id":76561199121276474,"connected_time":320000000000,"state":"active","ping":74},{"user_id":398,"name":"BackwardsEagle","steam_id":76561199013712612,"connected_time":117000000000,"state":"active","ping":79},{"user_id":384,"name":"lil hog","steam_id":76561199230929836,"connected_time":1409000000000,"state":"active","ping":87},{"user_id":375,"name":"BLU1 | Psionic Box","steam_id":76561198151019322,"connected_time":3024000000000,"state":"active","ping":80},{"user_id":378,"name":"bogginwater","steam_id":76561198155547142,"connected_time":1797000000000,"state":"active","ping":69},{"user_id":351,"name":"BLU1 Save your wifi","steam_id":76561198286147372,"connected_time":4045000000000,"state":"active","ping":50},{"user_id":348,"name":"ATLS1 | SparkStorm","steam_id":76561198095817025,"connected_time":4057000000000,"state":"active","ping":39},{"user_id":363,"name":"Oddball","steam_id":76561198040440984,"connected_time":3749000000000,"state":"active","ping":83}]},{"server_id":400,"name":"Uncletopia | Atlanta | 3 | Community","name_short":"atl-3","host":"atl-1.us.uncletopia.com","port":27035,"enabled":true,"region":"us-east","cc":"us","latitude":33.753746,"longitude":-84.38633,"reserved":0,"last_update":"0001-01-01T00:00:00Z","name_a2s":"Uncletopia | Atlanta | 3 | Community","protocol":17,"map":"workshop/pl_emerge_rc2.ugc888027758","folder":"tf","game":"Team Fortress","app_id":440,"player_count":0,"max_players":24,"Bots":0,"server_type":"Dedicated","server_os":"Linux","password":true,"vac":true,"version":"7757534","steam_id":85568392924515187,"keywords":["nocrits","nodmgspread","payload","uncletopia"],"game_id":440,"stv_port":27036,"stv_name":"Uncletopia | Atlanta | 3 | Community | STV","players":null},{"server_id":401,"name":"Uncletopia | Atlanta | 4 | No Payload","name_short":"atl-4","host":"atl-1.us.uncletopia.com","port":27045,"enabled":true,"region":"us-east","cc":"us","latitude":33.753746,"longitude":-84.38633,"reserved":0,"last_update":"0001-01-01T00:00:00Z","name_a2s":"","protocol":0,"map":"","folder":"","game":"","app_id":0,"player_count":0,"max_players":0,"Bots":0,"server_type":"","server_os":"","password":false,"vac":false,"version":"","steam_id":0,"keywords":null,"game_id":0,"stv_port":0,"stv_name":"","players":null},{"server_id":2,"name":"Uncletopia | Chicago | 1 | All Maps","name_short":"chi-1","host":"chi-1.us.uncletopia.com","port":27015,"enabled":true,"region":"us-central","cc":"us","latitude":41.881832,"longitude":-87.62318,"reserved":0,"last_update":"0001-01-01T00:00:00Z","name_a2s":"Uncletopia | Chicago | 1 | All Maps","protocol":17,"map":"pl_borneo","folder":"tf","game":"Team Fortress","app_id":440,"player_count":25,"max_players":24,"Bots":0,"server_type":"Dedicated","server_os":"Linux","password":true,"vac":true,"version":"7757534","steam_id":85568392924469984,"keywords":["nocrits","nodmgspread","payload","uncletopia"],"game_id":440,"stv_port":27016,"stv_name":"Uncletopia | Chicago | 1 | All Maps | STV","players":[{"user_id":776,"name":"Rallo","steam_id":76561198324357861,"connected_time":45000000000,"state":"active","ping":57},{"user_id":741,"name":"Lawnmower","steam_id":76561198186680197,"connected_time":1319000000000,"state":"active","ping":97},{"user_id":735,"name":"Phillip Jeffries","steam_id":76561198064052174,"connected_time":2218000000000,"state":"active","ping":57},{"user_id":777,"name":"Greg Tree","steam_id":76561198449712775,"connected_time":3000000000,"state":"spawning","ping":78},{"user_id":766,"name":"greg","steam_id":76561199195205705,"connected_time":337000000000,"state":"active","ping":87},{"user_id":684,"name":"Sage","steam_id":76561198143101697,"connected_time":5091000000000,"state":"active","ping":92},{"user_id":763,"name":"RichardV","steam_id":76561197985772809,"connected_time":397000000000,"state":"active","ping":56},{"user_id":716,"name":"Captain S. Forrest","steam_id":76561198062463029,"connected_time":3096000000000,"state":"active","ping":71},{"user_id":757,"name":"bootlore","steam_id":76561198129538164,"connected_time":451000000000,"state":"active","ping":75},{"user_id":737,"name":"DaPenguinGuy","steam_id":76561199013344573,"connected_time":2136000000000,"state":"active","ping":66},{"user_id":767,"name":"Simply_Komeiji","steam_id":76561198354177703,"connected_time":307000000000,"state":"active","ping":85},{"user_id":748,"name":"Whapper","steam_id":76561198044029606,"connected_time":788000000000,"state":"active","ping":99},{"user_id":705,"name":"Snoogs","steam_id":76561198444880931,"connected_time":3867000000000,"state":"active","ping":76},{"user_id":775,"name":"Chris P. Wiener","steam_id":76561198168808551,"connected_time":65000000000,"state":"active","ping":100},{"user_id":756,"name":"Kipernicus","steam_id":76561197998180212,"connected_time":456000000000,"state":"active","ping":53},{"user_id":718,"name":"B45Guy","steam_id":76561198117290531,"connected_time":2986000000000,"state":"active","ping":58},{"user_id":732,"name":"Nani?","steam_id":76561198130982692,"connected_time":2256000000000,"state":"active","ping":66},{"user_id":719,"name":"FiveStryker","steam_id":76561198366172207,"connected_time":2971000000000,"state":"active","ping":32},{"user_id":759,"name":"eThaNos","steam_id":76561198035403279,"connected_time":438000000000,"state":"active","ping":77},{"user_id":751,"name":"McSmitten","steam_id":76561198022358379,"connected_time":731000000000,"state":"active","ping":72},{"user_id":708,"name":"Shoe™","steam_id":76561199114397881,"connected_time":3831000000000,"state":"active","ping":47},{"user_id":745,"name":"Raniel Dicciardo","steam_id":76561198053859538,"connected_time":920000000000,"state":"active","ping":72},{"user_id":752,"name":"North","steam_id":76561199173696836,"connected_time":730000000000,"state":"active","ping":87},{"user_id":738,"name":"Monkey","steam_id":76561198031015186,"connected_time":1795000000000,"state":"active","ping":74},{"user_id":761,"name":"Biggles","steam_id":76561198126576389,"connected_time":416000000000,"state":"active","ping":72}]},{"server_id":106,"name":"Uncletopia | Chicago | 2 | All Maps","name_short":"chi-2","host":"chi-1.us.uncletopia.com","port":27025,"enabled":true,"region":"us-central","cc":"us","latitude":41.881832,"longitude":-87.62318,"reserved":0,"last_update":"0001-01-01T00:00:00Z","name_a2s":"Uncletopia | Chicago | 2 | All Maps","protocol":17,"map":"pl_swiftwater_final1","folder":"tf","game":"Team Fortress","app_id":440,"player_count":23,"max_players":24,"Bots":0,"server_type":"Dedicated","server_os":"Linux","password":true,"vac":true,"version":"7757534","steam_id":85568392924469985,"keywords":["nocrits","nodmgspread","payload","uncletopia"],"game_id":440,"stv_port":27026,"stv_name":"Uncletopia | Chicago | 2 | All Maps | STV","players":[{"user_id":518,"name":"StraySheep","steam_id":76561198256003811,"connected_time":2673000000000,"state":"active","ping":69},{"user_id":488,"name":"threethree","steam_id":76561198177354155,"connected_time":4166000000000,"state":"active","ping":50},{"user_id":523,"name":"Loops","steam_id":76561198139814686,"connected_time":1789000000000,"state":"active","ping":78},{"user_id":542,"name":"Discipline","steam_id":76561198019206178,"connected_time":285000000000,"state":"active","ping":78},{"user_id":509,"name":"dawg","steam_id":76561198019444443,"connected_time":2979000000000,"state":"active","ping":82},{"user_id":543,"name":"Tobby","steam_id":76561198165454090,"connected_time":233000000000,"state":"active","ping":133},{"user_id":541,"name":"blank","steam_id":76561198105529673,"connected_time":300000000000,"state":"active","ping":99},{"user_id":524,"name":"ZombieSkeletor2","steam_id":76561198244937990,"connected_time":1786000000000,"state":"active","ping":167},{"user_id":529,"name":"melon","steam_id":76561198041266286,"connected_time":1708000000000,"state":"active","ping":92},{"user_id":519,"name":"Punkin","steam_id":76561198334301755,"connected_time":2520000000000,"state":"active","ping":70},{"user_id":495,"name":"amablehughes","steam_id":76561199007131236,"connected_time":4085000000000,"state":"active","ping":74},{"user_id":502,"name":"Z0mbie0975","steam_id":76561199013290525,"connected_time":3529000000000,"state":"active","ping":49},{"user_id":463,"name":"A Puppy","steam_id":76561198828184456,"connected_time":7395000000000,"state":"active","ping":61},{"user_id":498,"name":"sugar wall blaster","steam_id":76561198325011551,"connected_time":3778000000000,"state":"active","ping":101},{"user_id":538,"name":"carcin","steam_id":76561198042271448,"connected_time":668000000000,"state":"active","ping":60},{"user_id":526,"name":"Andraw","steam_id":76561198057499385,"connected_time":1761000000000,"state":"active","ping":62},{"user_id":527,"name":"Ettin","steam_id":76561198149851283,"connected_time":1760000000000,"state":"active","ping":89},{"user_id":544,"name":"challen","steam_id":76561197961277967,"connected_time":227000000000,"state":"active","ping":81},{"user_id":483,"name":"RaddahRaddah","steam_id":76561198194462829,"connected_time":5318000000000,"state":"active","ping":63},{"user_id":530,"name":"3dDavinci","steam_id":76561198052398729,"connected_time":1706000000000,"state":"active","ping":58},{"user_id":531,"name":"Red Villag","steam_id":76561198194701438,"connected_time":1418000000000,"state":"active","ping":80},{"user_id":520,"name":"K","steam_id":76561198125357358,"connected_time":2457000000000,"state":"active","ping":71},{"user_id":532,"name":"a complete and utter buffoon","steam_id":76561198372994028,"connected_time":1168000000000,"state":"active","ping":79}]},{"server_id":402,"name":"Uncletopia | Chicago | 3 | All Maps","name_short":"chi-3","host":"chi-1.us.uncletopia.com","port":27035,"enabled":true,"region":"us-central","cc":"us","latitude":41.881832,"longitude":-87.62318,"reserved":0,"last_update":"0001-01-01T00:00:00Z","name_a2s":"Uncletopia | Chicago | 3 | All Maps","protocol":17,"map":"pl_frontier_final","folder":"tf","game":"Team Fortress","app_id":440,"player_count":24,"max_players":24,"Bots":0,"server_type":"Dedicated","server_os":"Linux","password":true,"vac":true,"version":"7757534","steam_id":85568392924515191,"keywords":["nocrits","nodmgspread","payload","uncletopia"],"game_id":440,"stv_port":27036,"stv_name":"Uncletopia | Chicago | 3 | All Maps | STV","players":[{"user_id":409,"name":"BallBreaker","steam_id":76561198237263498,"connected_time":525000000000,"state":"active","ping":101},{"user_id":377,"name":"Jojoker","steam_id":76561198049833406,"connected_time":1181000000000,"state":"active","ping":77},{"user_id":373,"name":"Puke Skyfucker","steam_id":76561198012846213,"connected_time":1282000000000,"state":"active","ping":63},{"user_id":402,"name":"Some wet dude","steam_id":76561198143744178,"connected_time":583000000000,"state":"active","ping":64},{"user_id":375,"name":"garfield","steam_id":76561198114119308,"connected_time":1251000000000,"state":"active","ping":62},{"user_id":403,"name":"Mr.CannibalTaco","steam_id":76561198117288713,"connected_time":583000000000,"state":"active","ping":80},{"user_id":376,"name":"gangster tom","steam_id":76561198031675881,"connected_time":1217000000000,"state":"active","ping":46},{"user_id":394,"name":"ATL1 | LuckyZero-_-","steam_id":76561198139891051,"connected_time":939000000000,"state":"active","ping":91},{"user_id":405,"name":"DO NOT call me BART SIMPSON!!","steam_id":76561198069113375,"connected_time":577000000000,"state":"active","ping":71},{"user_id":363,"name":"Borfie","steam_id":76561198118600664,"connected_time":2441000000000,"state":"active","ping":80},{"user_id":383,"name":"Uncle Meat","steam_id":76561198012534850,"connected_time":1110000000000,"state":"active","ping":69},{"user_id":413,"name":"evilstuntman","steam_id":76561198056911537,"connected_time":106000000000,"state":"active","ping":54},{"user_id":370,"name":"Geight","steam_id":76561197991645292,"connected_time":1662000000000,"state":"active","ping":119},{"user_id":406,"name":"xenolith","steam_id":76561198041496496,"connected_time":574000000000,"state":"active","ping":71},{"user_id":296,"name":"[DATS➡] Sugar Meowth","steam_id":76561197995251793,"connected_time":6410000000000,"state":"active","ping":95},{"user_id":407,"name":"Pancetta's vore window","steam_id":76561198428086758,"connected_time":570000000000,"state":"active","ping":81},{"user_id":388,"name":"Nepp0","steam_id":76561198086966948,"connected_time":1034000000000,"state":"active","ping":170},{"user_id":347,"name":"META.exe","steam_id":76561199067098696,"connected_time":3333000000000,"state":"active","ping":82},{"user_id":410,"name":"shibaba bababool","steam_id":76561197972601902,"connected_time":467000000000,"state":"active","ping":82},{"user_id":360,"name":"CPUnit","steam_id":76561198162881878,"connected_time":2710000000000,"state":"active","ping":74},{"user_id":414,"name":"egg","steam_id":76561199042198086,"connected_time":106000000000,"state":"active","ping":73},{"user_id":330,"name":"Oomitch","steam_id":76561198071702759,"connected_time":4249000000000,"state":"active","ping":97},{"user_id":415,"name":"Spooky Wizard","steam_id":76561198052573339,"connected_time":42000000000,"state":"active","ping":93},{"user_id":397,"name":"Bzamo","steam_id":76561198039883392,"connected_time":829000000000,"state":"active","ping":66}]},{"server_id":403,"name":"Uncletopia | Chicago | 4 | All Maps","name_short":"chi-4","host":"chi-1.us.uncletopia.com","port":27045,"enabled":true,"region":"us-central","cc":"us","latitude":41.881832,"longitude":-87.62318,"reserved":0,"last_update":"0001-01-01T00:00:00Z","name_a2s":"Uncletopia | Chicago | 4 | All Maps","protocol":17,"map":"cp_dustbowl","folder":"tf","game":"Team Fortress","app_id":440,"player_count":24,"max_players":24,"Bots":0,"server_type":"Dedicated","server_os":"Linux","password":true,"vac":true,"version":"7757534","steam_id":85568392924515193,"keywords":["cp","nocrits","nodmgspread","uncletopia"],"game_id":440,"stv_port":27046,"stv_name":"Uncletopia | Chicago | 4 | All Maps | STV","players":[{"user_id":211,"name":"UNBROKENTOYZ (JUDAS PRIEST)","steam_id":76561198004232395,"connected_time":224000000000,"state":"active","ping":79},{"user_id":133,"name":"motorized bar of soap","steam_id":76561198882404753,"connected_time":5600000000000,"state":"active","ping":79},{"user_id":200,"name":"aimee","steam_id":76561198834309212,"connected_time":471000000000,"state":"active","ping":70},{"user_id":204,"name":"mr.edderkopper","steam_id":76561198152614478,"connected_time":410000000000,"state":"active","ping":51},{"user_id":205,"name":"WhackyOrc","steam_id":76561199470020355,"connected_time":406000000000,"state":"active","ping":85},{"user_id":210,"name":"chrisd149","steam_id":76561198018710480,"connected_time":303000000000,"state":"active","ping":88},{"user_id":199,"name":"Zabiii","steam_id":76561198168263517,"connected_time":494000000000,"state":"active","ping":106},{"user_id":212,"name":"yeayea","steam_id":76561198118498882,"connected_time":213000000000,"state":"active","ping":62},{"user_id":181,"name":"ough","steam_id":76561198183977731,"connected_time":2651000000000,"state":"active","ping":49},{"user_id":180,"name":"Marth","steam_id":76561198079462516,"connected_time":2672000000000,"state":"active","ping":103},{"user_id":136,"name":"Monsterjessy","steam_id":76561198035630985,"connected_time":5583000000000,"state":"active","ping":61},{"user_id":193,"name":"Dr.KombatPhD.ttv","steam_id":76561198263847667,"connected_time":1827000000000,"state":"active","ping":66},{"user_id":176,"name":"Local Boy Kisser","steam_id":76561199063329349,"connected_time":2999000000000,"state":"active","ping":159},{"user_id":189,"name":"NobodyTheWorst","steam_id":76561198044497547,"connected_time":2410000000000,"state":"active","ping":73},{"user_id":194,"name":"ඞ","steam_id":76561198275101482,"connected_time":1804000000000,"state":"active","ping":138},{"user_id":213,"name":"Rodrick Knee","steam_id":76561198283021062,"connected_time":212000000000,"state":"active","ping":84},{"user_id":195,"name":"merge without looking","steam_id":76561198056702628,"connected_time":1695000000000,"state":"active","ping":62},{"user_id":214,"name":"jaede_","steam_id":76561198108376150,"connected_time":177000000000,"state":"active","ping":189},{"user_id":191,"name":"Rx Auntie","steam_id":76561198051618393,"connected_time":2385000000000,"state":"active","ping":72},{"user_id":169,"name":"Hunter","steam_id":76561198333521287,"connected_time":3523000000000,"state":"active","ping":126},{"user_id":208,"name":"ZofoJackson","steam_id":76561197998366861,"connected_time":365000000000,"state":"active","ping":57},{"user_id":215,"name":"Mr.Momo","steam_id":76561199013406551,"connected_time":176000000000,"state":"active","ping":113},{"user_id":216,"name":"Dog Deodorant","steam_id":76561199225832228,"connected_time":174000000000,"state":"active","ping":103},{"user_id":145,"name":"The Lonely Croc","steam_id":76561198123241396,"connected_time":5363000000000,"state":"active","ping":88}]},{"server_id":36,"name":"Uncletopia | Chicago | 5 | All Maps","name_short":"chi-5","host":"chi-2.us.uncletopia.com","port":27015,"enabled":true,"region":"us-central","cc":"us","latitude":41.881832,"longitude":-87.62318,"reserved":0,"last_update":"0001-01-01T00:00:00Z","name_a2s":"Uncletopia | Chicago | 5 | All Maps","protocol":17,"map":"pl_borneo","folder":"tf","game":"Team Fortress","app_id":440,"player_count":24,"max_players":24,"Bots":0,"server_type":"Dedicated","server_os":"Linux","password":true,"vac":true,"version":"7757534","steam_id":85568392924866362,"keywords":["nocrits","nodmgspread","payload","uncletopia"],"game_id":440,"stv_port":27016,"stv_name":"Uncletopia | Chicago | 5 | All Maps | STV","players":[{"user_id":545,"name":"Soundproof","steam_id":76561198133392504,"connected_time":2126000000000,"state":"active","ping":54},{"user_id":589,"name":"Dispenser (Twan)","steam_id":76561197991064908,"connected_time":52000000000,"state":"active","ping":60},{"user_id":546,"name":"Seething Swine","steam_id":76561198079147566,"connected_time":2087000000000,"state":"active","ping":76},{"user_id":575,"name":"❤♡･ﾟBubbles･ﾟ♡❤","steam_id":76561198041057042,"connected_time":1075000000000,"state":"active","ping":65},{"user_id":548,"name":"Spy-Be-Gone","steam_id":76561198412786186,"connected_time":2064000000000,"state":"active","ping":82},{"user_id":584,"name":"Windex","steam_id":76561198105561395,"connected_time":368000000000,"state":"active","ping":81},{"user_id":585,"name":"macironi and chesse","steam_id":76561199098060805,"connected_time":331000000000,"state":"active","ping":64},{"user_id":570,"name":"FitzyBear","steam_id":76561198409189585,"connected_time":1195000000000,"state":"active","ping":66},{"user_id":462,"name":"Shaper Loks","steam_id":76561198207958144,"connected_time":8754000000000,"state":"active","ping":71},{"user_id":571,"name":"Pidgeon Milk","steam_id":76561198028617381,"connected_time":1174000000000,"state":"active","ping":88},{"user_id":572,"name":"CumPieQueen(800x1.21=968)","steam_id":76561198062284145,"connected_time":1171000000000,"state":"active","ping":88},{"user_id":588,"name":"SomeRandomMail","steam_id":76561199002913110,"connected_time":256000000000,"state":"active","ping":101},{"user_id":573,"name":"gromit","steam_id":76561198037746805,"connected_time":1167000000000,"state":"active","ping":74},{"user_id":555,"name":"Lore","steam_id":76561198098407538,"connected_time":1913000000000,"state":"active","ping":56},{"user_id":574,"name":"Mitchacho74","steam_id":76561198087986935,"connected_time":1139000000000,"state":"active","ping":62},{"user_id":536,"name":"Inspector Gadget (Real)","steam_id":76561198986836562,"connected_time":3346000000000,"state":"active","ping":81},{"user_id":556,"name":"ApertureCity","steam_id":76561198004153607,"connected_time":1907000000000,"state":"active","ping":83},{"user_id":579,"name":"inventor1214","steam_id":76561198062317696,"connected_time":1051000000000,"state":"active","ping":140},{"user_id":557,"name":"Dauntless Duelist","steam_id":76561198025056018,"connected_time":1892000000000,"state":"active","ping":102},{"user_id":576,"name":"keffers","steam_id":76561198202338796,"connected_time":1072000000000,"state":"active","ping":75},{"user_id":577,"name":"bash -lc ./asshat.sh","steam_id":76561198004584315,"connected_time":1070000000000,"state":"active","ping":70},{"user_id":560,"name":"Inspector Gadget","steam_id":76561198241249114,"connected_time":1720000000000,"state":"active","ping":76},{"user_id":587,"name":"Queen Frau the Round","steam_id":76561197999942134,"connected_time":274000000000,"state":"active","ping":50},{"user_id":581,"name":"ShitsandGiggles™","steam_id":76561198058708019,"connected_time":797000000000,"state":"active","ping":57}]},{"server_id":37,"name":"Uncletopia | Chicago | 6 | All Maps","name_short":"chi-6","host":"chi-2.us.uncletopia.com","port":27025,"enabled":true,"region":"us-central","cc":"us","latitude":41.881832,"longitude":-87.62318,"reserved":0,"last_update":"0001-01-01T00:00:00Z","name_a2s":"Uncletopia | Chicago | 6 | All Maps","protocol":17,"map":"cp_snakewater_final1","folder":"tf","game":"Team Fortress","app_id":440,"player_count":15,"max_players":24,"Bots":0,"server_type":"Dedicated","server_os":"Linux","password":true,"vac":true,"version":"7757534","steam_id":85568392924866363,"keywords":["cp","nocrits","nodmgspread","uncletopia"],"game_id":440,"stv_port":27026,"stv_name":"Uncletopia | Chicago | 6 | All Maps | STV","players":[{"user_id":129,"name":"THESHITRIPPER","steam_id":76561198063099828,"connected_time":3169000000000,"state":"active","ping":48},{"user_id":150,"name":"[S]Mr. X [No Monitor]","steam_id":76561197963746035,"connected_time":2160000000000,"state":"active","ping":96},{"user_id":144,"name":"Wang of Wall St","steam_id":76561198047460598,"connected_time":2507000000000,"state":"active","ping":76},{"user_id":133,"name":"D9","steam_id":76561197999151357,"connected_time":2939000000000,"state":"active","ping":74},{"user_id":41,"name":"The Professor","steam_id":76561198113760863,"connected_time":8151000000000,"state":"active","ping":61},{"user_id":170,"name":"Nodin","steam_id":76561198135757376,"connected_time":294000000000,"state":"active","ping":56},{"user_id":135,"name":"「HERO Bell」","steam_id":76561198081253723,"connected_time":2729000000000,"state":"active","ping":95},{"user_id":130,"name":"d-_-b","steam_id":76561198120725877,"connected_time":3128000000000,"state":"active","ping":45},{"user_id":127,"name":"SoWhich","steam_id":76561198237125842,"connected_time":3274000000000,"state":"active","ping":57},{"user_id":173,"name":"ToughGuy311","steam_id":76561198131458027,"connected_time":197000000000,"state":"active","ping":64},{"user_id":81,"name":"Sir Galahad","steam_id":76561198195999859,"connected_time":5735000000000,"state":"active","ping":99},{"user_id":112,"name":"toastman","steam_id":76561198207073088,"connected_time":3841000000000,"state":"active","ping":73},{"user_id":110,"name":"Huntokar the Destroyer","steam_id":76561198158851614,"connected_time":3897000000000,"state":"active","ping":67},{"user_id":151,"name":"scarecrow (evil)","steam_id":76561198082979347,"connected_time":1768000000000,"state":"active","ping":50},{"user_id":140,"name":"DIOsaurs","steam_id":76561198257407391,"connected_time":2620000000000,"state":"active","ping":82}]},{"server_id":38,"name":"Uncletopia | Chicago | 7 | Stopwatch Beta","name_short":"chi-7","host":"chi-2.us.uncletopia.com","port":27035,"enabled":true,"region":"us-central","cc":"us","latitude":41.881832,"longitude":-87.62318,"reserved":0,"last_update":"0001-01-01T00:00:00Z","name_a2s":"Uncletopia | Chicago | 7 | Stopwatch Beta","protocol":17,"map":"workshop/koth_ramjam_rc1.ugc459778887","folder":"tf","game":"Team Fortress","app_id":440,"player_count":0,"max_players":24,"Bots":0,"server_type":"Dedicated","server_os":"Linux","password":true,"vac":true,"version":"7757534","steam_id":85568392924866364,"keywords":["cp","nocrits","nodmgspread","uncletopia"],"game_id":440,"stv_port":27036,"stv_name":"Uncletopia | Chicago | 7 | Stopwatch Beta | STV","players":null},{"server_id":39,"name":"Uncletopia | Chicago | 8 | Community","name_short":"chi-8","host":"chi-2.us.uncletopia.com","port":27045,"enabled":true,"region":"us-central","cc":"us","latitude":41.881832,"longitude":-87.62318,"reserved":0,"last_update":"0001-01-01T00:00:00Z","name_a2s":"Uncletopia | Chicago | 8 | Community","protocol":17,"map":"workshop/koth_trenchfoot_b1a.ugc731436616","folder":"tf","game":"Team Fortress","app_id":440,"player_count":2,"max_players":24,"Bots":0,"server_type":"Dedicated","server_os":"Linux","password":true,"vac":true,"version":"7757534","steam_id":85568392924866365,"keywords":["cp","nocrits","nodmgspread","uncletopia"],"game_id":440,"stv_port":27046,"stv_name":"Uncletopia | Chicago | 8 | Community | STV","players":[{"user_id":88,"name":"StarryKosmic","steam_id":76561198041330642,"connected_time":1333000000000,"state":"active","ping":107},{"user_id":89,"name":"The Samurai","steam_id":76561198412525293,"connected_time":537000000000,"state":"active","ping":88}]},{"server_id":8,"name":"Uncletopia | Dallas | 1 | All Maps","name_short":"dal-1","host":"dal-1.us.uncletopia.com","port":27015,"enabled":true,"region":"us-central","cc":"us","latitude":32.779167,"longitude":-96.80889,"reserved":0,"last_update":"0001-01-01T00:00:00Z","name_a2s":"Uncletopia | Dallas | 1 | All Maps","protocol":17,"map":"pl_frontier_final","folder":"tf","game":"Team Fortress","app_id":440,"player_count":24,"max_players":24,"Bots":0,"server_type":"Dedicated","server_os":"Linux","password":true,"vac":true,"version":"7757534","steam_id":85568392924469986,"keywords":["nocrits","nodmgspread","payload","uncletopia"],"game_id":440,"stv_port":27016,"stv_name":"Uncletopia | Dallas | 1 | All Maps | STV","players":[{"user_id":817,"name":"GLG.Liz","steam_id":76561198021957956,"connected_time":1662000000000,"state":"active","ping":53},{"user_id":816,"name":"Diable Blanc","steam_id":76561198090102186,"connected_time":1818000000000,"state":"active","ping":67},{"user_id":825,"name":"Ketamine Ape","steam_id":76561198143132686,"connected_time":718000000000,"state":"active","ping":76},{"user_id":808,"name":"the fella","steam_id":76561198967158026,"connected_time":2273000000000,"state":"active","ping":72},{"user_id":801,"name":"Ballista","steam_id":76561197983182562,"connected_time":2469000000000,"state":"active","ping":55},{"user_id":818,"name":"GLG MUTT","steam_id":76561198147785541,"connected_time":1640000000000,"state":"active","ping":60},{"user_id":748,"name":"The Robot Menace","steam_id":76561198043390413,"connected_time":7610000000000,"state":"active","ping":56},{"user_id":794,"name":"M249 | Spectre","steam_id":76561198118334485,"connected_time":4131000000000,"state":"active","ping":100},{"user_id":753,"name":"Mitty","steam_id":76561198014177684,"connected_time":7389000000000,"state":"active","ping":90},{"user_id":754,"name":"Local Talent","steam_id":76561199053290637,"connected_time":7379000000000,"state":"active","ping":92},{"user_id":829,"name":"deadpixel","steam_id":76561198150249843,"connected_time":475000000000,"state":"active","ping":71},{"user_id":791,"name":"Moonflower ✦","steam_id":76561198191782483,"connected_time":4167000000000,"state":"active","ping":56},{"user_id":830,"name":"Phil Collins","steam_id":76561198068868644,"connected_time":469000000000,"state":"active","ping":83},{"user_id":802,"name":"iluvtoust","steam_id":76561198869269207,"connected_time":2452000000000,"state":"active","ping":47},{"user_id":831,"name":"vvichael","steam_id":76561198238148528,"connected_time":468000000000,"state":"active","ping":88},{"user_id":815,"name":"BrightOrangeMango","steam_id":76561198023144607,"connected_time":1979000000000,"state":"active","ping":79},{"user_id":827,"name":"Kamikazedoctor","steam_id":76561198157078818,"connected_time":596000000000,"state":"active","ping":92},{"user_id":821,"name":"Accursed","steam_id":76561198082217768,"connected_time":1322000000000,"state":"active","ping":74},{"user_id":828,"name":"M.L.JEW","steam_id":76561198997375055,"connected_time":501000000000,"state":"active","ping":82},{"user_id":785,"name":"「Jimbo Reference」","steam_id":76561198016078541,"connected_time":4759000000000,"state":"active","ping":87},{"user_id":832,"name":"A/funny/dream","steam_id":76561198354481597,"connected_time":465000000000,"state":"active","ping":99},{"user_id":806,"name":"eBay","steam_id":76561198061214569,"connected_time":2288000000000,"state":"active","ping":85},{"user_id":833,"name":"Fresh","steam_id":76561199006338675,"connected_time":463000000000,"state":"active","ping":76},{"user_id":812,"name":"Red","steam_id":76561198031865869,"connected_time":2204000000000,"state":"active","ping":60}]},{"server_id":108,"name":"Uncletopia | Dallas | 2 | All Maps","name_short":"dal-2","host":"dal-1.us.uncletopia.com","port":27025,"enabled":true,"region":"us-central","cc":"us","latitude":32.779167,"longitude":-96.80889,"reserved":0,"last_update":"0001-01-01T00:00:00Z","name_a2s":"Uncletopia | Dallas | 2 | All Maps","protocol":17,"map":"pl_barnblitz","folder":"tf","game":"Team Fortress","app_id":440,"player_count":13,"max_players":24,"Bots":0,"server_type":"Dedicated","server_os":"Linux","password":true,"vac":true,"version":"7757534","steam_id":85568392924469988,"keywords":["nocrits","nodmgspread","payload","uncletopia"],"game_id":440,"stv_port":27026,"stv_name":"Uncletopia | Dallas | 2 | All Maps | STV","players":[{"user_id":533,"name":"iceman","steam_id":76561198135397441,"connected_time":5736000000000,"state":"spawning","ping":167},{"user_id":594,"name":"jandajanda","steam_id":76561198235722476,"connected_time":975000000000,"state":"spawning","ping":139},{"user_id":524,"name":"Cofi","steam_id":76561199026721822,"connected_time":6237000000000,"state":"spawning","ping":225},{"user_id":583,"name":"FG7","steam_id":76561198381197197,"connected_time":2337000000000,"state":"spawning","ping":199},{"user_id":593,"name":"thecal","steam_id":76561198307893384,"connected_time":1158000000000,"state":"spawning","ping":149},{"user_id":567,"name":"MeMyBongusAndTheGreatOutdoors","steam_id":76561198097708978,"connected_time":3033000000000,"state":"spawning","ping":198},{"user_id":596,"name":"bad at video games","steam_id":76561198328675913,"connected_time":262000000000,"state":"spawning","ping":116},{"user_id":586,"name":"WildMan","steam_id":76561199134394923,"connected_time":2116000000000,"state":"spawning","ping":142},{"user_id":579,"name":"CredibleFish","steam_id":76561199163102616,"connected_time":2421000000000,"state":"spawning","ping":141},{"user_id":582,"name":"carrion goat she/it","steam_id":76561198262064871,"connected_time":2358000000000,"state":"spawning","ping":164},{"user_id":554,"name":"Brisk","steam_id":76561198129769783,"connected_time":4403000000000,"state":"spawning","ping":151},{"user_id":546,"name":"orange rind (eating bagels)","steam_id":76561198130242461,"connected_time":5019000000000,"state":"spawning","ping":74},{"user_id":565,"name":"totally not a pile of beans","steam_id":76561198119851931,"connected_time":3216000000000,"state":"spawning","ping":130}]},{"server_id":5,"name":"Uncletopia | Frankfurt | 1 | All Maps","name_short":"frk-1","host":"frk-1.de.uncletopia.com","port":27015,"enabled":true,"region":"eu","cc":"de","latitude":50.110924,"longitude":8.682127,"reserved":0,"last_update":"0001-01-01T00:00:00Z","name_a2s":"Uncletopia | Frankfurt | 1 | All Maps","protocol":17,"map":"pl_frontier_final","folder":"tf","game":"Team Fortress","app_id":440,"player_count":0,"max_players":24,"Bots":0,"server_type":"Dedicated","server_os":"Linux","password":true,"vac":true,"version":"7757534","steam_id":85568392924469989,"keywords":["nocrits","nodmgspread","payload","uncletopia"],"game_id":440,"stv_port":27016,"stv_name":"Uncletopia | Frankfurt | 1 | All Maps | STV","players":null},{"server_id":110,"name":"Uncletopia | Frankfurt | 2 | All Maps","name_short":"frk-2","host":"frk-1.de.uncletopia.com","port":27025,"enabled":true,"region":"eu","cc":"de","latitude":50.110924,"longitude":8.682127,"reserved":0,"last_update":"0001-01-01T00:00:00Z","name_a2s":"Uncletopia | Frankfurt | 2 | All Maps","protocol":17,"map":"koth_highpass","folder":"tf","game":"Team Fortress","app_id":440,"player_count":0,"max_players":24,"Bots":0,"server_type":"Dedicated","server_os":"Linux","password":true,"vac":true,"version":"7757534","steam_id":85568392924469990,"keywords":["cp","nocrits","nodmgspread","uncletopia"],"game_id":440,"stv_port":27026,"stv_name":"Uncletopia | Frankfurt | 2 | All Maps | STV","players":null},{"server_id":308,"name":"Uncletopia | Frankfurt | 3 | All Maps","name_short":"frk-3","host":"frk-1.de.uncletopia.com","port":27035,"enabled":true,"region":"eu","cc":"de","latitude":50.110924,"longitude":8.682127,"reserved":0,"last_update":"0001-01-01T00:00:00Z","name_a2s":"Uncletopia | Frankfurt | 3 | All Maps","protocol":17,"map":"pl_snowycoast","folder":"tf","game":"Team Fortress","app_id":440,"player_count":0,"max_players":24,"Bots":0,"server_type":"Dedicated","server_os":"Linux","password":true,"vac":true,"version":"7757534","steam_id":85568392924504274,"keywords":["nocrits","nodmgspread","payload","uncletopia"],"game_id":440,"stv_port":27036,"stv_name":"Uncletopia | Frankfurt | 3 | All Maps | STV","players":null},{"server_id":309,"name":"Uncletopia | Frankfurt | 4 | All Maps","name_short":"frk-4","host":"frk-1.de.uncletopia.com","port":27045,"enabled":true,"region":"eu","cc":"de","latitude":50.110924,"longitude":8.682127,"reserved":0,"last_update":"0001-01-01T00:00:00Z","name_a2s":"Uncletopia | Frankfurt | 4 | All Maps","protocol":17,"map":"koth_lakeside_final","folder":"tf","game":"Team Fortress","app_id":440,"player_count":0,"max_players":24,"Bots":0,"server_type":"Dedicated","server_os":"Linux","password":true,"vac":true,"version":"7757534","steam_id":85568392924504275,"keywords":["cp","nocrits","nodmgspread","uncletopia"],"game_id":440,"stv_port":27046,"stv_name":"Uncletopia | Frankfurt | 4 | All Maps | STV","players":null},{"server_id":310,"name":"Uncletopia | Frankfurt | 5 | All Maps","name_short":"frk-5","host":"frk-1.de.uncletopia.com","port":27055,"enabled":true,"region":"eu","cc":"de","latitude":50.110924,"longitude":8.682127,"reserved":0,"last_update":"0001-01-01T00:00:00Z","name_a2s":"Uncletopia | Frankfurt | 5 | All Maps","protocol":17,"map":"koth_highpass","folder":"tf","game":"Team Fortress","app_id":440,"player_count":0,"max_players":24,"Bots":0,"server_type":"Dedicated","server_os":"Linux","password":true,"vac":true,"version":"7757534","steam_id":85568392924504277,"keywords":["cp","nocrits","nodmgspread","uncletopia"],"game_id":440,"stv_port":27056,"stv_name":"Uncletopia | Frankfurt | 5 | All Maps | STV","players":null},{"server_id":311,"name":"Uncletopia | Frankfurt | 6 | All Maps","name_short":"frk-6","host":"frk-1.de.uncletopia.com","port":27065,"enabled":true,"region":"eu","cc":"de","latitude":50.110924,"longitude":8.682127,"reserved":0,"last_update":"0001-01-01T00:00:00Z","name_a2s":"Uncletopia | Frankfurt | 6 | All Maps","protocol":17,"map":"koth_cascade","folder":"tf","game":"Team Fortress","app_id":440,"player_count":0,"max_players":24,"Bots":0,"server_type":"Dedicated","server_os":"Linux","password":true,"vac":true,"version":"7757534","steam_id":85568392924504278,"keywords":["cp","nocrits","nodmgspread","uncletopia"],"game_id":440,"stv_port":27066,"stv_name":"Uncletopia | Frankfurt | 6 | All Maps | STV","players":null},{"server_id":23,"name":"Uncletopia | Frankfurt | 7 | Stopwatch Beta","name_short":"frk-7","host":"frk-1.de.uncletopia.com","port":27075,"enabled":true,"region":"eu","cc":"de","latitude":50.110924,"longitude":8.682127,"reserved":0,"last_update":"0001-01-01T00:00:00Z","name_a2s":"Uncletopia | Frankfurt | 7 | Stopwatch Beta","protocol":17,"map":"workshop/koth_bagel_rc5.ugc2514036946","folder":"tf","game":"Team Fortress","app_id":440,"player_count":0,"max_players":24,"Bots":0,"server_type":"Dedicated","server_os":"Linux","password":true,"vac":true,"version":"7757534","steam_id":85568392924742827,"keywords":["cp","nocrits","nodmgspread","uncletopia"],"game_id":440,"stv_port":27076,"stv_name":"Uncletopia | Frankfurt | 7 | Stopwatch Beta | STV","players":null},{"server_id":24,"name":"Uncletopia | Frankfurt | 8 | Community","name_short":"frk-8","host":"frk-1.de.uncletopia.com","port":27085,"enabled":true,"region":"eu","cc":"de","latitude":50.110924,"longitude":8.682127,"reserved":0,"last_update":"0001-01-01T00:00:00Z","name_a2s":"Uncletopia | Frankfurt | 8 | Community","protocol":17,"map":"workshop/koth_trenchfoot_b1a.ugc731436616","folder":"tf","game":"Team Fortress","app_id":440,"player_count":0,"max_players":24,"Bots":0,"server_type":"Dedicated","server_os":"Linux","password":true,"vac":true,"version":"7757534","steam_id":85568392924742828,"keywords":["cp","nocrits","nodmgspread","uncletopia"],"game_id":440,"stv_port":27086,"stv_name":"Uncletopia | Frankfurt | 8 | Community | STV","players":null},{"server_id":202,"name":"Uncletopia | Hong Kong | 1 | All Maps","name_short":"hgk-1","host":"hgk-1.hk.uncletopia.com","port":27015,"enabled":true,"region":"asia","cc":"hk","latitude":22.302711,"longitude":114.177216,"reserved":0,"last_update":"0001-01-01T00:00:00Z","name_a2s":"Uncletopia | Hong Kong | 1 | All Maps","protocol":17,"map":"koth_highpass","folder":"tf","game":"Team Fortress","app_id":440,"player_count":6,"max_players":24,"Bots":0,"server_type":"Dedicated","server_os":"Linux","password":true,"vac":true,"version":"7757534","steam_id":85568392924494504,"keywords":["cp","nocrits","nodmgspread","uncletopia"],"game_id":440,"stv_port":27016,"stv_name":"Uncletopia | Hong Kong | 1 | All Maps | STV","players":[{"user_id":12,"name":"Epileptic Abuse is bad for you","steam_id":76561199221871877,"connected_time":1332000000000,"state":"active","ping":47},{"user_id":13,"name":"Ice Crack, Dude","steam_id":76561199445694770,"connected_time":1295000000000,"state":"active","ping":128},{"user_id":15,"name":"8illY","steam_id":76561198143092870,"connected_time":1102000000000,"state":"active","ping":44},{"user_id":16,"name":"Dank Duck","steam_id":76561198357231697,"connected_time":734000000000,"state":"active","ping":70},{"user_id":17,"name":"truth\u003c3","steam_id":76561199446240749,"connected_time":592000000000,"state":"active","ping":90},{"user_id":18,"name":"Crazy Dave","steam_id":76561198362063768,"connected_time":401000000000,"state":"active","ping":46}]},{"server_id":1,"name":"Uncletopia | Los Angeles | 1 | All Maps","name_short":"lax-1","host":"lax-1.us.uncletopia.com","port":27015,"enabled":true,"region":"us-west","cc":"us","latitude":33.94279,"longitude":-118.41004,"reserved":0,"last_update":"0001-01-01T00:00:00Z","name_a2s":"Uncletopia | Los Angeles | 1 | All Maps","protocol":17,"map":"pl_upward","folder":"tf","game":"Team Fortress","app_id":440,"player_count":24,"max_players":24,"Bots":0,"server_type":"Dedicated","server_os":"Linux","password":true,"vac":true,"version":"7757534","steam_id":85568392924469991,"keywords":["nocrits","nodmgspread","payload","uncletopia"],"game_id":440,"stv_port":27016,"stv_name":"Uncletopia | Los Angeles | 1 | All Maps | STV","players":[{"user_id":425,"name":"thepopeofshame","steam_id":76561199047823974,"connected_time":1556000000000,"state":"active","ping":46},{"user_id":431,"name":"Aeroz","steam_id":76561198375953756,"connected_time":259000000000,"state":"active","ping":93},{"user_id":433,"name":"srmoore 103","steam_id":76561198300291415,"connected_time":251000000000,"state":"active","ping":78},{"user_id":429,"name":"McSpazatron","steam_id":76561198955942148,"connected_time":319000000000,"state":"active","ping":118},{"user_id":430,"name":"Perididdle","steam_id":76561198056864606,"connected_time":316000000000,"state":"active","ping":76},{"user_id":321,"name":"Adorable Cat","steam_id":76561198165453127,"connected_time":8038000000000,"state":"active","ping":112},{"user_id":416,"name":"Jax O'Gaytor","steam_id":76561198288922168,"connected_time":2085000000000,"state":"active","ping":69},{"user_id":387,"name":"skippy_dinglechalk","steam_id":76561199191128582,"connected_time":3752000000000,"state":"active","ping":43},{"user_id":435,"name":"lukamine","steam_id":76561198166827208,"connected_time":243000000000,"state":"active","ping":80},{"user_id":437,"name":"Yarema","steam_id":76561198067161181,"connected_time":224000000000,"state":"active","ping":115},{"user_id":436,"name":"Hunter","steam_id":76561198050617754,"connected_time":240000000000,"state":"active","ping":58},{"user_id":383,"name":"VicLoL","steam_id":76561198045580784,"connected_time":4237000000000,"state":"active","ping":41},{"user_id":427,"name":"Enforcer Enthusiast","steam_id":76561199124102271,"connected_time":961000000000,"state":"active","ping":71},{"user_id":419,"name":"Hernandez$","steam_id":76561198019324588,"connected_time":1968000000000,"state":"active","ping":52},{"user_id":415,"name":"walrooos","steam_id":76561198024521839,"connected_time":2184000000000,"state":"active","ping":42},{"user_id":404,"name":"Altruisticailuridae","steam_id":76561198335295596,"connected_time":3032000000000,"state":"active","ping":55},{"user_id":392,"name":"spot","steam_id":76561198151135298,"connected_time":3460000000000,"state":"active","ping":41},{"user_id":441,"name":"Matella","steam_id":76561198097427947,"connected_time":73000000000,"state":"active","ping":90},{"user_id":438,"name":"K4le","steam_id":76561198747668363,"connected_time":208000000000,"state":"active","ping":60},{"user_id":440,"name":"lker","steam_id":76561197976975075,"connected_time":114000000000,"state":"active","ping":89},{"user_id":391,"name":"cream team","steam_id":76561198139043953,"connected_time":3537000000000,"state":"active","ping":84},{"user_id":378,"name":"Chrisscar","steam_id":76561198086298130,"connected_time":4981000000000,"state":"active","ping":48},{"user_id":417,"name":"Pyrotek⁴","steam_id":76561198072747672,"connected_time":2072000000000,"state":"active","ping":40},{"user_id":423,"name":"Red Angry Bird","steam_id":76561198204896231,"connected_time":1780000000000,"state":"active","ping":60}]},{"server_id":112,"name":"Uncletopia | Los Angeles | 2 | All Maps","name_short":"lax-2","host":"lax-1.us.uncletopia.com","port":27025,"enabled":true,"region":"us-west","cc":"us","latitude":33.94279,"longitude":-118.41004,"reserved":0,"last_update":"0001-01-01T00:00:00Z","name_a2s":"Uncletopia | Los Angeles | 2 | All Maps","protocol":17,"map":"koth_cascade","folder":"tf","game":"Team Fortress","app_id":440,"player_count":0,"max_players":24,"Bots":0,"server_type":"Dedicated","server_os":"Linux","password":true,"vac":true,"version":"7757534","steam_id":85568392924469992,"keywords":["cp","nocrits","nodmgspread","uncletopia"],"game_id":440,"stv_port":27026,"stv_name":"Uncletopia | Los Angeles | 2 | All Maps | STV","players":null},{"server_id":324,"name":"Uncletopia | Los Angeles | 3 | All Maps","name_short":"lax-3","host":"lax-1.us.uncletopia.com","port":27035,"enabled":true,"region":"us-west","cc":"us","latitude":33.94279,"longitude":-118.41004,"reserved":0,"last_update":"0001-01-01T00:00:00Z","name_a2s":"Uncletopia | Los Angeles | 3 | All Maps","protocol":17,"map":"pl_frontier_final","folder":"tf","game":"Team Fortress","app_id":440,"player_count":13,"max_players":24,"Bots":0,"server_type":"Dedicated","server_os":"Linux","password":true,"vac":true,"version":"7757534","steam_id":85568392924510198,"keywords":["nocrits","nodmgspread","payload","uncletopia"],"game_id":440,"stv_port":27036,"stv_name":"Uncletopia | Los Angeles | 3 | All Maps | STV","players":[{"user_id":16,"name":"Spanksy","steam_id":76561198078565006,"connected_time":873000000000,"state":"active","ping":102},{"user_id":17,"name":"Byze_G","steam_id":76561198216588343,"connected_time":836000000000,"state":"active","ping":253},{"user_id":18,"name":"Gmacn","steam_id":76561198081008296,"connected_time":496000000000,"state":"active","ping":81},{"user_id":29,"name":"Loki❤ |She/her|","steam_id":76561198280150602,"connected_time":110000000000,"state":"active","ping":86},{"user_id":20,"name":"johnman gooberguy","steam_id":76561199014859764,"connected_time":475000000000,"state":"active","ping":70},{"user_id":21,"name":"thecrimsonaxe","steam_id":76561198299855623,"connected_time":449000000000,"state":"active","ping":112},{"user_id":26,"name":"Cinnamon","steam_id":76561198801251513,"connected_time":154000000000,"state":"spawning","ping":115},{"user_id":27,"name":"Ozone-flavored Starburst","steam_id":76561199163688421,"connected_time":144000000000,"state":"active","ping":96},{"user_id":24,"name":"Taberone","steam_id":76561198032653574,"connected_time":308000000000,"state":"active","ping":60},{"user_id":28,"name":"That \"Spud\" Guy","steam_id":76561197997444126,"connected_time":138000000000,"state":"active","ping":83},{"user_id":31,"name":"Frenchfry_Addict","steam_id":76561199156867989,"connected_time":84000000000,"state":"active","ping":87},{"user_id":32,"name":"Coffee","steam_id":76561198154646418,"connected_time":16000000000,"state":"active","ping":79},{"user_id":33,"name":"kk","steam_id":76561198891915736,"connected_time":14000000000,"state":"active","ping":46}]},{"server_id":25,"name":"Uncletopia | Los Angeles | 4 | Stopwatch Beta","name_short":"lax-4","host":"lax-1.us.uncletopia.com","port":27045,"enabled":true,"region":"us-west","cc":"us","latitude":33.94279,"longitude":-118.41004,"reserved":0,"last_update":"0001-01-01T00:00:00Z","name_a2s":"Uncletopia | Los Angeles | 4 | Stopwatch Beta","protocol":17,"map":"workshop/koth_ashville_final.ugc2130459942","folder":"tf","game":"Team Fortress","app_id":440,"player_count":0,"max_players":24,"Bots":0,"server_type":"Dedicated","server_os":"Linux","password":true,"vac":true,"version":"7757534","steam_id":85568392924510199,"keywords":["cp","nocrits","nodmgspread","uncletopia"],"game_id":440,"stv_port":27046,"stv_name":"Uncletopia | Los Angeles | 4 | Stopwatch Beta | STV","players":null},{"server_id":11,"name":"Uncletopia | London | 1 | All Maps","name_short":"lon-1","host":"lon-1.uk.uncletopia.com","port":27015,"enabled":true,"region":"eu","cc":"gb","latitude":51.509865,"longitude":-0.118092,"reserved":0,"last_update":"0001-01-01T00:00:00Z","name_a2s":"Uncletopia | London | 1 | All Maps","protocol":17,"map":"koth_lakeside_final","folder":"tf","game":"Team Fortress","app_id":440,"player_count":0,"max_players":24,"Bots":0,"server_type":"Dedicated","server_os":"Linux","password":true,"vac":true,"version":"7757534","steam_id":85568392924367362,"keywords":["cp","nocrits","nodmgspread","uncletopia"],"game_id":440,"stv_port":27016,"stv_name":"Uncletopia | London | 1 | All Maps | STV","players":null},{"server_id":114,"name":"Uncletopia | London | 2 | All Maps","name_short":"lon-2","host":"lon-1.uk.uncletopia.com","port":27025,"enabled":true,"region":"eu","cc":"gb","latitude":51.509865,"longitude":-0.118092,"reserved":0,"last_update":"0001-01-01T00:00:00Z","name_a2s":"Uncletopia | London | 2 | All Maps","protocol":17,"map":"pl_swiftwater_final1","folder":"tf","game":"Team Fortress","app_id":440,"player_count":7,"max_players":24,"Bots":0,"server_type":"Dedicated","server_os":"Linux","password":true,"vac":true,"version":"7757534","steam_id":85568392924470941,"keywords":["nocrits","nodmgspread","payload","uncletopia"],"game_id":440,"stv_port":27026,"stv_name":"Uncletopia | London | 2 | All Maps | STV","players":[{"user_id":885,"name":"Pixie","steam_id":76561198044038797,"connected_time":5559000000000,"state":"spawning","ping":83},{"user_id":919,"name":"occams chainsaw","steam_id":76561199171415434,"connected_time":1411000000000,"state":"spawning","ping":224},{"user_id":920,"name":"Rarejuicebox TV","steam_id":76561198401036613,"connected_time":1353000000000,"state":"spawning","ping":231},{"user_id":922,"name":"Mr. Dick™","steam_id":76561198047309044,"connected_time":872000000000,"state":"spawning","ping":157},{"user_id":923,"name":"Kratos","steam_id":76561198861518596,"connected_time":200000000000,"state":"spawning","ping":172},{"user_id":914,"name":"Thalgorock","steam_id":76561198195315022,"connected_time":1966000000000,"state":"spawning","ping":83},{"user_id":915,"name":"desu!","steam_id":76561198052878585,"connected_time":1922000000000,"state":"spawning","ping":151}]},{"server_id":320,"name":"Uncletopia | London | 3 | All Maps","name_short":"lon-3","host":"lon-1.uk.uncletopia.com","port":27035,"enabled":true,"region":"eu","cc":"gb","latitude":51.509865,"longitude":-0.118092,"reserved":0,"last_update":"0001-01-01T00:00:00Z","name_a2s":"Uncletopia | London | 3 | All Maps","protocol":17,"map":"koth_cascade","folder":"tf","game":"Team Fortress","app_id":440,"player_count":0,"max_players":24,"Bots":0,"server_type":"Dedicated","server_os":"Linux","password":true,"vac":true,"version":"7757534","steam_id":85568392924510192,"keywords":["cp","nocrits","nodmgspread","uncletopia"],"game_id":440,"stv_port":27036,"stv_name":"Uncletopia | London | 3 | All Maps | STV","players":null},{"server_id":321,"name":"Uncletopia | London | 4 | All Maps","name_short":"lon-4","host":"lon-1.uk.uncletopia.com","port":27045,"enabled":true,"region":"eu","cc":"gb","latitude":51.509865,"longitude":-0.118092,"reserved":0,"last_update":"0001-01-01T00:00:00Z","name_a2s":"Uncletopia | London | 4 | All Maps","protocol":17,"map":"cp_process_final","folder":"tf","game":"Team Fortress","app_id":440,"player_count":0,"max_players":24,"Bots":0,"server_type":"Dedicated","server_os":"Linux","password":true,"vac":true,"version":"7757534","steam_id":85568392924510193,"keywords":["cp","nocrits","nodmgspread","uncletopia"],"game_id":440,"stv_port":27046,"stv_name":"Uncletopia | London | 4 | All Maps | STV","players":null},{"server_id":21,"name":"Uncletopia | London | 5 | All Maps","name_short":"lon-5","host":"lon-1.uk.uncletopia.com","port":27055,"enabled":true,"region":"eu","cc":"gb","latitude":51.509865,"longitude":-0.118092,"reserved":0,"last_update":"0001-01-01T00:00:00Z","name_a2s":"Uncletopia | London | 5 | All Maps","protocol":17,"map":"cp_dustbowl","folder":"tf","game":"Team Fortress","app_id":440,"player_count":19,"max_players":24,"Bots":0,"server_type":"Dedicated","server_os":"Linux","password":true,"vac":true,"version":"7757534","steam_id":85568392924742829,"keywords":["cp","nocrits","nodmgspread","uncletopia"],"game_id":440,"stv_port":27056,"stv_name":"Uncletopia | London | 5 | All Maps | STV","players":[{"user_id":516,"name":"Arkainiel Silver","steam_id":76561198188302519,"connected_time":89000000000,"state":"active","ping":59},{"user_id":424,"name":"C11H15NO2","steam_id":76561198066146016,"connected_time":7609000000000,"state":"active","ping":47},{"user_id":473,"name":"Johnny Cockroach","steam_id":76561198049648277,"connected_time":4482000000000,"state":"active","ping":102},{"user_id":482,"name":"acuifex","steam_id":76561198106266513,"connected_time":2740000000000,"state":"active","ping":76},{"user_id":477,"name":"Jag är ett anka","steam_id":76561198059978438,"connected_time":3739000000000,"state":"active","ping":53},{"user_id":460,"name":"budo ツ","steam_id":76561199064189789,"connected_time":6205000000000,"state":"active","ping":45},{"user_id":483,"name":"dx_xb","steam_id":76561198064878900,"connected_time":2613000000000,"state":"active","ping":60},{"user_id":444,"name":"Steen","steam_id":76561198122992510,"connected_time":7079000000000,"state":"active","ping":45},{"user_id":496,"name":"NozAr","steam_id":76561198313286576,"connected_time":1713000000000,"state":"active","ping":200},{"user_id":490,"name":"Skendes","steam_id":76561198397186252,"connected_time":2237000000000,"state":"active","ping":108},{"user_id":451,"name":"Michał","steam_id":76561198320346362,"connected_time":6766000000000,"state":"active","ping":60},{"user_id":497,"name":"turbo_gremlin","steam_id":76561198073476937,"connected_time":1701000000000,"state":"active","ping":49},{"user_id":411,"name":"Rave Robber","steam_id":76561199414716848,"connected_time":9004000000000,"state":"active","ping":65},{"user_id":499,"name":"Foefke","steam_id":76561198015106833,"connected_time":1681000000000,"state":"active","ping":65},{"user_id":508,"name":"Bilbo Ballbaggins","steam_id":76561198070593514,"connected_time":1265000000000,"state":"active","ping":44},{"user_id":500,"name":"nine_pence","steam_id":76561198009457700,"connected_time":1650000000000,"state":"active","ping":54},{"user_id":501,"name":"Bibibobototogogo","steam_id":76561198060606476,"connected_time":1624000000000,"state":"active","ping":89},{"user_id":441,"name":"sir.gecko777","steam_id":76561198851934469,"connected_time":7171000000000,"state":"active","ping":156},{"user_id":480,"name":"uhmazn","steam_id":76561198014204225,"connected_time":2887000000000,"state":"active","ping":46}]},{"server_id":22,"name":"Uncletopia | London | 6 | All Maps","name_short":"lon-6","host":"lon-1.uk.uncletopia.com","port":27065,"enabled":true,"region":"eu","cc":"gb","latitude":51.509865,"longitude":-0.118092,"reserved":0,"last_update":"0001-01-01T00:00:00Z","name_a2s":"Uncletopia | London | 6 | All Maps","protocol":17,"map":"pl_barnblitz","folder":"tf","game":"Team Fortress","app_id":440,"player_count":0,"max_players":24,"Bots":0,"server_type":"Dedicated","server_os":"Linux","password":true,"vac":true,"version":"7757534","steam_id":85568392924742830,"keywords":["nocrits","nodmgspread","payload","uncletopia"],"game_id":440,"stv_port":27066,"stv_name":"Uncletopia | London | 6 | All Maps | STV","players":null},{"server_id":40,"name":"Uncletopia | London | 7 | No Payload","name_short":"lon-7","host":"lon-1.uk.uncletopia.com","port":27075,"enabled":true,"region":"eu","cc":"gb","latitude":51.509865,"longitude":-0.118092,"reserved":0,"last_update":"0001-01-01T00:00:00Z","name_a2s":"Uncletopia | London | 7 | No Payload","protocol":17,"map":"koth_badlands","folder":"tf","game":"Team Fortress","app_id":440,"player_count":0,"max_players":24,"Bots":0,"server_type":"Dedicated","server_os":"Linux","password":true,"vac":true,"version":"7757534","steam_id":85568392924964314,"keywords":["cp","nocrits","nodmgspread","uncletopia"],"game_id":440,"stv_port":27076,"stv_name":"Uncletopia | London | 7 | No Payload | STV","players":null},{"server_id":41,"name":"Uncletopia | London | 8 | Community","name_short":"lon-8","host":"lon-1.uk.uncletopia.com","port":27085,"enabled":true,"region":"eu","cc":"gb","latitude":51.509865,"longitude":-0.118092,"reserved":0,"last_update":"0001-01-01T00:00:00Z","name_a2s":"Uncletopia | London | 8 | Community","protocol":17,"map":"workshop/cp_hazyfort_rc6.ugc1365963729","folder":"tf","game":"Team Fortress","app_id":440,"player_count":0,"max_players":24,"Bots":0,"server_type":"Dedicated","server_os":"Linux","password":true,"vac":true,"version":"7757534","steam_id":85568392924964315,"keywords":["cp","nocrits","nodmgspread","uncletopia"],"game_id":440,"stv_port":27086,"stv_name":"Uncletopia | London | 8 | Community | STV","players":null},{"server_id":300,"name":"Uncletopia | Montréal | 1 | All Maps","name_short":"mtl-1","host":"mtl-1.ca.uncletopia.com","port":27015,"enabled":true,"region":"us-east","cc":"ca","latitude":45.50889,"longitude":-73.56167,"reserved":0,"last_update":"0001-01-01T00:00:00Z","name_a2s":"Uncletopia | Montréal | 1 | All Maps","protocol":17,"map":"pl_frontier_final","folder":"tf","game":"Team Fortress","app_id":440,"player_count":24,"max_players":24,"Bots":0,"server_type":"Dedicated","server_os":"Linux","password":true,"vac":true,"version":"7757534","steam_id":85568392924500087,"keywords":["nocrits","nodmgspread","payload","uncletopia"],"game_id":440,"stv_port":27016,"stv_name":"Uncletopia | Montréal | 1 | All Maps | STV","players":[{"user_id":129,"name":"Canpake","steam_id":76561198106446161,"connected_time":4618000000000,"state":"active","ping":46},{"user_id":130,"name":"CheddarBowl","steam_id":76561198840224195,"connected_time":4610000000000,"state":"active","ping":70},{"user_id":171,"name":"raisedbybirds","steam_id":76561198131531646,"connected_time":390000000000,"state":"active","ping":71},{"user_id":131,"name":"John the Rebel","steam_id":76561198107084871,"connected_time":4609000000000,"state":"active","ping":63},{"user_id":144,"name":"Flat Eric","steam_id":76561198114922735,"connected_time":3331000000000,"state":"active","ping":58},{"user_id":162,"name":"GAUGUIN","steam_id":76561198246193520,"connected_time":1673000000000,"state":"active","ping":44},{"user_id":170,"name":"Vinchâu","steam_id":76561198169289662,"connected_time":595000000000,"state":"active","ping":75},{"user_id":174,"name":"ramrod","steam_id":76561197972297003,"connected_time":3000000000,"state":"spawning","ping":59},{"user_id":172,"name":"lfty","steam_id":76561198283841707,"connected_time":189000000000,"state":"active","ping":74},{"user_id":161,"name":"Scout","steam_id":76561198167417587,"connected_time":2048000000000,"state":"active","ping":104},{"user_id":118,"name":"mocolata","steam_id":76561198023757872,"connected_time":6000000000000,"state":"active","ping":40},{"user_id":133,"name":"DiscoTraveler","steam_id":76561199240168088,"connected_time":4415000000000,"state":"active","ping":55},{"user_id":159,"name":"Kymat","steam_id":76561198056367793,"connected_time":2303000000000,"state":"active","ping":101},{"user_id":139,"name":"The strongest ⑨ ball","steam_id":76561198126760743,"connected_time":3506000000000,"state":"active","ping":93},{"user_id":109,"name":"Iridescity","steam_id":76561198081446822,"connected_time":6985000000000,"state":"active","ping":66},{"user_id":160,"name":"Your Local Queer Librarian","steam_id":76561198013077080,"connected_time":2274000000000,"state":"active","ping":51},{"user_id":116,"name":"Piyono","steam_id":76561197962188504,"connected_time":6313000000000,"state":"active","ping":70},{"user_id":155,"name":"kayef - american (unreleased)","steam_id":76561198126547107,"connected_time":2662000000000,"state":"active","ping":85},{"user_id":156,"name":"Zyrbaiakor","steam_id":76561198141521671,"connected_time":2655000000000,"state":"active","ping":70},{"user_id":164,"name":"Lowkey Lopes","steam_id":76561198003181343,"connected_time":1623000000000,"state":"active","ping":45},{"user_id":76,"name":"xXBigWingmanFanXx","steam_id":76561198067904392,"connected_time":9937000000000,"state":"active","ping":48},{"user_id":143,"name":"Marisuh","steam_id":76561198843890616,"connected_time":3358000000000,"state":"active","ping":84},{"user_id":173,"name":"the bulldozer","steam_id":76561198800334545,"connected_time":158000000000,"state":"active","ping":119},{"user_id":135,"name":"Impulse","steam_id":76561198296123434,"connected_time":3680000000000,"state":"active","ping":82}]},{"server_id":301,"name":"Uncletopia | Montréal | 2 | All Maps","name_short":"mtl-2","host":"mtl-1.ca.uncletopia.com","port":27025,"enabled":true,"region":"us-east","cc":"ca","latitude":45.50889,"longitude":-73.56167,"reserved":0,"last_update":"0001-01-01T00:00:00Z","name_a2s":"Uncletopia | Montréal | 2 | All Maps","protocol":17,"map":"pl_pier","folder":"tf","game":"Team Fortress","app_id":440,"player_count":24,"max_players":24,"Bots":0,"server_type":"Dedicated","server_os":"Linux","password":true,"vac":true,"version":"7757534","steam_id":85568392924500088,"keywords":["nocrits","nodmgspread","payload","uncletopia"],"game_id":440,"stv_port":27026,"stv_name":"Uncletopia | Montréal | 2 | All Maps | STV","players":[{"user_id":7,"name":"Munchyjr","steam_id":76561198041498014,"connected_time":2391000000000,"state":"active","ping":58},{"user_id":8,"name":"mud drater","steam_id":76561198018680492,"connected_time":2372000000000,"state":"active","ping":62},{"user_id":9,"name":"CheddarCake","steam_id":76561198061993725,"connected_time":2366000000000,"state":"active","ping":57},{"user_id":10,"name":"Futo","steam_id":76561198023185653,"connected_time":2312000000000,"state":"active","ping":68},{"user_id":11,"name":"John “Charmer” Rodriguez","steam_id":76561198024374954,"connected_time":2221000000000,"state":"active","ping":61},{"user_id":12,"name":"Yams","steam_id":76561198068084541,"connected_time":2190000000000,"state":"active","ping":91},{"user_id":13,"name":"Naramon","steam_id":76561198025645021,"connected_time":2177000000000,"state":"active","ping":114},{"user_id":15,"name":"Willy","steam_id":76561198046508940,"connected_time":1656000000000,"state":"active","ping":56},{"user_id":16,"name":"Mr. Kitty Saves The World","steam_id":76561198070607596,"connected_time":1629000000000,"state":"active","ping":69},{"user_id":39,"name":"MR.meeseeks","steam_id":76561198294943420,"connected_time":1044000000000,"state":"active","ping":80},{"user_id":38,"name":"Strangelove","steam_id":76561198353773611,"connected_time":1079000000000,"state":"active","ping":82},{"user_id":41,"name":"[DEEP] Roz257","steam_id":76561198842844532,"connected_time":968000000000,"state":"active","ping":60},{"user_id":42,"name":"Sir Richard Rose","steam_id":76561198121528858,"connected_time":67000000000,"state":"active","ping":93},{"user_id":22,"name":"(◔) Neville","steam_id":76561198025637970,"connected_time":1464000000000,"state":"active","ping":77},{"user_id":23,"name":"sagekiss","steam_id":76561198038831240,"connected_time":1453000000000,"state":"active","ping":132},{"user_id":24,"name":"satch","steam_id":76561198285645501,"connected_time":1429000000000,"state":"active","ping":55},{"user_id":26,"name":"Marcato","steam_id":76561198084666165,"connected_time":1422000000000,"state":"active","ping":106},{"user_id":27,"name":"Frerduro","steam_id":76561198072430460,"connected_time":1381000000000,"state":"active","ping":61},{"user_id":28,"name":"Wso1123","steam_id":76561198048040111,"connected_time":1359000000000,"state":"active","ping":105},{"user_id":30,"name":"MonkeyBaloo","steam_id":76561198225080416,"connected_time":1343000000000,"state":"active","ping":129},{"user_id":31,"name":"exx","steam_id":76561198041421969,"connected_time":1340000000000,"state":"active","ping":117},{"user_id":32,"name":"Theodore Roosevelt","steam_id":76561197993295656,"connected_time":1336000000000,"state":"active","ping":63},{"user_id":34,"name":"Nerve","steam_id":76561198045253246,"connected_time":1308000000000,"state":"active","ping":48},{"user_id":35,"name":"Synga","steam_id":76561198056831007,"connected_time":1306000000000,"state":"active","ping":123}]},{"server_id":302,"name":"Uncletopia | Montréal | 3 | All Maps","name_short":"mtl-3","host":"mtl-1.ca.uncletopia.com","port":27035,"enabled":true,"region":"us-east","cc":"ca","latitude":45.50889,"longitude":-73.56167,"reserved":0,"last_update":"0001-01-01T00:00:00Z","name_a2s":"Uncletopia | Montréal | 3 | All Maps","protocol":17,"map":"cp_dustbowl","folder":"tf","game":"Team Fortress","app_id":440,"player_count":0,"max_players":24,"Bots":0,"server_type":"Dedicated","server_os":"Linux","password":true,"vac":true,"version":"7757534","steam_id":85568392924500089,"keywords":["cp","nocrits","nodmgspread","uncletopia"],"game_id":440,"stv_port":27036,"stv_name":"Uncletopia | Montréal | 3 | All Maps | STV","players":null},{"server_id":303,"name":"Uncletopia | Montréal | 4 | No Payload","name_short":"mtl-4","host":"mtl-1.ca.uncletopia.com","port":27045,"enabled":true,"region":"us-east","cc":"ca","latitude":45.50889,"longitude":-73.56167,"reserved":0,"last_update":"0001-01-01T00:00:00Z","name_a2s":"Uncletopia | Montréal | 4 | No Payload","protocol":17,"map":"pl_borneo","folder":"tf","game":"Team Fortress","app_id":440,"player_count":0,"max_players":24,"Bots":0,"server_type":"Dedicated","server_os":"Linux","password":true,"vac":true,"version":"7757534","steam_id":85568392924500090,"keywords":["nocrits","nodmgspread","payload","uncletopia"],"game_id":440,"stv_port":27046,"stv_name":"Uncletopia | Montréal | 4 | No Payload | STV","players":null},{"server_id":13,"name":"Uncletopia | New York City | 1 | All Maps","name_short":"nyc-1","host":"nyc-1.us.uncletopia.com","port":27015,"enabled":true,"region":"us-east","cc":"us","latitude":40.73061,"longitude":-73.93524,"reserved":0,"last_update":"0001-01-01T00:00:00Z","name_a2s":"Uncletopia | New York City | 1 | All Maps","protocol":17,"map":"cp_process_final","folder":"tf","game":"Team Fortress","app_id":440,"player_count":22,"max_players":24,"Bots":0,"server_type":"Dedicated","server_os":"Linux","password":true,"vac":true,"version":"7757534","steam_id":85568392924469993,"keywords":["cp","nocrits","nodmgspread","uncletopia"],"game_id":440,"stv_port":27016,"stv_name":"Uncletopia | New York City | 1 | All Maps | STV","players":[{"user_id":442,"name":"Militant Pacifist","steam_id":76561198290691432,"connected_time":82000000000,"state":"active","ping":110},{"user_id":382,"name":"PinkLemonade","steam_id":76561198799286228,"connected_time":4624000000000,"state":"active","ping":50},{"user_id":416,"name":"Samrizo el Chorizo","steam_id":76561198009838162,"connected_time":2152000000000,"state":"active","ping":48},{"user_id":443,"name":"MarioSamuel","steam_id":76561198440660546,"connected_time":70000000000,"state":"active","ping":64},{"user_id":411,"name":"Frajer","steam_id":76561198059129680,"connected_time":2310000000000,"state":"active","ping":63},{"user_id":438,"name":"Kurt Biscuitmaker","steam_id":76561198331701823,"connected_time":313000000000,"state":"active","ping":58},{"user_id":426,"name":"bladee","steam_id":76561198209795841,"connected_time":1069000000000,"state":"active","ping":59},{"user_id":424,"name":"dansal","steam_id":76561197997042510,"connected_time":1472000000000,"state":"active","ping":102},{"user_id":417,"name":"Speedy","steam_id":76561198080761661,"connected_time":2149000000000,"state":"active","ping":60},{"user_id":433,"name":"Jojo","steam_id":76561198864691307,"connected_time":579000000000,"state":"active","ping":68},{"user_id":432,"name":"BLU1 | Shame","steam_id":76561198100490994,"connected_time":595000000000,"state":"active","ping":75},{"user_id":371,"name":"Silvercoat's Stargazer","steam_id":76561198399525329,"connected_time":5241000000000,"state":"active","ping":67},{"user_id":434,"name":"Ike Yard","steam_id":76561197998954523,"connected_time":513000000000,"state":"active","ping":85},{"user_id":394,"name":"ExoTheFlyingFish","steam_id":76561198034388243,"connected_time":3899000000000,"state":"active","ping":43},{"user_id":430,"name":"Fridge","steam_id":76561198158336035,"connected_time":663000000000,"state":"active","ping":62},{"user_id":420,"name":"Horrizan","steam_id":76561197965028480,"connected_time":1949000000000,"state":"active","ping":91},{"user_id":431,"name":"e0e0","steam_id":76561198293839750,"connected_time":611000000000,"state":"active","ping":56},{"user_id":399,"name":"sam!!! :)","steam_id":76561198217362968,"connected_time":3214000000000,"state":"active","ping":67},{"user_id":435,"name":"Lil Fuwa Fuw","steam_id":76561198136878117,"connected_time":510000000000,"state":"active","ping":80},{"user_id":425,"name":"Glad","steam_id":76561199388372220,"connected_time":1076000000000,"state":"active","ping":55},{"user_id":389,"name":"Hydroxianchaos","steam_id":76561198043786828,"connected_time":4217000000000,"state":"active","ping":67},{"user_id":428,"name":"SpinetinglingToast","steam_id":76561198099470670,"connected_time":1048000000000,"state":"active","ping":55}]},{"server_id":14,"name":"Uncletopia | New York City | 2 | All Maps","name_short":"nyc-2","host":"nyc-1.us.uncletopia.com","port":27025,"enabled":true,"region":"us-east","cc":"us","latitude":40.73061,"longitude":-73.93524,"reserved":0,"last_update":"0001-01-01T00:00:00Z","name_a2s":"Uncletopia | New York City | 2 | All Maps","protocol":17,"map":"pl_badwater","folder":"tf","game":"Team Fortress","app_id":440,"player_count":24,"max_players":24,"Bots":0,"server_type":"Dedicated","server_os":"Linux","password":true,"vac":true,"version":"7757534","steam_id":85568392924469994,"keywords":["nocrits","nodmgspread","payload","uncletopia"],"game_id":440,"stv_port":27026,"stv_name":"Uncletopia | New York City | 2 | All Maps | STV","players":[{"user_id":247,"name":"AriGattari","steam_id":76561198439364813,"connected_time":506000000000,"state":"active","ping":101},{"user_id":210,"name":"Heropon","steam_id":76561198105224481,"connected_time":4261000000000,"state":"active","ping":64},{"user_id":249,"name":"dog23","steam_id":76561198202018494,"connected_time":446000000000,"state":"active","ping":110},{"user_id":224,"name":"Rylee","steam_id":76561198069735013,"connected_time":3025000000000,"state":"active","ping":42},{"user_id":225,"name":"ndvr","steam_id":76561199379200102,"connected_time":3013000000000,"state":"active","ping":52},{"user_id":191,"name":"wounded_edge","steam_id":76561198817214270,"connected_time":5870000000000,"state":"active","ping":58},{"user_id":228,"name":"cellogamer","steam_id":76561198016937098,"connected_time":2596000000000,"state":"active","ping":55},{"user_id":205,"name":"SQUiSHY","steam_id":76561198095713618,"connected_time":4423000000000,"state":"active","ping":86},{"user_id":250,"name":"Tofumanking","steam_id":76561198090485118,"connected_time":434000000000,"state":"active","ping":83},{"user_id":251,"name":"Lucille II","steam_id":76561198138543746,"connected_time":431000000000,"state":"active","ping":66},{"user_id":252,"name":"hamburbur","steam_id":76561198128198748,"connected_time":427000000000,"state":"active","ping":87},{"user_id":268,"name":"LORD MC CHUBS","steam_id":76561199396661854,"connected_time":18000000000,"state":"active","ping":129},{"user_id":254,"name":"\u003cDET\u003e Zetsyuk","steam_id":76561197979474818,"connected_time":421000000000,"state":"active","ping":86},{"user_id":255,"name":"Aurora","steam_id":76561198271981179,"connected_time":353000000000,"state":"active","ping":75},{"user_id":264,"name":"yelloow","steam_id":76561198106295041,"connected_time":88000000000,"state":"active","ping":137},{"user_id":261,"name":"Swifgz","steam_id":76561198162875756,"connected_time":229000000000,"state":"active","ping":46},{"user_id":245,"name":"weedcat","steam_id":76561198346054736,"connected_time":1160000000000,"state":"active","ping":68},{"user_id":203,"name":"chunkert","steam_id":76561198292044850,"connected_time":4679000000000,"state":"active","ping":79},{"user_id":266,"name":"MrLeftTurn","steam_id":76561198856743969,"connected_time":69000000000,"state":"active","ping":144},{"user_id":259,"name":"Toonice","steam_id":76561198402994885,"connected_time":284000000000,"state":"active","ping":58},{"user_id":267,"name":"SapphireSundew [Lotus]","steam_id":76561198040904890,"connected_time":58000000000,"state":"active","ping":81},{"user_id":238,"name":"I ate those food","steam_id":76561198084614149,"connected_time":2028000000000,"state":"active","ping":43},{"user_id":223,"name":"engihere","steam_id":76561198311704368,"connected_time":3340000000000,"state":"active","ping":65}]},{"server_id":15,"name":"Uncletopia | New York City | 3 | Stopwatch Beta","name_short":"nyc-3","host":"nyc-1.us.uncletopia.com","port":27035,"enabled":true,"region":"us-east","cc":"us","latitude":40.73061,"longitude":-73.93524,"reserved":0,"last_update":"0001-01-01T00:00:00Z","name_a2s":"Uncletopia | New York City | 3 | Stopwatch Beta","protocol":17,"map":"pl_swiftwater_final1","folder":"tf","game":"Team Fortress","app_id":440,"player_count":0,"max_players":24,"Bots":0,"server_type":"Dedicated","server_os":"Linux","password":true,"vac":true,"version":"7757534","steam_id":85568392924742820,"keywords":["nocrits","nodmgspread","payload","uncletopia"],"game_id":440,"stv_port":27036,"stv_name":"Uncletopia | New York City | 3 | Stopwatch Beta | STV","players":null},{"server_id":16,"name":"Uncletopia | New York City | 4 | Community","name_short":"nyc-4","host":"nyc-1.us.uncletopia.com","port":27045,"enabled":true,"region":"us-east","cc":"us","latitude":40.73061,"longitude":-73.93524,"reserved":0,"last_update":"0001-01-01T00:00:00Z","name_a2s":"Uncletopia | New York City | 4 | Community","protocol":17,"map":"workshop/cp_glacier_rc6.ugc2905735376","folder":"tf","game":"Team Fortress","app_id":440,"player_count":18,"max_players":24,"Bots":0,"server_type":"Dedicated","server_os":"Linux","password":true,"vac":true,"version":"7757534","steam_id":85568392924742821,"keywords":["cp","nocrits","nodmgspread","uncletopia"],"game_id":440,"stv_port":27046,"stv_name":"Uncletopia | New York City | 4 | Community | STV","players":[{"user_id":141,"name":"Zoawsome","steam_id":76561198018758753,"connected_time":2300000000000,"state":"active","ping":69},{"user_id":180,"name":"Karma's Camera","steam_id":76561198059385185,"connected_time":272000000000,"state":"active","ping":65},{"user_id":117,"name":"Nightfall","steam_id":76561198169718867,"connected_time":4389000000000,"state":"active","ping":112},{"user_id":181,"name":"tani","steam_id":76561198137381904,"connected_time":164000000000,"state":"active","ping":131},{"user_id":22,"name":"Yayifications","steam_id":76561198066227208,"connected_time":9786000000000,"state":"active","ping":45},{"user_id":143,"name":"Evan","steam_id":76561198081165364,"connected_time":2091000000000,"state":"active","ping":60},{"user_id":162,"name":"Larry from Pokemon SV","steam_id":76561198095245223,"connected_time":1118000000000,"state":"active","ping":47},{"user_id":172,"name":"Dr.Long","steam_id":76561198930316713,"connected_time":636000000000,"state":"active","ping":87},{"user_id":165,"name":"SmΩke","steam_id":76561197963784838,"connected_time":950000000000,"state":"active","ping":63},{"user_id":163,"name":"PLATYPUS","steam_id":76561198255796625,"connected_time":1100000000000,"state":"active","ping":135},{"user_id":171,"name":"EmeraldCola","steam_id":76561198066663687,"connected_time":701000000000,"state":"active","ping":54},{"user_id":139,"name":"Super D Duper","steam_id":76561198078203677,"connected_time":2458000000000,"state":"active","ping":50},{"user_id":136,"name":"Hunto","steam_id":76561198328052562,"connected_time":2724000000000,"state":"active","ping":96},{"user_id":164,"name":"Jade Jetts [She/They]","steam_id":76561198206130076,"connected_time":1071000000000,"state":"active","ping":115},{"user_id":123,"name":"tooth","steam_id":76561197986437643,"connected_time":4231000000000,"state":"active","ping":54},{"user_id":115,"name":"supa heavy","steam_id":76561198005769466,"connected_time":4792000000000,"state":"active","ping":114},{"user_id":173,"name":"Drake the Pixel","steam_id":76561198131824401,"connected_time":636000000000,"state":"active","ping":38}]},{"server_id":142,"name":"Uncletopia | São Paulo | 1 | All Maps","name_short":"sao-1","host":"sao-1.br.uncletopia.com","port":27015,"enabled":true,"region":"sa","cc":"br","latitude":-23.533773,"longitude":-46.62529,"reserved":0,"last_update":"0001-01-01T00:00:00Z","name_a2s":"Uncletopia | São Paulo | 1 | All Maps","protocol":17,"map":"pl_barnblitz","folder":"tf","game":"Team Fortress","app_id":440,"player_count":0,"max_players":24,"Bots":0,"server_type":"Dedicated","server_os":"Linux","password":true,"vac":true,"version":"7757534","steam_id":85568392924469996,"keywords":["nocrits","nodmgspread","payload","uncletopia"],"game_id":440,"stv_port":27016,"stv_name":"Uncletopia | São Paulo | 1 | All Maps | STV","players":null},{"server_id":143,"name":"Uncletopia | São Paulo | 2 | All Maps","name_short":"sao-2","host":"sao-2.br.uncletopia.com","port":27015,"enabled":true,"region":"sa","cc":"br","latitude":-23.533773,"longitude":-46.62529,"reserved":0,"last_update":"0001-01-01T00:00:00Z","name_a2s":"Uncletopia | São Paulo | 2 | All Maps","protocol":17,"map":"koth_viaduct","folder":"tf","game":"Team Fortress","app_id":440,"player_count":0,"max_players":24,"Bots":0,"server_type":"Dedicated","server_os":"Linux","password":true,"vac":true,"version":"7757534","steam_id":85568392924485349,"keywords":["cp","nocrits","nodmgspread","uncletopia"],"game_id":440,"stv_port":27016,"stv_name":"Uncletopia | São Paulo | 2 | All Maps | STV","players":null},{"server_id":7,"name":"Uncletopia | Seattle | 1 | All Maps","name_short":"sea-1","host":"sea-1.us.uncletopia.com","port":27015,"enabled":true,"region":"us-west","cc":"us","latitude":47.608013,"longitude":-122.33517,"reserved":0,"last_update":"0001-01-01T00:00:00Z","name_a2s":"Uncletopia | Seattle | 1 | All Maps","protocol":17,"map":"koth_sawmill","folder":"tf","game":"Team Fortress","app_id":440,"player_count":24,"max_players":24,"Bots":0,"server_type":"Dedicated","server_os":"Linux","password":true,"vac":true,"version":"7757534","steam_id":85568392924469997,"keywords":["cp","nocrits","nodmgspread","uncletopia"],"game_id":440,"stv_port":27016,"stv_name":"Uncletopia | Seattle | 1 | All Maps | STV","players":[{"user_id":251,"name":"phoenix!","steam_id":76561198221567392,"connected_time":117000000000,"state":"active","ping":44},{"user_id":250,"name":"Pizzalover_2014","steam_id":76561198870649125,"connected_time":126000000000,"state":"active","ping":79},{"user_id":199,"name":"Username","steam_id":76561198855586261,"connected_time":5735000000000,"state":"active","ping":67},{"user_id":229,"name":"ＳＬＶＴＣＨＡＭＰ","steam_id":76561198883157736,"connected_time":3090000000000,"state":"active","ping":62},{"user_id":240,"name":"Mignyanne :3","steam_id":76561198048754056,"connected_time":1518000000000,"state":"active","ping":66},{"user_id":245,"name":"[TrC] Nosy","steam_id":76561197978859310,"connected_time":148000000000,"state":"active","ping":59},{"user_id":253,"name":"Eric Cartman","steam_id":76561198850898505,"connected_time":111000000000,"state":"active","ping":46},{"user_id":230,"name":"Archimedes!","steam_id":76561199446023933,"connected_time":2929000000000,"state":"active","ping":86},{"user_id":241,"name":"jungus","steam_id":76561198129862008,"connected_time":1409000000000,"state":"active","ping":75},{"user_id":219,"name":"Nebula she/her","steam_id":76561198094306627,"connected_time":4260000000000,"state":"active","ping":77},{"user_id":231,"name":"TROY","steam_id":76561197983852176,"connected_time":2929000000000,"state":"active","ping":83},{"user_id":198,"name":"Mrcheesey","steam_id":76561199078252493,"connected_time":5887000000000,"state":"active","ping":49},{"user_id":216,"name":"Daz","steam_id":76561198041431938,"connected_time":4842000000000,"state":"active","ping":123},{"user_id":232,"name":"An old sandwich on the floor!","steam_id":76561198108791583,"connected_time":2924000000000,"state":"active","ping":47},{"user_id":196,"name":"〣dust〣 -she/her-","steam_id":76561198045218909,"connected_time":6051000000000,"state":"active","ping":42},{"user_id":209,"name":"ChefMike","steam_id":76561198414034069,"connected_time":5344000000000,"state":"active","ping":118},{"user_id":244,"name":"[TrC] Dackstrus","steam_id":76561197973518509,"connected_time":160000000000,"state":"active","ping":62},{"user_id":254,"name":"Asolator0","steam_id":76561198095809798,"connected_time":72000000000,"state":"active","ping":51},{"user_id":203,"name":"rat gets the cheese","steam_id":76561198031234032,"connected_time":5600000000000,"state":"active","ping":100},{"user_id":243,"name":"lavender","steam_id":76561199069518286,"connected_time":833000000000,"state":"active","ping":75},{"user_id":238,"name":"Zlavus","steam_id":76561198217652861,"connected_time":1610000000000,"state":"active","ping":57},{"user_id":201,"name":"God","steam_id":76561198148447846,"connected_time":5624000000000,"state":"active","ping":73},{"user_id":227,"name":"Hassium","steam_id":76561198162541373,"connected_time":3747000000000,"state":"active","ping":59},{"user_id":249,"name":"Strikerbolt","steam_id":76561199095622897,"connected_time":142000000000,"state":"active","ping":123}]},{"server_id":119,"name":"Uncletopia | Seattle | 2 | All Maps","name_short":"sea-2","host":"sea-1.us.uncletopia.com","port":27025,"enabled":true,"region":"us-west","cc":"us","latitude":47.608013,"longitude":-122.33517,"reserved":0,"last_update":"0001-01-01T00:00:00Z","name_a2s":"Uncletopia | Seattle | 2 | All Maps","protocol":17,"map":"cp_steel","folder":"tf","game":"Team Fortress","app_id":440,"player_count":24,"max_players":24,"Bots":0,"server_type":"Dedicated","server_os":"Linux","password":true,"vac":true,"version":"7757534","steam_id":85568392924469998,"keywords":["cp","nocrits","nodmgspread","uncletopia"],"game_id":440,"stv_port":27026,"stv_name":"Uncletopia | Seattle | 2 | All Maps | STV","players":[{"user_id":627,"name":"Danzuniverse","steam_id":76561198179817943,"connected_time":789000000000,"state":"active","ping":55},{"user_id":568,"name":"Riyker","steam_id":76561198298645133,"connected_time":4468000000000,"state":"active","ping":89},{"user_id":518,"name":"pizzaguy4","steam_id":76561198058821622,"connected_time":7727000000000,"state":"active","ping":90},{"user_id":630,"name":"ProtogenJake","steam_id":76561198177771255,"connected_time":607000000000,"state":"active","ping":117},{"user_id":635,"name":"weegeebad","steam_id":76561198280841437,"connected_time":297000000000,"state":"active","ping":107},{"user_id":617,"name":"Blanck7","steam_id":76561198059688821,"connected_time":1506000000000,"state":"active","ping":67},{"user_id":545,"name":"Nobuunga","steam_id":76561198100614981,"connected_time":6160000000000,"state":"active","ping":60},{"user_id":596,"name":"Noodlebox","steam_id":76561197993846770,"connected_time":2879000000000,"state":"active","ping":55},{"user_id":607,"name":"autumnal.messenger","steam_id":76561199345816635,"connected_time":2232000000000,"state":"active","ping":55},{"user_id":618,"name":"mooney","steam_id":76561199110622484,"connected_time":1362000000000,"state":"active","ping":70},{"user_id":622,"name":"dougrocks421","steam_id":76561198165063918,"connected_time":1070000000000,"state":"active","ping":39},{"user_id":605,"name":"Court Wizard, Sir Dr. Clydesdal","steam_id":76561198149267697,"connected_time":2644000000000,"state":"active","ping":65},{"user_id":633,"name":"demonツ","steam_id":76561199351440240,"connected_time":331000000000,"state":"active","ping":75},{"user_id":611,"name":"swag","steam_id":76561198094615739,"connected_time":1560000000000,"state":"active","ping":80},{"user_id":572,"name":"category 4 tummy event","steam_id":76561199001307670,"connected_time":4188000000000,"state":"active","ping":57},{"user_id":589,"name":"unknown","steam_id":76561199011185438,"connected_time":3296000000000,"state":"active","ping":94},{"user_id":631,"name":"Saddam","steam_id":76561197985725267,"connected_time":355000000000,"state":"active","ping":69},{"user_id":632,"name":"smeasly","steam_id":76561198028718812,"connected_time":336000000000,"state":"active","ping":45},{"user_id":613,"name":"YuuriDaThrilla","steam_id":76561198184814466,"connected_time":1558000000000,"state":"active","ping":39},{"user_id":626,"name":"Euphoria","steam_id":76561198187168787,"connected_time":846000000000,"state":"active","ping":73},{"user_id":634,"name":"10","steam_id":76561198115269587,"connected_time":326000000000,"state":"active","ping":117},{"user_id":628,"name":"Dani","steam_id":76561198408146684,"connected_time":789000000000,"state":"active","ping":72},{"user_id":621,"name":"Metals","steam_id":76561198107793165,"connected_time":1167000000000,"state":"active","ping":75},{"user_id":625,"name":"dep","steam_id":76561198044106812,"connected_time":871000000000,"state":"active","ping":101}]},{"server_id":406,"name":"Uncletopia | Seattle | 3 | Stopwatch Beta","name_short":"sea-3","host":"sea-1.us.uncletopia.com","port":27035,"enabled":true,"region":"us-west","cc":"us","latitude":47.608013,"longitude":-122.33517,"reserved":0,"last_update":"0001-01-01T00:00:00Z","name_a2s":"Uncletopia | Seattle | 3 | Stopwatch Beta","protocol":17,"map":"workshop/pl_vigil_rc9.ugc1266210012","folder":"tf","game":"Team Fortress","app_id":440,"player_count":0,"max_players":24,"Bots":0,"server_type":"Dedicated","server_os":"Linux","password":true,"vac":true,"version":"7757534","steam_id":85568392924515217,"keywords":["nocrits","nodmgspread","payload","uncletopia"],"game_id":440,"stv_port":27036,"stv_name":"Uncletopia | Seattle | 3 | Stopwatch Beta | STV","players":null},{"server_id":17,"name":"Uncletopia | San Francisco | 1 | All Maps","name_short":"sfo-1","host":"sfo-1.us.uncletopia.com","port":27015,"enabled":true,"region":"us-west","cc":"us","latitude":37.77397,"longitude":-122.4313,"reserved":0,"last_update":"0001-01-01T00:00:00Z","name_a2s":"Uncletopia | San Francisco | 1 | All Maps","protocol":17,"map":"pl_thundermountain","folder":"tf","game":"Team Fortress","app_id":440,"player_count":24,"max_players":24,"Bots":0,"server_type":"Dedicated","server_os":"Linux","password":true,"vac":true,"version":"7757534","steam_id":85568392924469999,"keywords":["nocrits","nodmgspread","payload","uncletopia"],"game_id":440,"stv_port":27016,"stv_name":"Uncletopia | San Francisco | 1 | All Maps | STV","players":[{"user_id":372,"name":"Minus","steam_id":76561198037887887,"connected_time":3879000000000,"state":"active","ping":101},{"user_id":408,"name":"Sparrow","steam_id":76561199122118959,"connected_time":1578000000000,"state":"active","ping":46},{"user_id":374,"name":"Thorngot","steam_id":76561198398094468,"connected_time":3866000000000,"state":"active","ping":60},{"user_id":430,"name":"Eyeless Painter","steam_id":76561198044030986,"connected_time":152000000000,"state":"active","ping":75},{"user_id":289,"name":"DrStarBucksCoffee","steam_id":76561198037372470,"connected_time":9152000000000,"state":"active","ping":75},{"user_id":410,"name":"Kxd","steam_id":76561198083641548,"connected_time":1562000000000,"state":"active","ping":111},{"user_id":398,"name":"Minerkid2004","steam_id":76561198044262827,"connected_time":2120000000000,"state":"active","ping":54},{"user_id":299,"name":"Kopenich","steam_id":76561198066205245,"connected_time":8341000000000,"state":"active","ping":68},{"user_id":407,"name":"jackhillard83","steam_id":76561199057098390,"connected_time":1585000000000,"state":"active","ping":104},{"user_id":386,"name":"ihavetapeworms","steam_id":76561198357040313,"connected_time":3128000000000,"state":"active","ping":104},{"user_id":425,"name":"supcupman","steam_id":76561198051513866,"connected_time":608000000000,"state":"active","ping":62},{"user_id":381,"name":"Socialism Enjoyer","steam_id":76561197991817974,"connected_time":3264000000000,"state":"active","ping":55},{"user_id":426,"name":"JUSTICE!!!!!!!!!!!!!!!!!!!!!!!","steam_id":76561198334511480,"connected_time":404000000000,"state":"active","ping":87},{"user_id":427,"name":"chicken wit dah eggrow","steam_id":76561198115458307,"connected_time":343000000000,"state":"active","ping":60},{"user_id":363,"name":"Mina's Ninas","steam_id":76561198046502179,"connected_time":4736000000000,"state":"active","ping":68},{"user_id":431,"name":"engi","steam_id":76561199193020423,"connected_time":137000000000,"state":"active","ping":63},{"user_id":421,"name":"Ry","steam_id":76561198101364702,"connected_time":1262000000000,"state":"active","ping":73},{"user_id":432,"name":"Schmupp","steam_id":76561198150928115,"connected_time":134000000000,"state":"active","ping":53},{"user_id":413,"name":"Igrium","steam_id":76561198119549811,"connected_time":1552000000000,"state":"active","ping":47},{"user_id":422,"name":"pumba","steam_id":76561198207881077,"connected_time":1157000000000,"state":"active","ping":88},{"user_id":329,"name":"BIGWELDFROMROBOTS","steam_id":76561199275349806,"connected_time":6638000000000,"state":"active","ping":83},{"user_id":424,"name":"wallgreens pharmaceutical","steam_id":76561199006886644,"connected_time":624000000000,"state":"active","ping":55},{"user_id":393,"name":"Sakori the Peach","steam_id":76561198989787478,"connected_time":2774000000000,"state":"active","ping":92},{"user_id":417,"name":"Ryld","steam_id":76561198010174380,"connected_time":1462000000000,"state":"active","ping":75}]},{"server_id":18,"name":"Uncletopia | San Francisco | 2 | All Maps","name_short":"sfo-2","host":"sfo-1.us.uncletopia.com","port":27025,"enabled":true,"region":"us-west","cc":"us","latitude":37.77397,"longitude":-122.4313,"reserved":0,"last_update":"0001-01-01T00:00:00Z","name_a2s":"Uncletopia | San Francisco | 2 | All Maps","protocol":17,"map":"pl_badwater","folder":"tf","game":"Team Fortress","app_id":440,"player_count":24,"max_players":24,"Bots":0,"server_type":"Dedicated","server_os":"Linux","password":true,"vac":true,"version":"7757534","steam_id":85568392924470000,"keywords":["nocrits","nodmgspread","payload","uncletopia"],"game_id":440,"stv_port":27026,"stv_name":"Uncletopia | San Francisco | 2 | All Maps | STV","players":[{"user_id":204,"name":"The Epicest Gamer (Real)","steam_id":76561198993139342,"connected_time":1216000000000,"state":"active","ping":66},{"user_id":222,"name":"็็็็็","steam_id":76561198118859752,"connected_time":522000000000,"state":"active","ping":51},{"user_id":178,"name":"Flyingcat9000","steam_id":76561198179561797,"connected_time":3546000000000,"state":"active","ping":41},{"user_id":223,"name":"Aunty Frazzle","steam_id":76561198145596626,"connected_time":498000000000,"state":"active","ping":63},{"user_id":191,"name":"teh mummy","steam_id":76561198044123636,"connected_time":3095000000000,"state":"active","ping":42},{"user_id":210,"name":"Risky","steam_id":76561198231029328,"connected_time":888000000000,"state":"active","ping":42},{"user_id":111,"name":"Butthole Surfer","steam_id":76561198020526407,"connected_time":7255000000000,"state":"active","ping":79},{"user_id":112,"name":"Bimba","steam_id":76561198006883248,"connected_time":7245000000000,"state":"active","ping":91},{"user_id":212,"name":"Agent Q","steam_id":76561198830829003,"connected_time":735000000000,"state":"active","ping":77},{"user_id":180,"name":"tweet","steam_id":76561198166515735,"connected_time":3523000000000,"state":"active","ping":48},{"user_id":213,"name":"PLATNUMHANNYA","steam_id":76561198451426311,"connected_time":723000000000,"state":"active","ping":84},{"user_id":207,"name":"Mr Pissman","steam_id":76561199164566583,"connected_time":1144000000000,"state":"active","ping":71},{"user_id":227,"name":"Loashes","steam_id":76561198119608299,"connected_time":154000000000,"state":"active","ping":104},{"user_id":208,"name":"Dosario","steam_id":76561198298095535,"connected_time":1133000000000,"state":"active","ping":74},{"user_id":220,"name":"ttv.TheRealCreamSoda","steam_id":76561198301649408,"connected_time":557000000000,"state":"active","ping":84},{"user_id":225,"name":"American freedom bird","steam_id":76561198366142388,"connected_time":472000000000,"state":"active","ping":73},{"user_id":216,"name":"Choc","steam_id":76561198113878570,"connected_time":669000000000,"state":"active","ping":63},{"user_id":228,"name":"dave strider","steam_id":76561198065112186,"connected_time":147000000000,"state":"active","ping":67},{"user_id":219,"name":"stanky leg enthusiast","steam_id":76561198816746861,"connected_time":583000000000,"state":"active","ping":46},{"user_id":226,"name":"GreenApples","steam_id":76561198120559543,"connected_time":463000000000,"state":"active","ping":45},{"user_id":187,"name":"strev","steam_id":76561198323561023,"connected_time":3397000000000,"state":"active","ping":60},{"user_id":164,"name":"KiltTickled","steam_id":76561198859288002,"connected_time":4549000000000,"state":"active","ping":90},{"user_id":195,"name":"josie","steam_id":76561198170848553,"connected_time":3010000000000,"state":"active","ping":67},{"user_id":201,"name":"Anthid","steam_id":76561198074493797,"connected_time":1562000000000,"state":"active","ping":71}]},{"server_id":19,"name":"Uncletopia | San Francisco | 3 | Stopwatch Beta","name_short":"sfo-3","host":"sfo-1.us.uncletopia.com","port":27035,"enabled":true,"region":"us-west","cc":"us","latitude":37.77397,"longitude":-122.4313,"reserved":0,"last_update":"0001-01-01T00:00:00Z","name_a2s":"Uncletopia | San Francisco | 3 | Stopwatch Beta","protocol":17,"map":"pl_borneo","folder":"tf","game":"Team Fortress","app_id":440,"player_count":0,"max_players":24,"Bots":0,"server_type":"Dedicated","server_os":"Linux","password":true,"vac":true,"version":"7757534","steam_id":85568392924742824,"keywords":["nocrits","nodmgspread","payload","uncletopia"],"game_id":440,"stv_port":27036,"stv_name":"Uncletopia | San Francisco | 3 | Stopwatch Beta | STV","players":null},{"server_id":20,"name":"Uncletopia | San Francisco | 4 | Community","name_short":"sfo-4","host":"sfo-1.us.uncletopia.com","port":27045,"enabled":true,"region":"us-west","cc":"us","latitude":37.77397,"longitude":-122.4313,"reserved":0,"last_update":"0001-01-01T00:00:00Z","name_a2s":"Uncletopia | San Francisco | 4 | Community","protocol":17,"map":"workshop/pl_corrode_rc2.ugc546577989","folder":"tf","game":"Team Fortress","app_id":440,"player_count":0,"max_players":24,"Bots":0,"server_type":"Dedicated","server_os":"Linux","password":true,"vac":true,"version":"7757534","steam_id":85568392924742826,"keywords":["nocrits","nodmgspread","payload","uncletopia"],"game_id":440,"stv_port":27046,"stv_name":"Uncletopia | San Francisco | 4 | Community | STV","players":null},{"server_id":141,"name":"Uncletopia | Sydney | 1 | All Maps","name_short":"syd-1","host":"syd-1.au.uncletopia.com","port":27015,"enabled":true,"region":"au","cc":"au","latitude":-33.865143,"longitude":151.2099,"reserved":0,"last_update":"0001-01-01T00:00:00Z","name_a2s":"Uncletopia | Sydney | 1 | All Maps","protocol":17,"map":"pl_snowycoast","folder":"tf","game":"Team Fortress","app_id":440,"player_count":21,"max_players":24,"Bots":0,"server_type":"Dedicated","server_os":"Linux","password":true,"vac":true,"version":"7757534","steam_id":85568392924470001,"keywords":["nocrits","nodmgspread","payload","uncletopia"],"game_id":440,"stv_port":27016,"stv_name":"Uncletopia | Sydney | 1 | All Maps | STV","players":[{"user_id":237,"name":"Radio","steam_id":76561199436707447,"connected_time":1557000000000,"state":"active","ping":57},{"user_id":231,"name":"THE MANN OF HAM","steam_id":76561199189558145,"connected_time":1822000000000,"state":"active","ping":80},{"user_id":253,"name":"cullen","steam_id":76561198128695488,"connected_time":24000000000,"state":"active","ping":60},{"user_id":241,"name":"Splooge Fellow","steam_id":76561198067993108,"connected_time":1234000000000,"state":"active","ping":49},{"user_id":193,"name":"Evil Dragons 11","steam_id":76561199010001803,"connected_time":5007000000000,"state":"active","ping":47},{"user_id":164,"name":"sydney sydney","steam_id":76561199057568663,"connected_time":6082000000000,"state":"active","ping":52},{"user_id":230,"name":"Dr Barry Mundy PhD","steam_id":76561198034512686,"connected_time":1836000000000,"state":"active","ping":68},{"user_id":236,"name":"fourjaf","steam_id":76561198163147051,"connected_time":1625000000000,"state":"active","ping":45},{"user_id":221,"name":"Boys are pretty \u003c3","steam_id":76561198831775550,"connected_time":3133000000000,"state":"active","ping":50},{"user_id":238,"name":"courtesy","steam_id":76561198248550514,"connected_time":1422000000000,"state":"active","ping":52},{"user_id":222,"name":"seiran","steam_id":76561198880907232,"connected_time":3014000000000,"state":"active","ping":104},{"user_id":235,"name":"Tiawa","steam_id":76561199075010477,"connected_time":1674000000000,"state":"active","ping":82},{"user_id":240,"name":"Foam♥","steam_id":76561198309418750,"connected_time":1371000000000,"state":"active","ping":64},{"user_id":251,"name":"₮Ɇ₴₮ł₵ɄⱠØⱤɄ₥","steam_id":76561199349964541,"connected_time":280000000000,"state":"active","ping":67},{"user_id":226,"name":"shrot boy","steam_id":76561198131913069,"connected_time":2613000000000,"state":"active","ping":34},{"user_id":242,"name":"Slippo","steam_id":76561198079649290,"connected_time":1209000000000,"state":"active","ping":49},{"user_id":252,"name":"don","steam_id":76561198046715699,"connected_time":217000000000,"state":"active","ping":50},{"user_id":151,"name":"pants money","steam_id":76561198066256359,"connected_time":6802000000000,"state":"active","ping":52},{"user_id":239,"name":"UpsideDown","steam_id":76561199099672129,"connected_time":1421000000000,"state":"active","ping":49},{"user_id":245,"name":"akimbo with my g18s","steam_id":76561198836003115,"connected_time":657000000000,"state":"active","ping":65},{"user_id":179,"name":"Fresh Produce Gaming","steam_id":76561198358483352,"connected_time":5644000000000,"state":"active","ping":57}]},{"server_id":123,"name":"Uncletopia | Sydney | 2 | All Maps","name_short":"syd-2","host":"syd-1.au.uncletopia.com","port":27025,"enabled":true,"region":"au","cc":"au","latitude":-33.865143,"longitude":151.2099,"reserved":0,"last_update":"0001-01-01T00:00:00Z","name_a2s":"Uncletopia | Sydney | 2 | All Maps","protocol":17,"map":"pl_pier","folder":"tf","game":"Team Fortress","app_id":440,"player_count":10,"max_players":24,"Bots":0,"server_type":"Dedicated","server_os":"Linux","password":true,"vac":true,"version":"7757534","steam_id":85568392924470002,"keywords":["nocrits","nodmgspread","payload","uncletopia"],"game_id":440,"stv_port":27026,"stv_name":"Uncletopia | Sydney | 2 | All Maps | STV","players":[{"user_id":4,"name":"Nutty Sandvich","steam_id":76561198089548531,"connected_time":8912000000000,"state":"active","ping":100},{"user_id":14,"name":"marvin.walker2011","steam_id":76561199375656301,"connected_time":2708000000000,"state":"active","ping":67},{"user_id":21,"name":"dinxie","steam_id":76561199448765541,"connected_time":1464000000000,"state":"active","ping":69},{"user_id":16,"name":"Branko","steam_id":76561199262196710,"connected_time":1892000000000,"state":"active","ping":35},{"user_id":13,"name":"The Bisoneer TF2","steam_id":76561199446773766,"connected_time":2773000000000,"state":"active","ping":82},{"user_id":23,"name":"Rouva Lautan","steam_id":76561198158610373,"connected_time":1244000000000,"state":"active","ping":49},{"user_id":19,"name":"Mase","steam_id":76561198797093795,"connected_time":1641000000000,"state":"active","ping":45},{"user_id":28,"name":"ki","steam_id":76561198241303512,"connected_time":437000000000,"state":"active","ping":56},{"user_id":29,"name":"Marsguard","steam_id":76561198113775091,"connected_time":372000000000,"state":"active","ping":52},{"user_id":30,"name":"Cosmic Scout","steam_id":76561199187372152,"connected_time":367000000000,"state":"active","ping":73}]},{"server_id":395,"name":"Uncletopia | Sydney | 3 | All Maps","name_short":"syd-3","host":"syd-1.au.uncletopia.com","port":27035,"enabled":true,"region":"au","cc":"au","latitude":-33.865143,"longitude":151.2099,"reserved":0,"last_update":"0001-01-01T00:00:00Z","name_a2s":"Uncletopia | Sydney | 3 | All Maps","protocol":17,"map":"pl_upward","folder":"tf","game":"Team Fortress","app_id":440,"player_count":0,"max_players":24,"Bots":0,"server_type":"Dedicated","server_os":"Linux","password":true,"vac":true,"version":"7757534","steam_id":85568392925194467,"keywords":["nocrits","nodmgspread","payload","uncletopia"],"game_id":440,"stv_port":27036,"stv_name":"Uncletopia | Sydney | 3 | All Maps | STV","players":null},{"server_id":396,"name":"Uncletopia | Sydney | 4 | All Maps","name_short":"syd-4","host":"syd-1.au.uncletopia.com","port":27045,"enabled":true,"region":"au","cc":"au","latitude":-33.865143,"longitude":151.2099,"reserved":0,"last_update":"0001-01-01T00:00:00Z","name_a2s":"Uncletopia | Sydney | 4 | All Maps","protocol":17,"map":"koth_lakeside_final","folder":"tf","game":"Team Fortress","app_id":440,"player_count":0,"max_players":24,"Bots":0,"server_type":"Dedicated","server_os":"Linux","password":true,"vac":true,"version":"7757534","steam_id":85568392925397958,"keywords":["cp","nocrits","nodmgspread","uncletopia"],"game_id":440,"stv_port":27046,"stv_name":"Uncletopia | Sydney | 4 | All Maps | STV","players":null},{"server_id":58,"name":"Uncletopia | Sydney | 5 | Stopwatch Beta","name_short":"syd-5","host":"syd-1.au.uncletopia.com","port":27055,"enabled":true,"region":"au","cc":"au","latitude":-33.865143,"longitude":151.2099,"reserved":0,"last_update":"0001-01-01T00:00:00Z","name_a2s":"Uncletopia | Sydney | 5 | Stopwatch Beta","protocol":17,"map":"koth_highpass","folder":"tf","game":"Team Fortress","app_id":440,"player_count":0,"max_players":24,"Bots":0,"server_type":"Dedicated","server_os":"Linux","password":true,"vac":true,"version":"7757534","steam_id":85568392925397959,"keywords":["cp","nocrits","nodmgspread","uncletopia"],"game_id":440,"stv_port":27056,"stv_name":"Uncletopia | Sydney | 5 | Stopwatch Beta | STV","players":null},{"server_id":59,"name":"Uncletopia | Sydney | 6 | Community","name_short":"syd-6","host":"syd-1.au.uncletopia.com","port":27065,"enabled":true,"region":"au","cc":"au","latitude":-33.865143,"longitude":151.2099,"reserved":0,"last_update":"0001-01-01T00:00:00Z","name_a2s":"Uncletopia | Sydney | 6 | Community","protocol":17,"map":"workshop/cp_sulfur_rc2.ugc619869471","folder":"tf","game":"Team Fortress","app_id":440,"player_count":0,"max_players":24,"Bots":0,"server_type":"Dedicated","server_os":"Linux","password":true,"vac":true,"version":"7757534","steam_id":85568392925397960,"keywords":["cp","nocrits","nodmgspread","uncletopia"],"game_id":440,"stv_port":27066,"stv_name":"Uncletopia | Sydney | 6 | Community | STV","players":null},{"server_id":49,"name":"Uncletopia | Warsaw | 1 | All Maps","name_short":"waw-1","host":"waw-1.pl.uncletopia.com","port":27015,"enabled":true,"region":"eu","cc":"pl","latitude":52.2297,"longitude":21.017532,"reserved":0,"last_update":"0001-01-01T00:00:00Z","name_a2s":"","protocol":0,"map":"","folder":"","game":"","app_id":0,"player_count":0,"max_players":0,"Bots":0,"server_type":"","server_os":"","password":false,"vac":false,"version":"","steam_id":0,"keywords":null,"game_id":0,"stv_port":0,"stv_name":"","players":null},{"server_id":50,"name":"Uncletopia | Warsaw | 2 | All Maps","name_short":"waw-2","host":"waw-1.pl.uncletopia.com","port":27025,"enabled":true,"region":"eu","cc":"pl","latitude":52.2297,"longitude":21.017532,"reserved":0,"last_update":"0001-01-01T00:00:00Z","name_a2s":"Uncletopia | Warsaw | 2 | All Maps","protocol":17,"map":"koth_viaduct","folder":"tf","game":"Team Fortress","app_id":440,"player_count":0,"max_players":24,"Bots":0,"server_type":"Dedicated","server_os":"Linux","password":true,"vac":true,"version":"7757534","steam_id":85568392925397851,"keywords":["cp","nocrits","nodmgspread","uncletopia"],"game_id":440,"stv_port":27026,"stv_name":"Uncletopia | Warsaw | 2 | All Maps | STV","players":null},{"server_id":51,"name":"Uncletopia | Warsaw | 3 | All Maps","name_short":"waw-3","host":"waw-1.pl.uncletopia.com","port":27035,"enabled":true,"region":"eu","cc":"pl","latitude":52.2297,"longitude":21.017532,"reserved":0,"last_update":"0001-01-01T00:00:00Z","name_a2s":"Uncletopia | Warsaw | 3 | All Maps","protocol":17,"map":"pl_upward","folder":"tf","game":"Team Fortress","app_id":440,"player_count":0,"max_players":24,"Bots":0,"server_type":"Dedicated","server_os":"Linux","password":true,"vac":true,"version":"7757534","steam_id":85568392925397852,"keywords":["nocrits","nodmgspread","payload","uncletopia"],"game_id":440,"stv_port":27036,"stv_name":"Uncletopia | Warsaw | 3 | All Maps | STV","players":null},{"server_id":52,"name":"Uncletopia | Warsaw | 4 | All Maps","name_short":"waw-4","host":"waw-1.pl.uncletopia.com","port":27045,"enabled":true,"region":"eu","cc":"pl","latitude":52.2297,"longitude":21.017532,"reserved":0,"last_update":"0001-01-01T00:00:00Z","name_a2s":"Uncletopia | Warsaw | 4 | All Maps","protocol":17,"map":"koth_highpass","folder":"tf","game":"Team Fortress","app_id":440,"player_count":0,"max_players":24,"Bots":0,"server_type":"Dedicated","server_os":"Linux","password":true,"vac":true,"version":"7757534","steam_id":85568392925397853,"keywords":["cp","nocrits","nodmgspread","uncletopia"],"game_id":440,"stv_port":27046,"stv_name":"Uncletopia | Warsaw | 4 | All Maps | STV","players":null},{"server_id":53,"name":"Uncletopia | Warsaw | 5 | Stopwatch Beta","name_short":"waw-5","host":"waw-1.pl.uncletopia.com","port":27055,"enabled":true,"region":"eu","cc":"pl","latitude":52.2297,"longitude":21.017532,"reserved":0,"last_update":"0001-01-01T00:00:00Z","name_a2s":"Uncletopia | Warsaw | 5 | Stopwatch Beta","protocol":17,"map":"workshop/pl_badwater_pro_v12.ugc2142942074","folder":"tf","game":"Team Fortress","app_id":440,"player_count":0,"max_players":24,"Bots":0,"server_type":"Dedicated","server_os":"Linux","password":true,"vac":true,"version":"7757534","steam_id":85568392925397854,"keywords":["nocrits","nodmgspread","payload","uncletopia"],"game_id":440,"stv_port":27056,"stv_name":"Uncletopia | Warsaw | 5 | Stopwatch Beta | STV","players":null},{"server_id":54,"name":"Uncletopia | Warsaw | 6 | Community","name_short":"waw-6","host":"waw-1.pl.uncletopia.com","port":27065,"enabled":true,"region":"eu","cc":"pl","latitude":52.2297,"longitude":21.017532,"reserved":0,"last_update":"0001-01-01T00:00:00Z","name_a2s":"Uncletopia | Warsaw | 6 | Community","protocol":17,"map":"workshop/cp_logjam_rc12.ugc454812035","folder":"tf","game":"Team Fortress","app_id":440,"player_count":0,"max_players":24,"Bots":0,"server_type":"Dedicated","server_os":"Linux","password":true,"vac":true,"version":"7757534","steam_id":85568392925397856,"keywords":["cp","nocrits","nodmgspread","uncletopia"],"game_id":440,"stv_port":27066,"stv_name":"Uncletopia | Warsaw | 6 | Community | STV","players":null}]}