{"status":true,"message":"","result":[{"server_id":9,"name":"Uncletopia | Atlanta | 1 | All Maps","name_short":"atl-1","host":"atl-1.us.uncletopia.com","port":27015,"enabled":true,"region":"us-east","cc":"us","latitude":33.753746,"longitude":-84.38633,"reserved":0,"last_update":"0001-01-01T00:00:00Z","name_a2s":"Uncletopia | Atlanta | 1 | All Maps","protocol":17,"map":"pl_badwater","folder":"tf","game":"Team Fortress","app_id":440,"player_count":8,"max_players":24,"Bots":0,"server_type":"Dedicated","server_os":"Linux","password":true,"vac":true,"version":"7932396","steam_id":85568392924469982,"keywords":["nocrits","nodmgspread","payload","uncletopia"],"game_id":440,"stv_port":27016,"stv_name":"Uncletopia | Atlanta | 1 | All Maps | STV","players":[{"user_id":204,"name":"ATL 1 | Save your wifi","steam_id":76561198286147372,"connected_time":3787000000000,"state":"active","ping":55},{"user_id":259,"name":"ุ","steam_id":76561198084134025,"connected_time":100000000000,"state":"active","ping":120},{"user_id":202,"name":"Albino Jellyfish","steam_id":76561198208561097,"connected_time":4868000000000,"state":"active","ping":65},{"user_id":209,"name":"cola","steam_id":76561198374390458,"connected_time":3508000000000,"state":"active","ping":55},{"user_id":212,"name":"Inkmix(donkey kong enjoyer)","steam_id":76561198854070384,"connected_time":3344000000000,"state":"active","ping":132},{"user_id":258,"name":"TheTiredMario","steam_id":76561199062425739,"connected_time":659000000000,"state":"active","ping":52},{"user_id":260,"name":"evilstuntman","steam_id":76561198056911537,"connected_time":27000000000,"state":"active","ping":56},{"user_id":250,"name":"NikoOS (NO SOUND)","steam_id":76561198180020521,"connected_time":1455000000000,"state":"active","ping":112}]},{"server_id":104,"name":"Uncletopia | Atlanta | 2 | All Maps","name_short":"atl-2","host":"atl-1.us.uncletopia.com","port":27025,"enabled":true,"region":"us-east","cc":"us","latitude":33.753746,"longitude":-84.38633,"reserved":0,"last_update":"0001-01-01T00:00:00Z","name_a2s":"Uncletopia | Atlanta | 2 | All Maps","protocol":17,"map":"pl_snowycoast","folder":"tf","game":"Team Fortress","app_id":440,"player_count":0,"max_players":24,"Bots":0,"server_type":"Dedicated","server_os":"Linux","password":true,"vac":true,"version":"7932396","steam_id":85568392924469983,"keywords":["nocrits","nodmgspread","payload","uncletopia"],"game_id":440,"stv_port":27026,"stv_name":"Uncletopia | Atlanta | 2 | All Maps | STV","players":null},{"server_id":400,"name":"Uncletopia | Atlanta | 3 | Community","name_short":"atl-3","host":"atl-1.us.uncletopia.com","port":27035,"enabled":true,"region":"us-east","cc":"us","latitude":33.753746,"longitude":-84.38633,"reserved":0,"last_update":"0001-01-01T00:00:00Z","name_a2s":"Uncletopia | Atlanta | 3 | Community","protocol":17,"map":"workshop/cp_bruhstbowl_b5.ugc2878604990","folder":"tf","game":"Team Fortress","app_id":440,"player_count":0,"max_players":24,"Bots":0,"server_type":"Dedicated","server_os":"Linux","password":true,"vac":true,"version":"7932396","steam_id":85568392924515187,"keywords":["cp","nocrits","nodmgspread","uncletopia"],"game_id":440,"stv_port":27036,"stv_name":"Uncletopia | Atlanta | 3 | Community | STV","players":null},{"server_id":401,"name":"Uncletopia | Atlanta | 4 | No Payload","name_short":"atl-4","host":"atl-1.us.uncletopia.com","port":27045,"enabled":true,"region":"us-east","cc":"us","latitude":33.753746,"longitude":-84.38633,"reserved":0,"last_update":"0001-01-01T00:00:00Z","name_a2s":"","protocol":0,"map":"","folder":"","game":"","app_id":0,"player_count":0,"max_players":0,"Bots":0,"server_type":"","server_os":"","password":false,"vac":false,"version":"","steam_id":0,"keywords":null,"game_id":0,"stv_port":0,"stv_name":"","players":null},{"server_id":2,"name":"Uncletopia | Chicago | 1 | All Maps","name_short":"chi-1","host":"chi-1.us.uncletopia.com","port":27015,"enabled":true,"region":"us-central","cc":"us","latitude":41.881832,"longitude":-87.62318,"reserved":0,"last_update":"0001-01-01T00:00:00Z","name_a2s":"Uncletopia | Chicago | 1 | All Maps","protocol":17,"map":"koth_cascade","folder":"tf","game":"Team Fortress","app_id":440,"player_count":24,"max_players":24,"Bots":0,"server_type":"Dedicated","server_os":"Linux","password":true,"vac":true,"version":"7932396","steam_id":85568392924469984,"keywords":["cp","nocrits","nodmgspread","uncletopia"],"game_id":440,"stv_port":27016,"stv_name":"Uncletopia | Chicago | 1 | All Maps | STV","players":[{"user_id":372,"name":"Tommy Provolone","steam_id":76561198170062377,"connected_time":2917000000000,"state":"active","ping":72},{"user_id":373,"name":"Crystron","steam_id":76561198880437428,"connected_time":2658000000000,"state":"active","ping":86},{"user_id":354,"name":"Skinny pete","steam_id":76561198801608576,"connected_time":4712000000000,"state":"active","ping":75},{"user_id":383,"name":"Derpydude2002","steam_id":76561198811719519,"connected_time":1286000000000,"state":"active","ping":62},{"user_id":384,"name":"raw.xiaolongbao","steam_id":76561198033033884,"connected_time":1188000000000,"state":"active","ping":70},{"user_id":391,"name":"cotton candy muncher","steam_id":76561198058998371,"connected_time":900000000000,"state":"active","ping":66},{"user_id":356,"name":"Poké","steam_id":76561198100167641,"connected_time":4064000000000,"state":"active","ping":76},{"user_id":385,"name":"HanakoToast","steam_id":76561198045233131,"connected_time":1096000000000,"state":"active","ping":129},{"user_id":345,"name":"AVSteve","steam_id":76561198017253298,"connected_time":5055000000000,"state":"active","ping":85},{"user_id":324,"name":"Goober Gaming","steam_id":76561198095550617,"connected_time":6188000000000,"state":"active","ping":72},{"user_id":389,"name":"Farm3rJh0nson","steam_id":76561199166153873,"connected_time":979000000000,"state":"active","ping":81},{"user_id":351,"name":"ZD","steam_id":76561198437273389,"connected_time":4810000000000,"state":"active","ping":70},{"user_id":329,"name":"BiggFoot","steam_id":76561197998605599,"connected_time":5957000000000,"state":"active","ping":122},{"user_id":382,"name":"riSygneD","steam_id":76561198331618687,"connected_time":1585000000000,"state":"active","ping":98},{"user_id":392,"name":"Zetta","steam_id":76561198045710113,"connected_time":764000000000,"state":"active","ping":109},{"user_id":364,"name":"blob","steam_id":76561198122375328,"connected_time":3520000000000,"state":"active","ping":60},{"user_id":386,"name":"Remmy","steam_id":76561198268857418,"connected_time":1088000000000,"state":"active","ping":56},{"user_id":344,"name":"Somegamer Deathcannon Brokengun","steam_id":76561199065430919,"connected_time":5296000000000,"state":"active","ping":87},{"user_id":361,"name":"dunk","steam_id":76561198132476501,"connected_time":3763000000000,"state":"active","ping":53},{"user_id":390,"name":"Person","steam_id":76561198093244204,"connected_time":962000000000,"state":"active","ping":72},{"user_id":291,"name":"Mank","steam_id":76561198189421005,"connected_time":8002000000000,"state":"active","ping":47},{"user_id":369,"name":"DinkleBerg","steam_id":76561198891626233,"connected_time":3131000000000,"state":"active","ping":61},{"user_id":353,"name":"DiGiorno's Pizza","steam_id":76561198142244035,"connected_time":4790000000000,"state":"active","ping":56},{"user_id":376,"name":"Doubting Dave","steam_id":76561198066410749,"connected_time":2300000000000,"state":"active","ping":84}]},{"server_id":106,"name":"Uncletopia | Chicago | 2 | All Maps","name_short":"chi-2","host":"chi-1.us.uncletopia.com","port":27025,"enabled":true,"region":"us-central","cc":"us","latitude":41.881832,"longitude":-87.62318,"reserved":0,"last_update":"0001-01-01T00:00:00Z","name_a2s":"Uncletopia | Chicago | 2 | All Maps","protocol":17,"map":"pl_frontier_final","folder":"tf","game":"Team Fortress","app_id":440,"player_count":18,"max_players":24,"Bots":0,"server_type":"Dedicated","server_os":"Linux","password":true,"vac":true,"version":"7932396","steam_id":85568392924469985,"keywords":["nocrits","nodmgspread","payload","uncletopia"],"game_id":440,"stv_port":27026,"stv_name":"Uncletopia | Chicago | 2 | All Maps | STV","players":[{"user_id":349,"name":"TG_16","steam_id":76561199109196768,"connected_time":3825000000000,"state":"active","ping":56},{"user_id":393,"name":"Nigel","steam_id":76561198115574712,"connected_time":22000000000,"state":"active","ping":128},{"user_id":394,"name":"The RAT King thepurge.xyz","steam_id":76561198003992026,"connected_time":20000000000,"state":"spawning","ping":63},{"user_id":386,"name":"aleksei","steam_id":76561199061380038,"connected_time":1262000000000,"state":"active","ping":60},{"user_id":334,"name":"SHADY SWEATER SALESMAN","steam_id":76561198014616865,"connected_time":5057000000000,"state":"active","ping":53},{"user_id":372,"name":"radical","steam_id":76561197960364912,"connected_time":2141000000000,"state":"active","ping":71},{"user_id":360,"name":"Crisp","steam_id":76561198132644084,"connected_time":3574000000000,"state":"active","ping":66},{"user_id":391,"name":"Etzel","steam_id":76561198123309120,"connected_time":117000000000,"state":"active","ping":52},{"user_id":332,"name":"Bodhi","steam_id":76561198103230995,"connected_time":5244000000000,"state":"active","ping":76},{"user_id":377,"name":"volta","steam_id":76561199214283884,"connected_time":2106000000000,"state":"active","ping":95},{"user_id":392,"name":"Lightatex","steam_id":76561199068097196,"connected_time":29000000000,"state":"active","ping":47},{"user_id":395,"name":"Maxx","steam_id":76561198045405304,"connected_time":15000000000,"state":"spawning","ping":370},{"user_id":329,"name":"Horrizan","steam_id":76561197965028480,"connected_time":5495000000000,"state":"active","ping":72},{"user_id":306,"name":"Shrep","steam_id":76561198127341481,"connected_time":6764000000000,"state":"active","ping":56},{"user_id":369,"name":"Der Krieger105","steam_id":76561197978384609,"connected_time":2188000000000,"state":"active","ping":81},{"user_id":390,"name":"En","steam_id":76561198043977021,"connected_time":961000000000,"state":"active","ping":71},{"user_id":365,"name":"Scorpianswag","steam_id":76561198260651036,"connected_time":3364000000000,"state":"active","ping":90},{"user_id":380,"name":"Discourse","steam_id":76561198984286678,"connected_time":2081000000000,"state":"active","ping":52}]},{"server_id":402,"name":"Uncletopia | Chicago | 3 | All Maps","name_short":"chi-3","host":"chi-1.us.uncletopia.com","port":27035,"enabled":true,"region":"us-central","cc":"us","latitude":41.881832,"longitude":-87.62318,"reserved":0,"last_update":"0001-01-01T00:00:00Z","name_a2s":"Uncletopia | Chicago | 3 | All Maps","protocol":17,"map":"cp_process_final","folder":"tf","game":"Team Fortress","app_id":440,"player_count":24,"max_players":24,"Bots":0,"server_type":"Dedicated","server_os":"Linux","password":true,"vac":true,"version":"7932396","steam_id":85568392924515191,"keywords":["cp","nocrits","nodmgspread","uncletopia"],"game_id":440,"stv_port":27036,"stv_name":"Uncletopia | Chicago | 3 | All Maps | STV","players":[{"user_id":323,"name":"Kyle H. McCloud","steam_id":76561198025050432,"connected_time":145000000000,"state":"active","ping":86},{"user_id":316,"name":"fuckwit","steam_id":76561198342160837,"connected_time":980000000000,"state":"active","ping":59},{"user_id":312,"name":"Kuji Katsumi TTV ♡","steam_id":76561198165615964,"connected_time":1665000000000,"state":"active","ping":79},{"user_id":291,"name":"Alejandro","steam_id":76561197970051493,"connected_time":3690000000000,"state":"active","ping":155},{"user_id":296,"name":"mendokusai","steam_id":76561197965022076,"connected_time":2597000000000,"state":"active","ping":58},{"user_id":317,"name":"feel alive","steam_id":76561198173047169,"connected_time":661000000000,"state":"active","ping":58},{"user_id":297,"name":"who is gavin?","steam_id":76561198069415057,"connected_time":2575000000000,"state":"active","ping":60},{"user_id":318,"name":"Gyroic","steam_id":76561198063556027,"connected_time":640000000000,"state":"active","ping":53},{"user_id":267,"name":"Soupman_Official","steam_id":76561198314308732,"connected_time":5672000000000,"state":"active","ping":44},{"user_id":298,"name":"Cybutter","steam_id":76561197985914609,"connected_time":2557000000000,"state":"active","ping":89},{"user_id":324,"name":"crayonnipple","steam_id":76561198070253331,"connected_time":19000000000,"state":"active","ping":53},{"user_id":319,"name":"[COS] CrazyLasagna","steam_id":76561198138421534,"connected_time":627000000000,"state":"active","ping":75},{"user_id":313,"name":"YEE","steam_id":76561198317068510,"connected_time":1663000000000,"state":"active","ping":44},{"user_id":308,"name":"dos","steam_id":76561198370614805,"connected_time":1743000000000,"state":"active","ping":82},{"user_id":320,"name":"Aristotle Voulton","steam_id":76561198100174923,"connected_time":618000000000,"state":"active","ping":86},{"user_id":250,"name":"Nefy","steam_id":76561198030017316,"connected_time":7178000000000,"state":"active","ping":83},{"user_id":309,"name":"crashymicsplody","steam_id":76561198213916765,"connected_time":1706000000000,"state":"active","ping":71},{"user_id":310,"name":"ChozoChorizo","steam_id":76561198272609196,"connected_time":1687000000000,"state":"active","ping":65},{"user_id":311,"name":"IKOVKY/TTV","steam_id":76561198138035040,"connected_time":1684000000000,"state":"active","ping":44},{"user_id":321,"name":"jayhong","steam_id":76561198046772832,"connected_time":548000000000,"state":"active","ping":44},{"user_id":253,"name":"Cliffigriff","steam_id":76561198121924499,"connected_time":7088000000000,"state":"active","ping":87},{"user_id":322,"name":"SHADOW (he/him)","steam_id":76561198207768148,"connected_time":526000000000,"state":"active","ping":103},{"user_id":315,"name":"Deathpill","steam_id":76561197994404793,"connected_time":1262000000000,"state":"active","ping":71},{"user_id":305,"name":"Huh?","steam_id":76561198054866271,"connected_time":1896000000000,"state":"active","ping":110}]},{"server_id":403,"name":"Uncletopia | Chicago | 4 | All Maps","name_short":"chi-4","host":"chi-1.us.uncletopia.com","port":27045,"enabled":true,"region":"us-central","cc":"us","latitude":41.881832,"longitude":-87.62318,"reserved":0,"last_update":"0001-01-01T00:00:00Z","name_a2s":"Uncletopia | Chicago | 4 | All Maps","protocol":17,"map":"pl_thundermountain","folder":"tf","game":"Team Fortress","app_id":440,"player_count":24,"max_players":24,"Bots":0,"server_type":"Dedicated","server_os":"Linux","password":true,"vac":true,"version":"7932396","steam_id":85568392924515193,"keywords":["nocrits","nodmgspread","payload","uncletopia"],"game_id":440,"stv_port":27046,"stv_name":"Uncletopia | Chicago | 4 | All Maps | STV","players":[{"user_id":288,"name":"Wingsaber","steam_id":76561198045010390,"connected_time":697000000000,"state":"active","ping":71},{"user_id":300,"name":"Miller™","steam_id":76561198085090516,"connected_time":118000000000,"state":"active","ping":80},{"user_id":289,"name":"wwwillsux","steam_id":76561198201819066,"connected_time":627000000000,"state":"active","ping":80},{"user_id":290,"name":"Rickle Pick","steam_id":76561198055226070,"connected_time":589000000000,"state":"active","ping":76},{"user_id":291,"name":"FROYO donovin","steam_id":76561198045679387,"connected_time":501000000000,"state":"active","ping":57},{"user_id":278,"name":"Help! I'm Underwater!","steam_id":76561198030291655,"connected_time":2887000000000,"state":"active","ping":52},{"user_id":292,"name":"rat obliterater","steam_id":76561199147385953,"connected_time":470000000000,"state":"active","ping":96},{"user_id":240,"name":"The strongest ⑨ ball","steam_id":76561198126760743,"connected_time":6803000000000,"state":"active","ping":75},{"user_id":250,"name":"Juno","steam_id":76561198042417277,"connected_time":5274000000000,"state":"active","ping":72},{"user_id":299,"name":"smol brained","steam_id":76561198164460801,"connected_time":269000000000,"state":"active","ping":74},{"user_id":282,"name":"Miro","steam_id":76561198936412406,"connected_time":2754000000000,"state":"active","ping":83},{"user_id":293,"name":"Sabaman55","steam_id":76561198212267979,"connected_time":469000000000,"state":"active","ping":56},{"user_id":231,"name":"Wolf Hat","steam_id":76561198099996051,"connected_time":7258000000000,"state":"active","ping":71},{"user_id":294,"name":"Eldkveikir","steam_id":76561198087760308,"connected_time":452000000000,"state":"active","ping":75},{"user_id":232,"name":"Uwu Micster","steam_id":76561198843890616,"connected_time":7256000000000,"state":"active","ping":87},{"user_id":175,"name":"AJTarcza","steam_id":76561198070800190,"connected_time":10616000000000,"state":"active","ping":85},{"user_id":169,"name":"Flowers","steam_id":76561198031669899,"connected_time":10715000000000,"state":"active","ping":84},{"user_id":280,"name":"GreekGoat_Coffee","steam_id":76561198129331088,"connected_time":2834000000000,"state":"active","ping":45},{"user_id":296,"name":"Rukks","steam_id":76561197993918954,"connected_time":437000000000,"state":"active","ping":90},{"user_id":297,"name":"Lore","steam_id":76561198098407538,"connected_time":427000000000,"state":"active","ping":58},{"user_id":269,"name":"Jeong Jeong","steam_id":76561198125063586,"connected_time":3861000000000,"state":"active","ping":49},{"user_id":301,"name":"Manila Folders","steam_id":76561198212083128,"connected_time":64000000000,"state":"active","ping":73},{"user_id":270,"name":"Lex","steam_id":76561198069948353,"connected_time":3819000000000,"state":"active","ping":86},{"user_id":286,"name":"Aeonspassed","steam_id":76561198014016451,"connected_time":1862000000000,"state":"active","ping":61}]},{"server_id":36,"name":"Uncletopia | Chicago | 5 | All Maps","name_short":"chi-5","host":"chi-2.us.uncletopia.com","port":27015,"enabled":true,"region":"us-central","cc":"us","latitude":41.881832,"longitude":-87.62318,"reserved":0,"last_update":"0001-01-01T00:00:00Z","name_a2s":"Uncletopia | Chicago | 5 | All Maps","protocol":17,"map":"pl_barnblitz","folder":"tf","game":"Team Fortress","app_id":440,"player_count":23,"max_players":24,"Bots":0,"server_type":"Dedicated","server_os":"Linux","password":true,"vac":true,"version":"7932396","steam_id":85568392924866362,"keywords":["nocrits","nodmgspread","payload","uncletopia"],"game_id":440,"stv_port":27016,"stv_name":"Uncletopia | Chicago | 5 | All Maps | STV","players":[{"user_id":407,"name":"D4NMAR","steam_id":76561198056453091,"connected_time":1398000000000,"state":"active","ping":49},{"user_id":419,"name":"BigDeac","steam_id":76561198091237274,"connected_time":644000000000,"state":"active","ping":57},{"user_id":425,"name":"Bryguy","steam_id":76561198092096120,"connected_time":286000000000,"state":"active","ping":43},{"user_id":355,"name":"SiltyStar85","steam_id":76561198309175923,"connected_time":5727000000000,"state":"active","ping":89},{"user_id":416,"name":"AgenT BendeR RodrigueZ","steam_id":76561197962498428,"connected_time":1164000000000,"state":"active","ping":77},{"user_id":418,"name":"Ayylmao","steam_id":76561198104780147,"connected_time":687000000000,"state":"active","ping":45},{"user_id":389,"name":"Dr. Pleasant","steam_id":76561198111945101,"connected_time":3205000000000,"state":"active","ping":71},{"user_id":380,"name":"Amoxicilina","steam_id":76561198168486429,"connected_time":3513000000000,"state":"active","ping":120},{"user_id":376,"name":"Astrial","steam_id":76561198068145656,"connected_time":3946000000000,"state":"active","ping":89},{"user_id":296,"name":"alN","steam_id":76561198329171346,"connected_time":9602000000000,"state":"active","ping":46},{"user_id":421,"name":"Paulie Walnuts","steam_id":76561198252901165,"connected_time":317000000000,"state":"active","ping":114},{"user_id":427,"name":"Goober","steam_id":76561198988863807,"connected_time":237000000000,"state":"active","ping":77},{"user_id":426,"name":"Fargo","steam_id":76561198044703931,"connected_time":283000000000,"state":"active","ping":73},{"user_id":410,"name":"sabersim1","steam_id":76561199186931512,"connected_time":1332000000000,"state":"active","ping":108},{"user_id":372,"name":"Periculosum PhD in Funny","steam_id":76561198123370914,"connected_time":4443000000000,"state":"active","ping":74},{"user_id":420,"name":"a flock across my window","steam_id":76561198090484580,"connected_time":496000000000,"state":"active","ping":61},{"user_id":428,"name":"Team Fartpiss Poo","steam_id":76561199163591880,"connected_time":194000000000,"state":"active","ping":97},{"user_id":406,"name":"Howoriginal","steam_id":76561197993701184,"connected_time":1548000000000,"state":"active","ping":58},{"user_id":405,"name":"fae","steam_id":76561197994492154,"connected_time":1573000000000,"state":"active","ping":174},{"user_id":429,"name":"LToschi","steam_id":76561198124099320,"connected_time":179000000000,"state":"active","ping":58},{"user_id":430,"name":"OneLess","steam_id":76561198150870338,"connected_time":102000000000,"state":"active","ping":81},{"user_id":415,"name":"AFK BRB","steam_id":76561198104939612,"connected_time":1201000000000,"state":"active","ping":54},{"user_id":431,"name":"Sarbanes-Oxley","steam_id":76561197975898479,"connected_time":88000000000,"state":"active","ping":78}]},{"server_id":37,"name":"Uncletopia | Chicago | 6 | All Maps","name_short":"chi-6","host":"chi-2.us.uncletopia.com","port":27025,"enabled":true,"region":"us-central","cc":"us","latitude":41.881832,"longitude":-87.62318,"reserved":0,"last_update":"0001-01-01T00:00:00Z","name_a2s":"Uncletopia | Chicago | 6 | All Maps","protocol":17,"map":"cp_mountainlab","folder":"tf","game":"Team Fortress","app_id":440,"player_count":24,"max_players":24,"Bots":0,"server_type":"Dedicated","server_os":"Linux","password":true,"vac":true,"version":"7932396","steam_id":85568392924866363,"keywords":["cp","nocrits","nodmgspread","uncletopia"],"game_id":440,"stv_port":27026,"stv_name":"Uncletopia | Chicago | 6 | All Maps | STV","players":[{"user_id":394,"name":"2L84U","steam_id":76561198079176017,"connected_time":759000000000,"state":"active","ping":89},{"user_id":385,"name":"msay","steam_id":76561198170888029,"connected_time":1619000000000,"state":"active","ping":99},{"user_id":401,"name":"CherriKat","steam_id":76561198821297512,"connected_time":48000000000,"state":"active","ping":96},{"user_id":366,"name":"Free to Play","steam_id":76561199487761495,"connected_time":2503000000000,"state":"active","ping":61},{"user_id":395,"name":"里芋 - Tarooo","steam_id":76561198392986348,"connected_time":687000000000,"state":"active","ping":83},{"user_id":358,"name":"CyborgHexapus4","steam_id":76561198160335724,"connected_time":2773000000000,"state":"active","ping":122},{"user_id":391,"name":"yeyoi","steam_id":76561198069821885,"connected_time":1297000000000,"state":"active","ping":62},{"user_id":376,"name":"Punished \"Venom\" Snick","steam_id":76561198066566813,"connected_time":2155000000000,"state":"active","ping":137},{"user_id":359,"name":"Fishsick lord","steam_id":76561198887904255,"connected_time":2737000000000,"state":"active","ping":90},{"user_id":389,"name":"[ibb™]Shadow20X6-ENGI","steam_id":76561198019292755,"connected_time":1379000000000,"state":"active","ping":103},{"user_id":383,"name":"juha","steam_id":76561198133102865,"connected_time":2031000000000,"state":"active","ping":74},{"user_id":390,"name":"Mog","steam_id":76561198025575870,"connected_time":1373000000000,"state":"active","ping":61},{"user_id":371,"name":"Persona404","steam_id":76561198109635077,"connected_time":2272000000000,"state":"active","ping":76},{"user_id":396,"name":"ZBaldTop","steam_id":76561199396318132,"connected_time":410000000000,"state":"active","ping":55},{"user_id":373,"name":"motherfucker 2.0","steam_id":76561198141189209,"connected_time":2238000000000,"state":"active","ping":60},{"user_id":338,"name":"Waddlehi","steam_id":76561198072553840,"connected_time":3817000000000,"state":"active","ping":63},{"user_id":335,"name":"Bottle","steam_id":76561198170190655,"connected_time":4196000000000,"state":"active","ping":59},{"user_id":399,"name":"dahealinghealer1887","steam_id":76561198017539604,"connected_time":244000000000,"state":"active","ping":74},{"user_id":378,"name":"sumi squad","steam_id":76561198084849541,"connected_time":2145000000000,"state":"active","ping":63},{"user_id":379,"name":"Spur_","steam_id":76561198012083339,"connected_time":2136000000000,"state":"active","ping":88},{"user_id":400,"name":"Mitchacho74","steam_id":76561198087986935,"connected_time":109000000000,"state":"active","ping":58},{"user_id":381,"name":"willow","steam_id":76561198068266114,"connected_time":2120000000000,"state":"active","ping":61},{"user_id":393,"name":"duneblaster0","steam_id":76561198040364680,"connected_time":889000000000,"state":"active","ping":47},{"user_id":382,"name":"tsun.","steam_id":76561198079488962,"connected_time":2116000000000,"state":"active","ping":102}]},{"server_id":38,"name":"Uncletopia | Chicago | 7 | Stopwatch Beta","name_short":"chi-7","host":"chi-2.us.uncletopia.com","port":27035,"enabled":true,"region":"us-central","cc":"us","latitude":41.881832,"longitude":-87.62318,"reserved":0,"last_update":"0001-01-01T00:00:00Z","name_a2s":"Uncletopia | Chicago | 7 | Stopwatch Beta","protocol":17,"map":"workshop/koth_ashville_final.ugc2130459942","folder":"tf","game":"Team Fortress","app_id":440,"player_count":0,"max_players":24,"Bots":0,"server_type":"Dedicated","server_os":"Linux","password":true,"vac":true,"version":"7932396","steam_id":85568392924866364,"keywords":["cp","nocrits","nodmgspread","uncletopia"],"game_id":440,"stv_port":27036,"stv_name":"Uncletopia | Chicago | 7 | Stopwatch Beta | STV","players":null},{"server_id":39,"name":"Uncletopia | Chicago | 8 | Community","name_short":"chi-8","host":"chi-2.us.uncletopia.com","port":27045,"enabled":true,"region":"us-central","cc":"us","latitude":41.881832,"longitude":-87.62318,"reserved":0,"last_update":"0001-01-01T00:00:00Z","name_a2s":"Uncletopia | Chicago | 8 | Community","protocol":17,"map":"workshop/pl_badwater_pro_v12.ugc2142942074","folder":"tf","game":"Team Fortress","app_id":440,"player_count":21,"max_players":24,"Bots":0,"server_type":"Dedicated","server_os":"Linux","password":true,"vac":true,"version":"7932396","steam_id":85568392924866365,"keywords":["nocrits","nodmgspread","payload","uncletopia"],"game_id":440,"stv_port":27046,"stv_name":"Uncletopia | Chicago | 8 | Community | STV","players":[{"user_id":197,"name":"Jesse Bear","steam_id":76561198217075305,"connected_time":1773000000000,"state":"active","ping":75},{"user_id":179,"name":"Infinitytacos","steam_id":76561198884260211,"connected_time":2821000000000,"state":"active","ping":46},{"user_id":182,"name":"Beef Jerky32","steam_id":76561198192526325,"connected_time":2659000000000,"state":"active","ping":78},{"user_id":205,"name":"lilmanband","steam_id":76561198082460728,"connected_time":862000000000,"state":"active","ping":59},{"user_id":183,"name":"transbian disaster","steam_id":76561198407600762,"connected_time":2576000000000,"state":"active","ping":103},{"user_id":206,"name":"Q47","steam_id":76561198087128341,"connected_time":827000000000,"state":"active","ping":124},{"user_id":209,"name":"xFactr","steam_id":76561198129007422,"connected_time":553000000000,"state":"active","ping":58},{"user_id":203,"name":"SharkBearGator","steam_id":76561198071233739,"connected_time":1196000000000,"state":"active","ping":60},{"user_id":212,"name":"brains","steam_id":76561198197388678,"connected_time":234000000000,"state":"active","ping":90},{"user_id":89,"name":"Cpl Coomer","steam_id":76561199143310951,"connected_time":8017000000000,"state":"active","ping":57},{"user_id":186,"name":"Brendan","steam_id":76561198041079914,"connected_time":2301000000000,"state":"active","ping":71},{"user_id":211,"name":"fisherman","steam_id":76561198157435832,"connected_time":396000000000,"state":"active","ping":65},{"user_id":218,"name":"LtK","steam_id":76561197993180943,"connected_time":36000000000,"state":"active","ping":59},{"user_id":213,"name":"This is hat is one of a kind","steam_id":76561198065649195,"connected_time":202000000000,"state":"active","ping":91},{"user_id":188,"name":"Drift-TSH","steam_id":76561199229517565,"connected_time":2251000000000,"state":"active","ping":104},{"user_id":191,"name":"FitzyBear","steam_id":76561198409189585,"connected_time":2027000000000,"state":"active","ping":76},{"user_id":173,"name":"Pyro she/her","steam_id":76561198214080773,"connected_time":3633000000000,"state":"active","ping":86},{"user_id":214,"name":"Dennis","steam_id":76561198090531755,"connected_time":189000000000,"state":"active","ping":67},{"user_id":215,"name":"achoo","steam_id":76561198009091066,"connected_time":183000000000,"state":"active","ping":101},{"user_id":168,"name":"ethanf","steam_id":76561198103930234,"connected_time":3890000000000,"state":"active","ping":50},{"user_id":216,"name":"WitchyPorcupine","steam_id":76561198271676310,"connected_time":183000000000,"state":"active","ping":127}]},{"server_id":8,"name":"Uncletopia | Dallas | 1 | All Maps","name_short":"dal-1","host":"dal-1.us.uncletopia.com","port":27015,"enabled":true,"region":"us-central","cc":"us","latitude":32.779167,"longitude":-96.80889,"reserved":0,"last_update":"0001-01-01T00:00:00Z","name_a2s":"Uncletopia | Dallas | 1 | All Maps","protocol":17,"map":"pl_upward","folder":"tf","game":"Team Fortress","app_id":440,"player_count":24,"max_players":24,"Bots":0,"server_type":"Dedicated","server_os":"Linux","password":true,"vac":true,"version":"7932396","steam_id":85568392924469986,"keywords":["nocrits","nodmgspread","payload","uncletopia"],"game_id":440,"stv_port":27016,"stv_name":"Uncletopia | Dallas | 1 | All Maps | STV","players":[{"user_id":571,"name":"Clawkikker","steam_id":76561198269433962,"connected_time":1574000000000,"state":"active","ping":40},{"user_id":538,"name":"java","steam_id":76561198030276792,"connected_time":4105000000000,"state":"active","ping":75},{"user_id":584,"name":"ATL1 | Le4n!!!","steam_id":76561198045522596,"connected_time":1308000000000,"state":"active","ping":84},{"user_id":604,"name":"Tech","steam_id":76561198085933795,"connected_time":240000000000,"state":"active","ping":82},{"user_id":528,"name":"TheSilverDragon","steam_id":76561198042444734,"connected_time":5018000000000,"state":"active","ping":71},{"user_id":602,"name":"Majestic-A","steam_id":76561198988062101,"connected_time":262000000000,"state":"active","ping":92},{"user_id":592,"name":"Sharky Smooth","steam_id":76561198094759458,"connected_time":1038000000000,"state":"active","ping":80},{"user_id":594,"name":"bkiller","steam_id":76561198029265697,"connected_time":953000000000,"state":"active","ping":67},{"user_id":601,"name":"slowdance","steam_id":76561198097427947,"connected_time":441000000000,"state":"active","ping":125},{"user_id":603,"name":"Ferruco:3","steam_id":76561198431714229,"connected_time":257000000000,"state":"active","ping":71},{"user_id":562,"name":"Captain Buggy","steam_id":76561198024444448,"connected_time":2291000000000,"state":"active","ping":100},{"user_id":535,"name":"Four","steam_id":76561198413077658,"connected_time":4510000000000,"state":"active","ping":57},{"user_id":598,"name":"Midnight Flame","steam_id":76561198279692754,"connected_time":698000000000,"state":"active","ping":82},{"user_id":555,"name":"sithreis","steam_id":76561198000564263,"connected_time":3050000000000,"state":"active","ping":67},{"user_id":539,"name":"King","steam_id":76561198010019214,"connected_time":4098000000000,"state":"active","ping":75},{"user_id":568,"name":"insane jester","steam_id":76561198079609974,"connected_time":1863000000000,"state":"active","ping":93},{"user_id":546,"name":"panzerfaust13579","steam_id":76561198351615188,"connected_time":3515000000000,"state":"active","ping":89},{"user_id":596,"name":"gnome zone","steam_id":76561198883349445,"connected_time":855000000000,"state":"active","ping":80},{"user_id":577,"name":"dang it/darn it/crap","steam_id":76561198204593875,"connected_time":1459000000000,"state":"active","ping":60},{"user_id":543,"name":"lanoc","steam_id":76561198055415367,"connected_time":3919000000000,"state":"active","ping":61},{"user_id":595,"name":"Katzenwerfer","steam_id":76561198345464748,"connected_time":949000000000,"state":"active","ping":66},{"user_id":548,"name":"Stormtroper","steam_id":76561198251067522,"connected_time":3126000000000,"state":"active","ping":90},{"user_id":606,"name":"H.","steam_id":76561198074951179,"connected_time":203000000000,"state":"active","ping":66},{"user_id":600,"name":"mac_cheese","steam_id":76561198071334162,"connected_time":495000000000,"state":"active","ping":93}]},{"server_id":108,"name":"Uncletopia | Dallas | 2 | All Maps","name_short":"dal-2","host":"dal-1.us.uncletopia.com","port":27025,"enabled":true,"region":"us-central","cc":"us","latitude":32.779167,"longitude":-96.80889,"reserved":0,"last_update":"0001-01-01T00:00:00Z","name_a2s":"Uncletopia | Dallas | 2 | All Maps","protocol":17,"map":"cp_mountainlab","folder":"tf","game":"Team Fortress","app_id":440,"player_count":24,"max_players":24,"Bots":0,"server_type":"Dedicated","server_os":"Linux","password":true,"vac":true,"version":"7932396","steam_id":85568392924469988,"keywords":["cp","nocrits","nodmgspread","uncletopia"],"game_id":440,"stv_port":27026,"stv_name":"Uncletopia | Dallas | 2 | All Maps | STV","players":[{"user_id":474,"name":"Bullwinkle J. Moose","steam_id":76561198075977196,"connected_time":1637000000000,"state":"active","ping":57},{"user_id":473,"name":"Stick","steam_id":76561198001509374,"connected_time":1825000000000,"state":"active","ping":47},{"user_id":489,"name":"Tots","steam_id":76561198027485007,"connected_time":784000000000,"state":"active","ping":60},{"user_id":490,"name":"Tealim","steam_id":76561198330085713,"connected_time":782000000000,"state":"active","ping":80},{"user_id":455,"name":"Fantastic Mr. Fox Appreciator","steam_id":76561198096306325,"connected_time":2803000000000,"state":"active","ping":89},{"user_id":467,"name":"Akornical","steam_id":76561199171025092,"connected_time":2093000000000,"state":"active","ping":94},{"user_id":481,"name":"Spike Bones","steam_id":76561198234926120,"connected_time":1069000000000,"state":"active","ping":112},{"user_id":450,"name":"Snake Handler","steam_id":76561198027198306,"connected_time":3056000000000,"state":"active","ping":76},{"user_id":491,"name":"spiderguy","steam_id":76561198412074955,"connected_time":777000000000,"state":"active","ping":68},{"user_id":451,"name":"Nemir","steam_id":76561198063123150,"connected_time":3041000000000,"state":"active","ping":47},{"user_id":462,"name":"avant","steam_id":76561198104921055,"connected_time":2264000000000,"state":"active","ping":85},{"user_id":483,"name":"Goon Lord","steam_id":76561198059245735,"connected_time":1046000000000,"state":"active","ping":74},{"user_id":445,"name":"Manic","steam_id":76561198128149670,"connected_time":3102000000000,"state":"active","ping":45},{"user_id":478,"name":"errant","steam_id":76561197961758410,"connected_time":1517000000000,"state":"active","ping":45},{"user_id":408,"name":"Holly","steam_id":76561198982631429,"connected_time":6241000000000,"state":"active","ping":60},{"user_id":493,"name":"coolbust carti","steam_id":76561198065384345,"connected_time":721000000000,"state":"active","ping":89},{"user_id":485,"name":"Spinch","steam_id":76561198296224166,"connected_time":1010000000000,"state":"active","ping":80},{"user_id":381,"name":"Squiliam","steam_id":76561198025278006,"connected_time":8767000000000,"state":"active","ping":42},{"user_id":495,"name":"Uncle Dad","steam_id":76561198058073652,"connected_time":479000000000,"state":"active","ping":116},{"user_id":494,"name":"AlcoholicDad454","steam_id":76561198157414556,"connected_time":658000000000,"state":"active","ping":83},{"user_id":486,"name":"Publo","steam_id":76561198161777140,"connected_time":1008000000000,"state":"active","ping":58},{"user_id":480,"name":"BLOOD !","steam_id":76561198004400850,"connected_time":1236000000000,"state":"active","ping":66},{"user_id":488,"name":"chanoc","steam_id":76561198026734746,"connected_time":930000000000,"state":"active","ping":87},{"user_id":477,"name":"Tskuno","steam_id":76561198129291597,"connected_time":1611000000000,"state":"active","ping":75}]},{"server_id":5,"name":"Uncletopia | Frankfurt | 1 | All Maps","name_short":"frk-1","host":"frk-1.de.uncletopia.com","port":27015,"enabled":true,"region":"eu","cc":"de","latitude":50.110924,"longitude":8.682127,"reserved":0,"last_update":"0001-01-01T00:00:00Z","name_a2s":"Uncletopia | Frankfurt | 1 | All Maps","protocol":17,"map":"koth_cascade","folder":"tf","game":"Team Fortress","app_id":440,"player_count":0,"max_players":24,"Bots":0,"server_type":"Dedicated","server_os":"Linux","password":true,"vac":true,"version":"7932396","steam_id":85568392924469989,"keywords":["cp","nocrits","nodmgspread","uncletopia"],"game_id":440,"stv_port":27016,"stv_name":"Uncletopia | Frankfurt | 1 | All Maps | STV","players":null},{"server_id":110,"name":"Uncletopia | Frankfurt | 2 | All Maps","name_short":"frk-2","host":"frk-1.de.uncletopia.com","port":27025,"enabled":true,"region":"eu","cc":"de","latitude":50.110924,"longitude":8.682127,"reserved":0,"last_update":"0001-01-01T00:00:00Z","name_a2s":"Uncletopia | Frankfurt | 2 | All Maps","protocol":17,"map":"koth_lakeside_final","folder":"tf","game":"Team Fortress","app_id":440,"player_count":0,"max_players":24,"Bots":0,"server_type":"Dedicated","server_os":"Linux","password":true,"vac":true,"version":"7932396","steam_id":85568392924469990,"keywords":["cp","nocrits","nodmgspread","uncletopia"],"game_id":440,"stv_port":27026,"stv_name":"Uncletopia | Frankfurt | 2 | All Maps | STV","players":null},{"server_id":308,"name":"Uncletopia | Frankfurt | 3 | All Maps","name_short":"frk-3","host":"frk-1.de.uncletopia.com","port":27035,"enabled":true,"region":"eu","cc":"de","latitude":50.110924,"longitude":8.682127,"reserved":0,"last_update":"0001-01-01T00:00:00Z","name_a2s":"Uncletopia | Frankfurt | 3 | All Maps","protocol":17,"map":"pl_barnblitz","folder":"tf","game":"Team Fortress","app_id":440,"player_count":0,"max_players":24,"Bots":0,"server_type":"Dedicated","server_os":"Linux","password":true,"vac":true,"version":"7932396","steam_id":85568392924504274,"keywords":["nocrits","nodmgspread","payload","uncletopia"],"game_id":440,"stv_port":27036,"stv_name":"Uncletopia | Frankfurt | 3 | All Maps | STV","players":null},{"server_id":309,"name":"Uncletopia | Frankfurt | 4 | All Maps","name_short":"frk-4","host":"frk-1.de.uncletopia.com","port":27045,"enabled":true,"region":"eu","cc":"de","latitude":50.110924,"longitude":8.682127,"reserved":0,"last_update":"0001-01-01T00:00:00Z","name_a2s":"Uncletopia | Frankfurt | 4 | All Maps","protocol":17,"map":"koth_cascade","folder":"tf","game":"Team Fortress","app_id":440,"player_count":0,"max_players":24,"Bots":0,"server_type":"Dedicated","server_os":"Linux","password":true,"vac":true,"version":"7932396","steam_id":85568392924504275,"keywords":["cp","nocrits","nodmgspread","uncletopia"],"game_id":440,"stv_port":27046,"stv_name":"Uncletopia | Frankfurt | 4 | All Maps | STV","players":null},{"server_id":310,"name":"Uncletopia | Frankfurt | 5 | All Maps","name_short":"frk-5","host":"frk-1.de.uncletopia.com","port":27055,"enabled":true,"region":"eu","cc":"de","latitude":50.110924,"longitude":8.682127,"reserved":0,"last_update":"0001-01-01T00:00:00Z","name_a2s":"Uncletopia | Frankfurt | 5 | All Maps","protocol":17,"map":"plr_hightower","folder":"tf","game":"Team Fortress","app_id":440,"player_count":0,"max_players":24,"Bots":0,"server_type":"Dedicated","server_os":"Linux","password":true,"vac":true,"version":"7932396","steam_id":85568392924504277,"keywords":["nocrits","nodmgspread","payload","uncletopia"],"game_id":440,"stv_port":27056,"stv_name":"Uncletopia | Frankfurt | 5 | All Maps | STV","players":null},{"server_id":311,"name":"Uncletopia | Frankfurt | 6 | All Maps","name_short":"frk-6","host":"frk-1.de.uncletopia.com","port":27065,"enabled":true,"region":"eu","cc":"de","latitude":50.110924,"longitude":8.682127,"reserved":0,"last_update":"0001-01-01T00:00:00Z","name_a2s":"Uncletopia | Frankfurt | 6 | All Maps","protocol":17,"map":"koth_highpass","folder":"tf","game":"Team Fortress","app_id":440,"player_count":0,"max_players":24,"Bots":0,"server_type":"Dedicated","server_os":"Linux","password":true,"vac":true,"version":"7932396","steam_id":85568392924504278,"keywords":["cp","nocrits","nodmgspread","uncletopia"],"game_id":440,"stv_port":27066,"stv_name":"Uncletopia | Frankfurt | 6 | All Maps | STV","players":null},{"server_id":23,"name":"Uncletopia | Frankfurt | 7 | Stopwatch Beta","name_short":"frk-7","host":"frk-1.de.uncletopia.com","port":27075,"enabled":true,"region":"eu","cc":"de","latitude":50.110924,"longitude":8.682127,"reserved":0,"last_update":"0001-01-01T00:00:00Z","name_a2s":"Uncletopia | Frankfurt | 7 | Stopwatch Beta","protocol":17,"map":"workshop/koth_bagel_rc6.ugc2514036946","folder":"tf","game":"Team Fortress","app_id":440,"player_count":0,"max_players":24,"Bots":0,"server_type":"Dedicated","server_os":"Linux","password":true,"vac":true,"version":"7932396","steam_id":85568392924742827,"keywords":["cp","nocrits","nodmgspread","uncletopia"],"game_id":440,"stv_port":27076,"stv_name":"Uncletopia | Frankfurt | 7 | Stopwatch Beta | STV","players":null},{"server_id":24,"name":"Uncletopia | Frankfurt | 8 | Community","name_short":"frk-8","host":"frk-1.de.uncletopia.com","port":27085,"enabled":true,"region":"eu","cc":"de","latitude":50.110924,"longitude":8.682127,"reserved":0,"last_update":"0001-01-01T00:00:00Z","name_a2s":"Uncletopia | Frankfurt | 8 | Community","protocol":17,"map":"workshop/rd_asteroid_redux_b1.ugc2154902912","folder":"tf","game":"Team Fortress","app_id":440,"player_count":0,"max_players":24,"Bots":0,"server_type":"Dedicated","server_os":"Linux","password":true,"vac":true,"version":"7932396","steam_id":85568392924742828,"keywords":["beta","nocrits","nodmgspread","rd","uncletopia"],"game_id":440,"stv_port":27086,"stv_name":"Uncletopia | Frankfurt | 8 | Community | STV","players":null},{"server_id":202,"name":"Uncletopia | Hong Kong | 1 | All Maps","name_short":"hgk-1","host":"hgk-1.hk.uncletopia.com","port":27015,"enabled":true,"region":"asia","cc":"hk","latitude":22.302711,"longitude":114.177216,"reserved":0,"last_update":"0001-01-01T00:00:00Z","name_a2s":"Uncletopia | Hong Kong | 1 | All Maps","protocol":17,"map":"cp_foundry","folder":"tf","game":"Team Fortress","app_id":440,"player_count":0,"max_players":24,"Bots":0,"server_type":"Dedicated","server_os":"Linux","password":true,"vac":true,"version":"7932396","steam_id":85568392924494504,"keywords":["cp","nocrits","nodmgspread","uncletopia"],"game_id":440,"stv_port":27016,"stv_name":"Uncletopia | Hong Kong | 1 | All Maps | STV","players":null},{"server_id":1,"name":"Uncletopia | Los Angeles | 1 | All Maps","name_short":"lax-1","host":"lax-1.us.uncletopia.com","port":27015,"enabled":true,"region":"us-west","cc":"us","latitude":33.94279,"longitude":-118.41004,"reserved":0,"last_update":"0001-01-01T00:00:00Z","name_a2s":"Uncletopia | Los Angeles | 1 | All Maps","protocol":17,"map":"cp_mountainlab","folder":"tf","game":"Team Fortress","app_id":440,"player_count":17,"max_players":24,"Bots":0,"server_type":"Dedicated","server_os":"Linux","password":true,"vac":true,"version":"7932396","steam_id":85568392924469991,"keywords":["cp","nocrits","nodmgspread","uncletopia"],"game_id":440,"stv_port":27016,"stv_name":"Uncletopia | Los Angeles | 1 | All Maps | STV","players":[{"user_id":394,"name":"cometgm","steam_id":76561198054201515,"connected_time":34000000000,"state":"active","ping":58},{"user_id":257,"name":"lker","steam_id":76561197976975075,"connected_time":9768000000000,"state":"active","ping":90},{"user_id":391,"name":"benji","steam_id":76561198084417967,"connected_time":161000000000,"state":"active","ping":89},{"user_id":346,"name":"Jimmy","steam_id":76561198857959855,"connected_time":1641000000000,"state":"active","ping":48},{"user_id":392,"name":"Rabblerouser","steam_id":76561198127930963,"connected_time":103000000000,"state":"active","ping":86},{"user_id":318,"name":"The Dinkle","steam_id":76561198098155041,"connected_time":4576000000000,"state":"active","ping":67},{"user_id":352,"name":"Person Man","steam_id":76561198293857963,"connected_time":1461000000000,"state":"active","ping":64},{"user_id":390,"name":"Laxoloni","steam_id":76561199197045700,"connected_time":181000000000,"state":"active","ping":72},{"user_id":342,"name":"NFL.com","steam_id":76561198113405376,"connected_time":2353000000000,"state":"active","ping":57},{"user_id":393,"name":"Evenaris","steam_id":76561198087544319,"connected_time":58000000000,"state":"active","ping":45},{"user_id":334,"name":"vioxynteris","steam_id":76561198161428666,"connected_time":3010000000000,"state":"active","ping":31},{"user_id":256,"name":"werolat","steam_id":76561197960544784,"connected_time":9794000000000,"state":"active","ping":88},{"user_id":341,"name":"KM","steam_id":76561199072633962,"connected_time":2436000000000,"state":"active","ping":152},{"user_id":316,"name":"tim","steam_id":76561198003187590,"connected_time":4720000000000,"state":"active","ping":110},{"user_id":336,"name":"BJ","steam_id":76561198004307563,"connected_time":2696000000000,"state":"active","ping":156},{"user_id":328,"name":"glass","steam_id":76561197974860359,"connected_time":4176000000000,"state":"active","ping":93},{"user_id":354,"name":"californjoe","steam_id":76561197965047795,"connected_time":1301000000000,"state":"active","ping":45}]},{"server_id":112,"name":"Uncletopia | Los Angeles | 2 | All Maps","name_short":"lax-2","host":"lax-1.us.uncletopia.com","port":27025,"enabled":true,"region":"us-west","cc":"us","latitude":33.94279,"longitude":-118.41004,"reserved":0,"last_update":"0001-01-01T00:00:00Z","name_a2s":"Uncletopia | Los Angeles | 2 | All Maps","protocol":17,"map":"cp_sunshine","folder":"tf","game":"Team Fortress","app_id":440,"player_count":24,"max_players":24,"Bots":0,"server_type":"Dedicated","server_os":"Linux","password":true,"vac":true,"version":"7932396","steam_id":85568392924469992,"keywords":["cp","nocrits","nodmgspread","uncletopia"],"game_id":440,"stv_port":27026,"stv_name":"Uncletopia | Los Angeles | 2 | All Maps | STV","players":[{"user_id":277,"name":"rxqueen","steam_id":76561198049258493,"connected_time":1300000000000,"state":"active","ping":86},{"user_id":285,"name":"Punished Jeff (Drain Messiah)","steam_id":76561198304252584,"connected_time":1026000000000,"state":"active","ping":64},{"user_id":268,"name":"Bottle","steam_id":76561199208835578,"connected_time":1989000000000,"state":"active","ping":86},{"user_id":292,"name":"usedhalfcart","steam_id":76561198072621852,"connected_time":49000000000,"state":"active","ping":76},{"user_id":267,"name":"choodle","steam_id":76561198930608649,"connected_time":2069000000000,"state":"active","ping":32},{"user_id":288,"name":"mechanicvirus","steam_id":76561198038161480,"connected_time":783000000000,"state":"active","ping":114},{"user_id":276,"name":"IonicMist","steam_id":76561198047105563,"connected_time":1313000000000,"state":"active","ping":94},{"user_id":216,"name":"A UsedNom","steam_id":76561198402832756,"connected_time":6839000000000,"state":"active","ping":57},{"user_id":286,"name":"uheye whuant moy ehmdeevee","steam_id":76561198028981154,"connected_time":875000000000,"state":"active","ping":55},{"user_id":289,"name":"如願","steam_id":76561198038486613,"connected_time":764000000000,"state":"active","ping":106},{"user_id":290,"name":"Slippy","steam_id":76561198334059206,"connected_time":725000000000,"state":"active","ping":54},{"user_id":262,"name":"Spaceman","steam_id":76561198349305249,"connected_time":2214000000000,"state":"active","ping":82},{"user_id":246,"name":"frostedflakes99","steam_id":76561199049292578,"connected_time":4065000000000,"state":"active","ping":47},{"user_id":281,"name":"oil","steam_id":76561198099980149,"connected_time":1236000000000,"state":"active","ping":54},{"user_id":282,"name":"Power Jake","steam_id":76561198051510260,"connected_time":1221000000000,"state":"active","ping":60},{"user_id":241,"name":"FI LO","steam_id":76561198976530881,"connected_time":4925000000000,"state":"active","ping":43},{"user_id":252,"name":"i cant aim","steam_id":76561198065873462,"connected_time":2372000000000,"state":"active","ping":46},{"user_id":273,"name":"UneditedAndy","steam_id":76561198982544947,"connected_time":1606000000000,"state":"active","ping":55},{"user_id":140,"name":"fashionably on time","steam_id":76561198042913843,"connected_time":13097000000000,"state":"active","ping":88},{"user_id":291,"name":"Skully","steam_id":76561198147130680,"connected_time":140000000000,"state":"active","ping":66},{"user_id":251,"name":"a cat plushie","steam_id":76561198080046542,"connected_time":3056000000000,"state":"active","ping":71},{"user_id":242,"name":"Roosevelt Chadwick","steam_id":76561198278169311,"connected_time":4535000000000,"state":"active","ping":67},{"user_id":284,"name":"MR MODE","steam_id":76561198046775352,"connected_time":1202000000000,"state":"active","ping":56},{"user_id":253,"name":"Lucas","steam_id":76561198399704604,"connected_time":2370000000000,"state":"active","ping":63}]},{"server_id":324,"name":"Uncletopia | Los Angeles | 3 | All Maps","name_short":"lax-3","host":"lax-1.us.uncletopia.com","port":27035,"enabled":true,"region":"us-west","cc":"us","latitude":33.94279,"longitude":-118.41004,"reserved":0,"last_update":"0001-01-01T00:00:00Z","name_a2s":"Uncletopia | Los Angeles | 3 | All Maps","protocol":17,"map":"pl_borneo","folder":"tf","game":"Team Fortress","app_id":440,"player_count":0,"max_players":24,"Bots":0,"server_type":"Dedicated","server_os":"Linux","password":true,"vac":true,"version":"7932396","steam_id":85568392924510198,"keywords":["nocrits","nodmgspread","payload","uncletopia"],"game_id":440,"stv_port":27036,"stv_name":"Uncletopia | Los Angeles | 3 | All Maps | STV","players":null},{"server_id":25,"name":"Uncletopia | Los Angeles | 4 | Stopwatch Beta","name_short":"lax-4","host":"lax-1.us.uncletopia.com","port":27045,"enabled":true,"region":"us-west","cc":"us","latitude":33.94279,"longitude":-118.41004,"reserved":0,"last_update":"0001-01-01T00:00:00Z","name_a2s":"Uncletopia | Los Angeles | 4 | Stopwatch Beta","protocol":17,"map":"pl_swiftwater_final1","folder":"tf","game":"Team Fortress","app_id":440,"player_count":0,"max_players":24,"Bots":0,"server_type":"Dedicated","server_os":"Linux","password":true,"vac":true,"version":"7932396","steam_id":85568392924510199,"keywords":["nocrits","nodmgspread","payload","uncletopia"],"game_id":440,"stv_port":27046,"stv_name":"Uncletopia | Los Angeles | 4 | Stopwatch Beta | STV","players":null},{"server_id":11,"name":"Uncletopia | London | 1 | All Maps","name_short":"lon-1","host":"lon-1.uk.uncletopia.com","port":27015,"enabled":true,"region":"eu","cc":"gb","latitude":51.509865,"longitude":-0.118092,"reserved":0,"last_update":"0001-01-01T00:00:00Z","name_a2s":"Uncletopia | London | 1 | All Maps","protocol":17,"map":"cp_mountainlab","folder":"tf","game":"Team Fortress","app_id":440,"player_count":0,"max_players":24,"Bots":0,"server_type":"Dedicated","server_os":"Linux","password":true,"vac":true,"version":"7932396","steam_id":85568392924367362,"keywords":["cp","nocrits","nodmgspread","uncletopia"],"game_id":440,"stv_port":27016,"stv_name":"Uncletopia | London | 1 | All Maps | STV","players":null},{"server_id":114,"name":"Uncletopia | London | 2 | All Maps","name_short":"lon-2","host":"lon-1.uk.uncletopia.com","port":27025,"enabled":true,"region":"eu","cc":"gb","latitude":51.509865,"longitude":-0.118092,"reserved":0,"last_update":"0001-01-01T00:00:00Z","name_a2s":"Uncletopia | London | 2 | All Maps","protocol":17,"map":"koth_highpass","folder":"tf","game":"Team Fortress","app_id":440,"player_count":0,"max_players":24,"Bots":0,"server_type":"Dedicated","server_os":"Linux","password":true,"vac":true,"version":"7932396","steam_id":85568392924470941,"keywords":["cp","nocrits","nodmgspread","uncletopia"],"game_id":440,"stv_port":27026,"stv_name":"Uncletopia | London | 2 | All Maps | STV","players":null},{"server_id":320,"name":"Uncletopia | London | 3 | All Maps","name_short":"lon-3","host":"lon-1.uk.uncletopia.com","port":27035,"enabled":true,"region":"eu","cc":"gb","latitude":51.509865,"longitude":-0.118092,"reserved":0,"last_update":"0001-01-01T00:00:00Z","name_a2s":"Uncletopia | London | 3 | All Maps","protocol":17,"map":"cp_sunshine","folder":"tf","game":"Team Fortress","app_id":440,"player_count":0,"max_players":24,"Bots":0,"server_type":"Dedicated","server_os":"Linux","password":true,"vac":true,"version":"7932396","steam_id":85568392924510192,"keywords":["cp","nocrits","nodmgspread","uncletopia"],"game_id":440,"stv_port":27036,"stv_name":"Uncletopia | London | 3 | All Maps | STV","players":null},{"server_id":321,"name":"Uncletopia | London | 4 | All Maps","name_short":"lon-4","host":"lon-1.uk.uncletopia.com","port":27045,"enabled":true,"region":"eu","cc":"gb","latitude":51.509865,"longitude":-0.118092,"reserved":0,"last_update":"0001-01-01T00:00:00Z","name_a2s":"Uncletopia | London | 4 | All Maps","protocol":17,"map":"pl_frontier_final","folder":"tf","game":"Team Fortress","app_id":440,"player_count":0,"max_players":24,"Bots":0,"server_type":"Dedicated","server_os":"Linux","password":true,"vac":true,"version":"7932396","steam_id":85568392924510193,"keywords":["nocrits","nodmgspread","payload","uncletopia"],"game_id":440,"stv_port":27046,"stv_name":"Uncletopia | London | 4 | All Maps | STV","players":null},{"server_id":21,"name":"Uncletopia | London | 5 | All Maps","name_short":"lon-5","host":"lon-1.uk.uncletopia.com","port":27055,"enabled":true,"region":"eu","cc":"gb","latitude":51.509865,"longitude":-0.118092,"reserved":0,"last_update":"0001-01-01T00:00:00Z","name_a2s":"Uncletopia | London | 5 | All Maps","protocol":17,"map":"pl_swiftwater_final1","folder":"tf","game":"Team Fortress","app_id":440,"player_count":0,"max_players":24,"Bots":0,"server_type":"Dedicated","server_os":"Linux","password":true,"vac":true,"version":"7932396","steam_id":85568392924742829,"keywords":["nocrits","nodmgspread","payload","uncletopia"],"game_id":440,"stv_port":27056,"stv_name":"Uncletopia | London | 5 | All Maps | STV","players":null},{"server_id":22,"name":"Uncletopia | London | 6 | All Maps","name_short":"lon-6","host":"lon-1.uk.uncletopia.com","port":27065,"enabled":true,"region":"eu","cc":"gb","latitude":51.509865,"longitude":-0.118092,"reserved":0,"last_update":"0001-01-01T00:00:00Z","name_a2s":"Uncletopia | London | 6 | All Maps","protocol":17,"map":"koth_highpass","folder":"tf","game":"Team Fortress","app_id":440,"player_count":6,"max_players":24,"Bots":0,"server_type":"Dedicated","server_os":"Linux","password":true,"vac":true,"version":"7932396","steam_id":85568392924742830,"keywords":["cp","nocrits","nodmgspread","uncletopia"],"game_id":440,"stv_port":27066,"stv_name":"Uncletopia | London | 6 | All Maps | STV","players":[{"user_id":366,"name":"the indomitable human spirit","steam_id":76561198718760200,"connected_time":570000000000,"state":"active","ping":45},{"user_id":367,"name":"Winter","steam_id":76561198134805479,"connected_time":349000000000,"state":"active","ping":40},{"user_id":368,"name":"Qdarks","steam_id":76561198013391340,"connected_time":69000000000,"state":"active","ping":126},{"user_id":342,"name":"Nyhde","steam_id":76561198012771416,"connected_time":3644000000000,"state":"active","ping":112},{"user_id":357,"name":"aemiil","steam_id":76561199273601234,"connected_time":1731000000000,"state":"active","ping":74},{"user_id":318,"name":"Worm","steam_id":76561198296497176,"connected_time":5497000000000,"state":"active","ping":41}]},{"server_id":40,"name":"Uncletopia | London | 7 | No Payload","name_short":"lon-7","host":"lon-1.uk.uncletopia.com","port":27075,"enabled":true,"region":"eu","cc":"gb","latitude":51.509865,"longitude":-0.118092,"reserved":0,"last_update":"0001-01-01T00:00:00Z","name_a2s":"Uncletopia | London | 7 | No Payload","protocol":17,"map":"koth_sawmill","folder":"tf","game":"Team Fortress","app_id":440,"player_count":0,"max_players":24,"Bots":0,"server_type":"Dedicated","server_os":"Linux","password":true,"vac":true,"version":"7932396","steam_id":85568392924964314,"keywords":["cp","nocrits","nodmgspread","uncletopia"],"game_id":440,"stv_port":27076,"stv_name":"Uncletopia | London | 7 | No Payload | STV","players":null},{"server_id":41,"name":"Uncletopia | London | 8 | Community","name_short":"lon-8","host":"lon-1.uk.uncletopia.com","port":27085,"enabled":true,"region":"eu","cc":"gb","latitude":51.509865,"longitude":-0.118092,"reserved":0,"last_update":"0001-01-01T00:00:00Z","name_a2s":"Uncletopia | London | 8 | Community","protocol":17,"map":"workshop/koth_ramjam_rc1.ugc459778887","folder":"tf","game":"Team Fortress","app_id":440,"player_count":0,"max_players":24,"Bots":0,"server_type":"Dedicated","server_os":"Linux","password":true,"vac":true,"version":"7932396","steam_id":85568392924964315,"keywords":["cp","nocrits","nodmgspread","uncletopia"],"game_id":440,"stv_port":27086,"stv_name":"Uncletopia | London | 8 | Community | STV","players":null},{"server_id":300,"name":"Uncletopia | Montréal | 1 | All Maps","name_short":"mtl-1","host":"mtl-1.ca.uncletopia.com","port":27015,"enabled":true,"region":"us-east","cc":"ca","latitude":45.50889,"longitude":-73.56167,"reserved":0,"last_update":"0001-01-01T00:00:00Z","name_a2s":"Uncletopia | Montréal | 1 | All Maps","protocol":17,"map":"cp_dustbowl","folder":"tf","game":"Team Fortress","app_id":440,"player_count":3,"max_players":24,"Bots":0,"server_type":"Dedicated","server_os":"Linux","password":true,"vac":true,"version":"7932396","steam_id":85568392924500087,"keywords":["cp","nocrits","nodmgspread","uncletopia"],"game_id":440,"stv_port":27016,"stv_name":"Uncletopia | Montréal | 1 | All Maps | STV","players":[{"user_id":7,"name":"dove gummies","steam_id":76561198374227766,"connected_time":1500000000000,"state":"active","ping":70},{"user_id":9,"name":"violetcassette","steam_id":76561199028224555,"connected_time":1390000000000,"state":"active","ping":126},{"user_id":10,"name":"(TOENAIL THIEF)","steam_id":76561198851856385,"connected_time":224000000000,"state":"active","ping":129}]},{"server_id":301,"name":"Uncletopia | Montréal | 2 | All Maps","name_short":"mtl-2","host":"mtl-1.ca.uncletopia.com","port":27025,"enabled":true,"region":"us-east","cc":"ca","latitude":45.50889,"longitude":-73.56167,"reserved":0,"last_update":"0001-01-01T00:00:00Z","name_a2s":"Uncletopia | Montréal | 2 | All Maps","protocol":17,"map":"koth_highpass","folder":"tf","game":"Team Fortress","app_id":440,"player_count":0,"max_players":24,"Bots":0,"server_type":"Dedicated","server_os":"Linux","password":true,"vac":true,"version":"7932396","steam_id":85568392924500088,"keywords":["cp","nocrits","nodmgspread","uncletopia"],"game_id":440,"stv_port":27026,"stv_name":"Uncletopia | Montréal | 2 | All Maps | STV","players":null},{"server_id":302,"name":"Uncletopia | Montréal | 3 | All Maps","name_short":"mtl-3","host":"mtl-1.ca.uncletopia.com","port":27035,"enabled":true,"region":"us-east","cc":"ca","latitude":45.50889,"longitude":-73.56167,"reserved":0,"last_update":"0001-01-01T00:00:00Z","name_a2s":"Uncletopia | Montréal | 3 | All Maps","protocol":17,"map":"cp_sunshine","folder":"tf","game":"Team Fortress","app_id":440,"player_count":24,"max_players":24,"Bots":0,"server_type":"Dedicated","server_os":"Linux","password":true,"vac":true,"version":"7932396","steam_id":85568392924500089,"keywords":["cp","nocrits","nodmgspread","uncletopia"],"game_id":440,"stv_port":27036,"stv_name":"Uncletopia | Montréal | 3 | All Maps | STV","players":[{"user_id":173,"name":"machineclone","steam_id":76561198076320219,"connected_time":2812000000000,"state":"active","ping":169},{"user_id":197,"name":"emseaeye","steam_id":76561198161499803,"connected_time":941000000000,"state":"active","ping":48},{"user_id":174,"name":"puffleman577","steam_id":76561198120638093,"connected_time":2735000000000,"state":"active","ping":88},{"user_id":200,"name":"HALO 3","steam_id":76561198020825795,"connected_time":275000000000,"state":"active","ping":86},{"user_id":198,"name":"Scud","steam_id":76561198079364693,"connected_time":537000000000,"state":"active","ping":180},{"user_id":186,"name":"big tats","steam_id":76561198103496593,"connected_time":1824000000000,"state":"active","ping":66},{"user_id":175,"name":"rad killl raccoon","steam_id":76561198980975595,"connected_time":2601000000000,"state":"active","ping":126},{"user_id":189,"name":"Byte The Protogen","steam_id":76561199229871383,"connected_time":1685000000000,"state":"active","ping":126},{"user_id":190,"name":"goldgardian","steam_id":76561198319471339,"connected_time":1617000000000,"state":"active","ping":86},{"user_id":183,"name":"jooby","steam_id":76561198131065492,"connected_time":1944000000000,"state":"active","ping":55},{"user_id":162,"name":"Your Local NPR Station","steam_id":76561198143830279,"connected_time":3758000000000,"state":"active","ping":60},{"user_id":191,"name":"a 1930s robber","steam_id":76561198125237406,"connected_time":1483000000000,"state":"active","ping":67},{"user_id":192,"name":"Sh!t","steam_id":76561198126498212,"connected_time":1466000000000,"state":"active","ping":57},{"user_id":193,"name":"isaiah","steam_id":76561197962607364,"connected_time":1425000000000,"state":"active","ping":79},{"user_id":153,"name":"totally not a pile of beans","steam_id":76561198119851931,"connected_time":5396000000000,"state":"active","ping":76},{"user_id":194,"name":"kiv","steam_id":76561198838223023,"connected_time":1371000000000,"state":"active","ping":45},{"user_id":199,"name":"Trash","steam_id":76561198358471281,"connected_time":453000000000,"state":"active","ping":60},{"user_id":201,"name":"danielarmvt","steam_id":76561198799723201,"connected_time":99000000000,"state":"active","ping":107},{"user_id":170,"name":"The Juice","steam_id":76561198065307144,"connected_time":3231000000000,"state":"active","ping":75},{"user_id":182,"name":"sillyjack","steam_id":76561198844273999,"connected_time":2009000000000,"state":"active","ping":106},{"user_id":178,"name":"duckinss","steam_id":76561199151936460,"connected_time":2493000000000,"state":"active","ping":111},{"user_id":179,"name":"Chad","steam_id":76561198222313772,"connected_time":2485000000000,"state":"active","ping":88},{"user_id":195,"name":"lost in spaaaaace","steam_id":76561199085974120,"connected_time":1350000000000,"state":"active","ping":72},{"user_id":196,"name":"SharkGuillotine","steam_id":76561198109028172,"connected_time":1348000000000,"state":"active","ping":62}]},{"server_id":303,"name":"Uncletopia | Montréal | 4 | No Payload","name_short":"mtl-4","host":"mtl-1.ca.uncletopia.com","port":27045,"enabled":true,"region":"us-east","cc":"ca","latitude":45.50889,"longitude":-73.56167,"reserved":0,"last_update":"0001-01-01T00:00:00Z","name_a2s":"Uncletopia | Montréal | 4 | No Payload","protocol":17,"map":"koth_lazarus","folder":"tf","game":"Team Fortress","app_id":440,"player_count":0,"max_players":24,"Bots":0,"server_type":"Dedicated","server_os":"Linux","password":true,"vac":true,"version":"7932396","steam_id":85568392924500090,"keywords":["cp","nocrits","nodmgspread","uncletopia"],"game_id":440,"stv_port":27046,"stv_name":"Uncletopia | Montréal | 4 | No Payload | STV","players":null},{"server_id":13,"name":"Uncletopia | New York City | 1 | All Maps","name_short":"nyc-1","host":"nyc-1.us.uncletopia.com","port":27015,"enabled":true,"region":"us-east","cc":"us","latitude":40.73061,"longitude":-73.93524,"reserved":0,"last_update":"0001-01-01T00:00:00Z","name_a2s":"Uncletopia | New York City | 1 | All Maps","protocol":17,"map":"cp_dustbowl","folder":"tf","game":"Team Fortress","app_id":440,"player_count":24,"max_players":24,"Bots":0,"server_type":"Dedicated","server_os":"Linux","password":true,"vac":true,"version":"7932396","steam_id":85568392924469993,"keywords":["cp","nocrits","nodmgspread","uncletopia"],"game_id":440,"stv_port":27016,"stv_name":"Uncletopia | New York City | 1 | All Maps | STV","players":[{"user_id":260,"name":"grunt","steam_id":76561198860913617,"connected_time":994000000000,"state":"active","ping":127},{"user_id":204,"name":"constance clicker","steam_id":76561198046130544,"connected_time":5539000000000,"state":"active","ping":41},{"user_id":264,"name":"Blobbyfish","steam_id":76561198822962650,"connected_time":720000000000,"state":"active","ping":56},{"user_id":245,"name":"Hobo","steam_id":76561197998157837,"connected_time":2548000000000,"state":"active","ping":86},{"user_id":231,"name":"Frajer","steam_id":76561198059129680,"connected_time":3631000000000,"state":"active","ping":64},{"user_id":238,"name":"chrisd149","steam_id":76561198018710480,"connected_time":2904000000000,"state":"active","ping":90},{"user_id":268,"name":"d00ie","steam_id":76561198151032242,"connected_time":358000000000,"state":"active","ping":48},{"user_id":224,"name":"JUST ONE PEPSI","steam_id":76561198084334538,"connected_time":4480000000000,"state":"active","ping":53},{"user_id":233,"name":"therajmahal","steam_id":76561199012370396,"connected_time":2990000000000,"state":"active","ping":61},{"user_id":263,"name":"Devoid","steam_id":76561198254039012,"connected_time":896000000000,"state":"active","ping":25},{"user_id":269,"name":"Cesium","steam_id":76561198340902384,"connected_time":51000000000,"state":"active","ping":71},{"user_id":257,"name":"Dr Oshawott","steam_id":76561198042021629,"connected_time":1548000000000,"state":"active","ping":87},{"user_id":254,"name":"Gang_Weed","steam_id":76561198301213645,"connected_time":1631000000000,"state":"active","ping":69},{"user_id":225,"name":"Henry Pissinger","steam_id":76561198021757341,"connected_time":4465000000000,"state":"active","ping":54},{"user_id":266,"name":"Herdez Hot Salsa","steam_id":76561197991740906,"connected_time":536000000000,"state":"active","ping":71},{"user_id":178,"name":"the piss boiling machine","steam_id":76561198113716047,"connected_time":7811000000000,"state":"active","ping":62},{"user_id":242,"name":"CrossRentsch","steam_id":76561197972631984,"connected_time":2764000000000,"state":"active","ping":79},{"user_id":193,"name":"Gentoo Linux Gaming","steam_id":76561197999657118,"connected_time":6810000000000,"state":"active","ping":72},{"user_id":255,"name":"JJmanepic Loves Bingus","steam_id":76561198387660652,"connected_time":1628000000000,"state":"active","ping":64},{"user_id":220,"name":"souljaboytellem.com","steam_id":76561198111975583,"connected_time":4902000000000,"state":"active","ping":90},{"user_id":232,"name":"juanjoesc","steam_id":76561198186368430,"connected_time":3149000000000,"state":"active","ping":138},{"user_id":267,"name":"GoldtoothFour","steam_id":76561198055529332,"connected_time":530000000000,"state":"active","ping":67},{"user_id":182,"name":"Kingpin","steam_id":76561198362916241,"connected_time":7520000000000,"state":"active","ping":81},{"user_id":251,"name":"Frog","steam_id":76561198170199881,"connected_time":1673000000000,"state":"active","ping":75}]},{"server_id":14,"name":"Uncletopia | New York City | 2 | All Maps","name_short":"nyc-2","host":"nyc-1.us.uncletopia.com","port":27025,"enabled":true,"region":"us-east","cc":"us","latitude":40.73061,"longitude":-73.93524,"reserved":0,"last_update":"0001-01-01T00:00:00Z","name_a2s":"Uncletopia | New York City | 2 | All Maps","protocol":17,"map":"cp_steel","folder":"tf","game":"Team Fortress","app_id":440,"player_count":24,"max_players":24,"Bots":0,"server_type":"Dedicated","server_os":"Linux","password":true,"vac":true,"version":"7932396","steam_id":85568392924469994,"keywords":["cp","nocrits","nodmgspread","uncletopia"],"game_id":440,"stv_port":27026,"stv_name":"Uncletopia | New York City | 2 | All Maps | STV","players":[{"user_id":124,"name":"Sick Dibble","steam_id":76561198016422743,"connected_time":1646000000000,"state":"active","ping":80},{"user_id":98,"name":"FIREPOW #RTB","steam_id":76561198111259720,"connected_time":3172000000000,"state":"active","ping":88},{"user_id":128,"name":"Kip 🐇","steam_id":76561198075476523,"connected_time":606000000000,"state":"active","ping":86},{"user_id":109,"name":"put my hand in the cashregister","steam_id":76561198062991744,"connected_time":2666000000000,"state":"active","ping":53},{"user_id":121,"name":"BOT Fergus","steam_id":76561198453824178,"connected_time":1898000000000,"state":"active","ping":122},{"user_id":129,"name":"Moe Fugga","steam_id":76561198102044366,"connected_time":584000000000,"state":"active","ping":84},{"user_id":141,"name":"arinet","steam_id":76561198052572890,"connected_time":235000000000,"state":"active","ping":48},{"user_id":105,"name":"Shapeshiftertrue","steam_id":76561198440835095,"connected_time":2863000000000,"state":"active","ping":73},{"user_id":101,"name":"Vinson","steam_id":76561198089905311,"connected_time":2983000000000,"state":"active","ping":60},{"user_id":142,"name":"E4Estrogen","steam_id":76561198085813708,"connected_time":159000000000,"state":"active","ping":74},{"user_id":115,"name":"james_bondage","steam_id":76561199476062624,"connected_time":2567000000000,"state":"active","ping":82},{"user_id":92,"name":"tyroni","steam_id":76561198389240169,"connected_time":3477000000000,"state":"active","ping":51},{"user_id":133,"name":"29 buried 0 found","steam_id":76561199153376034,"connected_time":315000000000,"state":"active","ping":87},{"user_id":134,"name":"girldick senator","steam_id":76561199207285498,"connected_time":305000000000,"state":"active","ping":114},{"user_id":135,"name":"Dollar Bill (Crisp)","steam_id":76561197999478769,"connected_time":291000000000,"state":"active","ping":91},{"user_id":90,"name":"Bag","steam_id":76561198012395490,"connected_time":4093000000000,"state":"active","ping":61},{"user_id":136,"name":"pipibaby","steam_id":76561198067430685,"connected_time":289000000000,"state":"active","ping":56},{"user_id":143,"name":"Takareer","steam_id":76561198001751765,"connected_time":123000000000,"state":"active","ping":70},{"user_id":88,"name":"The Eyeball Man","steam_id":76561198013534207,"connected_time":4179000000000,"state":"active","ping":72},{"user_id":123,"name":"Jeddef","steam_id":76561198040012616,"connected_time":1676000000000,"state":"active","ping":157},{"user_id":116,"name":"uncle 'ardboss","steam_id":76561198055490732,"connected_time":2561000000000,"state":"active","ping":168},{"user_id":138,"name":"exten-z","steam_id":76561198004359190,"connected_time":279000000000,"state":"active","ping":45},{"user_id":139,"name":"cwaggs76","steam_id":76561199013048778,"connected_time":274000000000,"state":"active","ping":84},{"user_id":140,"name":"BenBen07","steam_id":76561198129584634,"connected_time":270000000000,"state":"active","ping":93}]},{"server_id":15,"name":"Uncletopia | New York City | 3 | Stopwatch Beta","name_short":"nyc-3","host":"nyc-1.us.uncletopia.com","port":27035,"enabled":true,"region":"us-east","cc":"us","latitude":40.73061,"longitude":-73.93524,"reserved":0,"last_update":"0001-01-01T00:00:00Z","name_a2s":"Uncletopia | New York City | 3 | Stopwatch Beta","protocol":17,"map":"workshop/koth_product_final.ugc454272353","folder":"tf","game":"Team Fortress","app_id":440,"player_count":0,"max_players":24,"Bots":0,"server_type":"Dedicated","server_os":"Linux","password":true,"vac":true,"version":"7932396","steam_id":85568392924742820,"keywords":["cp","nocrits","nodmgspread","uncletopia"],"game_id":440,"stv_port":27036,"stv_name":"Uncletopia | New York City | 3 | Stopwatch Beta | STV","players":null},{"server_id":16,"name":"Uncletopia | New York City | 4 | Community","name_short":"nyc-4","host":"nyc-1.us.uncletopia.com","port":27045,"enabled":true,"region":"us-east","cc":"us","latitude":40.73061,"longitude":-73.93524,"reserved":0,"last_update":"0001-01-01T00:00:00Z","name_a2s":"Uncletopia | New York City | 4 | Community","protocol":17,"map":"workshop/pl_eruption_b9a.ugc2807898013","folder":"tf","game":"Team Fortress","app_id":440,"player_count":10,"max_players":24,"Bots":0,"server_type":"Dedicated","server_os":"Linux","password":true,"vac":true,"version":"7932396","steam_id":85568392924742821,"keywords":["nocrits","nodmgspread","payload","uncletopia"],"game_id":440,"stv_port":27046,"stv_name":"Uncletopia | New York City | 4 | Community | STV","players":[{"user_id":170,"name":"erf","steam_id":76561198078203677,"connected_time":3758000000000,"state":"active","ping":50},{"user_id":163,"name":"concrete_car","steam_id":76561198388207363,"connected_time":4622000000000,"state":"active","ping":60},{"user_id":213,"name":"I'mChris_","steam_id":76561198061718534,"connected_time":374000000000,"state":"active","ping":79},{"user_id":169,"name":"Ballistic","steam_id":76561197992355477,"connected_time":3797000000000,"state":"active","ping":55},{"user_id":214,"name":"noahjwarner09","steam_id":76561199444479988,"connected_time":22000000000,"state":"active","ping":87},{"user_id":207,"name":"incompetentmedic","steam_id":76561199466073856,"connected_time":1081000000000,"state":"active","ping":71},{"user_id":188,"name":"Chicken Joe","steam_id":76561198278185182,"connected_time":2121000000000,"state":"active","ping":49},{"user_id":190,"name":"Linkedfurhire","steam_id":76561198149363268,"connected_time":2078000000000,"state":"active","ping":46},{"user_id":210,"name":"Xlopthessa","steam_id":76561198295361100,"connected_time":883000000000,"state":"active","ping":128},{"user_id":212,"name":"Minidonk","steam_id":76561197983644117,"connected_time":812000000000,"state":"active","ping":116}]},{"server_id":142,"name":"Uncletopia | São Paulo | 1 | All Maps","name_short":"sao-1","host":"sao-1.br.uncletopia.com","port":27015,"enabled":true,"region":"sa","cc":"br","latitude":-23.533773,"longitude":-46.62529,"reserved":0,"last_update":"0001-01-01T00:00:00Z","name_a2s":"Uncletopia | São Paulo | 1 | All Maps","protocol":17,"map":"koth_lakeside_final","folder":"tf","game":"Team Fortress","app_id":440,"player_count":0,"max_players":24,"Bots":0,"server_type":"Dedicated","server_os":"Linux","password":true,"vac":true,"version":"7932396","steam_id":85568392924469996,"keywords":["cp","nocrits","nodmgspread","uncletopia"],"game_id":440,"stv_port":27016,"stv_name":"Uncletopia | São Paulo | 1 | All Maps | STV","players":null},{"server_id":143,"name":"Uncletopia | São Paulo | 2 | All Maps","name_short":"sao-2","host":"sao-2.br.uncletopia.com","port":27015,"enabled":true,"region":"sa","cc":"br","latitude":-23.533773,"longitude":-46.62529,"reserved":0,"last_update":"0001-01-01T00:00:00Z","name_a2s":"Uncletopia | São Paulo | 2 | All Maps","protocol":17,"map":"plr_nightfall_final","folder":"tf","game":"Team Fortress","app_id":440,"player_count":0,"max_players":24,"Bots":0,"server_type":"Dedicated","server_os":"Linux","password":true,"vac":true,"version":"7932396","steam_id":85568392924485349,"keywords":["nocrits","nodmgspread","payload","uncletopia"],"game_id":440,"stv_port":27016,"stv_name":"Uncletopia | São Paulo | 2 | All Maps | STV","players":null},{"server_id":7,"name":"Uncletopia | Seattle | 1 | All Maps","name_short":"sea-1","host":"sea-1.us.uncletopia.com","port":27015,"enabled":true,"region":"us-west","cc":"us","latitude":47.608013,"longitude":-122.33517,"reserved":0,"last_update":"0001-01-01T00:00:00Z","name_a2s":"Uncletopia | Seattle | 1 | All Maps","protocol":17,"map":"pl_badwater","folder":"tf","game":"Team Fortress","app_id":440,"player_count":24,"max_players":24,"Bots":0,"server_type":"Dedicated","server_os":"Linux","password":true,"vac":true,"version":"7932396","steam_id":85568392924469997,"keywords":["nocrits","nodmgspread","payload","uncletopia"],"game_id":440,"stv_port":27016,"stv_name":"Uncletopia | Seattle | 1 | All Maps | STV","players":[{"user_id":351,"name":"jayeskae","steam_id":76561198144220801,"connected_time":1802000000000,"state":"active","ping":47},{"user_id":350,"name":"TROY","steam_id":76561197983852176,"connected_time":1845000000000,"state":"active","ping":74},{"user_id":379,"name":"R5-D4","steam_id":76561198025196439,"connected_time":28000000000,"state":"active","ping":52},{"user_id":370,"name":"NEBULA","steam_id":76561198086878595,"connected_time":741000000000,"state":"active","ping":72},{"user_id":305,"name":"ORANGE","steam_id":76561198000401769,"connected_time":5711000000000,"state":"active","ping":47},{"user_id":342,"name":"lou","steam_id":76561198373170503,"connected_time":2319000000000,"state":"active","ping":109},{"user_id":373,"name":"MyMonkeyBaby","steam_id":76561198046896670,"connected_time":616000000000,"state":"active","ping":60},{"user_id":327,"name":"Mignyanne :3","steam_id":76561198048754056,"connected_time":2970000000000,"state":"active","ping":68},{"user_id":376,"name":"rorywashere /ᐠ - ˕ -マ Ⳋ","steam_id":76561198065825165,"connected_time":509000000000,"state":"active","ping":99},{"user_id":377,"name":"resting neutral face","steam_id":76561197999259502,"connected_time":310000000000,"state":"active","ping":62},{"user_id":357,"name":"oo","steam_id":76561198119626492,"connected_time":1449000000000,"state":"active","ping":67},{"user_id":363,"name":"makeshift_burrito","steam_id":76561198042510825,"connected_time":1294000000000,"state":"active","ping":71},{"user_id":378,"name":"Vincent Van Bro","steam_id":76561197966919802,"connected_time":53000000000,"state":"active","ping":58},{"user_id":326,"name":"Slothy","steam_id":76561198967069349,"connected_time":2985000000000,"state":"active","ping":54},{"user_id":374,"name":"Dimmerswitch","steam_id":76561198034782177,"connected_time":541000000000,"state":"active","ping":56},{"user_id":359,"name":"Rose","steam_id":76561198955581861,"connected_time":1415000000000,"state":"active","ping":79},{"user_id":353,"name":"Mom","steam_id":76561198207936000,"connected_time":1732000000000,"state":"active","ping":59},{"user_id":322,"name":"sir jayden","steam_id":76561198077866090,"connected_time":3618000000000,"state":"active","ping":74},{"user_id":314,"name":"Daz","steam_id":76561198041431938,"connected_time":4538000000000,"state":"active","ping":51},{"user_id":375,"name":"Arkell","steam_id":76561198135884882,"connected_time":541000000000,"state":"active","ping":46},{"user_id":367,"name":"Tom Skirrett","steam_id":76561198014600788,"connected_time":903000000000,"state":"active","ping":74},{"user_id":365,"name":"ShredMaan","steam_id":76561198429982138,"connected_time":1173000000000,"state":"active","ping":83},{"user_id":366,"name":"krakn","steam_id":76561199125572659,"connected_time":1146000000000,"state":"active","ping":69},{"user_id":372,"name":"jorts","steam_id":76561199041179985,"connected_time":676000000000,"state":"active","ping":55}]},{"server_id":119,"name":"Uncletopia | Seattle | 2 | All Maps","name_short":"sea-2","host":"sea-1.us.uncletopia.com","port":27025,"enabled":true,"region":"us-west","cc":"us","latitude":47.608013,"longitude":-122.33517,"reserved":0,"last_update":"0001-01-01T00:00:00Z","name_a2s":"Uncletopia | Seattle | 2 | All Maps","protocol":17,"map":"pl_badwater","folder":"tf","game":"Team Fortress","app_id":440,"player_count":24,"max_players":24,"Bots":0,"server_type":"Dedicated","server_os":"Linux","password":true,"vac":true,"version":"7932396","steam_id":85568392924469998,"keywords":["nocrits","nodmgspread","payload","uncletopia"],"game_id":440,"stv_port":27026,"stv_name":"Uncletopia | Seattle | 2 | All Maps | STV","players":[{"user_id":404,"name":"Ymiir","steam_id":76561198118284271,"connected_time":2395000000000,"state":"active","ping":85},{"user_id":421,"name":"Potato Knishes","steam_id":76561198063539547,"connected_time":192000000000,"state":"active","ping":54},{"user_id":423,"name":"Smile","steam_id":76561198110008786,"connected_time":51000000000,"state":"active","ping":77},{"user_id":425,"name":"pishnauts","steam_id":76561198960850707,"connected_time":38000000000,"state":"active","ping":60},{"user_id":403,"name":"Mayo Muncher","steam_id":76561198350246784,"connected_time":2572000000000,"state":"active","ping":89},{"user_id":419,"name":"CashGordon","steam_id":76561197975594096,"connected_time":978000000000,"state":"active","ping":38},{"user_id":411,"name":"basmati jarate","steam_id":76561198319442494,"connected_time":1244000000000,"state":"active","ping":82},{"user_id":372,"name":"Strikerbolt","steam_id":76561199095622897,"connected_time":4435000000000,"state":"active","ping":82},{"user_id":373,"name":"The Noble Lavender","steam_id":76561198078395639,"connected_time":4374000000000,"state":"active","ping":90},{"user_id":364,"name":"Quarter Cheese","steam_id":76561198115814588,"connected_time":4718000000000,"state":"active","ping":49},{"user_id":391,"name":"countlesschromosome","steam_id":76561197972601902,"connected_time":3223000000000,"state":"active","ping":87},{"user_id":415,"name":"Jeffery","steam_id":76561199226711716,"connected_time":1181000000000,"state":"active","ping":91},{"user_id":418,"name":"Raian","steam_id":76561199138048671,"connected_time":1011000000000,"state":"active","ping":63},{"user_id":385,"name":"ejschild745","steam_id":76561199013388867,"connected_time":3961000000000,"state":"active","ping":77},{"user_id":338,"name":"Speedy","steam_id":76561198080761661,"connected_time":5731000000000,"state":"active","ping":125},{"user_id":422,"name":"Drapph","steam_id":76561199384213314,"connected_time":187000000000,"state":"active","ping":118},{"user_id":378,"name":"Grand","steam_id":76561198290143399,"connected_time":4225000000000,"state":"active","ping":74},{"user_id":426,"name":"gulp","steam_id":76561198068257774,"connected_time":8000000000,"state":"spawning","ping":106},{"user_id":405,"name":"Petrichor","steam_id":76561198323397375,"connected_time":2325000000000,"state":"active","ping":119},{"user_id":413,"name":"viciousbeatmaker","steam_id":76561198086876652,"connected_time":1233000000000,"state":"active","ping":75},{"user_id":389,"name":"RainboomCrash","steam_id":76561198065612273,"connected_time":3474000000000,"state":"active","ping":45},{"user_id":392,"name":"Truffles","steam_id":76561198095868800,"connected_time":3098000000000,"state":"active","ping":114},{"user_id":407,"name":"club_ted","steam_id":76561197997180003,"connected_time":1947000000000,"state":"active","ping":47},{"user_id":424,"name":"Frank [LIVE ON TWITCH]","steam_id":76561198126681511,"connected_time":50000000000,"state":"active","ping":77}]},{"server_id":406,"name":"Uncletopia | Seattle | 3 | Stopwatch Beta","name_short":"sea-3","host":"sea-1.us.uncletopia.com","port":27035,"enabled":true,"region":"us-west","cc":"us","latitude":47.608013,"longitude":-122.33517,"reserved":0,"last_update":"0001-01-01T00:00:00Z","name_a2s":"Uncletopia | Seattle | 3 | Stopwatch Beta","protocol":17,"map":"cp_process_final","folder":"tf","game":"Team Fortress","app_id":440,"player_count":23,"max_players":24,"Bots":0,"server_type":"Dedicated","server_os":"Linux","password":true,"vac":true,"version":"7932396","steam_id":85568392924515217,"keywords":["cp","nocrits","nodmgspread","uncletopia"],"game_id":440,"stv_port":27036,"stv_name":"Uncletopia | Seattle | 3 | Stopwatch Beta | STV","players":[{"user_id":319,"name":"level 7 firemancer","steam_id":76561198209571677,"connected_time":46000000000,"state":"active","ping":120},{"user_id":221,"name":"DLATON","steam_id":76561198236650672,"connected_time":5699000000000,"state":"active","ping":99},{"user_id":315,"name":"GO1D3NDRAGON","steam_id":76561198318644084,"connected_time":414000000000,"state":"active","ping":116},{"user_id":309,"name":"Ad The Bot","steam_id":76561198358884258,"connected_time":824000000000,"state":"active","ping":82},{"user_id":253,"name":"CasemanTheBlondeBear","steam_id":76561198144862404,"connected_time":3792000000000,"state":"active","ping":58},{"user_id":303,"name":"t2h","steam_id":76561198057944303,"connected_time":1221000000000,"state":"active","ping":75},{"user_id":258,"name":"Tex","steam_id":76561198096441577,"connected_time":3669000000000,"state":"active","ping":101},{"user_id":317,"name":"4 for $4 Meal Deal","steam_id":76561198044362988,"connected_time":260000000000,"state":"active","ping":105},{"user_id":305,"name":"St. Michael","steam_id":76561198037611052,"connected_time":997000000000,"state":"active","ping":88},{"user_id":170,"name":"Apollo","steam_id":76561198162364702,"connected_time":8905000000000,"state":"active","ping":46},{"user_id":274,"name":"LAN!!K^","steam_id":76561199229169363,"connected_time":2367000000000,"state":"active","ping":151},{"user_id":320,"name":"john fitzgerald kennedy","steam_id":76561199087667270,"connected_time":29000000000,"state":"active","ping":104},{"user_id":316,"name":"Sinn","steam_id":76561199013434543,"connected_time":266000000000,"state":"active","ping":84},{"user_id":282,"name":"[❤] A Red Folfo","steam_id":76561198291724249,"connected_time":1972000000000,"state":"active","ping":136},{"user_id":149,"name":"iaPK","steam_id":76561198056618642,"connected_time":9882000000000,"state":"active","ping":181},{"user_id":297,"name":"Yume","steam_id":76561198018060136,"connected_time":1584000000000,"state":"active","ping":83},{"user_id":281,"name":"[❤]RainbowGryphon420","steam_id":76561198097007697,"connected_time":1979000000000,"state":"active","ping":127},{"user_id":301,"name":"mrthugpug1732","steam_id":76561198881200768,"connected_time":1407000000000,"state":"active","ping":122},{"user_id":313,"name":"Raptor Jesus","steam_id":76561198078664132,"connected_time":579000000000,"state":"active","ping":46},{"user_id":285,"name":"[❤] Adry Kitty ♥","steam_id":76561198081975268,"connected_time":1952000000000,"state":"active","ping":134},{"user_id":308,"name":"Cheers! I'll drink to that","steam_id":76561198112705880,"connected_time":924000000000,"state":"active","ping":64},{"user_id":310,"name":":3","steam_id":76561198909415646,"connected_time":789000000000,"state":"active","ping":74},{"user_id":318,"name":"Doppelgänger","steam_id":76561198036730436,"connected_time":259000000000,"state":"active","ping":85}]},{"server_id":17,"name":"Uncletopia | San Francisco | 1 | All Maps","name_short":"sfo-1","host":"sfo-1.us.uncletopia.com","port":27015,"enabled":true,"region":"us-west","cc":"us","latitude":37.77397,"longitude":-122.4313,"reserved":0,"last_update":"0001-01-01T00:00:00Z","name_a2s":"Uncletopia | San Francisco | 1 | All Maps","protocol":17,"map":"pl_swiftwater_final1","folder":"tf","game":"Team Fortress","app_id":440,"player_count":0,"max_players":24,"Bots":0,"server_type":"Dedicated","server_os":"Linux","password":true,"vac":true,"version":"7932396","steam_id":85568392924469999,"keywords":["nocrits","nodmgspread","payload","uncletopia"],"game_id":440,"stv_port":27016,"stv_name":"Uncletopia | San Francisco | 1 | All Maps | STV","players":null},{"server_id":18,"name":"Uncletopia | San Francisco | 2 | All Maps","name_short":"sfo-2","host":"sfo-1.us.uncletopia.com","port":27025,"enabled":true,"region":"us-west","cc":"us","latitude":37.77397,"longitude":-122.4313,"reserved":0,"last_update":"0001-01-01T00:00:00Z","name_a2s":"Uncletopia | San Francisco | 2 | All Maps","protocol":17,"map":"cp_mountainlab","folder":"tf","game":"Team Fortress","app_id":440,"player_count":22,"max_players":24,"Bots":0,"server_type":"Dedicated","server_os":"Linux","password":true,"vac":true,"version":"7932396","steam_id":85568392924470000,"keywords":["cp","nocrits","nodmgspread","uncletopia"],"game_id":440,"stv_port":27026,"stv_name":"Uncletopia | San Francisco | 2 | All Maps | STV","players":[{"user_id":127,"name":"hookerfucker5000000000","steam_id":76561198063099828,"connected_time":0,"state":"spawning","ping":26},{"user_id":72,"name":"FAKE uncletopia server","steam_id":76561198065662025,"connected_time":3113000000000,"state":"active","ping":49},{"user_id":112,"name":"cringy","steam_id":76561198323000455,"connected_time":495000000000,"state":"active","ping":68},{"user_id":113,"name":"Goofballin","steam_id":76561198839383806,"connected_time":444000000000,"state":"active","ping":75},{"user_id":99,"name":"FOST!","steam_id":76561198361424714,"connected_time":1839000000000,"state":"active","ping":83},{"user_id":114,"name":"Cheesed Burger","steam_id":76561198066425198,"connected_time":429000000000,"state":"active","ping":60},{"user_id":116,"name":"Cappy","steam_id":76561198412600420,"connected_time":199000000000,"state":"active","ping":60},{"user_id":100,"name":"sebasnerd12","steam_id":76561199437010123,"connected_time":1816000000000,"state":"active","ping":69},{"user_id":117,"name":"pearl","steam_id":76561198858474714,"connected_time":174000000000,"state":"active","ping":73},{"user_id":92,"name":"WaywardFinn","steam_id":76561198040391296,"connected_time":2037000000000,"state":"active","ping":127},{"user_id":118,"name":"joe mama","steam_id":76561198044597012,"connected_time":154000000000,"state":"active","ping":60},{"user_id":119,"name":"NewGuy","steam_id":76561198968058652,"connected_time":141000000000,"state":"active","ping":73},{"user_id":120,"name":"dickthany girltano","steam_id":76561198039604491,"connected_time":135000000000,"state":"active","ping":67},{"user_id":89,"name":"Local","steam_id":76561198170915102,"connected_time":2077000000000,"state":"active","ping":65},{"user_id":111,"name":"sussycheese","steam_id":76561198384139570,"connected_time":661000000000,"state":"active","ping":63},{"user_id":102,"name":"zach","steam_id":76561198110695177,"connected_time":1447000000000,"state":"active","ping":113},{"user_id":121,"name":"Tsuki!","steam_id":76561198176686305,"connected_time":131000000000,"state":"active","ping":100},{"user_id":122,"name":"eepy ahh boo","steam_id":76561198072879485,"connected_time":125000000000,"state":"active","ping":61},{"user_id":123,"name":"Real Azure #SaveTF2","steam_id":76561198095912284,"connected_time":107000000000,"state":"active","ping":71},{"user_id":124,"name":"Yosh","steam_id":76561198027078899,"connected_time":63000000000,"state":"active","ping":90},{"user_id":126,"name":"madi's sexy and crunchy pickle\ufffd","steam_id":76561198361917585,"connected_time":55000000000,"state":"spawning","ping":44},{"user_id":48,"name":"Bluedemon","steam_id":76561199212058684,"connected_time":5118000000000,"state":"active","ping":58}]},{"server_id":19,"name":"Uncletopia | San Francisco | 3 | Stopwatch Beta","name_short":"sfo-3","host":"sfo-1.us.uncletopia.com","port":27035,"enabled":true,"region":"us-west","cc":"us","latitude":37.77397,"longitude":-122.4313,"reserved":0,"last_update":"0001-01-01T00:00:00Z","name_a2s":"Uncletopia | San Francisco | 3 | Stopwatch Beta","protocol":17,"map":"koth_lakeside_final","folder":"tf","game":"Team Fortress","app_id":440,"player_count":22,"max_players":24,"Bots":0,"server_type":"Dedicated","server_os":"Linux","password":true,"vac":true,"version":"7932396","steam_id":85568392924742824,"keywords":["cp","nocrits","nodmgspread","uncletopia"],"game_id":440,"stv_port":27036,"stv_name":"Uncletopia | San Francisco | 3 | Stopwatch Beta | STV","players":[{"user_id":160,"name":"cool #1 weezer fan","steam_id":76561199172518546,"connected_time":2859000000000,"state":"active","ping":105},{"user_id":194,"name":"Fajita Master","steam_id":76561198329150962,"connected_time":675000000000,"state":"active","ping":88},{"user_id":200,"name":"Dunski","steam_id":76561198440277329,"connected_time":398000000000,"state":"active","ping":80},{"user_id":190,"name":"Livin' Like Larry","steam_id":76561198313360974,"connected_time":933000000000,"state":"active","ping":32},{"user_id":191,"name":"westward (was/were)","steam_id":76561198805512350,"connected_time":903000000000,"state":"active","ping":85},{"user_id":192,"name":"eryn 🗺","steam_id":76561198004433070,"connected_time":876000000000,"state":"active","ping":98},{"user_id":193,"name":"sora","steam_id":76561198094256973,"connected_time":821000000000,"state":"active","ping":89},{"user_id":179,"name":"DistantJragon","steam_id":76561198117563641,"connected_time":1987000000000,"state":"active","ping":111},{"user_id":172,"name":"TheXayol","steam_id":76561199177408516,"connected_time":2664000000000,"state":"active","ping":114},{"user_id":197,"name":"Alf Creepypasta","steam_id":76561198841844093,"connected_time":543000000000,"state":"active","ping":59},{"user_id":182,"name":"YahYeeterson","steam_id":76561198120480906,"connected_time":1722000000000,"state":"active","ping":86},{"user_id":180,"name":"Reisen Udongein Inaba","steam_id":76561198051082314,"connected_time":1912000000000,"state":"active","ping":53},{"user_id":153,"name":"HawkBlaze","steam_id":76561199000152914,"connected_time":3367000000000,"state":"active","ping":64},{"user_id":196,"name":"wlfgng","steam_id":76561198316639499,"connected_time":617000000000,"state":"active","ping":31},{"user_id":152,"name":"Sabag3D","steam_id":76561198094402240,"connected_time":3524000000000,"state":"active","ping":102},{"user_id":201,"name":"noobis","steam_id":76561198170103838,"connected_time":113000000000,"state":"active","ping":101},{"user_id":173,"name":"Dr.LeatherPsycho","steam_id":76561198800480998,"connected_time":2647000000000,"state":"active","ping":104},{"user_id":198,"name":"Green_GarBear","steam_id":76561199468912415,"connected_time":514000000000,"state":"active","ping":52},{"user_id":199,"name":"Antifa Supersoldier","steam_id":76561198141816516,"connected_time":500000000000,"state":"active","ping":87},{"user_id":159,"name":"Throws Before Bros󠀡","steam_id":76561197992905530,"connected_time":2959000000000,"state":"active","ping":49},{"user_id":174,"name":"Starbound","steam_id":76561198417285529,"connected_time":2642000000000,"state":"active","ping":98}]},{"server_id":20,"name":"Uncletopia | San Francisco | 4 | Community","name_short":"sfo-4","host":"sfo-1.us.uncletopia.com","port":27045,"enabled":true,"region":"us-west","cc":"us","latitude":37.77397,"longitude":-122.4313,"reserved":0,"last_update":"0001-01-01T00:00:00Z","name_a2s":"Uncletopia | San Francisco | 4 | Community","protocol":17,"map":"workshop/cp_logjam_rc12.ugc454812035","folder":"tf","game":"Team Fortress","app_id":440,"player_count":0,"max_players":24,"Bots":0,"server_type":"Dedicated","server_os":"Linux","password":true,"vac":true,"version":"7932396","steam_id":85568392924742826,"keywords":["cp","nocrits","nodmgspread","uncletopia"],"game_id":440,"stv_port":27046,"stv_name":"Uncletopia | San Francisco | 4 | Community | STV","players":null},{"server_id":141,"name":"Uncletopia | Sydney | 1 | All Maps","name_short":"syd-1","host":"syd-1.au.uncletopia.com","port":27015,"enabled":true,"region":"au","cc":"au","latitude":-33.865143,"longitude":151.2099,"reserved":0,"last_update":"0001-01-01T00:00:00Z","name_a2s":"Uncletopia | Sydney | 1 | All Maps","protocol":17,"map":"pl_borneo","folder":"tf","game":"Team Fortress","app_id":440,"player_count":20,"max_players":24,"Bots":0,"server_type":"Dedicated","server_os":"Linux","password":true,"vac":true,"version":"7932396","steam_id":85568392924470001,"keywords":["nocrits","nodmgspread","payload","uncletopia"],"game_id":440,"stv_port":27016,"stv_name":"Uncletopia | Sydney | 1 | All Maps | STV","players":[{"user_id":18,"name":"Michaelsoft Binbows","steam_id":76561198422847304,"connected_time":4520000000000,"state":"active","ping":68},{"user_id":47,"name":"buning sosig sizl","steam_id":76561198274087645,"connected_time":2417000000000,"state":"active","ping":70},{"user_id":79,"name":"Croc","steam_id":76561198357882246,"connected_time":205000000000,"state":"active","ping":56},{"user_id":72,"name":"Bigfluffy","steam_id":76561198196339186,"connected_time":504000000000,"state":"active","ping":60},{"user_id":60,"name":"Branko","steam_id":76561199262196710,"connected_time":1595000000000,"state":"active","ping":33},{"user_id":46,"name":"CheeseFlag126","steam_id":76561199262769917,"connected_time":2535000000000,"state":"active","ping":66},{"user_id":73,"name":"Micromuffin","steam_id":76561198209370423,"connected_time":458000000000,"state":"active","ping":58},{"user_id":40,"name":"dreamydoggy","steam_id":76561198448243169,"connected_time":2836000000000,"state":"active","ping":56},{"user_id":43,"name":"bedshitter","steam_id":76561198061201028,"connected_time":2779000000000,"state":"active","ping":45},{"user_id":26,"name":"Unnaturally Bad","steam_id":76561198383320315,"connected_time":3722000000000,"state":"active","ping":69},{"user_id":80,"name":"Alextronic","steam_id":76561198801363794,"connected_time":136000000000,"state":"active","ping":66},{"user_id":74,"name":"hobo","steam_id":76561199046481213,"connected_time":454000000000,"state":"active","ping":70},{"user_id":70,"name":"thrax","steam_id":76561197992385270,"connected_time":680000000000,"state":"active","ping":55},{"user_id":53,"name":"Quinneyo9","steam_id":76561198984172171,"connected_time":2113000000000,"state":"active","ping":77},{"user_id":81,"name":"slow","steam_id":76561198163340833,"connected_time":81000000000,"state":"active","ping":55},{"user_id":78,"name":"Rodan","steam_id":76561198038401873,"connected_time":259000000000,"state":"active","ping":90},{"user_id":76,"name":"SuperOlk","steam_id":76561198341513810,"connected_time":313000000000,"state":"active","ping":46},{"user_id":77,"name":"WEEABOO69420","steam_id":76561198114276713,"connected_time":305000000000,"state":"active","ping":100},{"user_id":62,"name":"Zepi","steam_id":76561198018887052,"connected_time":1503000000000,"state":"active","ping":52},{"user_id":68,"name":"precious.","steam_id":76561198054804209,"connected_time":1081000000000,"state":"active","ping":88}]},{"server_id":123,"name":"Uncletopia | Sydney | 2 | All Maps","name_short":"syd-2","host":"syd-1.au.uncletopia.com","port":27025,"enabled":true,"region":"au","cc":"au","latitude":-33.865143,"longitude":151.2099,"reserved":0,"last_update":"0001-01-01T00:00:00Z","name_a2s":"Uncletopia | Sydney | 2 | All Maps","protocol":17,"map":"pl_borneo","folder":"tf","game":"Team Fortress","app_id":440,"player_count":0,"max_players":24,"Bots":0,"server_type":"Dedicated","server_os":"Linux","password":true,"vac":true,"version":"7932396","steam_id":85568392924470002,"keywords":["nocrits","nodmgspread","payload","uncletopia"],"game_id":440,"stv_port":27026,"stv_name":"Uncletopia | Sydney | 2 | All Maps | STV","players":null},{"server_id":395,"name":"Uncletopia | Sydney | 3 | All Maps","name_short":"syd-3","host":"syd-1.au.uncletopia.com","port":27035,"enabled":true,"region":"au","cc":"au","latitude":-33.865143,"longitude":151.2099,"reserved":0,"last_update":"0001-01-01T00:00:00Z","name_a2s":"Uncletopia | Sydney | 3 | All Maps","protocol":17,"map":"pl_frontier_final","folder":"tf","game":"Team Fortress","app_id":440,"player_count":0,"max_players":24,"Bots":0,"server_type":"Dedicated","server_os":"Linux","password":true,"vac":true,"version":"7932396","steam_id":85568392925194467,"keywords":["nocrits","nodmgspread","payload","uncletopia"],"game_id":440,"stv_port":27036,"stv_name":"Uncletopia | Sydney | 3 | All Maps | STV","players":null},{"server_id":396,"name":"Uncletopia | Sydney | 4 | All Maps","name_short":"syd-4","host":"syd-1.au.uncletopia.com","port":27045,"enabled":true,"region":"au","cc":"au","latitude":-33.865143,"longitude":151.2099,"reserved":0,"last_update":"0001-01-01T00:00:00Z","name_a2s":"Uncletopia | Sydney | 4 | All Maps","protocol":17,"map":"pl_badwater","folder":"tf","game":"Team Fortress","app_id":440,"player_count":0,"max_players":24,"Bots":0,"server_type":"Dedicated","server_os":"Linux","password":true,"vac":true,"version":"7932396","steam_id":85568392925397958,"keywords":["nocrits","nodmgspread","payload","uncletopia"],"game_id":440,"stv_port":27046,"stv_name":"Uncletopia | Sydney | 4 | All Maps | STV","players":null},{"server_id":58,"name":"Uncletopia | Sydney | 5 | Stopwatch Beta","name_short":"syd-5","host":"syd-1.au.uncletopia.com","port":27055,"enabled":true,"region":"au","cc":"au","latitude":-33.865143,"longitude":151.2099,"reserved":0,"last_update":"0001-01-01T00:00:00Z","name_a2s":"Uncletopia | Sydney | 5 | Stopwatch Beta","protocol":17,"map":"pl_pier","folder":"tf","game":"Team Fortress","app_id":440,"player_count":0,"max_players":24,"Bots":0,"server_type":"Dedicated","server_os":"Linux","password":true,"vac":true,"version":"7932396","steam_id":85568392925397959,"keywords":["nocrits","nodmgspread","payload","uncletopia"],"game_id":440,"stv_port":27056,"stv_name":"Uncletopia | Sydney | 5 | Stopwatch Beta | STV","players":null},{"server_id":59,"name":"Uncletopia | Sydney | 6 | Community","name_short":"syd-6","host":"syd-1.au.uncletopia.com","port":27065,"enabled":true,"region":"au","cc":"au","latitude":-33.865143,"longitude":151.2099,"reserved":0,"last_update":"0001-01-01T00:00:00Z","name_a2s":"Uncletopia | Sydney | 6 | Community","protocol":17,"map":"pl_frontier_final","folder":"tf","game":"Team Fortress","app_id":440,"player_count":0,"max_players":24,"Bots":0,"server_type":"Dedicated","server_os":"Linux","password":true,"vac":true,"version":"7932396","steam_id":85568392925397960,"keywords":["nocrits","nodmgspread","payload","uncletopia"],"game_id":440,"stv_port":27066,"stv_name":"Uncletopia | Sydney | 6 | Community | STV","players":null},{"server_id":49,"name":"Uncletopia | Warsaw | 1 | All Maps","name_short":"waw-1","host":"waw-1.pl.uncletopia.com","port":27015,"enabled":true,"region":"eu","cc":"pl","latitude":52.2297,"longitude":21.017532,"reserved":0,"last_update":"0001-01-01T00:00:00Z","name_a2s":"","protocol":0,"map":"","folder":"","game":"","app_id":0,"player_count":0,"max_players":0,"Bots":0,"server_type":"","server_os":"","password":false,"vac":false,"version":"","steam_id":0,"keywords":null,"game_id":0,"stv_port":0,"stv_name":"","players":null},{"server_id":50,"name":"Uncletopia | Warsaw | 2 | All Maps","name_short":"waw-2","host":"waw-1.pl.uncletopia.com","port":27025,"enabled":true,"region":"eu","cc":"pl","latitude":52.2297,"longitude":21.017532,"reserved":0,"last_update":"0001-01-01T00:00:00Z","name_a2s":"Uncletopia | Warsaw | 2 | All Maps","protocol":17,"map":"koth_highpass","folder":"tf","game":"Team Fortress","app_id":440,"player_count":0,"max_players":24,"Bots":0,"server_type":"Dedicated","server_os":"Linux","password":true,"vac":true,"version":"7932396","steam_id":85568392925397851,"keywords":["cp","nocrits","nodmgspread","uncletopia"],"game_id":440,"stv_port":27026,"stv_name":"Uncletopia | Warsaw | 2 | All Maps | STV","players":null},{"server_id":51,"name":"Uncletopia | Warsaw | 3 | All Maps","name_short":"waw-3","host":"waw-1.pl.uncletopia.com","port":27035,"enabled":true,"region":"eu","cc":"pl","latitude":52.2297,"longitude":21.017532,"reserved":0,"last_update":"0001-01-01T00:00:00Z","name_a2s":"Uncletopia | Warsaw | 3 | All Maps","protocol":17,"map":"koth_viaduct","folder":"tf","game":"Team Fortress","app_id":440,"player_count":0,"max_players":24,"Bots":0,"server_type":"Dedicated","server_os":"Linux","password":true,"vac":true,"version":"7932396","steam_id":85568392925397852,"keywords":["cp","nocrits","nodmgspread","uncletopia"],"game_id":440,"stv_port":27036,"stv_name":"Uncletopia | Warsaw | 3 | All Maps | STV","players":null},{"server_id":52,"name":"Uncletopia | Warsaw | 4 | All Maps","name_short":"waw-4","host":"waw-1.pl.uncletopia.com","port":27045,"enabled":true,"region":"eu","cc":"pl","latitude":52.2297,"longitude":21.017532,"reserved":0,"last_update":"0001-01-01T00:00:00Z","name_a2s":"Uncletopia | Warsaw | 4 | All Maps","protocol":17,"map":"cp_mountainlab","folder":"tf","game":"Team Fortress","app_id":440,"player_count":0,"max_players":24,"Bots":0,"server_type":"Dedicated","server_os":"Linux","password":true,"vac":true,"version":"7932396","steam_id":85568392925397853,"keywords":["cp","nocrits","nodmgspread","uncletopia"],"game_id":440,"stv_port":27046,"stv_name":"Uncletopia | Warsaw | 4 | All Maps | STV","players":null},{"server_id":53,"name":"Uncletopia | Warsaw | 5 | Stopwatch Beta","name_short":"waw-5","host":"waw-1.pl.uncletopia.com","port":27055,"enabled":true,"region":"eu","cc":"pl","latitude":52.2297,"longitude":21.017532,"reserved":0,"last_update":"0001-01-01T00:00:00Z","name_a2s":"Uncletopia | Warsaw | 5 | Stopwatch Beta","protocol":17,"map":"cp_process_final","folder":"tf","game":"Team Fortress","app_id":440,"player_count":0,"max_players":24,"Bots":0,"server_type":"Dedicated","server_os":"Linux","password":true,"vac":true,"version":"7932396","steam_id":85568392925397854,"keywords":["cp","nocrits","nodmgspread","uncletopia"],"game_id":440,"stv_port":27056,"stv_name":"Uncletopia | Warsaw | 5 | Stopwatch Beta | STV","players":null},{"server_id":54,"name":"Uncletopia | Warsaw | 6 | Community","name_short":"waw-6","host":"waw-1.pl.uncletopia.com","port":27065,"enabled":true,"region":"eu","cc":"pl","latitude":52.2297,"longitude":21.017532,"reserved":0,"last_update":"0001-01-01T00:00:00Z","name_a2s":"Uncletopia | Warsaw | 6 | Community","protocol":17,"map":"workshop/cp_bruhstbowl_b6.ugc2878604990","folder":"tf","game":"Team Fortress","app_id":440,"player_count":0,"max_players":24,"Bots":0,"server_type":"Dedicated","server_os":"Linux","password":true,"vac":true,"version":"7932396","steam_id":85568392925397856,"keywords":["cp","nocrits","nodmgspread","uncletopia"],"game_id":440,"stv_port":27066,"stv_name":"Uncletopia | Warsaw | 6 | Community | STV","players":null}]}