{"status":true,"message":"","result":[{"server_id":9,"name":"Uncletopia | Atlanta | 1 | All Maps","name_short":"atl-1","host":"atl-1.us.uncletopia.com","port":27015,"enabled":true,"region":"us-east","cc":"us","latitude":33.753746,"longitude":-84.38633,"reserved":0,"last_update":"0001-01-01T00:00:00Z","name_a2s":"Uncletopia | Atlanta | 1 | All Maps","protocol":17,"map":"cp_snakewater_final1","folder":"tf","game":"Team Fortress","app_id":440,"player_count":12,"max_players":24,"Bots":0,"server_type":"Dedicated","server_os":"Linux","password":true,"vac":true,"version":"7961495","steam_id":85568392924469982,"keywords":["cp","nocrits","nodmgspread","uncletopia"],"game_id":440,"stv_port":27016,"stv_name":"Uncletopia | Atlanta | 1 | All Maps | STV","players":null},{"server_id":104,"name":"Uncletopia | Atlanta | 2 | All Maps","name_short":"atl-2","host":"atl-1.us.uncletopia.com","port":27025,"enabled":true,"region":"us-east","cc":"us","latitude":33.753746,"longitude":-84.38633,"reserved":0,"last_update":"0001-01-01T00:00:00Z","name_a2s":"","protocol":0,"map":"","folder":"","game":"","app_id":0,"player_count":0,"max_players":0,"Bots":0,"server_type":"","server_os":"","password":false,"vac":false,"version":"","steam_id":0,"keywords":null,"game_id":0,"stv_port":0,"stv_name":"","players":null},{"server_id":400,"name":"Uncletopia | Atlanta | 3 | All Maps","name_short":"atl-3","host":"atl-1.us.uncletopia.com","port":27035,"enabled":true,"region":"us-east","cc":"us","latitude":33.753746,"longitude":-84.38633,"reserved":0,"last_update":"0001-01-01T00:00:00Z","name_a2s":"","protocol":0,"map":"","folder":"","game":"","app_id":0,"player_count":0,"max_players":0,"Bots":0,"server_type":"","server_os":"","password":false,"vac":false,"version":"","steam_id":0,"keywords":null,"game_id":0,"stv_port":0,"stv_name":"","players":null},{"server_id":401,"name":"Uncletopia | Atlanta | 4 | Community","name_short":"atl-4","host":"atl-1.us.uncletopia.com","port":27045,"enabled":true,"region":"us-east","cc":"us","latitude":33.753746,"longitude":-84.38633,"reserved":0,"last_update":"0001-01-01T00:00:00Z","name_a2s":"","protocol":0,"map":"","folder":"","game":"","app_id":0,"player_count":0,"max_players":0,"Bots":0,"server_type":"","server_os":"","password":false,"vac":false,"version":"","steam_id":0,"keywords":null,"game_id":0,"stv_port":0,"stv_name":"","players":null},{"server_id":2,"name":"Uncletopia | Chicago | 1 | All Maps","name_short":"chi-1","host":"chi-1.us.uncletopia.com","port":27015,"enabled":true,"region":"us-central","cc":"us","latitude":41.881832,"longitude":-87.62318,"reserved":0,"last_update":"0001-01-01T00:00:00Z","name_a2s":"Uncletopia | Chicago | 1 | All Maps","protocol":17,"map":"pl_borneo","folder":"tf","game":"Team Fortress","app_id":440,"player_count":24,"max_players":24,"Bots":0,"server_type":"Dedicated","server_os":"Linux","password":true,"vac":true,"version":"7961495","steam_id":85568392924469984,"keywords":["nocrits","nodmgspread","payload","uncletopia"],"game_id":440,"stv_port":27016,"stv_name":"Uncletopia | Chicago | 1 | All Maps | STV","players":[{"user_id":694,"name":"darkmatter3dps","steam_id":76561198067423502,"connected_time":843000000000,"state":"active","ping":80},{"user_id":690,"name":"üå∏MelWormüå∏","steam_id":76561198084145814,"connected_time":934000000000,"state":"active","ping":66},{"user_id":681,"name":"stupid ape","steam_id":76561198350027075,"connected_time":1788000000000,"state":"active","ping":54},{"user_id":666,"name":"eish","steam_id":76561198089463603,"connected_time":3511000000000,"state":"active","ping":131},{"user_id":693,"name":"Very Small Giant","steam_id":76561199187337967,"connected_time":877000000000,"state":"active","ping":60},{"user_id":676,"name":"loser","steam_id":76561198259380127,"connected_time":2422000000000,"state":"active","ping":54},{"user_id":695,"name":"Sibmo","steam_id":76561197988534229,"connected_time":766000000000,"state":"active","ping":110},{"user_id":696,"name":"Garrett","steam_id":76561199215798445,"connected_time":761000000000,"state":"active","ping":59},{"user_id":704,"name":"Sophie","steam_id":76561198170408057,"connected_time":591000000000,"state":"active","ping":60},{"user_id":697,"name":"IZISOO","steam_id":76561198970380577,"connected_time":750000000000,"state":"active","ping":61},{"user_id":698,"name":"x","steam_id":76561198013735714,"connected_time":693000000000,"state":"active","ping":84},{"user_id":653,"name":"JakeK","steam_id":76561198149375504,"connected_time":4788000000000,"state":"active","ping":63},{"user_id":699,"name":"Jacob","steam_id":76561198004630011,"connected_time":683000000000,"state":"active","ping":46},{"user_id":654,"name":"Dragus","steam_id":76561198032967285,"connected_time":4785000000000,"state":"active","ping":48},{"user_id":700,"name":"vulcan nightclub pon farr night","steam_id":76561197974283797,"connected_time":673000000000,"state":"active","ping":46},{"user_id":615,"name":"Wizard Raccoon","steam_id":76561198072562591,"connected_time":8032000000000,"state":"active","ping":84},{"user_id":701,"name":"ChozoChorizo","steam_id":76561198272609196,"connected_time":647000000000,"state":"active","ping":59},{"user_id":702,"name":"cass","steam_id":76561198074502046,"connected_time":627000000000,"state":"active","ping":91},{"user_id":703,"name":"rose","steam_id":76561198048882285,"connected_time":612000000000,"state":"active","ping":63},{"user_id":706,"name":"TTV Hunter","steam_id":76561198115812405,"connected_time":581000000000,"state":"active","ping":86},{"user_id":688,"name":"DragonFalcon‚Ñ¢","steam_id":76561198044559930,"connected_time":1089000000000,"state":"active","ping":86},{"user_id":707,"name":"feliser","steam_id":76561198084336096,"connected_time":573000000000,"state":"active","ping":52},{"user_id":708,"name":"Biscipline","steam_id":76561198019206178,"connected_time":543000000000,"state":"active","ping":78},{"user_id":711,"name":"Veridian","steam_id":76561198096334078,"connected_time":250000000000,"state":"active","ping":72}]},{"server_id":106,"name":"Uncletopia | Chicago | 2 | All Maps","name_short":"chi-2","host":"chi-1.us.uncletopia.com","port":27025,"enabled":true,"region":"us-central","cc":"us","latitude":41.881832,"longitude":-87.62318,"reserved":0,"last_update":"0001-01-01T00:00:00Z","name_a2s":"Uncletopia | Chicago | 2 | All Maps","protocol":17,"map":"cp_sunshine","folder":"tf","game":"Team Fortress","app_id":440,"player_count":0,"max_players":24,"Bots":0,"server_type":"Dedicated","server_os":"Linux","password":true,"vac":true,"version":"7961495","steam_id":85568392924469985,"keywords":["cp","nocrits","nodmgspread","uncletopia"],"game_id":440,"stv_port":27026,"stv_name":"Uncletopia | Chicago | 2 | All Maps | STV","players":null},{"server_id":402,"name":"Uncletopia | Chicago | 3 | All Maps","name_short":"chi-3","host":"chi-1.us.uncletopia.com","port":27035,"enabled":true,"region":"us-central","cc":"us","latitude":41.881832,"longitude":-87.62318,"reserved":0,"last_update":"0001-01-01T00:00:00Z","name_a2s":"Uncletopia | Chicago | 3 | All Maps","protocol":17,"map":"cp_dustbowl","folder":"tf","game":"Team Fortress","app_id":440,"player_count":4,"max_players":24,"Bots":0,"server_type":"Dedicated","server_os":"Linux","password":true,"vac":true,"version":"7961495","steam_id":85568392924515191,"keywords":["cp","nocrits","nodmgspread","uncletopia"],"game_id":440,"stv_port":27036,"stv_name":"Uncletopia | Chicago | 3 | All Maps | STV","players":[{"user_id":709,"name":"Amoxicilina","steam_id":76561198168486429,"connected_time":14508000000000,"state":"active","ping":114},{"user_id":810,"name":"too funky ·óúÀ¨·óú","steam_id":76561199120399776,"connected_time":5868000000000,"state":"active","ping":75},{"user_id":696,"name":"RusticCarp42989","steam_id":76561198361151865,"connected_time":15314000000000,"state":"active","ping":129},{"user_id":707,"name":"SiltyStar85","steam_id":76561198309175923,"connected_time":14689000000000,"state":"active","ping":75}]},{"server_id":403,"name":"Uncletopia | Chicago | 4 | All Maps","name_short":"chi-4","host":"chi-1.us.uncletopia.com","port":27045,"enabled":true,"region":"us-central","cc":"us","latitude":41.881832,"longitude":-87.62318,"reserved":0,"last_update":"0001-01-01T00:00:00Z","name_a2s":"Uncletopia | Chicago | 4 | All Maps","protocol":17,"map":"koth_viaduct","folder":"tf","game":"Team Fortress","app_id":440,"player_count":0,"max_players":24,"Bots":0,"server_type":"Dedicated","server_os":"Linux","password":true,"vac":true,"version":"7961495","steam_id":85568392924515193,"keywords":["cp","nocrits","nodmgspread","uncletopia"],"game_id":440,"stv_port":27046,"stv_name":"Uncletopia | Chicago | 4 | All Maps | STV","players":null},{"server_id":36,"name":"Uncletopia | Chicago | 5 | All Maps","name_short":"chi-5","host":"chi-2.us.uncletopia.com","port":27015,"enabled":true,"region":"us-central","cc":"us","latitude":41.881832,"longitude":-87.62318,"reserved":0,"last_update":"0001-01-01T00:00:00Z","name_a2s":"Uncletopia | Chicago | 5 | All Maps","protocol":17,"map":"pl_swiftwater_final1","folder":"tf","game":"Team Fortress","app_id":440,"player_count":23,"max_players":24,"Bots":0,"server_type":"Dedicated","server_os":"Linux","password":true,"vac":true,"version":"7961495","steam_id":85568392924866362,"keywords":["nocrits","nodmgspread","payload","uncletopia"],"game_id":440,"stv_port":27016,"stv_name":"Uncletopia | Chicago | 5 | All Maps | STV","players":[{"user_id":448,"name":"Stranger in a Strange Land","steam_id":76561198049843671,"connected_time":2913000000000,"state":"active","ping":61},{"user_id":473,"name":"Hythreon","steam_id":76561198083031622,"connected_time":1350000000000,"state":"active","ping":104},{"user_id":487,"name":"Light Perseveran","steam_id":76561198057589475,"connected_time":633000000000,"state":"active","ping":68},{"user_id":434,"name":"DFR DeezNoodlez","steam_id":76561198246700372,"connected_time":3893000000000,"state":"active","ping":68},{"user_id":480,"name":"Red Metal","steam_id":76561198362722560,"connected_time":1038000000000,"state":"active","ping":81},{"user_id":429,"name":"Le4n!!!","steam_id":76561198045522596,"connected_time":4886000000000,"state":"active","ping":85},{"user_id":488,"name":"shark","steam_id":76561198387717978,"connected_time":484000000000,"state":"active","ping":46},{"user_id":452,"name":"Quill","steam_id":76561198843773162,"connected_time":2576000000000,"state":"active","ping":69},{"user_id":467,"name":"Sporp","steam_id":76561197987957133,"connected_time":2109000000000,"state":"active","ping":84},{"user_id":490,"name":"Velocircopter","steam_id":76561198847582048,"connected_time":137000000000,"state":"active","ping":82},{"user_id":491,"name":"Coach Neb","steam_id":76561198034552198,"connected_time":66000000000,"state":"active","ping":61},{"user_id":431,"name":"spoon","steam_id":76561198927517471,"connected_time":3903000000000,"state":"active","ping":74},{"user_id":470,"name":"ICE COLD WATER ICE","steam_id":76561198048110137,"connected_time":1859000000000,"state":"active","ping":62},{"user_id":485,"name":"Gram Tokers Count Doinkula","steam_id":76561198112811565,"connected_time":802000000000,"state":"active","ping":75},{"user_id":479,"name":"GrandTraveler.ttv","steam_id":76561198089012005,"connected_time":1137000000000,"state":"active","ping":85},{"user_id":439,"name":"Wingm4n","steam_id":76561198064127012,"connected_time":3757000000000,"state":"active","ping":68},{"user_id":427,"name":"...like clockwork","steam_id":76561198904898274,"connected_time":5450000000000,"state":"active","ping":86},{"user_id":478,"name":"scooterre","steam_id":76561198055068182,"connected_time":1147000000000,"state":"active","ping":54},{"user_id":414,"name":"Temm32","steam_id":76561198440657154,"connected_time":6080000000000,"state":"active","ping":78},{"user_id":492,"name":"roman","steam_id":76561198170066797,"connected_time":26000000000,"state":"active","ping":66},{"user_id":461,"name":"soup bowl","steam_id":76561198126134338,"connected_time":2344000000000,"state":"active","ping":103},{"user_id":428,"name":"loot","steam_id":76561198069954956,"connected_time":4980000000000,"state":"active","ping":61},{"user_id":463,"name":"stao","steam_id":76561198110348558,"connected_time":2299000000000,"state":"active","ping":82}]},{"server_id":37,"name":"Uncletopia | Chicago | 6 | All Maps","name_short":"chi-6","host":"chi-2.us.uncletopia.com","port":27025,"enabled":true,"region":"us-central","cc":"us","latitude":41.881832,"longitude":-87.62318,"reserved":0,"last_update":"0001-01-01T00:00:00Z","name_a2s":"Uncletopia | Chicago | 6 | All Maps","protocol":17,"map":"pl_badwater","folder":"tf","game":"Team Fortress","app_id":440,"player_count":24,"max_players":24,"Bots":0,"server_type":"Dedicated","server_os":"Linux","password":true,"vac":true,"version":"7961495","steam_id":85568392924866363,"keywords":["nocrits","nodmgspread","payload","uncletopia"],"game_id":440,"stv_port":27026,"stv_name":"Uncletopia | Chicago | 6 | All Maps | STV","players":[{"user_id":389,"name":"NFT(non functioning testicle)","steam_id":76561198092435966,"connected_time":985000000000,"state":"active","ping":55},{"user_id":375,"name":"baby","steam_id":76561198401942740,"connected_time":2031000000000,"state":"active","ping":70},{"user_id":376,"name":"Ceige (redemption arc)","steam_id":76561198068538473,"connected_time":2005000000000,"state":"active","ping":77},{"user_id":347,"name":"Strange Festive Femboy","steam_id":76561198050385093,"connected_time":3739000000000,"state":"active","ping":76},{"user_id":318,"name":"wakeupbdot","steam_id":76561198160786631,"connected_time":6016000000000,"state":"active","ping":70},{"user_id":377,"name":"C Papi","steam_id":76561198027779564,"connected_time":1981000000000,"state":"active","ping":59},{"user_id":282,"name":"Hipkid81","steam_id":76561198209679029,"connected_time":9435000000000,"state":"active","ping":93},{"user_id":378,"name":"Fluffeline","steam_id":76561198352909489,"connected_time":1974000000000,"state":"active","ping":140},{"user_id":351,"name":"WitheringLeo","steam_id":76561198046722918,"connected_time":3574000000000,"state":"active","ping":89},{"user_id":386,"name":"CastPython7350","steam_id":76561198326016264,"connected_time":1071000000000,"state":"active","ping":102},{"user_id":384,"name":"Ta5K","steam_id":76561198939558155,"connected_time":1471000000000,"state":"active","ping":46},{"user_id":355,"name":"Walfools","steam_id":76561198798909928,"connected_time":3254000000000,"state":"active","ping":53},{"user_id":382,"name":"Spare(8)Ball","steam_id":76561197982432995,"connected_time":1624000000000,"state":"active","ping":97},{"user_id":374,"name":"a fuddruckers","steam_id":76561198092656099,"connected_time":2050000000000,"state":"active","ping":43},{"user_id":371,"name":"cotton candy devotee","steam_id":76561198058998371,"connected_time":2279000000000,"state":"active","ping":70},{"user_id":369,"name":"dunk","steam_id":76561198132476501,"connected_time":2311000000000,"state":"active","ping":53},{"user_id":379,"name":"HK‚Ñ¢","steam_id":76561198196793415,"connected_time":1928000000000,"state":"active","ping":106},{"user_id":387,"name":"Captain Emerald The Changeling","steam_id":76561198320651177,"connected_time":1024000000000,"state":"active","ping":63},{"user_id":388,"name":"Laogh Marbh","steam_id":76561198115240256,"connected_time":1016000000000,"state":"active","ping":57},{"user_id":367,"name":"Proxy-mo","steam_id":76561198221741428,"connected_time":2387000000000,"state":"active","ping":82},{"user_id":391,"name":"George","steam_id":76561198047994501,"connected_time":105000000000,"state":"active","ping":60},{"user_id":360,"name":"SillyBilly","steam_id":76561199001228326,"connected_time":3141000000000,"state":"active","ping":127},{"user_id":363,"name":"superx","steam_id":76561198044976613,"connected_time":3095000000000,"state":"active","ping":73},{"user_id":370,"name":"eat Pant","steam_id":76561197974965536,"connected_time":2303000000000,"state":"active","ping":62}]},{"server_id":38,"name":"Uncletopia | Chicago | 7 | Stopwatch Beta","name_short":"chi-7","host":"chi-2.us.uncletopia.com","port":27035,"enabled":true,"region":"us-central","cc":"us","latitude":41.881832,"longitude":-87.62318,"reserved":0,"last_update":"0001-01-01T00:00:00Z","name_a2s":"Uncletopia | Chicago | 7 | Stopwatch Beta","protocol":17,"map":"pl_badwater","folder":"tf","game":"Team Fortress","app_id":440,"player_count":0,"max_players":24,"Bots":0,"server_type":"Dedicated","server_os":"Linux","password":true,"vac":true,"version":"7961495","steam_id":85568392924866364,"keywords":["nocrits","nodmgspread","payload","uncletopia"],"game_id":440,"stv_port":27036,"stv_name":"Uncletopia | Chicago | 7 | Stopwatch Beta | STV","players":null},{"server_id":39,"name":"Uncletopia | Chicago | 8 | Community","name_short":"chi-8","host":"chi-2.us.uncletopia.com","port":27045,"enabled":true,"region":"us-central","cc":"us","latitude":41.881832,"longitude":-87.62318,"reserved":0,"last_update":"0001-01-01T00:00:00Z","name_a2s":"Uncletopia | Chicago | 8 | Community","protocol":17,"map":"workshop/koth_ashville_final.ugc2130459942","folder":"tf","game":"Team Fortress","app_id":440,"player_count":5,"max_players":24,"Bots":0,"server_type":"Dedicated","server_os":"Linux","password":true,"vac":true,"version":"7961495","steam_id":85568392924866365,"keywords":["cp","nocrits","nodmgspread","uncletopia"],"game_id":440,"stv_port":27046,"stv_name":"Uncletopia | Chicago | 8 | Community | STV","players":[{"user_id":295,"name":"[·é¥·èã·èã·éÆ] Danmar33","steam_id":76561198056453091,"connected_time":10079000000000,"state":"active","ping":46},{"user_id":428,"name":"T-M-FIELD","steam_id":76561198035870595,"connected_time":1362000000000,"state":"active","ping":64},{"user_id":429,"name":"Aegis","steam_id":76561198272052750,"connected_time":1102000000000,"state":"active","ping":75},{"user_id":431,"name":"Rustys_Revenge","steam_id":76561198269414024,"connected_time":754000000000,"state":"active","ping":104},{"user_id":403,"name":"LordGandalf23","steam_id":76561198086928298,"connected_time":4132000000000,"state":"active","ping":83}]},{"server_id":8,"name":"Uncletopia | Dallas | 1 | All Maps","name_short":"dal-1","host":"dal-1.us.uncletopia.com","port":27015,"enabled":true,"region":"us-central","cc":"us","latitude":32.779167,"longitude":-96.80889,"reserved":0,"last_update":"0001-01-01T00:00:00Z","name_a2s":"Uncletopia | Dallas | 1 | All Maps","protocol":17,"map":"cp_sunshine","folder":"tf","game":"Team Fortress","app_id":440,"player_count":24,"max_players":24,"Bots":0,"server_type":"Dedicated","server_os":"Linux","password":true,"vac":true,"version":"7961495","steam_id":85568392924469986,"keywords":["cp","nocrits","nodmgspread","uncletopia"],"game_id":440,"stv_port":27016,"stv_name":"Uncletopia | Dallas | 1 | All Maps | STV","players":[{"user_id":516,"name":"denzell05","steam_id":76561198086987061,"connected_time":1620000000000,"state":"active","ping":95},{"user_id":477,"name":"McCanny","steam_id":76561198324340383,"connected_time":4388000000000,"state":"active","ping":143},{"user_id":525,"name":"Captain Underbelly","steam_id":76561198811270935,"connected_time":1272000000000,"state":"active","ping":90},{"user_id":526,"name":"2 3rd graders in a trenchcoat","steam_id":76561198084885479,"connected_time":1198000000000,"state":"active","ping":77},{"user_id":529,"name":"Fightin Cow","steam_id":76561198080941486,"connected_time":1122000000000,"state":"active","ping":58},{"user_id":520,"name":"maxie!","steam_id":76561197962607364,"connected_time":1549000000000,"state":"active","ping":68},{"user_id":536,"name":"Antifa Supersoldier","steam_id":76561198141816516,"connected_time":882000000000,"state":"active","ping":40},{"user_id":486,"name":"Charles","steam_id":76561199124935140,"connected_time":3433000000000,"state":"active","ping":64},{"user_id":493,"name":"cringeass nae-nae girl","steam_id":76561198108753857,"connected_time":2719000000000,"state":"active","ping":70},{"user_id":528,"name":"BlancaLamb","steam_id":76561198025646073,"connected_time":1183000000000,"state":"active","ping":76},{"user_id":542,"name":"Crispy","steam_id":76561198037481161,"connected_time":109000000000,"state":"active","ping":71},{"user_id":534,"name":"Jasmine Rice","steam_id":76561198163163590,"connected_time":953000000000,"state":"active","ping":63},{"user_id":535,"name":"Fat Cat","steam_id":76561197995995344,"connected_time":908000000000,"state":"active","ping":56},{"user_id":490,"name":"Jerry Temporary","steam_id":76561198972750702,"connected_time":3087000000000,"state":"active","ping":80},{"user_id":498,"name":"pimpmykek","steam_id":76561198271911317,"connected_time":2413000000000,"state":"active","ping":116},{"user_id":467,"name":"Greg Boberton 2012","steam_id":76561198983566026,"connected_time":6009000000000,"state":"active","ping":80},{"user_id":489,"name":"flippercurve","steam_id":76561199238295034,"connected_time":3122000000000,"state":"active","ping":73},{"user_id":474,"name":"Missing Minus","steam_id":76561198120822928,"connected_time":4988000000000,"state":"active","ping":61},{"user_id":480,"name":"Googol","steam_id":76561198015967429,"connected_time":3845000000000,"state":"active","ping":73},{"user_id":531,"name":"oak","steam_id":76561198092135570,"connected_time":1082000000000,"state":"active","ping":46},{"user_id":539,"name":"RaixaR","steam_id":76561198025289430,"connected_time":557000000000,"state":"active","ping":51},{"user_id":513,"name":"An Unhappy Clown","steam_id":76561198175516514,"connected_time":1791000000000,"state":"active","ping":46},{"user_id":541,"name":"GX Icarus the legend","steam_id":76561199013250091,"connected_time":410000000000,"state":"active","ping":51},{"user_id":338,"name":"PROFILE NAME","steam_id":76561199438851854,"connected_time":18601000000000,"state":"active","ping":121}]},{"server_id":108,"name":"Uncletopia | Dallas | 2 | All Maps","name_short":"dal-2","host":"dal-1.us.uncletopia.com","port":27025,"enabled":true,"region":"us-central","cc":"us","latitude":32.779167,"longitude":-96.80889,"reserved":0,"last_update":"0001-01-01T00:00:00Z","name_a2s":"Uncletopia | Dallas | 2 | All Maps","protocol":17,"map":"cp_dustbowl","folder":"tf","game":"Team Fortress","app_id":440,"player_count":24,"max_players":24,"Bots":0,"server_type":"Dedicated","server_os":"Linux","password":true,"vac":true,"version":"7961495","steam_id":85568392924469988,"keywords":["cp","nocrits","nodmgspread","uncletopia"],"game_id":440,"stv_port":27026,"stv_name":"Uncletopia | Dallas | 2 | All Maps | STV","players":[{"user_id":445,"name":"Manic","steam_id":76561198128149670,"connected_time":3310000000000,"state":"active","ping":45},{"user_id":487,"name":"Doomeister","steam_id":76561198070277587,"connected_time":103000000000,"state":"active","ping":86},{"user_id":394,"name":"Plains Phoenix","steam_id":76561198817161299,"connected_time":6681000000000,"state":"active","ping":60},{"user_id":483,"name":"C^a^L","steam_id":76561198241124222,"connected_time":184000000000,"state":"active","ping":89},{"user_id":479,"name":"Legit_Jaxer","steam_id":76561198172234053,"connected_time":703000000000,"state":"active","ping":105},{"user_id":468,"name":"Scoops M'Gooch","steam_id":76561198048423812,"connected_time":1997000000000,"state":"active","ping":94},{"user_id":481,"name":"Etomb","steam_id":76561198210017208,"connected_time":215000000000,"state":"active","ping":71},{"user_id":469,"name":"Switchclackback","steam_id":76561198014355417,"connected_time":1995000000000,"state":"active","ping":44},{"user_id":484,"name":"SGT Disoriented","steam_id":76561198058177958,"connected_time":178000000000,"state":"active","ping":60},{"user_id":485,"name":"Clear Sights","steam_id":76561198006215683,"connected_time":137000000000,"state":"active","ping":82},{"user_id":439,"name":"deb","steam_id":76561198414336279,"connected_time":3635000000000,"state":"active","ping":46},{"user_id":486,"name":"salmon","steam_id":76561198050061475,"connected_time":122000000000,"state":"active","ping":77},{"user_id":488,"name":"John16Mark","steam_id":76561198119445407,"connected_time":94000000000,"state":"active","ping":62},{"user_id":489,"name":"Zero","steam_id":76561198033384990,"connected_time":9000000000,"state":"spawning","ping":75},{"user_id":454,"name":"Giselle","steam_id":76561198162593640,"connected_time":3119000000000,"state":"active","ping":183},{"user_id":472,"name":"iSilentShooter","steam_id":76561198851343507,"connected_time":1481000000000,"state":"active","ping":71},{"user_id":473,"name":"StarManMatt","steam_id":76561198125513574,"connected_time":1429000000000,"state":"active","ping":101},{"user_id":477,"name":"Ruby Gillman (He/Him)","steam_id":76561198366299848,"connected_time":885000000000,"state":"active","ping":70},{"user_id":478,"name":"Railly","steam_id":76561198357355915,"connected_time":835000000000,"state":"active","ping":87},{"user_id":476,"name":"the master of cats","steam_id":76561198819255576,"connected_time":899000000000,"state":"active","ping":74},{"user_id":441,"name":"Belts the Puppet","steam_id":76561198322969864,"connected_time":3608000000000,"state":"active","ping":90},{"user_id":465,"name":"SaaxoM","steam_id":76561198208256603,"connected_time":2513000000000,"state":"active","ping":93},{"user_id":490,"name":"dilfbot","steam_id":76561198099988165,"connected_time":0,"state":"spawning","ping":0},{"user_id":480,"name":"Crazy_man476","steam_id":76561199443269970,"connected_time":602000000000,"state":"active","ping":86}]},{"server_id":404,"name":"Uncletopia | Dallas | 3 | All Maps","name_short":"dal-3","host":"dal-1.us.uncletopia.com","port":27035,"enabled":true,"region":"us-central","cc":"us","latitude":32.779167,"longitude":-96.80889,"reserved":0,"last_update":"0001-01-01T00:00:00Z","name_a2s":"Uncletopia | Dallas | 3 | All Maps","protocol":17,"map":"pl_frontier_final","folder":"tf","game":"Team Fortress","app_id":440,"player_count":24,"max_players":24,"Bots":0,"server_type":"Dedicated","server_os":"Linux","password":true,"vac":true,"version":"7961495","steam_id":85568392924515219,"keywords":["nocrits","nodmgspread","payload","uncletopia"],"game_id":440,"stv_port":27036,"stv_name":"Uncletopia | Dallas | 3 | All Maps | STV","players":[{"user_id":471,"name":"Snoopy","steam_id":76561198273735974,"connected_time":9483000000000,"state":"active","ping":77},{"user_id":567,"name":"Lore","steam_id":76561198098407538,"connected_time":1620000000000,"state":"active","ping":73},{"user_id":576,"name":"2002 Toyota Corolla VE","steam_id":76561198149172070,"connected_time":513000000000,"state":"active","ping":41},{"user_id":528,"name":"Firestorm","steam_id":76561198025017126,"connected_time":4419000000000,"state":"active","ping":110},{"user_id":572,"name":"zinqi","steam_id":76561198376838848,"connected_time":1459000000000,"state":"active","ping":111},{"user_id":565,"name":"little_neb","steam_id":76561198117396733,"connected_time":1661000000000,"state":"active","ping":59},{"user_id":563,"name":"captain red","steam_id":76561198191587983,"connected_time":1773000000000,"state":"active","ping":76},{"user_id":574,"name":"‚òÇBliffenstimmers‚òÇ","steam_id":76561198059984896,"connected_time":1302000000000,"state":"active","ping":64},{"user_id":577,"name":"Kazmirl","steam_id":76561198116008410,"connected_time":446000000000,"state":"active","ping":106},{"user_id":541,"name":"usmnt==chokers","steam_id":76561198043456370,"connected_time":3502000000000,"state":"active","ping":101},{"user_id":495,"name":"HEE HOO DUSTBOWL!","steam_id":76561199389985063,"connected_time":7136000000000,"state":"active","ping":117},{"user_id":566,"name":"ropesnek","steam_id":76561198140591498,"connected_time":1644000000000,"state":"active","ping":56},{"user_id":575,"name":"Lone_Explorer","steam_id":76561198081972715,"connected_time":616000000000,"state":"active","ping":105},{"user_id":545,"name":"Final_MarioXD","steam_id":76561199184862419,"connected_time":3383000000000,"state":"active","ping":77},{"user_id":568,"name":"Cheese","steam_id":76561199435683727,"connected_time":1612000000000,"state":"active","ping":141},{"user_id":578,"name":"AAZARDO","steam_id":76561198849146009,"connected_time":436000000000,"state":"active","ping":65},{"user_id":493,"name":"Michaelpc1","steam_id":76561198088365519,"connected_time":7275000000000,"state":"active","ping":90},{"user_id":573,"name":"minecraft","steam_id":76561198104345201,"connected_time":1458000000000,"state":"active","ping":68},{"user_id":579,"name":"Galactamarx","steam_id":76561198028065755,"connected_time":361000000000,"state":"active","ping":74},{"user_id":525,"name":"Acuzik","steam_id":76561198045453400,"connected_time":4445000000000,"state":"active","ping":62},{"user_id":580,"name":"Periergos","steam_id":76561198062030412,"connected_time":297000000000,"state":"active","ping":65},{"user_id":527,"name":"Braingoo Hex","steam_id":76561198083094783,"connected_time":4432000000000,"state":"active","ping":80},{"user_id":530,"name":"Hatter","steam_id":76561198010341986,"connected_time":4370000000000,"state":"active","ping":70},{"user_id":581,"name":"TwoForFlinching","steam_id":76561198073814209,"connected_time":267000000000,"state":"active","ping":139}]},{"server_id":405,"name":"Uncletopia | Dallas | 4 | Community","name_short":"dal-4","host":"dal-1.us.uncletopia.com","port":27045,"enabled":true,"region":"us-central","cc":"us","latitude":32.779167,"longitude":-96.80889,"reserved":0,"last_update":"0001-01-01T00:00:00Z","name_a2s":"Uncletopia | Dallas | 4 | Community","protocol":17,"map":"workshop/pl_emerge_rc2.ugc888027758","folder":"tf","game":"Team Fortress","app_id":440,"player_count":0,"max_players":24,"Bots":0,"server_type":"Dedicated","server_os":"Linux","password":true,"vac":true,"version":"7961495","steam_id":85568392924515220,"keywords":["nocrits","nodmgspread","payload","uncletopia"],"game_id":440,"stv_port":27046,"stv_name":"Uncletopia | Dallas | 4 | Community | STV","players":null},{"server_id":5,"name":"Uncletopia | Frankfurt | 1 | All Maps","name_short":"frk-1","host":"frk-1.de.uncletopia.com","port":27015,"enabled":true,"region":"eu","cc":"de","latitude":50.110924,"longitude":8.682127,"reserved":0,"last_update":"0001-01-01T00:00:00Z","name_a2s":"Uncletopia | Frankfurt | 1 | All Maps","protocol":17,"map":"pl_badwater","folder":"tf","game":"Team Fortress","app_id":440,"player_count":0,"max_players":24,"Bots":0,"server_type":"Dedicated","server_os":"Linux","password":true,"vac":true,"version":"7961495","steam_id":85568392924469989,"keywords":["nocrits","nodmgspread","payload","uncletopia"],"game_id":440,"stv_port":27016,"stv_name":"Uncletopia | Frankfurt | 1 | All Maps | STV","players":null},{"server_id":110,"name":"Uncletopia | Frankfurt | 2 | All Maps","name_short":"frk-2","host":"frk-1.de.uncletopia.com","port":27025,"enabled":true,"region":"eu","cc":"de","latitude":50.110924,"longitude":8.682127,"reserved":0,"last_update":"0001-01-01T00:00:00Z","name_a2s":"Uncletopia | Frankfurt | 2 | All Maps","protocol":17,"map":"koth_lakeside_final","folder":"tf","game":"Team Fortress","app_id":440,"player_count":0,"max_players":24,"Bots":0,"server_type":"Dedicated","server_os":"Linux","password":true,"vac":true,"version":"7961495","steam_id":85568392924469990,"keywords":["cp","nocrits","nodmgspread","uncletopia"],"game_id":440,"stv_port":27026,"stv_name":"Uncletopia | Frankfurt | 2 | All Maps | STV","players":null},{"server_id":308,"name":"Uncletopia | Frankfurt | 3 | All Maps","name_short":"frk-3","host":"frk-1.de.uncletopia.com","port":27035,"enabled":true,"region":"eu","cc":"de","latitude":50.110924,"longitude":8.682127,"reserved":0,"last_update":"0001-01-01T00:00:00Z","name_a2s":"Uncletopia | Frankfurt | 3 | All Maps","protocol":17,"map":"cp_sunshine","folder":"tf","game":"Team Fortress","app_id":440,"player_count":0,"max_players":24,"Bots":0,"server_type":"Dedicated","server_os":"Linux","password":true,"vac":true,"version":"7961495","steam_id":85568392924504274,"keywords":["cp","nocrits","nodmgspread","uncletopia"],"game_id":440,"stv_port":27036,"stv_name":"Uncletopia | Frankfurt | 3 | All Maps | STV","players":null},{"server_id":309,"name":"Uncletopia | Frankfurt | 4 | All Maps","name_short":"frk-4","host":"frk-1.de.uncletopia.com","port":27045,"enabled":true,"region":"eu","cc":"de","latitude":50.110924,"longitude":8.682127,"reserved":0,"last_update":"0001-01-01T00:00:00Z","name_a2s":"Uncletopia | Frankfurt | 4 | All Maps","protocol":17,"map":"cp_altitude","folder":"tf","game":"Team Fortress","app_id":440,"player_count":0,"max_players":24,"Bots":0,"server_type":"Dedicated","server_os":"Linux","password":true,"vac":true,"version":"7961495","steam_id":85568392924504275,"keywords":["cp","nocrits","nodmgspread","uncletopia"],"game_id":440,"stv_port":27046,"stv_name":"Uncletopia | Frankfurt | 4 | All Maps | STV","players":null},{"server_id":310,"name":"Uncletopia | Frankfurt | 5 | All Maps","name_short":"frk-5","host":"frk-1.de.uncletopia.com","port":27055,"enabled":true,"region":"eu","cc":"de","latitude":50.110924,"longitude":8.682127,"reserved":0,"last_update":"0001-01-01T00:00:00Z","name_a2s":"Uncletopia | Frankfurt | 5 | All Maps","protocol":17,"map":"cp_process_final","folder":"tf","game":"Team Fortress","app_id":440,"player_count":0,"max_players":24,"Bots":0,"server_type":"Dedicated","server_os":"Linux","password":true,"vac":true,"version":"7961495","steam_id":85568392924504277,"keywords":["cp","nocrits","nodmgspread","uncletopia"],"game_id":440,"stv_port":27056,"stv_name":"Uncletopia | Frankfurt | 5 | All Maps | STV","players":null},{"server_id":311,"name":"Uncletopia | Frankfurt | 6 | All Maps","name_short":"frk-6","host":"frk-1.de.uncletopia.com","port":27065,"enabled":true,"region":"eu","cc":"de","latitude":50.110924,"longitude":8.682127,"reserved":0,"last_update":"0001-01-01T00:00:00Z","name_a2s":"Uncletopia | Frankfurt | 6 | All Maps","protocol":17,"map":"pl_barnblitz","folder":"tf","game":"Team Fortress","app_id":440,"player_count":0,"max_players":24,"Bots":0,"server_type":"Dedicated","server_os":"Linux","password":true,"vac":true,"version":"7961495","steam_id":85568392924504278,"keywords":["nocrits","nodmgspread","payload","uncletopia"],"game_id":440,"stv_port":27066,"stv_name":"Uncletopia | Frankfurt | 6 | All Maps | STV","players":null},{"server_id":23,"name":"Uncletopia | Frankfurt | 7 | Stopwatch Beta","name_short":"frk-7","host":"frk-1.de.uncletopia.com","port":27075,"enabled":true,"region":"eu","cc":"de","latitude":50.110924,"longitude":8.682127,"reserved":0,"last_update":"0001-01-01T00:00:00Z","name_a2s":"Uncletopia | Frankfurt | 7 | Stopwatch Beta","protocol":17,"map":"koth_cascade","folder":"tf","game":"Team Fortress","app_id":440,"player_count":0,"max_players":24,"Bots":0,"server_type":"Dedicated","server_os":"Linux","password":true,"vac":true,"version":"7961495","steam_id":85568392924742827,"keywords":["cp","nocrits","nodmgspread","uncletopia"],"game_id":440,"stv_port":27076,"stv_name":"Uncletopia | Frankfurt | 7 | Stopwatch Beta | STV","players":null},{"server_id":24,"name":"Uncletopia | Frankfurt | 8 | Community","name_short":"frk-8","host":"frk-1.de.uncletopia.com","port":27085,"enabled":true,"region":"eu","cc":"de","latitude":50.110924,"longitude":8.682127,"reserved":0,"last_update":"0001-01-01T00:00:00Z","name_a2s":"Uncletopia | Frankfurt | 8 | Community","protocol":17,"map":"cp_dustbowl","folder":"tf","game":"Team Fortress","app_id":440,"player_count":0,"max_players":24,"Bots":0,"server_type":"Dedicated","server_os":"Linux","password":true,"vac":true,"version":"7961495","steam_id":85568392924742828,"keywords":["cp","nocrits","nodmgspread","uncletopia"],"game_id":440,"stv_port":27086,"stv_name":"Uncletopia | Frankfurt | 8 | Community | STV","players":null},{"server_id":202,"name":"Uncletopia | Hong Kong | 1 | All Maps","name_short":"hgk-1","host":"hgk-1.hk.uncletopia.com","port":27015,"enabled":true,"region":"asia","cc":"hk","latitude":22.302711,"longitude":114.177216,"reserved":0,"last_update":"0001-01-01T00:00:00Z","name_a2s":"Uncletopia | Hong Kong | 1 | All Maps","protocol":17,"map":"koth_viaduct","folder":"tf","game":"Team Fortress","app_id":440,"player_count":0,"max_players":24,"Bots":0,"server_type":"Dedicated","server_os":"Linux","password":true,"vac":true,"version":"7961495","steam_id":85568392924494504,"keywords":["cp","nocrits","nodmgspread","uncletopia"],"game_id":440,"stv_port":27016,"stv_name":"Uncletopia | Hong Kong | 1 | All Maps | STV","players":null},{"server_id":1,"name":"Uncletopia | Los Angeles | 1 | All Maps","name_short":"lax-1","host":"lax-1.us.uncletopia.com","port":27015,"enabled":true,"region":"us-west","cc":"us","latitude":33.94279,"longitude":-118.41004,"reserved":0,"last_update":"0001-01-01T00:00:00Z","name_a2s":"Uncletopia | Los Angeles | 1 | All Maps","protocol":17,"map":"koth_suijin","folder":"tf","game":"Team Fortress","app_id":440,"player_count":20,"max_players":24,"Bots":0,"server_type":"Dedicated","server_os":"Linux","password":true,"vac":true,"version":"7961495","steam_id":85568392924469991,"keywords":["cp","nocrits","nodmgspread","uncletopia"],"game_id":440,"stv_port":27016,"stv_name":"Uncletopia | Los Angeles | 1 | All Maps | STV","players":[{"user_id":466,"name":"LtK","steam_id":76561197993180943,"connected_time":2546000000000,"state":"active","ping":62},{"user_id":454,"name":"Mr Sir Logan","steam_id":76561198088803891,"connected_time":3765000000000,"state":"active","ping":59},{"user_id":482,"name":"werolat","steam_id":76561197960544784,"connected_time":1115000000000,"state":"active","ping":64},{"user_id":502,"name":"Shook","steam_id":76561198054064995,"connected_time":299000000000,"state":"active","ping":85},{"user_id":475,"name":"Doloramen","steam_id":76561198864103577,"connected_time":1683000000000,"state":"active","ping":87},{"user_id":503,"name":"‚ôú‚ô•Serious Pisces‚ô•‚ôú","steam_id":76561198096129873,"connected_time":279000000000,"state":"active","ping":73},{"user_id":504,"name":"Skribbles","steam_id":76561198373073766,"connected_time":160000000000,"state":"active","ping":62},{"user_id":493,"name":"Choctoling","steam_id":76561198351622498,"connected_time":688000000000,"state":"active","ping":44},{"user_id":494,"name":"Whiskey","steam_id":76561198858154667,"connected_time":672000000000,"state":"active","ping":48},{"user_id":458,"name":"Sterling Nano","steam_id":76561198048580088,"connected_time":3669000000000,"state":"active","ping":68},{"user_id":474,"name":"Typha","steam_id":76561198350099066,"connected_time":1861000000000,"state":"active","ping":45},{"user_id":495,"name":"BurningKev","steam_id":76561198057688837,"connected_time":667000000000,"state":"active","ping":74},{"user_id":496,"name":"Antzen","steam_id":76561198041343470,"connected_time":663000000000,"state":"active","ping":60},{"user_id":497,"name":"Grassman (Cc)","steam_id":76561198026488532,"connected_time":641000000000,"state":"active","ping":52},{"user_id":485,"name":"Water Bottle","steam_id":76561199177277373,"connected_time":1057000000000,"state":"active","ping":73},{"user_id":480,"name":"silly jester","steam_id":76561198079609974,"connected_time":1294000000000,"state":"active","ping":58},{"user_id":500,"name":"Whisper!","steam_id":76561198119609795,"connected_time":498000000000,"state":"active","ping":52},{"user_id":486,"name":"Kylek1133","steam_id":76561198277595899,"connected_time":1043000000000,"state":"active","ping":56},{"user_id":501,"name":"Mr_Tuffy","steam_id":76561199206331113,"connected_time":480000000000,"state":"active","ping":59},{"user_id":491,"name":"miguelrodriguez2013","steam_id":76561198269253587,"connected_time":991000000000,"state":"active","ping":48}]},{"server_id":112,"name":"Uncletopia | Los Angeles | 2 | All Maps","name_short":"lax-2","host":"lax-1.us.uncletopia.com","port":27025,"enabled":true,"region":"us-west","cc":"us","latitude":33.94279,"longitude":-118.41004,"reserved":0,"last_update":"0001-01-01T00:00:00Z","name_a2s":"Uncletopia | Los Angeles | 2 | All Maps","protocol":17,"map":"cp_altitude","folder":"tf","game":"Team Fortress","app_id":440,"player_count":12,"max_players":24,"Bots":0,"server_type":"Dedicated","server_os":"Linux","password":true,"vac":true,"version":"7961495","steam_id":85568392924469992,"keywords":["cp","nocrits","nodmgspread","uncletopia"],"game_id":440,"stv_port":27026,"stv_name":"Uncletopia | Los Angeles | 2 | All Maps | STV","players":[{"user_id":115,"name":"Priestess of Spiders","steam_id":76561198111286397,"connected_time":324000000000,"state":"active","ping":76},{"user_id":109,"name":"Dive(z)","steam_id":76561198140843225,"connected_time":1238000000000,"state":"active","ping":66},{"user_id":75,"name":"xbox record that","steam_id":76561198150117455,"connected_time":4387000000000,"state":"active","ping":56},{"user_id":110,"name":"chhiccennuggett","steam_id":76561198125864630,"connected_time":1224000000000,"state":"active","ping":38},{"user_id":118,"name":"Medic Mommy","steam_id":76561199487326947,"connected_time":133000000000,"state":"active","ping":77},{"user_id":112,"name":"Kpotion","steam_id":76561199172756279,"connected_time":830000000000,"state":"active","ping":67},{"user_id":45,"name":"mrthugpug1732","steam_id":76561198881200768,"connected_time":5803000000000,"state":"active","ping":55},{"user_id":117,"name":"Misha","steam_id":76561198045937454,"connected_time":194000000000,"state":"active","ping":79},{"user_id":105,"name":"Human Resources Manager","steam_id":76561198066386411,"connected_time":1964000000000,"state":"active","ping":59},{"user_id":88,"name":"vioxynteris","steam_id":76561198161428666,"connected_time":3676000000000,"state":"active","ping":36},{"user_id":98,"name":"Idiotden","steam_id":76561199340950135,"connected_time":3044000000000,"state":"active","ping":53},{"user_id":107,"name":"Jolly Wolly","steam_id":76561198087571347,"connected_time":1315000000000,"state":"active","ping":57}]},{"server_id":324,"name":"Uncletopia | Los Angeles | 3 | All Maps","name_short":"lax-3","host":"lax-1.us.uncletopia.com","port":27035,"enabled":true,"region":"us-west","cc":"us","latitude":33.94279,"longitude":-118.41004,"reserved":0,"last_update":"0001-01-01T00:00:00Z","name_a2s":"Uncletopia | Los Angeles | 3 | All Maps","protocol":17,"map":"pl_badwater","folder":"tf","game":"Team Fortress","app_id":440,"player_count":24,"max_players":24,"Bots":0,"server_type":"Dedicated","server_os":"Linux","password":true,"vac":true,"version":"7961495","steam_id":85568392924510198,"keywords":["nocrits","nodmgspread","payload","uncletopia"],"game_id":440,"stv_port":27036,"stv_name":"Uncletopia | Los Angeles | 3 | All Maps | STV","players":[{"user_id":63,"name":"MR MODE","steam_id":76561198046775352,"connected_time":220000000000,"state":"active","ping":50},{"user_id":55,"name":"Irritated Duck","steam_id":76561198247792076,"connected_time":1178000000000,"state":"active","ping":101},{"user_id":43,"name":"Champuru","steam_id":76561198996318567,"connected_time":1673000000000,"state":"active","ping":62},{"user_id":62,"name":"Asshole","steam_id":76561198012157352,"connected_time":302000000000,"state":"active","ping":59},{"user_id":34,"name":"Meepster","steam_id":76561198146305159,"connected_time":2860000000000,"state":"active","ping":63},{"user_id":29,"name":"They could be ********","steam_id":76561198441020995,"connected_time":3396000000000,"state":"active","ping":48},{"user_id":65,"name":"Epifiny","steam_id":76561198027958086,"connected_time":180000000000,"state":"active","ping":123},{"user_id":30,"name":"JavaScript Frappuccino","steam_id":76561198111620153,"connected_time":3394000000000,"state":"active","ping":78},{"user_id":31,"name":"squibonacci","steam_id":76561198305870184,"connected_time":3305000000000,"state":"active","ping":70},{"user_id":35,"name":"Locke","steam_id":76561197972370548,"connected_time":2844000000000,"state":"active","ping":57},{"user_id":61,"name":"Walrus","steam_id":76561198001799905,"connected_time":757000000000,"state":"active","ping":57},{"user_id":64,"name":"SnffnFingers","steam_id":76561198064915538,"connected_time":196000000000,"state":"active","ping":129},{"user_id":67,"name":"SoldMyKidneyForCollege","steam_id":76561198096329559,"connected_time":165000000000,"state":"active","ping":54},{"user_id":42,"name":"Gerbias","steam_id":76561198001002427,"connected_time":1690000000000,"state":"active","ping":61},{"user_id":68,"name":"Paradox","steam_id":76561198284164847,"connected_time":163000000000,"state":"active","ping":113},{"user_id":57,"name":"Mason Man","steam_id":76561198211476161,"connected_time":1074000000000,"state":"active","ping":58},{"user_id":58,"name":"dewey","steam_id":76561198132791511,"connected_time":1054000000000,"state":"active","ping":56},{"user_id":47,"name":"Odd Life","steam_id":76561198244979998,"connected_time":1522000000000,"state":"active","ping":56},{"user_id":48,"name":"mollusk_obliteration","steam_id":76561198085388962,"connected_time":1511000000000,"state":"active","ping":101},{"user_id":69,"name":"‚ô†Silver‚ô†","steam_id":76561198206109224,"connected_time":143000000000,"state":"active","ping":111},{"user_id":50,"name":"Ralph Kramden (Slim Charles)","steam_id":76561197981687895,"connected_time":1470000000000,"state":"active","ping":84},{"user_id":52,"name":"Rango","steam_id":76561198067275912,"connected_time":1458000000000,"state":"active","ping":68},{"user_id":53,"name":"Mothpriest Bard","steam_id":76561198059393099,"connected_time":1454000000000,"state":"active","ping":57},{"user_id":60,"name":"warrior","steam_id":76561198074500319,"connected_time":1002000000000,"state":"active","ping":101}]},{"server_id":25,"name":"Uncletopia | Los Angeles | 4 | Stopwatch Beta","name_short":"lax-4","host":"lax-1.us.uncletopia.com","port":27045,"enabled":true,"region":"us-west","cc":"us","latitude":33.94279,"longitude":-118.41004,"reserved":0,"last_update":"0001-01-01T00:00:00Z","name_a2s":"Uncletopia | Los Angeles | 4 | Stopwatch Beta","protocol":17,"map":"workshop/pl_vigil_rc9.ugc1266210012","folder":"tf","game":"Team Fortress","app_id":440,"player_count":0,"max_players":24,"Bots":0,"server_type":"Dedicated","server_os":"Linux","password":true,"vac":true,"version":"7961495","steam_id":85568392924510199,"keywords":["nocrits","nodmgspread","payload","uncletopia"],"game_id":440,"stv_port":27046,"stv_name":"Uncletopia | Los Angeles | 4 | Stopwatch Beta | STV","players":null},{"server_id":11,"name":"Uncletopia | London | 1 | All Maps","name_short":"lon-1","host":"lon-1.uk.uncletopia.com","port":27015,"enabled":true,"region":"eu","cc":"gb","latitude":51.509865,"longitude":-0.118092,"reserved":0,"last_update":"0001-01-01T00:00:00Z","name_a2s":"Uncletopia | London | 1 | All Maps","protocol":17,"map":"pl_barnblitz","folder":"tf","game":"Team Fortress","app_id":440,"player_count":18,"max_players":24,"Bots":0,"server_type":"Dedicated","server_os":"Linux","password":true,"vac":true,"version":"7961495","steam_id":85568392924367362,"keywords":["nocrits","nodmgspread","payload","uncletopia"],"game_id":440,"stv_port":27016,"stv_name":"Uncletopia | London | 1 | All Maps | STV","players":[{"user_id":48,"name":"g‚ÑìŒπgŒ±‚ÑìŒπœØs“ØŒ∑ #saveTF2","steam_id":76561198086528680,"connected_time":34000000000,"state":"active","ping":120},{"user_id":4,"name":"Dead Kitten","steam_id":76561198152132092,"connected_time":2549000000000,"state":"active","ping":90},{"user_id":20,"name":"[\u003e\u003c] OTP Uncle Sam","steam_id":76561198186666399,"connected_time":2419000000000,"state":"active","ping":60},{"user_id":8,"name":"spxcy","steam_id":76561198080296853,"connected_time":2538000000000,"state":"active","ping":76},{"user_id":11,"name":"‚ú™ SM1LEY","steam_id":76561198149748719,"connected_time":2522000000000,"state":"active","ping":104},{"user_id":12,"name":"Hamst123","steam_id":76561198957312452,"connected_time":2512000000000,"state":"active","ping":66},{"user_id":40,"name":"Nodoka","steam_id":76561197992138411,"connected_time":554000000000,"state":"active","ping":59},{"user_id":41,"name":"eden :3","steam_id":76561198188345226,"connected_time":538000000000,"state":"active","ping":46},{"user_id":16,"name":"Economic crisis","steam_id":76561198063562843,"connected_time":2494000000000,"state":"active","ping":70},{"user_id":27,"name":"thog","steam_id":76561198219901556,"connected_time":2103000000000,"state":"active","ping":106},{"user_id":45,"name":"thorn648","steam_id":76561198012565777,"connected_time":372000000000,"state":"active","ping":175},{"user_id":38,"name":"ja","steam_id":76561199228540618,"connected_time":829000000000,"state":"active","ping":69},{"user_id":32,"name":"$t@lker_Tim","steam_id":76561198963658042,"connected_time":1639000000000,"state":"active","ping":116},{"user_id":46,"name":"maggot !","steam_id":76561199075532033,"connected_time":301000000000,"state":"active","ping":88},{"user_id":31,"name":"Lewylow","steam_id":76561198005425686,"connected_time":1849000000000,"state":"active","ping":47},{"user_id":34,"name":"RipHunter77","steam_id":76561198272973014,"connected_time":1367000000000,"state":"active","ping":166},{"user_id":43,"name":"Adaptive Hard","steam_id":76561199235772866,"connected_time":529000000000,"state":"active","ping":168},{"user_id":47,"name":"Cosmetic brain","steam_id":76561198055936410,"connected_time":246000000000,"state":"active","ping":75}]},{"server_id":114,"name":"Uncletopia | London | 2 | All Maps","name_short":"lon-2","host":"lon-1.uk.uncletopia.com","port":27025,"enabled":true,"region":"eu","cc":"gb","latitude":51.509865,"longitude":-0.118092,"reserved":0,"last_update":"0001-01-01T00:00:00Z","name_a2s":"Uncletopia | London | 2 | All Maps","protocol":17,"map":"cp_snakewater_final1","folder":"tf","game":"Team Fortress","app_id":440,"player_count":0,"max_players":24,"Bots":0,"server_type":"Dedicated","server_os":"Linux","password":true,"vac":true,"version":"7961495","steam_id":85568392924470941,"keywords":["cp","nocrits","nodmgspread","uncletopia"],"game_id":440,"stv_port":27026,"stv_name":"Uncletopia | London | 2 | All Maps | STV","players":null},{"server_id":320,"name":"Uncletopia | London | 3 | All Maps","name_short":"lon-3","host":"lon-1.uk.uncletopia.com","port":27035,"enabled":true,"region":"eu","cc":"gb","latitude":51.509865,"longitude":-0.118092,"reserved":0,"last_update":"0001-01-01T00:00:00Z","name_a2s":"Uncletopia | London | 3 | All Maps","protocol":17,"map":"pl_pier","folder":"tf","game":"Team Fortress","app_id":440,"player_count":0,"max_players":24,"Bots":0,"server_type":"Dedicated","server_os":"Linux","password":true,"vac":true,"version":"7961495","steam_id":85568392924510192,"keywords":["nocrits","nodmgspread","payload","uncletopia"],"game_id":440,"stv_port":27036,"stv_name":"Uncletopia | London | 3 | All Maps | STV","players":null},{"server_id":321,"name":"Uncletopia | London | 4 | All Maps","name_short":"lon-4","host":"lon-1.uk.uncletopia.com","port":27045,"enabled":true,"region":"eu","cc":"gb","latitude":51.509865,"longitude":-0.118092,"reserved":0,"last_update":"0001-01-01T00:00:00Z","name_a2s":"Uncletopia | London | 4 | All Maps","protocol":17,"map":"koth_viaduct","folder":"tf","game":"Team Fortress","app_id":440,"player_count":0,"max_players":24,"Bots":0,"server_type":"Dedicated","server_os":"Linux","password":true,"vac":true,"version":"7961495","steam_id":85568392924510193,"keywords":["cp","nocrits","nodmgspread","uncletopia"],"game_id":440,"stv_port":27046,"stv_name":"Uncletopia | London | 4 | All Maps | STV","players":null},{"server_id":21,"name":"Uncletopia | London | 5 | All Maps","name_short":"lon-5","host":"lon-1.uk.uncletopia.com","port":27055,"enabled":true,"region":"eu","cc":"gb","latitude":51.509865,"longitude":-0.118092,"reserved":0,"last_update":"0001-01-01T00:00:00Z","name_a2s":"Uncletopia | London | 5 | All Maps","protocol":17,"map":"pl_barnblitz","folder":"tf","game":"Team Fortress","app_id":440,"player_count":0,"max_players":24,"Bots":0,"server_type":"Dedicated","server_os":"Linux","password":true,"vac":true,"version":"7961495","steam_id":85568392924742829,"keywords":["nocrits","nodmgspread","payload","uncletopia"],"game_id":440,"stv_port":27056,"stv_name":"Uncletopia | London | 5 | All Maps | STV","players":null},{"server_id":22,"name":"Uncletopia | London | 6 | All Maps","name_short":"lon-6","host":"lon-1.uk.uncletopia.com","port":27065,"enabled":true,"region":"eu","cc":"gb","latitude":51.509865,"longitude":-0.118092,"reserved":0,"last_update":"0001-01-01T00:00:00Z","name_a2s":"Uncletopia | London | 6 | All Maps","protocol":17,"map":"pl_borneo","folder":"tf","game":"Team Fortress","app_id":440,"player_count":0,"max_players":24,"Bots":0,"server_type":"Dedicated","server_os":"Linux","password":true,"vac":true,"version":"7961495","steam_id":85568392924742830,"keywords":["nocrits","nodmgspread","payload","uncletopia"],"game_id":440,"stv_port":27066,"stv_name":"Uncletopia | London | 6 | All Maps | STV","players":null},{"server_id":40,"name":"Uncletopia | London | 7 | No Payload","name_short":"lon-7","host":"lon-1.uk.uncletopia.com","port":27075,"enabled":true,"region":"eu","cc":"gb","latitude":51.509865,"longitude":-0.118092,"reserved":0,"last_update":"0001-01-01T00:00:00Z","name_a2s":"Uncletopia | London | 7 | No Payload","protocol":17,"map":"koth_badlands","folder":"tf","game":"Team Fortress","app_id":440,"player_count":3,"max_players":24,"Bots":0,"server_type":"Dedicated","server_os":"Linux","password":true,"vac":true,"version":"7961495","steam_id":85568392924964314,"keywords":["cp","nocrits","nodmgspread","uncletopia"],"game_id":440,"stv_port":27076,"stv_name":"Uncletopia | London | 7 | No Payload | STV","players":[{"user_id":3,"name":"Slessplee","steam_id":76561198315732431,"connected_time":2525000000000,"state":"active","ping":165},{"user_id":4,"name":"Cosmic Yoshi","steam_id":76561199195528497,"connected_time":2515000000000,"state":"active","ping":175},{"user_id":5,"name":"cm999","steam_id":76561198372392420,"connected_time":2480000000000,"state":"active","ping":154}]},{"server_id":41,"name":"Uncletopia | London | 8 | Community","name_short":"lon-8","host":"lon-1.uk.uncletopia.com","port":27085,"enabled":true,"region":"eu","cc":"gb","latitude":51.509865,"longitude":-0.118092,"reserved":0,"last_update":"0001-01-01T00:00:00Z","name_a2s":"Uncletopia | London | 8 | Community","protocol":17,"map":"pl_borneo","folder":"tf","game":"Team Fortress","app_id":440,"player_count":0,"max_players":24,"Bots":0,"server_type":"Dedicated","server_os":"Linux","password":true,"vac":true,"version":"7961495","steam_id":85568392924964315,"keywords":["nocrits","nodmgspread","payload","uncletopia"],"game_id":440,"stv_port":27086,"stv_name":"Uncletopia | London | 8 | Community | STV","players":null},{"server_id":300,"name":"Uncletopia | Montr√©al | 1 | All Maps","name_short":"mtl-1","host":"mtl-1.ca.uncletopia.com","port":27015,"enabled":true,"region":"us-east","cc":"ca","latitude":45.50889,"longitude":-73.56167,"reserved":0,"last_update":"0001-01-01T00:00:00Z","name_a2s":"Uncletopia | Montr√©al | 1 | All Maps","protocol":17,"map":"pl_barnblitz","folder":"tf","game":"Team Fortress","app_id":440,"player_count":0,"max_players":24,"Bots":0,"server_type":"Dedicated","server_os":"Linux","password":true,"vac":true,"version":"7961495","steam_id":85568392924500087,"keywords":["nocrits","nodmgspread","payload","uncletopia"],"game_id":440,"stv_port":27016,"stv_name":"Uncletopia | Montr√©al | 1 | All Maps | STV","players":null},{"server_id":301,"name":"Uncletopia | Montr√©al | 2 | All Maps","name_short":"mtl-2","host":"mtl-1.ca.uncletopia.com","port":27025,"enabled":true,"region":"us-east","cc":"ca","latitude":45.50889,"longitude":-73.56167,"reserved":0,"last_update":"0001-01-01T00:00:00Z","name_a2s":"Uncletopia | Montr√©al | 2 | All Maps","protocol":17,"map":"pl_barnblitz","folder":"tf","game":"Team Fortress","app_id":440,"player_count":1,"max_players":24,"Bots":0,"server_type":"Dedicated","server_os":"Linux","password":true,"vac":true,"version":"7961495","steam_id":85568392924500088,"keywords":["nocrits","nodmgspread","payload","uncletopia"],"game_id":440,"stv_port":27026,"stv_name":"Uncletopia | Montr√©al | 2 | All Maps | STV","players":[{"user_id":11,"name":"Thequirka #ForBlu2th","steam_id":76561198968058652,"connected_time":7195000000000,"state":"active","ping":116}]},{"server_id":302,"name":"Uncletopia | Montr√©al | 3 | All Maps","name_short":"mtl-3","host":"mtl-1.ca.uncletopia.com","port":27035,"enabled":true,"region":"us-east","cc":"ca","latitude":45.50889,"longitude":-73.56167,"reserved":0,"last_update":"0001-01-01T00:00:00Z","name_a2s":"Uncletopia | Montr√©al | 3 | All Maps","protocol":17,"map":"pl_pier","folder":"tf","game":"Team Fortress","app_id":440,"player_count":0,"max_players":24,"Bots":0,"server_type":"Dedicated","server_os":"Linux","password":true,"vac":true,"version":"7961495","steam_id":85568392924500089,"keywords":["nocrits","nodmgspread","payload","uncletopia"],"game_id":440,"stv_port":27036,"stv_name":"Uncletopia | Montr√©al | 3 | All Maps | STV","players":null},{"server_id":303,"name":"Uncletopia | Montr√©al | 4 | No Payload","name_short":"mtl-4","host":"mtl-1.ca.uncletopia.com","port":27045,"enabled":true,"region":"us-east","cc":"ca","latitude":45.50889,"longitude":-73.56167,"reserved":0,"last_update":"0001-01-01T00:00:00Z","name_a2s":"Uncletopia | Montr√©al | 4 | No Payload","protocol":17,"map":"koth_lakeside_final","folder":"tf","game":"Team Fortress","app_id":440,"player_count":0,"max_players":24,"Bots":0,"server_type":"Dedicated","server_os":"Linux","password":true,"vac":true,"version":"7961495","steam_id":85568392924500090,"keywords":["cp","nocrits","nodmgspread","uncletopia"],"game_id":440,"stv_port":27046,"stv_name":"Uncletopia | Montr√©al | 4 | No Payload | STV","players":null},{"server_id":13,"name":"Uncletopia | New York City | 1 | All Maps","name_short":"nyc-1","host":"nyc-1.us.uncletopia.com","port":27015,"enabled":true,"region":"us-east","cc":"us","latitude":40.73061,"longitude":-73.93524,"reserved":0,"last_update":"0001-01-01T00:00:00Z","name_a2s":"Uncletopia | New York City | 1 | All Maps","protocol":17,"map":"pl_barnblitz","folder":"tf","game":"Team Fortress","app_id":440,"player_count":23,"max_players":24,"Bots":0,"server_type":"Dedicated","server_os":"Linux","password":true,"vac":true,"version":"7961495","steam_id":85568392924469993,"keywords":["nocrits","nodmgspread","payload","uncletopia"],"game_id":440,"stv_port":27016,"stv_name":"Uncletopia | New York City | 1 | All Maps | STV","players":[{"user_id":537,"name":"Two-Teste Tommy","steam_id":76561198064308936,"connected_time":1310000000000,"state":"active","ping":52},{"user_id":523,"name":"Stultus","steam_id":76561198115116367,"connected_time":2908000000000,"state":"active","ping":50},{"user_id":543,"name":"Captain Infidelity","steam_id":76561198267285744,"connected_time":1045000000000,"state":"active","ping":66},{"user_id":531,"name":"Person","steam_id":76561198093244204,"connected_time":2598000000000,"state":"active","ping":60},{"user_id":376,"name":"‡πáPericulosum PhD in Funny","steam_id":76561198123370914,"connected_time":16121000000000,"state":"active","ping":88},{"user_id":532,"name":"joe iroh","steam_id":76561198173105270,"connected_time":2457000000000,"state":"active","ping":50},{"user_id":549,"name":"Female Gamer","steam_id":76561199366482682,"connected_time":769000000000,"state":"active","ping":123},{"user_id":535,"name":"The Circle rules Your Life","steam_id":76561198072095399,"connected_time":1604000000000,"state":"active","ping":34},{"user_id":517,"name":"Z2X","steam_id":76561198031916579,"connected_time":3655000000000,"state":"active","ping":44},{"user_id":545,"name":"tesagi","steam_id":76561198026664629,"connected_time":996000000000,"state":"active","ping":47},{"user_id":546,"name":"sex defender","steam_id":76561198078400787,"connected_time":972000000000,"state":"active","ping":56},{"user_id":538,"name":"Gods Drunkest Driver","steam_id":76561198390108910,"connected_time":1307000000000,"state":"active","ping":89},{"user_id":446,"name":"ATL 1 | Save your wifi","steam_id":76561198286147372,"connected_time":9587000000000,"state":"active","ping":65},{"user_id":529,"name":"JACK BRUNO","steam_id":76561198027957690,"connected_time":2766000000000,"state":"active","ping":125},{"user_id":550,"name":"Sky!","steam_id":76561198141953747,"connected_time":652000000000,"state":"active","ping":75},{"user_id":494,"name":"Talented","steam_id":76561198800259660,"connected_time":5487000000000,"state":"active","ping":68},{"user_id":540,"name":"Bleat","steam_id":76561198138678917,"connected_time":1229000000000,"state":"active","ping":131},{"user_id":528,"name":"SDL","steam_id":76561198859719985,"connected_time":2842000000000,"state":"active","ping":93},{"user_id":547,"name":"Cosmic sR","steam_id":76561198081738675,"connected_time":932000000000,"state":"active","ping":78},{"user_id":477,"name":"mytoyo2k2","steam_id":76561199486326945,"connected_time":6591000000000,"state":"active","ping":75},{"user_id":551,"name":"Jo","steam_id":76561198060447015,"connected_time":37000000000,"state":"active","ping":60},{"user_id":542,"name":"kezia","steam_id":76561198059815894,"connected_time":1198000000000,"state":"active","ping":52},{"user_id":548,"name":"ShadozoneX","steam_id":76561198255452404,"connected_time":931000000000,"state":"active","ping":95}]},{"server_id":14,"name":"Uncletopia | New York City | 2 | All Maps","name_short":"nyc-2","host":"nyc-1.us.uncletopia.com","port":27025,"enabled":true,"region":"us-east","cc":"us","latitude":40.73061,"longitude":-73.93524,"reserved":0,"last_update":"0001-01-01T00:00:00Z","name_a2s":"Uncletopia | New York City | 2 | All Maps","protocol":17,"map":"pl_pier","folder":"tf","game":"Team Fortress","app_id":440,"player_count":0,"max_players":24,"Bots":0,"server_type":"Dedicated","server_os":"Linux","password":true,"vac":true,"version":"7961495","steam_id":85568392924469994,"keywords":["nocrits","nodmgspread","payload","uncletopia"],"game_id":440,"stv_port":27026,"stv_name":"Uncletopia | New York City | 2 | All Maps | STV","players":null},{"server_id":15,"name":"Uncletopia | New York City | 3 | Stopwatch Beta","name_short":"nyc-3","host":"nyc-1.us.uncletopia.com","port":27035,"enabled":true,"region":"us-east","cc":"us","latitude":40.73061,"longitude":-73.93524,"reserved":0,"last_update":"0001-01-01T00:00:00Z","name_a2s":"Uncletopia | New York City | 3 | Stopwatch Beta","protocol":17,"map":"workshop/pl_badwater_pro_v12.ugc2142942074","folder":"tf","game":"Team Fortress","app_id":440,"player_count":0,"max_players":24,"Bots":0,"server_type":"Dedicated","server_os":"Linux","password":true,"vac":true,"version":"7961495","steam_id":85568392924742820,"keywords":["nocrits","nodmgspread","payload","uncletopia"],"game_id":440,"stv_port":27036,"stv_name":"Uncletopia | New York City | 3 | Stopwatch Beta | STV","players":null},{"server_id":16,"name":"Uncletopia | New York City | 4 | Community","name_short":"nyc-4","host":"nyc-1.us.uncletopia.com","port":27045,"enabled":true,"region":"us-east","cc":"us","latitude":40.73061,"longitude":-73.93524,"reserved":0,"last_update":"0001-01-01T00:00:00Z","name_a2s":"Uncletopia | New York City | 4 | Community","protocol":17,"map":"workshop/cp_indulge.ugc528106646","folder":"tf","game":"Team Fortress","app_id":440,"player_count":0,"max_players":24,"Bots":0,"server_type":"Dedicated","server_os":"Linux","password":true,"vac":true,"version":"7961495","steam_id":85568392924742821,"keywords":["cp","nocrits","nodmgspread","uncletopia"],"game_id":440,"stv_port":27046,"stv_name":"Uncletopia | New York City | 4 | Community | STV","players":null},{"server_id":142,"name":"Uncletopia | S√£o Paulo | 1 | All Maps","name_short":"sao-1","host":"sao-1.br.uncletopia.com","port":27015,"enabled":true,"region":"sa","cc":"br","latitude":-23.533773,"longitude":-46.62529,"reserved":0,"last_update":"0001-01-01T00:00:00Z","name_a2s":"Uncletopia | S√£o Paulo | 1 | All Maps","protocol":17,"map":"koth_cascade","folder":"tf","game":"Team Fortress","app_id":440,"player_count":0,"max_players":24,"Bots":0,"server_type":"Dedicated","server_os":"Linux","password":true,"vac":true,"version":"7961495","steam_id":85568392924469996,"keywords":["cp","nocrits","nodmgspread","uncletopia"],"game_id":440,"stv_port":27016,"stv_name":"Uncletopia | S√£o Paulo | 1 | All Maps | STV","players":null},{"server_id":143,"name":"Uncletopia | S√£o Paulo | 2 | Community","name_short":"sao-2","host":"sao-2.br.uncletopia.com","port":27015,"enabled":true,"region":"sa","cc":"br","latitude":-23.533773,"longitude":-46.62529,"reserved":0,"last_update":"0001-01-01T00:00:00Z","name_a2s":"Uncletopia | S√£o Paulo | 2 | Community","protocol":17,"map":"workshop/cp_indulge.ugc528106646","folder":"tf","game":"Team Fortress","app_id":440,"player_count":0,"max_players":24,"Bots":0,"server_type":"Dedicated","server_os":"Linux","password":true,"vac":true,"version":"7961495","steam_id":85568392924485349,"keywords":["cp","nocrits","nodmgspread","uncletopia"],"game_id":440,"stv_port":27016,"stv_name":"Uncletopia | S√£o Paulo | 2 | Community | STV","players":null},{"server_id":7,"name":"Uncletopia | Seattle | 1 | All Maps","name_short":"sea-1","host":"sea-1.us.uncletopia.com","port":27015,"enabled":true,"region":"us-west","cc":"us","latitude":47.608013,"longitude":-122.33517,"reserved":0,"last_update":"0001-01-01T00:00:00Z","name_a2s":"Uncletopia | Seattle | 1 | All Maps","protocol":17,"map":"cp_powerhouse","folder":"tf","game":"Team Fortress","app_id":440,"player_count":24,"max_players":24,"Bots":0,"server_type":"Dedicated","server_os":"Linux","password":true,"vac":true,"version":"7961495","steam_id":85568392924469997,"keywords":["cp","nocrits","nodmgspread","uncletopia"],"game_id":440,"stv_port":27016,"stv_name":"Uncletopia | Seattle | 1 | All Maps | STV","players":[{"user_id":780,"name":"NEBULA","steam_id":76561198086878595,"connected_time":5323000000000,"state":"active","ping":111},{"user_id":833,"name":"mub","steam_id":76561197961943948,"connected_time":822000000000,"state":"active","ping":45},{"user_id":829,"name":"studdedscot","steam_id":76561198069118787,"connected_time":1109000000000,"state":"active","ping":58},{"user_id":837,"name":"Das Anchor","steam_id":76561198060173151,"connected_time":112000000000,"state":"active","ping":94},{"user_id":826,"name":"Strikerbolt","steam_id":76561199095622897,"connected_time":1418000000000,"state":"active","ping":83},{"user_id":836,"name":"doopsies","steam_id":76561198083000867,"connected_time":117000000000,"state":"active","ping":51},{"user_id":818,"name":"westward (was/were)","steam_id":76561198805512350,"connected_time":1777000000000,"state":"active","ping":61},{"user_id":816,"name":"makeshift_burrito","steam_id":76561198042510825,"connected_time":2013000000000,"state":"active","ping":71},{"user_id":812,"name":"Skoad","steam_id":76561198104650528,"connected_time":2553000000000,"state":"active","ping":63},{"user_id":828,"name":"Scorpianswag","steam_id":76561198260651036,"connected_time":1128000000000,"state":"active","ping":73},{"user_id":838,"name":"Arsonist Goose","steam_id":76561198147441830,"connected_time":101000000000,"state":"active","ping":75},{"user_id":840,"name":"Jo","steam_id":76561198060447015,"connected_time":74000000000,"state":"connecting","ping":0},{"user_id":814,"name":"Choom","steam_id":76561197972654816,"connected_time":2237000000000,"state":"active","ping":45},{"user_id":841,"name":"littengamer1112","steam_id":76561198992690060,"connected_time":44000000000,"state":"active","ping":62},{"user_id":730,"name":"aisu","steam_id":76561198043768507,"connected_time":10842000000000,"state":"active","ping":90},{"user_id":842,"name":"skittle ducks lft","steam_id":76561198309823950,"connected_time":27000000000,"state":"active","ping":35},{"user_id":821,"name":"HotHead","steam_id":76561198138468982,"connected_time":1580000000000,"state":"active","ping":41},{"user_id":794,"name":"mike, agro drunk","steam_id":76561198225411004,"connected_time":4053000000000,"state":"active","ping":67},{"user_id":825,"name":"Villchip","steam_id":76561198198599982,"connected_time":1452000000000,"state":"active","ping":49},{"user_id":800,"name":"Ayayayayayahuasca","steam_id":76561199002906056,"connected_time":3956000000000,"state":"active","ping":50},{"user_id":820,"name":"Cheezbeargur","steam_id":76561198164702899,"connected_time":1694000000000,"state":"active","ping":65},{"user_id":832,"name":"oil","steam_id":76561198099980149,"connected_time":918000000000,"state":"active","ping":75},{"user_id":834,"name":"roryisonamobilehotspot","steam_id":76561198065825165,"connected_time":554000000000,"state":"active","ping":102},{"user_id":835,"name":"camp3r","steam_id":76561197992870439,"connected_time":424000000000,"state":"active","ping":38}]},{"server_id":119,"name":"Uncletopia | Seattle | 2 | All Maps","name_short":"sea-2","host":"sea-1.us.uncletopia.com","port":27025,"enabled":true,"region":"us-west","cc":"us","latitude":47.608013,"longitude":-122.33517,"reserved":0,"last_update":"0001-01-01T00:00:00Z","name_a2s":"Uncletopia | Seattle | 2 | All Maps","protocol":17,"map":"pl_badwater","folder":"tf","game":"Team Fortress","app_id":440,"player_count":24,"max_players":24,"Bots":0,"server_type":"Dedicated","server_os":"Linux","password":true,"vac":true,"version":"7961495","steam_id":85568392924469998,"keywords":["nocrits","nodmgspread","payload","uncletopia"],"game_id":440,"stv_port":27026,"stv_name":"Uncletopia | Seattle | 2 | All Maps | STV","players":[{"user_id":442,"name":"MerkyWaters","steam_id":76561197998853063,"connected_time":1422000000000,"state":"active","ping":90},{"user_id":452,"name":"Shrexy.","steam_id":76561198116432939,"connected_time":677000000000,"state":"active","ping":53},{"user_id":453,"name":"weedmonkey69","steam_id":76561198840265176,"connected_time":646000000000,"state":"active","ping":52},{"user_id":392,"name":"H E L P  M E","steam_id":76561199275127093,"connected_time":5240000000000,"state":"active","ping":151},{"user_id":465,"name":"MyMonkeyBaby","steam_id":76561198046896670,"connected_time":177000000000,"state":"active","ping":61},{"user_id":421,"name":"reiidaya","steam_id":76561198325306660,"connected_time":2580000000000,"state":"active","ping":46},{"user_id":455,"name":"Nyx","steam_id":76561198100929724,"connected_time":536000000000,"state":"active","ping":43},{"user_id":466,"name":"touka","steam_id":76561198171521806,"connected_time":155000000000,"state":"active","ping":58},{"user_id":467,"name":"Shdaddy","steam_id":76561198302083041,"connected_time":145000000000,"state":"active","ping":113},{"user_id":446,"name":"benji","steam_id":76561198084417967,"connected_time":969000000000,"state":"active","ping":72},{"user_id":438,"name":"A UsedNom","steam_id":76561198402832756,"connected_time":1530000000000,"state":"active","ping":64},{"user_id":406,"name":"greens beans","steam_id":76561198153611491,"connected_time":3800000000000,"state":"active","ping":36},{"user_id":448,"name":"CocoCryptid","steam_id":76561198135993835,"connected_time":750000000000,"state":"active","ping":56},{"user_id":440,"name":"cringy","steam_id":76561198323000455,"connected_time":1482000000000,"state":"active","ping":95},{"user_id":449,"name":"udon","steam_id":76561198165872348,"connected_time":733000000000,"state":"active","ping":49},{"user_id":450,"name":"ars110","steam_id":76561198030492435,"connected_time":721000000000,"state":"active","ping":61},{"user_id":451,"name":"011sra","steam_id":76561199489542125,"connected_time":706000000000,"state":"active","ping":59},{"user_id":464,"name":"emukill","steam_id":76561198053143720,"connected_time":227000000000,"state":"active","ping":60},{"user_id":457,"name":"American Dad Funny Moments #32","steam_id":76561198254874328,"connected_time":445000000000,"state":"active","ping":59},{"user_id":468,"name":"donkey","steam_id":76561198288539461,"connected_time":110000000000,"state":"active","ping":114},{"user_id":459,"name":"10HourNaps","steam_id":76561199082304859,"connected_time":414000000000,"state":"active","ping":58},{"user_id":460,"name":"sweaterfan","steam_id":76561199389567214,"connected_time":388000000000,"state":"active","ping":119},{"user_id":461,"name":"BuncusBeffer","steam_id":76561198285936616,"connected_time":381000000000,"state":"active","ping":76},{"user_id":469,"name":"doobie the hutt","steam_id":76561198088873640,"connected_time":73000000000,"state":"active","ping":56}]},{"server_id":406,"name":"Uncletopia | Seattle | 3 | Stopwatch Beta","name_short":"sea-3","host":"sea-1.us.uncletopia.com","port":27035,"enabled":true,"region":"us-west","cc":"us","latitude":47.608013,"longitude":-122.33517,"reserved":0,"last_update":"0001-01-01T00:00:00Z","name_a2s":"Uncletopia | Seattle | 3 | Stopwatch Beta","protocol":17,"map":"workshop/koth_ramjam_rc1.ugc459778887","folder":"tf","game":"Team Fortress","app_id":440,"player_count":0,"max_players":24,"Bots":0,"server_type":"Dedicated","server_os":"Linux","password":true,"vac":true,"version":"7961495","steam_id":85568392924515217,"keywords":["cp","nocrits","nodmgspread","uncletopia"],"game_id":440,"stv_port":27036,"stv_name":"Uncletopia | Seattle | 3 | Stopwatch Beta | STV","players":null},{"server_id":17,"name":"Uncletopia | San Francisco | 1 | All Maps","name_short":"sfo-1","host":"sfo-1.us.uncletopia.com","port":27015,"enabled":true,"region":"us-west","cc":"us","latitude":37.77397,"longitude":-122.4313,"reserved":0,"last_update":"0001-01-01T00:00:00Z","name_a2s":"Uncletopia | San Francisco | 1 | All Maps","protocol":17,"map":"koth_king","folder":"tf","game":"Team Fortress","app_id":440,"player_count":21,"max_players":24,"Bots":0,"server_type":"Dedicated","server_os":"Linux","password":true,"vac":true,"version":"7961495","steam_id":85568392924469999,"keywords":["cp","nocrits","nodmgspread","uncletopia"],"game_id":440,"stv_port":27016,"stv_name":"Uncletopia | San Francisco | 1 | All Maps | STV","players":[{"user_id":297,"name":"Sleuth","steam_id":76561198418288939,"connected_time":168000000000,"state":"active","ping":58},{"user_id":266,"name":"osiris","steam_id":76561197993619230,"connected_time":2022000000000,"state":"active","ping":61},{"user_id":281,"name":"gold","steam_id":76561199085827238,"connected_time":979000000000,"state":"active","ping":87},{"user_id":277,"name":"the verminator","steam_id":76561198828246148,"connected_time":1610000000000,"state":"active","ping":99},{"user_id":272,"name":"Ian","steam_id":76561198159334435,"connected_time":1861000000000,"state":"active","ping":169},{"user_id":253,"name":"loco503","steam_id":76561198827495121,"connected_time":3713000000000,"state":"active","ping":61},{"user_id":287,"name":"oliver biscuit","steam_id":76561197989058876,"connected_time":829000000000,"state":"active","ping":103},{"user_id":282,"name":"Rusty","steam_id":76561198055585129,"connected_time":930000000000,"state":"active","ping":63},{"user_id":291,"name":"LeftNut","steam_id":76561198035500934,"connected_time":640000000000,"state":"active","ping":40},{"user_id":283,"name":"RagingRoosevelt","steam_id":76561197985483153,"connected_time":909000000000,"state":"active","ping":53},{"user_id":284,"name":"Major_Pippy","steam_id":76561198004482878,"connected_time":898000000000,"state":"active","ping":66},{"user_id":285,"name":"Buffalo Gold","steam_id":76561198119693806,"connected_time":878000000000,"state":"active","ping":55},{"user_id":286,"name":"El Gato Paranoico","steam_id":76561198116567116,"connected_time":844000000000,"state":"active","ping":105},{"user_id":270,"name":"Paul Gaming","steam_id":76561198065538229,"connected_time":1955000000000,"state":"active","ping":57},{"user_id":271,"name":"Edgar Dill","steam_id":76561198106429468,"connected_time":1953000000000,"state":"active","ping":69},{"user_id":278,"name":"Higuma","steam_id":76561198375229012,"connected_time":1368000000000,"state":"active","ping":56},{"user_id":273,"name":"pee_gulper_6161","steam_id":76561198161405836,"connected_time":1850000000000,"state":"active","ping":58},{"user_id":240,"name":"Lily Thorn","steam_id":76561198305488625,"connected_time":4439000000000,"state":"active","ping":86},{"user_id":290,"name":"porksoda","steam_id":76561198021451377,"connected_time":685000000000,"state":"active","ping":71},{"user_id":293,"name":"vali","steam_id":76561198040957135,"connected_time":496000000000,"state":"active","ping":100},{"user_id":296,"name":"Mr. Carfox","steam_id":76561198041664428,"connected_time":225000000000,"state":"active","ping":49}]},{"server_id":18,"name":"Uncletopia | San Francisco | 2 | All Maps","name_short":"sfo-2","host":"sfo-1.us.uncletopia.com","port":27025,"enabled":true,"region":"us-west","cc":"us","latitude":37.77397,"longitude":-122.4313,"reserved":0,"last_update":"0001-01-01T00:00:00Z","name_a2s":"Uncletopia | San Francisco | 2 | All Maps","protocol":17,"map":"pl_frontier_final","folder":"tf","game":"Team Fortress","app_id":440,"player_count":24,"max_players":24,"Bots":0,"server_type":"Dedicated","server_os":"Linux","password":true,"vac":true,"version":"7961495","steam_id":85568392924470000,"keywords":["nocrits","nodmgspread","payload","uncletopia"],"game_id":440,"stv_port":27026,"stv_name":"Uncletopia | San Francisco | 2 | All Maps | STV","players":[{"user_id":311,"name":"Trousers","steam_id":76561198128158481,"connected_time":658000000000,"state":"active","ping":59},{"user_id":268,"name":"ambigraham","steam_id":76561198075452437,"connected_time":5311000000000,"state":"active","ping":67},{"user_id":314,"name":"TheArachnidGamer","steam_id":76561198304986752,"connected_time":375000000000,"state":"active","ping":76},{"user_id":315,"name":"sex (real)","steam_id":76561198396414319,"connected_time":330000000000,"state":"active","ping":64},{"user_id":308,"name":"Scorcho","steam_id":76561198071413833,"connected_time":1481000000000,"state":"active","ping":79},{"user_id":321,"name":"Five","steam_id":76561198026640473,"connected_time":109000000000,"state":"active","ping":60},{"user_id":313,"name":"Jawbone17","steam_id":76561198043939302,"connected_time":443000000000,"state":"active","ping":61},{"user_id":280,"name":"SolarusD","steam_id":76561198029279861,"connected_time":4648000000000,"state":"active","ping":46},{"user_id":295,"name":"marty","steam_id":76561198032782746,"connected_time":2818000000000,"state":"active","ping":58},{"user_id":249,"name":"Pablo's nuts","steam_id":76561198062763756,"connected_time":7018000000000,"state":"active","ping":91},{"user_id":224,"name":"Grand","steam_id":76561198290143399,"connected_time":9939000000000,"state":"active","ping":73},{"user_id":225,"name":"Truffles","steam_id":76561198095868800,"connected_time":9680000000000,"state":"active","ping":120},{"user_id":285,"name":"Lambchop","steam_id":76561198043900363,"connected_time":3909000000000,"state":"active","ping":61},{"user_id":305,"name":"Seshreb","steam_id":76561198846614634,"connected_time":2004000000000,"state":"active","ping":73},{"user_id":316,"name":"els","steam_id":76561199112000229,"connected_time":325000000000,"state":"active","ping":64},{"user_id":312,"name":"EdxTheFig","steam_id":76561198108650109,"connected_time":618000000000,"state":"active","ping":55},{"user_id":283,"name":"Mapachito Lindo","steam_id":76561198031359995,"connected_time":3990000000000,"state":"active","ping":66},{"user_id":317,"name":"magunyamu","steam_id":76561198823083676,"connected_time":244000000000,"state":"active","ping":65},{"user_id":102,"name":"riSygneD","steam_id":76561198331618687,"connected_time":18356000000000,"state":"active","ping":46},{"user_id":267,"name":"parallax","steam_id":76561198004438881,"connected_time":5628000000000,"state":"active","ping":63},{"user_id":318,"name":"AAAAAAAAAAAAAAAAAAAAAAAAAAAAAAA","steam_id":76561198125467937,"connected_time":236000000000,"state":"active","ping":72},{"user_id":319,"name":"Earth-Chan","steam_id":76561198207583011,"connected_time":226000000000,"state":"active","ping":51},{"user_id":303,"name":"Dragoninventor (He/Him)","steam_id":76561198956224948,"connected_time":2365000000000,"state":"active","ping":78},{"user_id":304,"name":"Anthid","steam_id":76561198074493797,"connected_time":2310000000000,"state":"active","ping":74}]},{"server_id":19,"name":"Uncletopia | San Francisco | 3 | Stopwatch Beta","name_short":"sfo-3","host":"sfo-1.us.uncletopia.com","port":27035,"enabled":true,"region":"us-west","cc":"us","latitude":37.77397,"longitude":-122.4313,"reserved":0,"last_update":"0001-01-01T00:00:00Z","name_a2s":"Uncletopia | San Francisco | 3 | Stopwatch Beta","protocol":17,"map":"workshop/pl_vigil_rc9.ugc1266210012","folder":"tf","game":"Team Fortress","app_id":440,"player_count":0,"max_players":24,"Bots":0,"server_type":"Dedicated","server_os":"Linux","password":true,"vac":true,"version":"7961495","steam_id":85568392924742824,"keywords":["nocrits","nodmgspread","payload","uncletopia"],"game_id":440,"stv_port":27036,"stv_name":"Uncletopia | San Francisco | 3 | Stopwatch Beta | STV","players":null},{"server_id":20,"name":"Uncletopia | San Francisco | 4 | Community","name_short":"sfo-4","host":"sfo-1.us.uncletopia.com","port":27045,"enabled":true,"region":"us-west","cc":"us","latitude":37.77397,"longitude":-122.4313,"reserved":0,"last_update":"0001-01-01T00:00:00Z","name_a2s":"Uncletopia | San Francisco | 4 | Community","protocol":17,"map":"workshop/cp_bruhstbowl_b6.ugc2878604990","folder":"tf","game":"Team Fortress","app_id":440,"player_count":0,"max_players":24,"Bots":0,"server_type":"Dedicated","server_os":"Linux","password":true,"vac":true,"version":"7961495","steam_id":85568392924742826,"keywords":["cp","nocrits","nodmgspread","uncletopia"],"game_id":440,"stv_port":27046,"stv_name":"Uncletopia | San Francisco | 4 | Community | STV","players":null},{"server_id":141,"name":"Uncletopia | Sydney | 1 | All Maps","name_short":"syd-1","host":"syd-1.au.uncletopia.com","port":27015,"enabled":true,"region":"au","cc":"au","latitude":-33.865143,"longitude":151.2099,"reserved":0,"last_update":"0001-01-01T00:00:00Z","name_a2s":"Uncletopia | Sydney | 1 | All Maps","protocol":17,"map":"pl_barnblitz","folder":"tf","game":"Team Fortress","app_id":440,"player_count":12,"max_players":24,"Bots":0,"server_type":"Dedicated","server_os":"Linux","password":true,"vac":true,"version":"7961495","steam_id":85568392924470001,"keywords":["nocrits","nodmgspread","payload","uncletopia"],"game_id":440,"stv_port":27016,"stv_name":"Uncletopia | Sydney | 1 | All Maps | STV","players":[{"user_id":15,"name":"The :)","steam_id":76561198958059883,"connected_time":1870000000000,"state":"active","ping":80},{"user_id":7,"name":"HJGuard","steam_id":76561199275636067,"connected_time":3261000000000,"state":"active","ping":136},{"user_id":27,"name":"Sk8rrrr","steam_id":76561198334646675,"connected_time":451000000000,"state":"active","ping":46},{"user_id":21,"name":"hl2_linux","steam_id":76561198809011070,"connected_time":1548000000000,"state":"active","ping":46},{"user_id":24,"name":"SalutingSandvich","steam_id":76561199405667218,"connected_time":652000000000,"state":"active","ping":70},{"user_id":25,"name":"using a laptop","steam_id":76561199445302425,"connected_time":604000000000,"state":"active","ping":158},{"user_id":26,"name":"DEDSKI","steam_id":76561199258918666,"connected_time":547000000000,"state":"active","ping":69},{"user_id":14,"name":"DaWayOfRockets","steam_id":76561199228437541,"connected_time":1905000000000,"state":"active","ping":178},{"user_id":28,"name":"iLikeMudrock ·óú‚Ä∏·óú","steam_id":76561199352285088,"connected_time":216000000000,"state":"active","ping":152},{"user_id":18,"name":"Rodan","steam_id":76561198038401873,"connected_time":1747000000000,"state":"active","ping":85},{"user_id":29,"name":"cakey","steam_id":76561198173746761,"connected_time":201000000000,"state":"active","ping":57},{"user_id":30,"name":"Drakeo","steam_id":76561198268859184,"connected_time":183000000000,"state":"active","ping":95}]},{"server_id":123,"name":"Uncletopia | Sydney | 2 | All Maps","name_short":"syd-2","host":"syd-1.au.uncletopia.com","port":27025,"enabled":true,"region":"au","cc":"au","latitude":-33.865143,"longitude":151.2099,"reserved":0,"last_update":"0001-01-01T00:00:00Z","name_a2s":"Uncletopia | Sydney | 2 | All Maps","protocol":17,"map":"koth_cascade","folder":"tf","game":"Team Fortress","app_id":440,"player_count":0,"max_players":24,"Bots":0,"server_type":"Dedicated","server_os":"Linux","password":true,"vac":true,"version":"7961495","steam_id":85568392924470002,"keywords":["cp","nocrits","nodmgspread","uncletopia"],"game_id":440,"stv_port":27026,"stv_name":"Uncletopia | Sydney | 2 | All Maps | STV","players":null},{"server_id":395,"name":"Uncletopia | Sydney | 3 | All Maps","name_short":"syd-3","host":"syd-1.au.uncletopia.com","port":27035,"enabled":true,"region":"au","cc":"au","latitude":-33.865143,"longitude":151.2099,"reserved":0,"last_update":"0001-01-01T00:00:00Z","name_a2s":"Uncletopia | Sydney | 3 | All Maps","protocol":17,"map":"pl_borneo","folder":"tf","game":"Team Fortress","app_id":440,"player_count":24,"max_players":24,"Bots":0,"server_type":"Dedicated","server_os":"Linux","password":true,"vac":true,"version":"7961495","steam_id":85568392925194467,"keywords":["nocrits","nodmgspread","payload","uncletopia"],"game_id":440,"stv_port":27036,"stv_name":"Uncletopia | Sydney | 3 | All Maps | STV","players":[{"user_id":166,"name":"yarbinator","steam_id":76561198204678828,"connected_time":1599000000000,"state":"active","ping":55},{"user_id":139,"name":"perturb (feed/seed)","steam_id":76561198085124297,"connected_time":3502000000000,"state":"active","ping":49},{"user_id":175,"name":"Gallamellow","steam_id":76561198069046033,"connected_time":687000000000,"state":"active","ping":33},{"user_id":141,"name":"craftiestub8","steam_id":76561198155433424,"connected_time":3247000000000,"state":"active","ping":82},{"user_id":167,"name":"Meow'dy","steam_id":76561198100050147,"connected_time":1577000000000,"state":"active","ping":112},{"user_id":171,"name":"Cogzy","steam_id":76561198012463402,"connected_time":955000000000,"state":"active","ping":60},{"user_id":123,"name":"UrAvgDMG","steam_id":76561199214859141,"connected_time":4659000000000,"state":"active","ping":147},{"user_id":172,"name":"some_duck","steam_id":76561198087694502,"connected_time":934000000000,"state":"active","ping":44},{"user_id":161,"name":"wom","steam_id":76561199375834537,"connected_time":2098000000000,"state":"active","ping":136},{"user_id":144,"name":"Benskii","steam_id":76561198070130470,"connected_time":2881000000000,"state":"active","ping":69},{"user_id":165,"name":"Wynter","steam_id":76561198051390258,"connected_time":1750000000000,"state":"active","ping":56},{"user_id":173,"name":"floppinv2","steam_id":76561198213566569,"connected_time":889000000000,"state":"active","ping":106},{"user_id":145,"name":"TLatham22","steam_id":76561198368199532,"connected_time":2714000000000,"state":"active","ping":48},{"user_id":146,"name":"i \u003c3 breakcore","steam_id":76561198237563430,"connected_time":2713000000000,"state":"active","ping":68},{"user_id":117,"name":"No Scrubs","steam_id":76561197969619053,"connected_time":5101000000000,"state":"active","ping":76},{"user_id":160,"name":"john","steam_id":76561198072743507,"connected_time":2130000000000,"state":"active","ping":70},{"user_id":159,"name":"Critz Eastwood","steam_id":76561198050094688,"connected_time":2143000000000,"state":"active","ping":60},{"user_id":176,"name":"Skidallion","steam_id":76561198083922206,"connected_time":645000000000,"state":"active","ping":74},{"user_id":162,"name":"Doctor Estonia","steam_id":76561198057365089,"connected_time":2089000000000,"state":"active","ping":75},{"user_id":151,"name":"Torpedo Joe","steam_id":76561198891162666,"connected_time":2609000000000,"state":"active","ping":92},{"user_id":137,"name":"militarywombat","steam_id":76561198798651633,"connected_time":3688000000000,"state":"active","ping":76},{"user_id":168,"name":"Cattaaaron","steam_id":76561198088619243,"connected_time":1478000000000,"state":"active","ping":52},{"user_id":174,"name":"haru","steam_id":76561198844175596,"connected_time":843000000000,"state":"active","ping":133},{"user_id":164,"name":"AAAAaaaAAAAAA!!!!!!!","steam_id":76561199174449723,"connected_time":1956000000000,"state":"active","ping":157}]},{"server_id":396,"name":"Uncletopia | Sydney | 4 | All Maps","name_short":"syd-4","host":"syd-1.au.uncletopia.com","port":27045,"enabled":true,"region":"au","cc":"au","latitude":-33.865143,"longitude":151.2099,"reserved":0,"last_update":"0001-01-01T00:00:00Z","name_a2s":"Uncletopia | Sydney | 4 | All Maps","protocol":17,"map":"cp_snakewater_final1","folder":"tf","game":"Team Fortress","app_id":440,"player_count":0,"max_players":24,"Bots":0,"server_type":"Dedicated","server_os":"Linux","password":true,"vac":true,"version":"7961495","steam_id":85568392925397958,"keywords":["cp","nocrits","nodmgspread","uncletopia"],"game_id":440,"stv_port":27046,"stv_name":"Uncletopia | Sydney | 4 | All Maps | STV","players":null},{"server_id":58,"name":"Uncletopia | Sydney | 5 | Stopwatch Beta","name_short":"syd-5","host":"syd-1.au.uncletopia.com","port":27055,"enabled":true,"region":"au","cc":"au","latitude":-33.865143,"longitude":151.2099,"reserved":0,"last_update":"0001-01-01T00:00:00Z","name_a2s":"Uncletopia | Sydney | 5 | Stopwatch Beta","protocol":17,"map":"koth_viaduct","folder":"tf","game":"Team Fortress","app_id":440,"player_count":0,"max_players":24,"Bots":0,"server_type":"Dedicated","server_os":"Linux","password":true,"vac":true,"version":"7961495","steam_id":85568392925397959,"keywords":["cp","nocrits","nodmgspread","uncletopia"],"game_id":440,"stv_port":27056,"stv_name":"Uncletopia | Sydney | 5 | Stopwatch Beta | STV","players":null},{"server_id":59,"name":"Uncletopia | Sydney | 6 | Community","name_short":"syd-6","host":"syd-1.au.uncletopia.com","port":27065,"enabled":true,"region":"au","cc":"au","latitude":-33.865143,"longitude":151.2099,"reserved":0,"last_update":"0001-01-01T00:00:00Z","name_a2s":"Uncletopia | Sydney | 6 | Community","protocol":17,"map":"koth_cascade","folder":"tf","game":"Team Fortress","app_id":440,"player_count":0,"max_players":24,"Bots":0,"server_type":"Dedicated","server_os":"Linux","password":true,"vac":true,"version":"7961495","steam_id":85568392925397960,"keywords":["cp","nocrits","nodmgspread","uncletopia"],"game_id":440,"stv_port":27066,"stv_name":"Uncletopia | Sydney | 6 | Community | STV","players":null},{"server_id":49,"name":"Uncletopia | Warsaw | 1 | All Maps","name_short":"waw-1","host":"waw-1.pl.uncletopia.com","port":27015,"enabled":true,"region":"eu","cc":"pl","latitude":52.2297,"longitude":21.017532,"reserved":0,"last_update":"0001-01-01T00:00:00Z","name_a2s":"Uncletopia | Warsaw | 1 | All Maps","protocol":17,"map":"pl_swiftwater_final1","folder":"tf","game":"Team Fortress","app_id":440,"player_count":0,"max_players":24,"Bots":0,"server_type":"Dedicated","server_os":"Linux","password":true,"vac":true,"version":"7961495","steam_id":85568392925397850,"keywords":["nocrits","nodmgspread","payload","uncletopia"],"game_id":440,"stv_port":27016,"stv_name":"Uncletopia | Warsaw | 1 | All Maps | STV","players":null},{"server_id":50,"name":"Uncletopia | Warsaw | 2 | All Maps","name_short":"waw-2","host":"waw-1.pl.uncletopia.com","port":27025,"enabled":true,"region":"eu","cc":"pl","latitude":52.2297,"longitude":21.017532,"reserved":0,"last_update":"0001-01-01T00:00:00Z","name_a2s":"Uncletopia | Warsaw | 2 | All Maps","protocol":17,"map":"cp_dustbowl","folder":"tf","game":"Team Fortress","app_id":440,"player_count":0,"max_players":24,"Bots":0,"server_type":"Dedicated","server_os":"Linux","password":true,"vac":true,"version":"7961495","steam_id":85568392925397851,"keywords":["cp","nocrits","nodmgspread","uncletopia"],"game_id":440,"stv_port":27026,"stv_name":"Uncletopia | Warsaw | 2 | All Maps | STV","players":null},{"server_id":51,"name":"Uncletopia | Warsaw | 3 | All Maps","name_short":"waw-3","host":"waw-1.pl.uncletopia.com","port":27035,"enabled":true,"region":"eu","cc":"pl","latitude":52.2297,"longitude":21.017532,"reserved":0,"last_update":"0001-01-01T00:00:00Z","name_a2s":"Uncletopia | Warsaw | 3 | All Maps","protocol":17,"map":"pl_upward","folder":"tf","game":"Team Fortress","app_id":440,"player_count":0,"max_players":24,"Bots":0,"server_type":"Dedicated","server_os":"Linux","password":true,"vac":true,"version":"7961495","steam_id":85568392925397852,"keywords":["nocrits","nodmgspread","payload","uncletopia"],"game_id":440,"stv_port":27036,"stv_name":"Uncletopia | Warsaw | 3 | All Maps | STV","players":null},{"server_id":52,"name":"Uncletopia | Warsaw | 4 | All Maps","name_short":"waw-4","host":"waw-1.pl.uncletopia.com","port":27045,"enabled":true,"region":"eu","cc":"pl","latitude":52.2297,"longitude":21.017532,"reserved":0,"last_update":"0001-01-01T00:00:00Z","name_a2s":"Uncletopia | Warsaw | 4 | All Maps","protocol":17,"map":"koth_viaduct","folder":"tf","game":"Team Fortress","app_id":440,"player_count":0,"max_players":24,"Bots":0,"server_type":"Dedicated","server_os":"Linux","password":true,"vac":true,"version":"7961495","steam_id":85568392925397853,"keywords":["cp","nocrits","nodmgspread","uncletopia"],"game_id":440,"stv_port":27046,"stv_name":"Uncletopia | Warsaw | 4 | All Maps | STV","players":null},{"server_id":53,"name":"Uncletopia | Warsaw | 5 | Stopwatch Beta","name_short":"waw-5","host":"waw-1.pl.uncletopia.com","port":27055,"enabled":true,"region":"eu","cc":"pl","latitude":52.2297,"longitude":21.017532,"reserved":0,"last_update":"0001-01-01T00:00:00Z","name_a2s":"Uncletopia | Warsaw | 5 | Stopwatch Beta","protocol":17,"map":"cp_snakewater_final1","folder":"tf","game":"Team Fortress","app_id":440,"player_count":0,"max_players":24,"Bots":0,"server_type":"Dedicated","server_os":"Linux","password":true,"vac":true,"version":"7961495","steam_id":85568392925397854,"keywords":["cp","nocrits","nodmgspread","uncletopia"],"game_id":440,"stv_port":27056,"stv_name":"Uncletopia | Warsaw | 5 | Stopwatch Beta | STV","players":null},{"server_id":54,"name":"Uncletopia | Warsaw | 6 | Community","name_short":"waw-6","host":"waw-1.pl.uncletopia.com","port":27065,"enabled":true,"region":"eu","cc":"pl","latitude":52.2297,"longitude":21.017532,"reserved":0,"last_update":"0001-01-01T00:00:00Z","name_a2s":"Uncletopia | Warsaw | 6 | Community","protocol":17,"map":"workshop/cp_glacier_rc6.ugc2905735376","folder":"tf","game":"Team Fortress","app_id":440,"player_count":0,"max_players":24,"Bots":0,"server_type":"Dedicated","server_os":"Linux","password":true,"vac":true,"version":"7961495","steam_id":85568392925397856,"keywords":["cp","nocrits","nodmgspread","uncletopia"],"game_id":440,"stv_port":27066,"stv_name":"Uncletopia | Warsaw | 6 | Community | STV","players":null}]}