{"status":true,"message":"","result":[{"server_id":9,"name":"Uncletopia | Atlanta | 1 | All Maps","name_short":"atl-1","host":"atl-1.us.uncletopia.com","port":27015,"enabled":true,"region":"us-east","cc":"us","latitude":33.753746,"longitude":-84.38633,"reserved":0,"last_update":"0001-01-01T00:00:00Z","name_a2s":"Uncletopia | Atlanta | 1 | All Maps","protocol":17,"map":"pl_borneo","folder":"tf","game":"Team Fortress","app_id":440,"player_count":24,"max_players":24,"Bots":0,"server_type":"Dedicated","server_os":"Linux","password":true,"vac":true,"version":"7695204","steam_id":85568392924469982,"keywords":["nocrits","nodmgspread","payload","uncletopia"],"game_id":440,"stv_port":27016,"stv_name":"Uncletopia | Atlanta | 1 | All Maps | STV","players":[{"user_id":124,"name":"üå∏Redüå∏","steam_id":76561198037346199,"connected_time":6736000000000,"state":"active","ping":197},{"user_id":161,"name":"Pixeled","steam_id":76561198088917077,"connected_time":2745000000000,"state":"active","ping":66},{"user_id":132,"name":"Mr.Indian Jokar","steam_id":76561198381343086,"connected_time":6265000000000,"state":"active","ping":103},{"user_id":181,"name":"GLEEKY","steam_id":76561198287245599,"connected_time":1589000000000,"state":"active","ping":57},{"user_id":180,"name":"--_Cook_--","steam_id":76561198080855748,"connected_time":1606000000000,"state":"active","ping":45},{"user_id":154,"name":"VerSaKa","steam_id":76561198052392540,"connected_time":4053000000000,"state":"active","ping":75},{"user_id":188,"name":"Coleslaws","steam_id":76561197981101782,"connected_time":501000000000,"state":"active","ping":65},{"user_id":173,"name":"LittleJoeRambler","steam_id":76561198015890576,"connected_time":2249000000000,"state":"active","ping":50},{"user_id":185,"name":"Righteou5Dude","steam_id":76561198136291931,"connected_time":1213000000000,"state":"active","ping":73},{"user_id":159,"name":"halfpint","steam_id":76561198148217618,"connected_time":3252000000000,"state":"active","ping":56},{"user_id":162,"name":"THE GIGGLER","steam_id":76561199275294643,"connected_time":2741000000000,"state":"active","ping":78},{"user_id":109,"name":"greydog","steam_id":76561198165934551,"connected_time":7323000000000,"state":"active","ping":65},{"user_id":190,"name":"Ch4n","steam_id":76561198797670090,"connected_time":487000000000,"state":"active","ping":53},{"user_id":184,"name":"Mads Mikkelsen","steam_id":76561198083482001,"connected_time":1442000000000,"state":"active","ping":166},{"user_id":172,"name":"Kuddly Kay","steam_id":76561198353432576,"connected_time":2270000000000,"state":"active","ping":111},{"user_id":191,"name":"TRHD_Pharaxer‚Ñ¢","steam_id":76561198051236069,"connected_time":445000000000,"state":"active","ping":152},{"user_id":170,"name":"fi_ji","steam_id":76561198126087725,"connected_time":2312000000000,"state":"active","ping":63},{"user_id":186,"name":"Epifiny","steam_id":76561198027958086,"connected_time":1071000000000,"state":"active","ping":82},{"user_id":168,"name":"A_Malebolgia","steam_id":76561198097722818,"connected_time":2500000000000,"state":"active","ping":89},{"user_id":175,"name":"The Coffee","steam_id":76561198171941807,"connected_time":2231000000000,"state":"active","ping":67},{"user_id":189,"name":"JustSomeInternetGuy","steam_id":76561199066037843,"connected_time":495000000000,"state":"active","ping":80},{"user_id":182,"name":"chexo4","steam_id":76561198150532531,"connected_time":1588000000000,"state":"active","ping":51},{"user_id":179,"name":"tracecrusher","steam_id":76561198316649623,"connected_time":1833000000000,"state":"active","ping":79},{"user_id":178,"name":"Swoletard","steam_id":76561198074212758,"connected_time":2007000000000,"state":"active","ping":49}]},{"server_id":400,"name":"Uncletopia | Atlanta | 3 | All Maps","name_short":"atl-3","host":"atl-1.us.uncletopia.com","port":27035,"enabled":true,"region":"us-east","cc":"us","latitude":33.753746,"longitude":-84.38633,"reserved":0,"last_update":"0001-01-01T00:00:00Z","name_a2s":"Uncletopia | Atlanta | 3 | All Maps","protocol":17,"map":"pl_frontier_final","folder":"tf","game":"Team Fortress","app_id":440,"player_count":0,"max_players":24,"Bots":0,"server_type":"Dedicated","server_os":"Linux","password":true,"vac":true,"version":"7695204","steam_id":85568392924515187,"keywords":["nocrits","nodmgspread","payload","uncletopia"],"game_id":440,"stv_port":0,"stv_name":"","players":null},{"server_id":401,"name":"Uncletopia | Atlanta | 4 | No Payload","name_short":"atl-4","host":"atl-1.us.uncletopia.com","port":27045,"enabled":true,"region":"us-east","cc":"us","latitude":33.753746,"longitude":-84.38633,"reserved":0,"last_update":"0001-01-01T00:00:00Z","name_a2s":"Uncletopia | Atlanta | 4 | No Payload","protocol":17,"map":"cp_snakewater_final1","folder":"tf","game":"Team Fortress","app_id":440,"player_count":0,"max_players":24,"Bots":0,"server_type":"Dedicated","server_os":"Linux","password":true,"vac":true,"version":"7695204","steam_id":85568392924515188,"keywords":["cp","nocrits","nodmgspread","uncletopia"],"game_id":440,"stv_port":0,"stv_name":"","players":null},{"server_id":2,"name":"Uncletopia | Chicago | 1 | All Maps","name_short":"chi-1","host":"chi-1.us.uncletopia.com","port":27015,"enabled":true,"region":"us-central","cc":"us","latitude":41.881832,"longitude":-87.62318,"reserved":0,"last_update":"0001-01-01T00:00:00Z","name_a2s":"Uncletopia | Chicago | 1 | All Maps","protocol":17,"map":"cp_gravelpit","folder":"tf","game":"Team Fortress","app_id":440,"player_count":24,"max_players":24,"Bots":0,"server_type":"Dedicated","server_os":"Linux","password":true,"vac":true,"version":"7695204","steam_id":85568392924469984,"keywords":["cp","nocrits","nodmgspread","uncletopia"],"game_id":440,"stv_port":27016,"stv_name":"Uncletopia | Chicago | 1 | All Maps | STV","players":[{"user_id":331,"name":"gangstalker","steam_id":76561198363267009,"connected_time":4548000000000,"state":"active","ping":63},{"user_id":369,"name":"HellRaiser","steam_id":76561199051660033,"connected_time":1351000000000,"state":"active","ping":76},{"user_id":307,"name":"defs98","steam_id":76561198134813102,"connected_time":6938000000000,"state":"active","ping":58},{"user_id":370,"name":"KingTinkerer","steam_id":76561198226856548,"connected_time":1328000000000,"state":"active","ping":83},{"user_id":316,"name":"Jyggalag","steam_id":76561198014672516,"connected_time":5772000000000,"state":"active","ping":69},{"user_id":347,"name":"stoned jester","steam_id":76561198079609974,"connected_time":3109000000000,"state":"active","ping":103},{"user_id":346,"name":"blob","steam_id":76561198122375328,"connected_time":3114000000000,"state":"active","ping":60},{"user_id":374,"name":"Reckless Klondike","steam_id":76561198060904416,"connected_time":150000000000,"state":"active","ping":72},{"user_id":355,"name":"Ripheart","steam_id":76561198089661561,"connected_time":2362000000000,"state":"active","ping":44},{"user_id":363,"name":"MR.DED","steam_id":76561199102310318,"connected_time":1777000000000,"state":"active","ping":135},{"user_id":354,"name":"ShinyOrion (She/Her)","steam_id":76561198408378321,"connected_time":2451000000000,"state":"active","ping":72},{"user_id":366,"name":"Le","steam_id":76561198817754233,"connected_time":1368000000000,"state":"active","ping":59},{"user_id":322,"name":"randomperson88","steam_id":76561199228822173,"connected_time":4811000000000,"state":"active","ping":53},{"user_id":375,"name":"Salt_Inventor","steam_id":76561198090433209,"connected_time":124000000000,"state":"active","ping":91},{"user_id":357,"name":"‚ô• Femboy‚ô•Ventily ‚ô•","steam_id":76561198157260335,"connected_time":1987000000000,"state":"active","ping":52},{"user_id":367,"name":"A tree","steam_id":76561198309065247,"connected_time":1367000000000,"state":"active","ping":56},{"user_id":358,"name":"SmallJamal","steam_id":76561199122856183,"connected_time":1944000000000,"state":"active","ping":52},{"user_id":372,"name":"ScoobyBlue","steam_id":76561198054656885,"connected_time":440000000000,"state":"active","ping":76},{"user_id":371,"name":"Tyco","steam_id":76561197978414167,"connected_time":1130000000000,"state":"active","ping":75},{"user_id":373,"name":"Chucklin","steam_id":76561198010823579,"connected_time":173000000000,"state":"active","ping":89},{"user_id":361,"name":"Cappuccino","steam_id":76561198046658536,"connected_time":1855000000000,"state":"active","ping":71},{"user_id":362,"name":"Dad 2","steam_id":76561198138546187,"connected_time":1827000000000,"state":"active","ping":101},{"user_id":376,"name":"CAdaverOusPRophet","steam_id":76561198045304110,"connected_time":122000000000,"state":"active","ping":46},{"user_id":244,"name":"Drakon","steam_id":76561198078210822,"connected_time":10685000000000,"state":"active","ping":110}]},{"server_id":106,"name":"Uncletopia | Chicago | 2 | All Maps","name_short":"chi-2","host":"chi-1.us.uncletopia.com","port":27025,"enabled":true,"region":"us-central","cc":"us","latitude":41.881832,"longitude":-87.62318,"reserved":0,"last_update":"0001-01-01T00:00:00Z","name_a2s":"Uncletopia | Chicago | 2 | All Maps","protocol":17,"map":"cp_mountainlab","folder":"tf","game":"Team Fortress","app_id":440,"player_count":22,"max_players":24,"Bots":0,"server_type":"Dedicated","server_os":"Linux","password":true,"vac":true,"version":"7695204","steam_id":85568392924469985,"keywords":["cp","nocrits","nodmgspread","uncletopia"],"game_id":440,"stv_port":27026,"stv_name":"Uncletopia | Chicago | 2 | All Maps | STV","players":[{"user_id":288,"name":"DADDY ESCANOR","steam_id":76561198075102565,"connected_time":1136000000000,"state":"active","ping":56},{"user_id":270,"name":"Ghtf","steam_id":76561198237521982,"connected_time":2148000000000,"state":"active","ping":119},{"user_id":302,"name":"Rock Kickass","steam_id":76561198450510841,"connected_time":168000000000,"state":"active","ping":102},{"user_id":296,"name":"Gilgamesh","steam_id":76561198317113179,"connected_time":805000000000,"state":"active","ping":58},{"user_id":264,"name":"FunnyBones","steam_id":76561198264783277,"connected_time":2702000000000,"state":"active","ping":65},{"user_id":290,"name":"‚Ä¢PixelGhost25‚Ä¢","steam_id":76561197998922428,"connected_time":825000000000,"state":"active","ping":70},{"user_id":248,"name":"SuperJagops","steam_id":76561198034689716,"connected_time":4991000000000,"state":"active","ping":56},{"user_id":293,"name":"themightys1","steam_id":76561198022340984,"connected_time":816000000000,"state":"active","ping":64},{"user_id":152,"name":"Rornir","steam_id":76561198081829615,"connected_time":12486000000000,"state":"active","ping":33},{"user_id":292,"name":"Kevin Y.","steam_id":76561198364331423,"connected_time":823000000000,"state":"active","ping":80},{"user_id":295,"name":"Yukon Cornelius","steam_id":76561198261512781,"connected_time":807000000000,"state":"active","ping":50},{"user_id":272,"name":"Good Seed","steam_id":76561198013443319,"connected_time":2138000000000,"state":"active","ping":60},{"user_id":258,"name":"Catboy Potemkin","steam_id":76561198078474420,"connected_time":3442000000000,"state":"active","ping":61},{"user_id":303,"name":"Try Gardening","steam_id":76561198120311340,"connected_time":26000000000,"state":"active","ping":46},{"user_id":282,"name":"THRILLHO","steam_id":76561198371663047,"connected_time":1460000000000,"state":"active","ping":56},{"user_id":297,"name":"sin","steam_id":76561198145987627,"connected_time":796000000000,"state":"active","ping":66},{"user_id":300,"name":"Hugh G Rection","steam_id":76561198117404218,"connected_time":669000000000,"state":"active","ping":86},{"user_id":285,"name":"stop","steam_id":76561198268686419,"connected_time":1385000000000,"state":"active","ping":47},{"user_id":299,"name":"Pescado","steam_id":76561198122437426,"connected_time":762000000000,"state":"active","ping":83},{"user_id":301,"name":"jody","steam_id":76561198065103382,"connected_time":309000000000,"state":"active","ping":76},{"user_id":287,"name":"Communist Killing Candy Cactus\ufffd","steam_id":76561198074980635,"connected_time":1282000000000,"state":"active","ping":145},{"user_id":257,"name":"Draconic Ballad","steam_id":76561198027191515,"connected_time":3473000000000,"state":"active","ping":45}]},{"server_id":402,"name":"Uncletopia | Chicago | 3 | All Maps","name_short":"chi-3","host":"chi-1.us.uncletopia.com","port":27035,"enabled":true,"region":"us-central","cc":"us","latitude":41.881832,"longitude":-87.62318,"reserved":0,"last_update":"0001-01-01T00:00:00Z","name_a2s":"Uncletopia | Chicago | 3 | All Maps","protocol":17,"map":"cp_mountainlab","folder":"tf","game":"Team Fortress","app_id":440,"player_count":0,"max_players":24,"Bots":0,"server_type":"Dedicated","server_os":"Linux","password":true,"vac":true,"version":"7695204","steam_id":85568392924515191,"keywords":["cp","nocrits","nodmgspread","uncletopia"],"game_id":440,"stv_port":27036,"stv_name":"Uncletopia | Chicago | 3 | All Maps | STV","players":null},{"server_id":403,"name":"Uncletopia | Chicago | 4 | All Maps","name_short":"chi-4","host":"chi-1.us.uncletopia.com","port":27045,"enabled":true,"region":"us-central","cc":"us","latitude":41.881832,"longitude":-87.62318,"reserved":0,"last_update":"0001-01-01T00:00:00Z","name_a2s":"Uncletopia | Chicago | 4 | All Maps","protocol":17,"map":"koth_highpass","folder":"tf","game":"Team Fortress","app_id":440,"player_count":0,"max_players":24,"Bots":0,"server_type":"Dedicated","server_os":"Linux","password":true,"vac":true,"version":"7695204","steam_id":85568392924515193,"keywords":["cp","nocrits","nodmgspread","uncletopia"],"game_id":440,"stv_port":0,"stv_name":"","players":null},{"server_id":36,"name":"Uncletopia | Chicago | 5 | All Maps","name_short":"chi-5","host":"chi-2.us.uncletopia.com","port":27015,"enabled":true,"region":"us-central","cc":"us","latitude":41.881832,"longitude":-87.62318,"reserved":0,"last_update":"0001-01-01T00:00:00Z","name_a2s":"Uncletopia | Chicago | 5 | All Maps","protocol":17,"map":"cp_coldfront","folder":"tf","game":"Team Fortress","app_id":440,"player_count":24,"max_players":24,"Bots":0,"server_type":"Dedicated","server_os":"Linux","password":true,"vac":true,"version":"7695204","steam_id":85568392924866362,"keywords":["cp","nocrits","nodmgspread","uncletopia"],"game_id":440,"stv_port":27016,"stv_name":"Uncletopia | Chicago | 5 | All Maps | STV","players":[{"user_id":234,"name":"Klip","steam_id":76561198316254429,"connected_time":2430000000000,"state":"active","ping":77},{"user_id":258,"name":"rato","steam_id":76561198993641831,"connected_time":729000000000,"state":"active","ping":60},{"user_id":257,"name":"scrotal recall","steam_id":76561198135945598,"connected_time":776000000000,"state":"active","ping":73},{"user_id":245,"name":"Scrux","steam_id":76561198129763115,"connected_time":1890000000000,"state":"active","ping":96},{"user_id":243,"name":"Scorpie Doodle","steam_id":76561198021845763,"connected_time":1991000000000,"state":"active","ping":49},{"user_id":214,"name":"Lady Duckland","steam_id":76561198077092840,"connected_time":3488000000000,"state":"active","ping":59},{"user_id":228,"name":"Frontier Psychiatrist","steam_id":76561198038689088,"connected_time":2551000000000,"state":"active","ping":79},{"user_id":252,"name":"PapaBluss","steam_id":76561198023499564,"connected_time":1175000000000,"state":"active","ping":53},{"user_id":265,"name":"TreesRUs","steam_id":76561198305740611,"connected_time":23000000000,"state":"spawning","ping":88},{"user_id":200,"name":"ultralisk52","steam_id":76561198051666604,"connected_time":5742000000000,"state":"active","ping":58},{"user_id":165,"name":"Soap Man","steam_id":76561198000490235,"connected_time":8598000000000,"state":"active","ping":113},{"user_id":248,"name":"Gary Budussy","steam_id":76561197969793969,"connected_time":1487000000000,"state":"active","ping":52},{"user_id":226,"name":"Kritzburgh","steam_id":76561198149466938,"connected_time":2556000000000,"state":"active","ping":61},{"user_id":235,"name":"ethix","steam_id":76561198072592880,"connected_time":2422000000000,"state":"active","ping":48},{"user_id":259,"name":"201rudolf","steam_id":76561197999260528,"connected_time":666000000000,"state":"active","ping":81},{"user_id":229,"name":"Bait","steam_id":76561198336489647,"connected_time":2498000000000,"state":"active","ping":53},{"user_id":261,"name":"Open Mailbox","steam_id":76561198051933580,"connected_time":560000000000,"state":"active","ping":76},{"user_id":251,"name":"Jeb Wins","steam_id":76561198075614895,"connected_time":1241000000000,"state":"active","ping":104},{"user_id":188,"name":"Mythical Lag","steam_id":76561198347031281,"connected_time":7254000000000,"state":"active","ping":70},{"user_id":264,"name":"Do Moose go Moo?","steam_id":76561198073550620,"connected_time":49000000000,"state":"active","ping":52},{"user_id":262,"name":"Jazz2T","steam_id":76561198154418867,"connected_time":475000000000,"state":"active","ping":99},{"user_id":255,"name":"hboflexin","steam_id":76561198323411839,"connected_time":985000000000,"state":"active","ping":124},{"user_id":240,"name":"amagicowl","steam_id":76561199060487814,"connected_time":2243000000000,"state":"active","ping":80},{"user_id":254,"name":"MILK MAN","steam_id":76561199012860639,"connected_time":1139000000000,"state":"active","ping":51}]},{"server_id":37,"name":"Uncletopia | Chicago | 6 | All Maps","name_short":"chi-6","host":"chi-2.us.uncletopia.com","port":27025,"enabled":true,"region":"us-central","cc":"us","latitude":41.881832,"longitude":-87.62318,"reserved":0,"last_update":"0001-01-01T00:00:00Z","name_a2s":"Uncletopia | Chicago | 6 | All Maps","protocol":17,"map":"cp_snakewater_final1","folder":"tf","game":"Team Fortress","app_id":440,"player_count":0,"max_players":24,"Bots":0,"server_type":"Dedicated","server_os":"Linux","password":true,"vac":true,"version":"7695204","steam_id":85568392924866363,"keywords":["cp","nocrits","nodmgspread","uncletopia"],"game_id":440,"stv_port":0,"stv_name":"","players":null},{"server_id":38,"name":"Uncletopia | Chicago | 7 | No Payload","name_short":"chi-7","host":"chi-2.us.uncletopia.com","port":27035,"enabled":true,"region":"us-central","cc":"us","latitude":41.881832,"longitude":-87.62318,"reserved":0,"last_update":"0001-01-01T00:00:00Z","name_a2s":"Uncletopia | Chicago | 7 | No Payload","protocol":17,"map":"koth_sawmill","folder":"tf","game":"Team Fortress","app_id":440,"player_count":0,"max_players":24,"Bots":0,"server_type":"Dedicated","server_os":"Linux","password":true,"vac":true,"version":"7695204","steam_id":85568392924866364,"keywords":["cp","nocrits","nodmgspread","uncletopia"],"game_id":440,"stv_port":27036,"stv_name":"Uncletopia | Chicago | 7 | No Payload | STV","players":null},{"server_id":39,"name":"Uncletopia | Chicago | 8 | Community","name_short":"chi-8","host":"chi-2.us.uncletopia.com","port":27045,"enabled":true,"region":"us-central","cc":"us","latitude":41.881832,"longitude":-87.62318,"reserved":0,"last_update":"0001-01-01T00:00:00Z","name_a2s":"Uncletopia | Chicago | 8 | Community","protocol":17,"map":"workshop/koth_product_final.ugc454272353","folder":"tf","game":"Team Fortress","app_id":440,"player_count":0,"max_players":24,"Bots":0,"server_type":"Dedicated","server_os":"Linux","password":true,"vac":true,"version":"7695204","steam_id":85568392924866365,"keywords":["cp","nocrits","nodmgspread","uncletopia"],"game_id":440,"stv_port":27046,"stv_name":"Uncletopia | Chicago | 8 | Community | STV","players":null},{"server_id":8,"name":"Uncletopia | Dallas | 1 | All Maps","name_short":"dal-1","host":"dal-1.us.uncletopia.com","port":27015,"enabled":true,"region":"us-central","cc":"us","latitude":32.779167,"longitude":-96.80889,"reserved":0,"last_update":"0001-01-01T00:00:00Z","name_a2s":"Uncletopia | Dallas | 1 | All Maps","protocol":17,"map":"pl_pier","folder":"tf","game":"Team Fortress","app_id":440,"player_count":24,"max_players":24,"Bots":0,"server_type":"Dedicated","server_os":"Linux","password":true,"vac":true,"version":"7695204","steam_id":85568392924469986,"keywords":["nocrits","nodmgspread","payload","uncletopia"],"game_id":440,"stv_port":27016,"stv_name":"Uncletopia | Dallas | 1 | All Maps | STV","players":[{"user_id":104,"name":"DoomwyteShroom","steam_id":76561198250419416,"connected_time":154000000000,"state":"active","ping":60},{"user_id":91,"name":"spacetoven","steam_id":76561198115821131,"connected_time":587000000000,"state":"active","ping":82},{"user_id":63,"name":"PP pump (water)","steam_id":76561198079462109,"connected_time":2139000000000,"state":"active","ping":81},{"user_id":79,"name":"pinglefingle","steam_id":76561198216580197,"connected_time":1648000000000,"state":"active","ping":59},{"user_id":47,"name":"„ÄåSK8TR„Äç","steam_id":76561199389089862,"connected_time":3495000000000,"state":"active","ping":165},{"user_id":94,"name":"IZISOO","steam_id":76561198970380577,"connected_time":558000000000,"state":"active","ping":75},{"user_id":93,"name":"p0rps","steam_id":76561198000014631,"connected_time":564000000000,"state":"active","ping":79},{"user_id":85,"name":"Smiles","steam_id":76561198107197973,"connected_time":1554000000000,"state":"active","ping":101},{"user_id":43,"name":"NO. bad girl \u003e:(","steam_id":76561198198984282,"connected_time":3814000000000,"state":"active","ping":89},{"user_id":97,"name":"Schnitz","steam_id":76561198265484253,"connected_time":501000000000,"state":"active","ping":77},{"user_id":88,"name":"Wyd Step Ladder?","steam_id":76561199366482682,"connected_time":1194000000000,"state":"active","ping":122},{"user_id":105,"name":"indi","steam_id":76561198045917538,"connected_time":142000000000,"state":"active","ping":74},{"user_id":67,"name":"GROOVYROOM","steam_id":76561199153684166,"connected_time":1979000000000,"state":"active","ping":69},{"user_id":90,"name":"Big Smoke","steam_id":76561198278375987,"connected_time":598000000000,"state":"active","ping":56},{"user_id":95,"name":"Chaotic Rushu","steam_id":76561198170054407,"connected_time":548000000000,"state":"active","ping":125},{"user_id":106,"name":"BIGGS","steam_id":76561198057399996,"connected_time":121000000000,"state":"active","ping":61},{"user_id":58,"name":"FlashLightMan","steam_id":76561198128373543,"connected_time":2521000000000,"state":"active","ping":87},{"user_id":108,"name":"Tyler\u0026Fingers","steam_id":76561198085154485,"connected_time":46000000000,"state":"active","ping":96},{"user_id":98,"name":"player","steam_id":76561199245670274,"connected_time":487000000000,"state":"active","ping":75},{"user_id":83,"name":"DistantJragon","steam_id":76561198117563641,"connected_time":1595000000000,"state":"active","ping":71},{"user_id":86,"name":"jennco","steam_id":76561198212421513,"connected_time":1542000000000,"state":"active","ping":75},{"user_id":103,"name":"jayv","steam_id":76561198210215504,"connected_time":298000000000,"state":"active","ping":47},{"user_id":75,"name":"Joker Joestar","steam_id":76561198115696839,"connected_time":1760000000000,"state":"active","ping":67},{"user_id":109,"name":"Sadper","steam_id":76561198356803246,"connected_time":44000000000,"state":"active","ping":91}]},{"server_id":108,"name":"Uncletopia | Dallas | 2 | All Maps","name_short":"dal-2","host":"dal-1.us.uncletopia.com","port":27025,"enabled":true,"region":"us-central","cc":"us","latitude":32.779167,"longitude":-96.80889,"reserved":0,"last_update":"0001-01-01T00:00:00Z","name_a2s":"Uncletopia | Dallas | 2 | All Maps","protocol":17,"map":"cp_dustbowl","folder":"tf","game":"Team Fortress","app_id":440,"player_count":0,"max_players":24,"Bots":0,"server_type":"Dedicated","server_os":"Linux","password":true,"vac":true,"version":"7695204","steam_id":85568392924469988,"keywords":["cp","nocrits","nodmgspread","uncletopia"],"game_id":440,"stv_port":27026,"stv_name":"Uncletopia | Dallas | 2 | All Maps | STV","players":null},{"server_id":5,"name":"Uncletopia | Frankfurt | 1 | All Maps","name_short":"frk-1","host":"frk-1.de.uncletopia.com","port":27015,"enabled":true,"region":"eu","cc":"de","latitude":50.110924,"longitude":8.682127,"reserved":0,"last_update":"0001-01-01T00:00:00Z","name_a2s":"Uncletopia | Frankfurt | 1 | All Maps","protocol":17,"map":"pl_barnblitz","folder":"tf","game":"Team Fortress","app_id":440,"player_count":22,"max_players":24,"Bots":0,"server_type":"Dedicated","server_os":"Linux","password":true,"vac":true,"version":"7695204","steam_id":85568392924469989,"keywords":["nocrits","nodmgspread","payload","uncletopia"],"game_id":440,"stv_port":27016,"stv_name":"Uncletopia | Frankfurt | 1 | All Maps | STV","players":[{"user_id":564,"name":"E_WM","steam_id":76561198283432737,"connected_time":15000000000,"state":"spawning","ping":119},{"user_id":556,"name":"üÉî Nugg1t(sme/lly)","steam_id":76561198065652251,"connected_time":920000000000,"state":"active","ping":39},{"user_id":546,"name":"who bvilding they bbc","steam_id":76561198106049954,"connected_time":1332000000000,"state":"active","ping":93},{"user_id":531,"name":"big potato #savetf2","steam_id":76561199009525001,"connected_time":2394000000000,"state":"active","ping":63},{"user_id":554,"name":"Washburne","steam_id":76561198032810579,"connected_time":1004000000000,"state":"active","ping":53},{"user_id":562,"name":"pandeux","steam_id":76561198343527617,"connected_time":102000000000,"state":"active","ping":50},{"user_id":533,"name":"sylphid","steam_id":76561198043601838,"connected_time":2371000000000,"state":"active","ping":61},{"user_id":561,"name":"G6 sherlock","steam_id":76561198802967796,"connected_time":470000000000,"state":"active","ping":119},{"user_id":541,"name":"Miatthew","steam_id":76561198034102895,"connected_time":2104000000000,"state":"active","ping":45},{"user_id":514,"name":"Deltoid-Detlef","steam_id":76561198039886379,"connected_time":3320000000000,"state":"active","ping":47},{"user_id":551,"name":"Dewotter","steam_id":76561198007653168,"connected_time":1116000000000,"state":"active","ping":71},{"user_id":563,"name":"Blink","steam_id":76561198144033005,"connected_time":101000000000,"state":"active","ping":64},{"user_id":507,"name":"Zerfesh","steam_id":76561198117534358,"connected_time":3723000000000,"state":"active","ping":86},{"user_id":558,"name":"Watermelon","steam_id":76561198130305977,"connected_time":799000000000,"state":"active","ping":90},{"user_id":552,"name":"Vikep'S","steam_id":76561199002274689,"connected_time":1107000000000,"state":"active","ping":87},{"user_id":505,"name":"Houdiiiz","steam_id":76561198132295158,"connected_time":3945000000000,"state":"active","ping":56},{"user_id":518,"name":"ULTIMATE_GORDON","steam_id":76561198044470038,"connected_time":3054000000000,"state":"active","ping":52},{"user_id":506,"name":"really not suspicious chicken","steam_id":76561198067524060,"connected_time":3895000000000,"state":"active","ping":90},{"user_id":559,"name":"LarsInABox","steam_id":76561198028329262,"connected_time":722000000000,"state":"active","ping":75},{"user_id":557,"name":"Pestdoktor","steam_id":76561198058159271,"connected_time":888000000000,"state":"active","ping":57},{"user_id":496,"name":"gamer_","steam_id":76561198094125769,"connected_time":4982000000000,"state":"active","ping":75},{"user_id":542,"name":"padillacampos","steam_id":76561198161923970,"connected_time":2022000000000,"state":"active","ping":72}]},{"server_id":110,"name":"Uncletopia | Frankfurt | 2 | All Maps","name_short":"frk-2","host":"frk-1.de.uncletopia.com","port":27025,"enabled":true,"region":"eu","cc":"de","latitude":50.110924,"longitude":8.682127,"reserved":0,"last_update":"0001-01-01T00:00:00Z","name_a2s":"Uncletopia | Frankfurt | 2 | All Maps","protocol":17,"map":"koth_cascade","folder":"tf","game":"Team Fortress","app_id":440,"player_count":0,"max_players":24,"Bots":0,"server_type":"Dedicated","server_os":"Linux","password":true,"vac":true,"version":"7695204","steam_id":85568392924469990,"keywords":["cp","nocrits","nodmgspread","uncletopia"],"game_id":440,"stv_port":27026,"stv_name":"Uncletopia | Frankfurt | 2 | All Maps | STV","players":null},{"server_id":308,"name":"Uncletopia | Frankfurt | 3 | All Maps","name_short":"frk-3","host":"frk-1.de.uncletopia.com","port":27035,"enabled":true,"region":"eu","cc":"de","latitude":50.110924,"longitude":8.682127,"reserved":0,"last_update":"0001-01-01T00:00:00Z","name_a2s":"Uncletopia | Frankfurt | 3 | All Maps","protocol":17,"map":"koth_harvest_final","folder":"tf","game":"Team Fortress","app_id":440,"player_count":24,"max_players":24,"Bots":0,"server_type":"Dedicated","server_os":"Linux","password":true,"vac":true,"version":"7695204","steam_id":85568392924504274,"keywords":["cp","nocrits","nodmgspread","uncletopia"],"game_id":440,"stv_port":27036,"stv_name":"Uncletopia | Frankfurt | 3 | All Maps | STV","players":[{"user_id":25,"name":"Stoneley","steam_id":76561199182443625,"connected_time":4333000000000,"state":"active","ping":60},{"user_id":33,"name":"KatTheCookiCat","steam_id":76561199054643392,"connected_time":1515000000000,"state":"active","ping":51},{"user_id":43,"name":"Sleeping","steam_id":76561198059651530,"connected_time":710000000000,"state":"active","ping":37},{"user_id":27,"name":"roblan11","steam_id":76561198066839258,"connected_time":3780000000000,"state":"active","ping":54},{"user_id":44,"name":"Senator Armstrong","steam_id":76561198984346408,"connected_time":670000000000,"state":"active","ping":70},{"user_id":34,"name":"Explodingrayman","steam_id":76561198185783005,"connected_time":1471000000000,"state":"active","ping":183},{"user_id":35,"name":"tzlil","steam_id":76561198399916290,"connected_time":1375000000000,"state":"active","ping":147},{"user_id":62,"name":"Carpal Tunner","steam_id":76561198332465893,"connected_time":189000000000,"state":"active","ping":46},{"user_id":37,"name":"Voodoo Chara","steam_id":76561198159576533,"connected_time":1141000000000,"state":"active","ping":167},{"user_id":40,"name":"choob303","steam_id":76561198206375860,"connected_time":888000000000,"state":"active","ping":68},{"user_id":41,"name":"ONE BILLION GECS","steam_id":76561198163081194,"connected_time":872000000000,"state":"active","ping":60},{"user_id":45,"name":"Secretive Steve","steam_id":76561198016770338,"connected_time":669000000000,"state":"active","ping":59},{"user_id":46,"name":"fr√∂ga","steam_id":76561198412559828,"connected_time":638000000000,"state":"active","ping":94},{"user_id":60,"name":"opaacic","steam_id":76561199158514501,"connected_time":306000000000,"state":"active","ping":71},{"user_id":48,"name":"__xx_DE4TH_Xx_2008_","steam_id":76561198376872392,"connected_time":623000000000,"state":"active","ping":77},{"user_id":49,"name":"krowa","steam_id":76561198341123224,"connected_time":611000000000,"state":"active","ping":71},{"user_id":58,"name":"LadyMissfit","steam_id":76561198042236349,"connected_time":428000000000,"state":"active","ping":67},{"user_id":51,"name":"Yakashii","steam_id":76561198073297078,"connected_time":521000000000,"state":"active","ping":63},{"user_id":61,"name":"mAYONEZ INTERNATIONAL","steam_id":76561197999887000,"connected_time":306000000000,"state":"active","ping":62},{"user_id":53,"name":"NaCl","steam_id":76561198264787999,"connected_time":489000000000,"state":"active","ping":60},{"user_id":54,"name":"SchwanzusLongus","steam_id":76561198112599986,"connected_time":477000000000,"state":"active","ping":44},{"user_id":55,"name":"wordrc","steam_id":76561198418788895,"connected_time":471000000000,"state":"active","ping":60},{"user_id":56,"name":"Industrial Revolution","steam_id":76561198230811124,"connected_time":458000000000,"state":"active","ping":69},{"user_id":57,"name":"Zazou","steam_id":76561198028076362,"connected_time":458000000000,"state":"active","ping":45}]},{"server_id":309,"name":"Uncletopia | Frankfurt | 4 | All Maps","name_short":"frk-4","host":"frk-1.de.uncletopia.com","port":27045,"enabled":true,"region":"eu","cc":"de","latitude":50.110924,"longitude":8.682127,"reserved":0,"last_update":"0001-01-01T00:00:00Z","name_a2s":"Uncletopia | Frankfurt | 4 | All Maps","protocol":17,"map":"pl_badwater","folder":"tf","game":"Team Fortress","app_id":440,"player_count":22,"max_players":24,"Bots":0,"server_type":"Dedicated","server_os":"Linux","password":true,"vac":true,"version":"7695204","steam_id":85568392924504275,"keywords":["nocrits","nodmgspread","payload","uncletopia"],"game_id":440,"stv_port":27046,"stv_name":"Uncletopia | Frankfurt | 4 | All Maps | STV","players":[{"user_id":347,"name":"Bia≈Çy","steam_id":76561197996016988,"connected_time":739000000000,"state":"active","ping":74},{"user_id":346,"name":"ethuun","steam_id":76561198141335465,"connected_time":834000000000,"state":"active","ping":62},{"user_id":350,"name":"thomas the wank engine","steam_id":76561199013435970,"connected_time":316000000000,"state":"active","ping":68},{"user_id":349,"name":"no","steam_id":76561198012790002,"connected_time":466000000000,"state":"active","ping":66},{"user_id":351,"name":"wild-wim","steam_id":76561198116643133,"connected_time":257000000000,"state":"active","ping":78},{"user_id":352,"name":"desnot","steam_id":76561198862581894,"connected_time":249000000000,"state":"active","ping":79},{"user_id":361,"name":"Synergy","steam_id":76561198124670379,"connected_time":100000000000,"state":"active","ping":66},{"user_id":354,"name":"Redmailbox","steam_id":76561198042930322,"connected_time":212000000000,"state":"active","ping":59},{"user_id":355,"name":"Meme Necromancer","steam_id":76561198085001718,"connected_time":193000000000,"state":"active","ping":58},{"user_id":356,"name":"Arnold Jid√°≈° Rimmer","steam_id":76561198130282863,"connected_time":173000000000,"state":"active","ping":50},{"user_id":358,"name":"Lemonady","steam_id":76561198378349222,"connected_time":124000000000,"state":"active","ping":73},{"user_id":84,"name":"Carry Krypl","steam_id":76561198136938121,"connected_time":12326000000000,"state":"active","ping":55},{"user_id":322,"name":"beurgeur","steam_id":76561198872426314,"connected_time":2319000000000,"state":"active","ping":45},{"user_id":359,"name":"Claw","steam_id":76561198060985181,"connected_time":123000000000,"state":"active","ping":82},{"user_id":360,"name":"Happy Di Piero","steam_id":76561199206603810,"connected_time":116000000000,"state":"active","ping":77},{"user_id":362,"name":"Hood","steam_id":76561199229682408,"connected_time":88000000000,"state":"active","ping":54},{"user_id":363,"name":"kentir_buh","steam_id":76561198107526456,"connected_time":78000000000,"state":"active","ping":75},{"user_id":364,"name":"Miton","steam_id":76561197970323209,"connected_time":46000000000,"state":"active","ping":75},{"user_id":339,"name":"DeCypher","steam_id":76561198171992619,"connected_time":1229000000000,"state":"active","ping":63},{"user_id":329,"name":"tealoverr.190","steam_id":76561199028497703,"connected_time":2103000000000,"state":"active","ping":104},{"user_id":365,"name":"NeoNova6107","steam_id":76561198158186864,"connected_time":41000000000,"state":"active","ping":151},{"user_id":332,"name":"ralph62x","steam_id":76561198865294231,"connected_time":2025000000000,"state":"active","ping":54}]},{"server_id":310,"name":"Uncletopia | Frankfurt | 5 | All Maps","name_short":"frk-5","host":"frk-1.de.uncletopia.com","port":27055,"enabled":true,"region":"eu","cc":"de","latitude":50.110924,"longitude":8.682127,"reserved":0,"last_update":"0001-01-01T00:00:00Z","name_a2s":"Uncletopia | Frankfurt | 5 | All Maps","protocol":17,"map":"koth_highpass","folder":"tf","game":"Team Fortress","app_id":440,"player_count":0,"max_players":24,"Bots":0,"server_type":"Dedicated","server_os":"Linux","password":true,"vac":true,"version":"7695204","steam_id":85568392924504277,"keywords":["cp","nocrits","nodmgspread","uncletopia"],"game_id":440,"stv_port":27056,"stv_name":"Uncletopia | Frankfurt | 5 | All Maps | STV","players":null},{"server_id":311,"name":"Uncletopia | Frankfurt | 6 | All Maps","name_short":"frk-6","host":"frk-1.de.uncletopia.com","port":27065,"enabled":true,"region":"eu","cc":"de","latitude":50.110924,"longitude":8.682127,"reserved":0,"last_update":"0001-01-01T00:00:00Z","name_a2s":"Uncletopia | Frankfurt | 6 | All Maps","protocol":17,"map":"pl_swiftwater_final1","folder":"tf","game":"Team Fortress","app_id":440,"player_count":24,"max_players":24,"Bots":0,"server_type":"Dedicated","server_os":"Linux","password":true,"vac":true,"version":"7695204","steam_id":85568392924504278,"keywords":["nocrits","nodmgspread","payload","uncletopia"],"game_id":440,"stv_port":27066,"stv_name":"Uncletopia | Frankfurt | 6 | All Maps | STV","players":[{"user_id":443,"name":"average fungus","steam_id":76561198199993741,"connected_time":1545000000000,"state":"active","ping":54},{"user_id":463,"name":"rel","steam_id":76561198992148678,"connected_time":789000000000,"state":"active","ping":57},{"user_id":465,"name":"name","steam_id":76561198152620745,"connected_time":579000000000,"state":"active","ping":64},{"user_id":405,"name":"Joomig","steam_id":76561198798066767,"connected_time":3532000000000,"state":"active","ping":72},{"user_id":445,"name":"ÂçÑ‰πáÂá†„ÑíÂçÇ‰∏® Áà™ÂçÇÂá† \ufffd\ufffd","steam_id":76561198059281585,"connected_time":1499000000000,"state":"active","ping":89},{"user_id":406,"name":"Scientific Idiocy","steam_id":76561198951206047,"connected_time":3528000000000,"state":"active","ping":83},{"user_id":467,"name":"manure merchant","steam_id":76561198010109316,"connected_time":433000000000,"state":"active","ping":61},{"user_id":448,"name":"giclure :;","steam_id":76561197986362828,"connected_time":1473000000000,"state":"active","ping":44},{"user_id":418,"name":"ThatOnePyro","steam_id":76561198400657925,"connected_time":2265000000000,"state":"active","ping":110},{"user_id":444,"name":"MonkeyDaun","steam_id":76561198964435390,"connected_time":1506000000000,"state":"active","ping":76},{"user_id":424,"name":"fogings","steam_id":76561198044165284,"connected_time":2026000000000,"state":"active","ping":44},{"user_id":447,"name":"day","steam_id":76561198260265302,"connected_time":1476000000000,"state":"active","ping":59},{"user_id":468,"name":"Frazzle","steam_id":76561198262577951,"connected_time":426000000000,"state":"active","ping":90},{"user_id":431,"name":"That Phlog mfer","steam_id":76561198050416948,"connected_time":1838000000000,"state":"active","ping":59},{"user_id":449,"name":"Bisma√§rk","steam_id":76561199122165977,"connected_time":1454000000000,"state":"active","ping":80},{"user_id":428,"name":"Mayor Wank from Wanker Town","steam_id":76561197998253588,"connected_time":1876000000000,"state":"active","ping":45},{"user_id":470,"name":",","steam_id":76561199174579733,"connected_time":375000000000,"state":"active","ping":148},{"user_id":430,"name":"Thors","steam_id":76561197968739075,"connected_time":1855000000000,"state":"active","ping":44},{"user_id":458,"name":"COFFEE","steam_id":76561198869355986,"connected_time":1060000000000,"state":"active","ping":65},{"user_id":433,"name":"Cippo95","steam_id":76561198255311582,"connected_time":1799000000000,"state":"active","ping":71},{"user_id":472,"name":"mattua","steam_id":76561197966534457,"connected_time":189000000000,"state":"active","ping":89},{"user_id":469,"name":"The pyro witch","steam_id":76561198025721862,"connected_time":420000000000,"state":"active","ping":59},{"user_id":464,"name":"GetExp","steam_id":76561198410131881,"connected_time":757000000000,"state":"active","ping":55},{"user_id":454,"name":"dominicjohnston0210","steam_id":76561199121188061,"connected_time":1445000000000,"state":"active","ping":67}]},{"server_id":23,"name":"Uncletopia | Frankfurt | 7 | No Payload","name_short":"frk-7","host":"frk-1.de.uncletopia.com","port":27075,"enabled":true,"region":"eu","cc":"de","latitude":50.110924,"longitude":8.682127,"reserved":0,"last_update":"0001-01-01T00:00:00Z","name_a2s":"Uncletopia | Frankfurt | 7 | No Payload","protocol":17,"map":"plr_pipeline","folder":"tf","game":"Team Fortress","app_id":440,"player_count":0,"max_players":24,"Bots":0,"server_type":"Dedicated","server_os":"Linux","password":true,"vac":true,"version":"7695204","steam_id":85568392924742827,"keywords":["nocrits","nodmgspread","payload","uncletopia"],"game_id":440,"stv_port":27076,"stv_name":"Uncletopia | Frankfurt | 7 | No Payload | STV","players":null},{"server_id":24,"name":"Uncletopia | Frankfurt | 8 | Community","name_short":"frk-8","host":"frk-1.de.uncletopia.com","port":27085,"enabled":true,"region":"eu","cc":"de","latitude":50.110924,"longitude":8.682127,"reserved":0,"last_update":"0001-01-01T00:00:00Z","name_a2s":"Uncletopia | Frankfurt | 8 | Community","protocol":17,"map":"workshop/rd_asteroid_redux_rc9.ugc2154902912","folder":"tf","game":"Team Fortress","app_id":440,"player_count":24,"max_players":24,"Bots":0,"server_type":"Dedicated","server_os":"Linux","password":true,"vac":true,"version":"7695204","steam_id":85568392924742828,"keywords":["beta","nocrits","nodmgspread","rd","uncletopia"],"game_id":440,"stv_port":27086,"stv_name":"Uncletopia | Frankfurt | 8 | Community | STV","players":[{"user_id":192,"name":"Words570","steam_id":76561198354889690,"connected_time":239000000000,"state":"active","ping":62},{"user_id":194,"name":"Tea guy","steam_id":76561198797847641,"connected_time":86000000000,"state":"active","ping":78},{"user_id":186,"name":"villan315","steam_id":76561198291136752,"connected_time":359000000000,"state":"active","ping":66},{"user_id":139,"name":"youtubelover64","steam_id":76561198082865040,"connected_time":3266000000000,"state":"active","ping":98},{"user_id":179,"name":"Tree","steam_id":76561198400540136,"connected_time":1308000000000,"state":"active","ping":81},{"user_id":146,"name":"SaltyCupcakes","steam_id":76561198256386417,"connected_time":3156000000000,"state":"active","ping":60},{"user_id":183,"name":"Meskalin Salmon","steam_id":76561198272890094,"connected_time":749000000000,"state":"active","ping":61},{"user_id":180,"name":"Tea Drinking Conqueror","steam_id":76561198799243030,"connected_time":1306000000000,"state":"active","ping":76},{"user_id":138,"name":"Doofenschmirtz Gaming","steam_id":76561198061301085,"connected_time":3299000000000,"state":"active","ping":55},{"user_id":197,"name":"picolol","steam_id":76561198249598784,"connected_time":44000000000,"state":"spawning","ping":368},{"user_id":140,"name":"Pasta sauce","steam_id":76561198232919072,"connected_time":3255000000000,"state":"active","ping":58},{"user_id":163,"name":"xX_–ì—Ä–∞—Ñ_–¢—Ä–∞—Ö—É–ª–∞_228_","steam_id":76561198281871821,"connected_time":2046000000000,"state":"active","ping":104},{"user_id":174,"name":"axlus","steam_id":76561198991661832,"connected_time":1614000000000,"state":"active","ping":99},{"user_id":196,"name":"–ö–æ—Ä–Ω—ñ—à–æ–Ω","steam_id":76561197968575924,"connected_time":52000000000,"state":"active","ping":72},{"user_id":187,"name":"Toastiez","steam_id":76561197999284331,"connected_time":328000000000,"state":"active","ping":49},{"user_id":152,"name":"gojoel","steam_id":76561198251181946,"connected_time":2731000000000,"state":"active","ping":57},{"user_id":169,"name":"Moebius","steam_id":76561198045069988,"connected_time":1915000000000,"state":"active","ping":60},{"user_id":175,"name":"Meem","steam_id":76561199088570961,"connected_time":1578000000000,"state":"active","ping":90},{"user_id":88,"name":"Dr. Oetker","steam_id":76561198202668788,"connected_time":7022000000000,"state":"active","ping":64},{"user_id":188,"name":"rubix-","steam_id":76561198136702149,"connected_time":312000000000,"state":"active","ping":90},{"user_id":189,"name":"Heura","steam_id":76561198328304087,"connected_time":300000000000,"state":"active","ping":91},{"user_id":190,"name":"Mona","steam_id":76561198035920378,"connected_time":293000000000,"state":"active","ping":65},{"user_id":191,"name":"Tuntud","steam_id":76561197987816584,"connected_time":290000000000,"state":"active","ping":69},{"user_id":193,"name":"simon","steam_id":76561198880361394,"connected_time":230000000000,"state":"active","ping":55}]},{"server_id":202,"name":"Uncletopia | Hong Kong | 1 | All Maps","name_short":"hgk-1","host":"hgk-1.hk.uncletopia.com","port":27015,"enabled":true,"region":"asia","cc":"hk","latitude":22.302711,"longitude":114.177216,"reserved":0,"last_update":"0001-01-01T00:00:00Z","name_a2s":"Uncletopia | Hong Kong | 1 | All Maps","protocol":17,"map":"koth_cascade","folder":"tf","game":"Team Fortress","app_id":440,"player_count":0,"max_players":24,"Bots":0,"server_type":"Dedicated","server_os":"Linux","password":true,"vac":true,"version":"7695204","steam_id":85568392924494504,"keywords":["cp","nocrits","nodmgspread","uncletopia"],"game_id":440,"stv_port":27016,"stv_name":"Uncletopia | Hong Kong | 1 | All Maps | STV","players":null},{"server_id":1,"name":"Uncletopia | Los Angeles | 1 | All Maps","name_short":"lax-1","host":"lax-1.us.uncletopia.com","port":27015,"enabled":true,"region":"us-west","cc":"us","latitude":33.94279,"longitude":-118.41004,"reserved":0,"last_update":"0001-01-01T00:00:00Z","name_a2s":"Uncletopia | Los Angeles | 1 | All Maps","protocol":17,"map":"pl_snowycoast","folder":"tf","game":"Team Fortress","app_id":440,"player_count":25,"max_players":24,"Bots":0,"server_type":"Dedicated","server_os":"Linux","password":true,"vac":true,"version":"7695204","steam_id":85568392924469991,"keywords":["nocrits","nodmgspread","payload","uncletopia"],"game_id":440,"stv_port":27016,"stv_name":"Uncletopia | Los Angeles | 1 | All Maps | STV","players":[{"user_id":100,"name":"PopcornNinja101","steam_id":76561198330680181,"connected_time":730000000000,"state":"active","ping":68},{"user_id":7,"name":"dust","steam_id":76561198045218909,"connected_time":7736000000000,"state":"active","ping":61},{"user_id":109,"name":"Mignyanne :3","steam_id":76561198048754056,"connected_time":207000000000,"state":"active","ping":59},{"user_id":10,"name":"Nibotshooter","steam_id":76561199284825579,"connected_time":6808000000000,"state":"active","ping":80},{"user_id":101,"name":"All 24 Pok√©mon movies at once","steam_id":76561198164738311,"connected_time":729000000000,"state":"active","ping":96},{"user_id":82,"name":"TheForman","steam_id":76561198992599104,"connected_time":1802000000000,"state":"active","ping":57},{"user_id":16,"name":"RIT Obelix","steam_id":76561198274715109,"connected_time":6067000000000,"state":"active","ping":108},{"user_id":63,"name":"vŒªughn","steam_id":76561198144165856,"connected_time":3577000000000,"state":"active","ping":88},{"user_id":50,"name":"Rodent","steam_id":76561198033801957,"connected_time":3952000000000,"state":"active","ping":76},{"user_id":110,"name":"Big Floppa","steam_id":76561198832096825,"connected_time":196000000000,"state":"active","ping":48},{"user_id":111,"name":"The Watchtower Troupe","steam_id":76561198142275303,"connected_time":173000000000,"state":"active","ping":104},{"user_id":22,"name":"VerociousVee","steam_id":76561198289106015,"connected_time":5847000000000,"state":"active","ping":77},{"user_id":79,"name":"Agent Q","steam_id":76561198830829003,"connected_time":1924000000000,"state":"active","ping":71},{"user_id":48,"name":"Manx","steam_id":76561197977134062,"connected_time":4774000000000,"state":"active","ping":76},{"user_id":106,"name":"The Goat","steam_id":76561197960432083,"connected_time":412000000000,"state":"active","ping":76},{"user_id":84,"name":"Hodeman","steam_id":76561197975982368,"connected_time":1757000000000,"state":"active","ping":103},{"user_id":108,"name":"Huge","steam_id":76561199030987614,"connected_time":299000000000,"state":"active","ping":121},{"user_id":94,"name":"2 Point Tom","steam_id":76561198087617008,"connected_time":1408000000000,"state":"active","ping":79},{"user_id":114,"name":"GumZie","steam_id":76561198202584223,"connected_time":54000000000,"state":"active","ping":48},{"user_id":112,"name":"NeroStrimings / hAMMERgANG","steam_id":76561198250362028,"connected_time":147000000000,"state":"connecting","ping":0},{"user_id":99,"name":"Werewolfo","steam_id":76561198143597449,"connected_time":734000000000,"state":"active","ping":67},{"user_id":102,"name":"TimTam Tom","steam_id":76561198045988062,"connected_time":702000000000,"state":"active","ping":94},{"user_id":107,"name":"Yuudachi","steam_id":76561198059812393,"connected_time":315000000000,"state":"active","ping":134},{"user_id":113,"name":"Chilakiller","steam_id":76561198182348907,"connected_time":132000000000,"state":"active","ping":88},{"user_id":88,"name":"Joyous Jenny","steam_id":76561198127998866,"connected_time":1694000000000,"state":"active","ping":109}]},{"server_id":112,"name":"Uncletopia | Los Angeles | 2 | All Maps","name_short":"lax-2","host":"lax-1.us.uncletopia.com","port":27025,"enabled":true,"region":"us-west","cc":"us","latitude":33.94279,"longitude":-118.41004,"reserved":0,"last_update":"0001-01-01T00:00:00Z","name_a2s":"Uncletopia | Los Angeles | 2 | All Maps","protocol":17,"map":"cp_dustbowl","folder":"tf","game":"Team Fortress","app_id":440,"player_count":0,"max_players":24,"Bots":0,"server_type":"Dedicated","server_os":"Linux","password":true,"vac":true,"version":"7695204","steam_id":85568392924469992,"keywords":["cp","nocrits","nodmgspread","uncletopia"],"game_id":440,"stv_port":0,"stv_name":"","players":null},{"server_id":324,"name":"Uncletopia | Los Angeles | 3 | All Maps","name_short":"lax-3","host":"lax-1.us.uncletopia.com","port":27035,"enabled":true,"region":"us-west","cc":"us","latitude":33.94279,"longitude":-118.41004,"reserved":0,"last_update":"0001-01-01T00:00:00Z","name_a2s":"Uncletopia | Los Angeles | 3 | All Maps","protocol":17,"map":"pl_snowycoast","folder":"tf","game":"Team Fortress","app_id":440,"player_count":0,"max_players":24,"Bots":0,"server_type":"Dedicated","server_os":"Linux","password":true,"vac":true,"version":"7695204","steam_id":85568392924510198,"keywords":["nocrits","nodmgspread","payload","uncletopia"],"game_id":440,"stv_port":27036,"stv_name":"Uncletopia | Los Angeles | 3 | All Maps | STV","players":null},{"server_id":25,"name":"Uncletopia | Los Angeles | 4 | No Payload","name_short":"lax-4","host":"lax-1.us.uncletopia.com","port":27045,"enabled":true,"region":"us-west","cc":"us","latitude":33.94279,"longitude":-118.41004,"reserved":0,"last_update":"0001-01-01T00:00:00Z","name_a2s":"Uncletopia | Los Angeles | 4 | No Payload","protocol":17,"map":"pl_barnblitz","folder":"tf","game":"Team Fortress","app_id":440,"player_count":0,"max_players":24,"Bots":0,"server_type":"Dedicated","server_os":"Linux","password":true,"vac":true,"version":"7695204","steam_id":85568392924510199,"keywords":["nocrits","nodmgspread","payload","uncletopia"],"game_id":440,"stv_port":0,"stv_name":"","players":null},{"server_id":11,"name":"Uncletopia | London | 1 | All Maps","name_short":"lon-1","host":"lon-1.uk.uncletopia.com","port":27015,"enabled":true,"region":"eu","cc":"gb","latitude":51.509865,"longitude":-0.118092,"reserved":0,"last_update":"0001-01-01T00:00:00Z","name_a2s":"Uncletopia | London | 1 | All Maps","protocol":17,"map":"pl_swiftwater_final1","folder":"tf","game":"Team Fortress","app_id":440,"player_count":24,"max_players":24,"Bots":0,"server_type":"Dedicated","server_os":"Linux","password":true,"vac":true,"version":"7695204","steam_id":85568392924367362,"keywords":["nocrits","nodmgspread","payload","uncletopia"],"game_id":440,"stv_port":27016,"stv_name":"Uncletopia | London | 1 | All Maps | STV","players":[{"user_id":330,"name":"„Ç¥„Éü‰∫∫Èñì(Buns)","steam_id":76561197999548548,"connected_time":1935000000000,"state":"active","ping":135},{"user_id":353,"name":"cacapo","steam_id":76561198022255760,"connected_time":164000000000,"state":"active","ping":67},{"user_id":335,"name":"Hasamnas","steam_id":76561199125038537,"connected_time":1740000000000,"state":"active","ping":61},{"user_id":312,"name":"Lesbillionaire","steam_id":76561198060118132,"connected_time":3766000000000,"state":"active","ping":135},{"user_id":340,"name":"Gamer_X","steam_id":76561198085349286,"connected_time":1444000000000,"state":"active","ping":92},{"user_id":354,"name":"Bonca","steam_id":76561198137503531,"connected_time":150000000000,"state":"active","ping":69},{"user_id":302,"name":"Vershal Smershal","steam_id":76561198116223995,"connected_time":4437000000000,"state":"active","ping":52},{"user_id":352,"name":"snugs","steam_id":76561198817646871,"connected_time":179000000000,"state":"active","ping":120},{"user_id":324,"name":"hourgl_ss","steam_id":76561198047303100,"connected_time":2136000000000,"state":"active","ping":123},{"user_id":325,"name":"Sorky","steam_id":76561198007502339,"connected_time":1969000000000,"state":"active","ping":73},{"user_id":337,"name":"[Gen.]ProPicanac","steam_id":76561198360070600,"connected_time":1551000000000,"state":"active","ping":98},{"user_id":328,"name":"xavier_xylophone_2001","steam_id":76561198076494034,"connected_time":1952000000000,"state":"active","ping":47},{"user_id":305,"name":"Jam","steam_id":76561198090409013,"connected_time":4372000000000,"state":"active","ping":86},{"user_id":348,"name":"pejnis","steam_id":76561198237489960,"connected_time":1048000000000,"state":"active","ping":85},{"user_id":350,"name":"d0gger","steam_id":76561198054902449,"connected_time":854000000000,"state":"active","ping":65},{"user_id":326,"name":"Johnny Boy","steam_id":76561197969525453,"connected_time":1969000000000,"state":"active","ping":61},{"user_id":351,"name":"Smag","steam_id":76561198153675141,"connected_time":617000000000,"state":"active","ping":45},{"user_id":349,"name":"hotmom","steam_id":76561198081264588,"connected_time":1030000000000,"state":"active","ping":67},{"user_id":247,"name":"lookbrood","steam_id":76561198025592834,"connected_time":6935000000000,"state":"active","ping":51},{"user_id":308,"name":"Poppy Stingray","steam_id":76561198049673783,"connected_time":4165000000000,"state":"active","ping":75},{"user_id":344,"name":"compusMentus","steam_id":76561199134152606,"connected_time":1220000000000,"state":"active","ping":71},{"user_id":329,"name":"Grim the lemon","steam_id":76561199083433988,"connected_time":1947000000000,"state":"active","ping":49},{"user_id":356,"name":"russell","steam_id":76561198879773477,"connected_time":138000000000,"state":"spawning","ping":60},{"user_id":360,"name":"Yxel","steam_id":76561198123982890,"connected_time":35000000000,"state":"active","ping":73}]},{"server_id":114,"name":"Uncletopia | London | 2 | All Maps","name_short":"lon-2","host":"lon-1.uk.uncletopia.com","port":27025,"enabled":true,"region":"eu","cc":"gb","latitude":51.509865,"longitude":-0.118092,"reserved":0,"last_update":"0001-01-01T00:00:00Z","name_a2s":"Uncletopia | London | 2 | All Maps","protocol":17,"map":"pl_snowycoast","folder":"tf","game":"Team Fortress","app_id":440,"player_count":24,"max_players":24,"Bots":0,"server_type":"Dedicated","server_os":"Linux","password":true,"vac":true,"version":"7695204","steam_id":85568392924470941,"keywords":["nocrits","nodmgspread","payload","uncletopia"],"game_id":440,"stv_port":27026,"stv_name":"Uncletopia | London | 2 | All Maps | STV","players":[{"user_id":202,"name":"R!not","steam_id":76561197986328786,"connected_time":170000000000,"state":"active","ping":47},{"user_id":194,"name":"Kard","steam_id":76561198191894926,"connected_time":654000000000,"state":"active","ping":99},{"user_id":185,"name":"NoodleSauce","steam_id":76561198060306973,"connected_time":1333000000000,"state":"active","ping":77},{"user_id":177,"name":"Him","steam_id":76561198155314925,"connected_time":2009000000000,"state":"active","ping":59},{"user_id":141,"name":"Apocalypse Potatoes","steam_id":76561199001466356,"connected_time":5403000000000,"state":"active","ping":33},{"user_id":200,"name":"Pieck Finger","steam_id":76561198043743639,"connected_time":286000000000,"state":"active","ping":67},{"user_id":132,"name":"Hexagon","steam_id":76561198151205758,"connected_time":5474000000000,"state":"active","ping":59},{"user_id":155,"name":"tincanned beans","steam_id":76561199049185884,"connected_time":3825000000000,"state":"active","ping":103},{"user_id":167,"name":"Phace","steam_id":76561198124941499,"connected_time":2996000000000,"state":"active","ping":46},{"user_id":164,"name":"Kotlet schabowy","steam_id":76561198048983509,"connected_time":3109000000000,"state":"active","ping":85},{"user_id":183,"name":"Nin","steam_id":76561198227246584,"connected_time":1391000000000,"state":"active","ping":69},{"user_id":175,"name":"Kernel Panic","steam_id":76561198215811047,"connected_time":2228000000000,"state":"active","ping":41},{"user_id":195,"name":"D-boi","steam_id":76561199001837576,"connected_time":380000000000,"state":"active","ping":45},{"user_id":190,"name":"BASSLAU36 PLAYS TF2?","steam_id":76561198099594482,"connected_time":706000000000,"state":"active","ping":81},{"user_id":152,"name":"Mr. Mundy","steam_id":76561198132008918,"connected_time":4478000000000,"state":"active","ping":88},{"user_id":170,"name":"Grote piemel","steam_id":76561198166357571,"connected_time":2895000000000,"state":"active","ping":52},{"user_id":189,"name":"Ziltoid","steam_id":76561198020753675,"connected_time":919000000000,"state":"active","ping":77},{"user_id":191,"name":"Kylul_","steam_id":76561198042981061,"connected_time":706000000000,"state":"active","ping":31},{"user_id":123,"name":"|20BB)\u003eMach","steam_id":76561198952487564,"connected_time":6095000000000,"state":"active","ping":97},{"user_id":198,"name":"most sane mentalist","steam_id":76561198310095220,"connected_time":318000000000,"state":"active","ping":37},{"user_id":176,"name":"Healsl_t Puppu","steam_id":76561197991743380,"connected_time":2117000000000,"state":"active","ping":49},{"user_id":203,"name":"dodge","steam_id":76561198085296668,"connected_time":86000000000,"state":"active","ping":45},{"user_id":201,"name":"super warrior maker","steam_id":76561199093623546,"connected_time":276000000000,"state":"active","ping":41},{"user_id":140,"name":"Noob_with_source","steam_id":76561198870362103,"connected_time":5451000000000,"state":"active","ping":59}]},{"server_id":320,"name":"Uncletopia | London | 3 | All Maps","name_short":"lon-3","host":"lon-1.uk.uncletopia.com","port":27035,"enabled":true,"region":"eu","cc":"gb","latitude":51.509865,"longitude":-0.118092,"reserved":0,"last_update":"0001-01-01T00:00:00Z","name_a2s":"Uncletopia | London | 3 | All Maps","protocol":17,"map":"pl_snowycoast","folder":"tf","game":"Team Fortress","app_id":440,"player_count":24,"max_players":24,"Bots":0,"server_type":"Dedicated","server_os":"Linux","password":true,"vac":true,"version":"7695204","steam_id":85568392924510192,"keywords":["nocrits","nodmgspread","payload","uncletopia"],"game_id":440,"stv_port":27036,"stv_name":"Uncletopia | London | 3 | All Maps | STV","players":[{"user_id":778,"name":"Bojaan","steam_id":76561199074196833,"connected_time":65000000000,"state":"active","ping":100},{"user_id":759,"name":"Roboolet","steam_id":76561198107353953,"connected_time":1035000000000,"state":"active","ping":47},{"user_id":721,"name":"Rudebwoyyy","steam_id":76561199387956486,"connected_time":4691000000000,"state":"active","ping":60},{"user_id":647,"name":"Soviet Onion","steam_id":76561198299693038,"connected_time":8849000000000,"state":"active","ping":68},{"user_id":770,"name":"Sanctified","steam_id":76561198057092208,"connected_time":737000000000,"state":"active","ping":74},{"user_id":761,"name":"the boss","steam_id":76561198353190790,"connected_time":985000000000,"state":"active","ping":61},{"user_id":772,"name":"yodie land","steam_id":76561198127441800,"connected_time":657000000000,"state":"active","ping":63},{"user_id":726,"name":"Infinitzium","steam_id":76561198844582093,"connected_time":4377000000000,"state":"active","ping":85},{"user_id":708,"name":"SilverSteel","steam_id":76561198153690579,"connected_time":4983000000000,"state":"active","ping":46},{"user_id":741,"name":"Rin-Nakaret","steam_id":76561197971051188,"connected_time":3771000000000,"state":"active","ping":69},{"user_id":722,"name":"KarlRanzeier","steam_id":76561198066281337,"connected_time":4472000000000,"state":"active","ping":65},{"user_id":768,"name":"alien","steam_id":76561197968892194,"connected_time":888000000000,"state":"active","ping":47},{"user_id":755,"name":"GreenDragon","steam_id":76561198087074246,"connected_time":1599000000000,"state":"active","ping":125},{"user_id":744,"name":"Kanny","steam_id":76561198058810184,"connected_time":2764000000000,"state":"active","ping":55},{"user_id":743,"name":"Cak3","steam_id":76561198012633295,"connected_time":2887000000000,"state":"active","ping":60},{"user_id":745,"name":"Warme Perle","steam_id":76561198020071321,"connected_time":2753000000000,"state":"active","ping":52},{"user_id":763,"name":"mordecai.nmc","steam_id":76561197997223851,"connected_time":976000000000,"state":"active","ping":58},{"user_id":734,"name":"–¢—Ä—É–ø –í–æ–ª–æ–¥—è","steam_id":76561198035718457,"connected_time":4108000000000,"state":"active","ping":90},{"user_id":776,"name":"HappyEgg71","steam_id":76561198994935701,"connected_time":350000000000,"state":"active","ping":67},{"user_id":737,"name":"Gearslut","steam_id":76561198114601678,"connected_time":4065000000000,"state":"active","ping":58},{"user_id":738,"name":"MJW","steam_id":76561198280051723,"connected_time":4064000000000,"state":"active","ping":58},{"user_id":751,"name":"Spicyfruits","steam_id":76561198157322959,"connected_time":1779000000000,"state":"active","ping":101},{"user_id":777,"name":"Starach","steam_id":76561198084530972,"connected_time":255000000000,"state":"active","ping":69},{"user_id":766,"name":"CyberSyn","steam_id":76561198169966346,"connected_time":964000000000,"state":"active","ping":139}]},{"server_id":321,"name":"Uncletopia | London | 4 | All Maps","name_short":"lon-4","host":"lon-1.uk.uncletopia.com","port":27045,"enabled":true,"region":"eu","cc":"gb","latitude":51.509865,"longitude":-0.118092,"reserved":0,"last_update":"0001-01-01T00:00:00Z","name_a2s":"Uncletopia | London | 4 | All Maps","protocol":17,"map":"cp_process_final","folder":"tf","game":"Team Fortress","app_id":440,"player_count":24,"max_players":24,"Bots":0,"server_type":"Dedicated","server_os":"Linux","password":true,"vac":true,"version":"7695204","steam_id":85568392924510193,"keywords":["cp","nocrits","nodmgspread","uncletopia"],"game_id":440,"stv_port":27046,"stv_name":"Uncletopia | London | 4 | All Maps | STV","players":[{"user_id":240,"name":"Spidermane","steam_id":76561198161206064,"connected_time":1393000000000,"state":"active","ping":68},{"user_id":226,"name":"Anlek","steam_id":76561198026972102,"connected_time":1838000000000,"state":"active","ping":73},{"user_id":258,"name":"Greencoffee","steam_id":76561198842090589,"connected_time":386000000000,"state":"active","ping":57},{"user_id":217,"name":"Boldozofuriozo","steam_id":76561198088667146,"connected_time":3212000000000,"state":"active","ping":66},{"user_id":245,"name":"sol badguy","steam_id":76561198318901730,"connected_time":1147000000000,"state":"active","ping":45},{"user_id":252,"name":"Another day another odlar","steam_id":76561198423902979,"connected_time":536000000000,"state":"active","ping":57},{"user_id":228,"name":"Mass","steam_id":76561198432195204,"connected_time":1786000000000,"state":"active","ping":58},{"user_id":253,"name":"Aaron","steam_id":76561197990046953,"connected_time":505000000000,"state":"active","ping":55},{"user_id":229,"name":"love wins","steam_id":76561198259668029,"connected_time":1730000000000,"state":"active","ping":58},{"user_id":250,"name":"—ç–º–æ –±–æ–π 2007","steam_id":76561198243917964,"connected_time":655000000000,"state":"active","ping":106},{"user_id":230,"name":"Kenny S√©x","steam_id":76561198299617261,"connected_time":1727000000000,"state":"active","ping":61},{"user_id":242,"name":"rwota","steam_id":76561198385769722,"connected_time":1276000000000,"state":"active","ping":114},{"user_id":231,"name":"‚òÉ‚òÉ‚òÉARSEQUEEF‚òÉ‚òÉ‚òÉ","steam_id":76561198914610283,"connected_time":1692000000000,"state":"active","ping":81},{"user_id":232,"name":"Quaker Yotes","steam_id":76561198083068263,"connected_time":1679000000000,"state":"active","ping":83},{"user_id":254,"name":"purplecan","steam_id":76561199208283508,"connected_time":445000000000,"state":"active","ping":74},{"user_id":189,"name":"Heavy Box","steam_id":76561198053624882,"connected_time":4629000000000,"state":"active","ping":88},{"user_id":233,"name":"Venus‚ö¢","steam_id":76561198018602969,"connected_time":1678000000000,"state":"active","ping":47},{"user_id":244,"name":"MentleGen","steam_id":76561198061190210,"connected_time":1210000000000,"state":"active","ping":44},{"user_id":255,"name":"Caruzon - Obismal","steam_id":76561198036211170,"connected_time":439000000000,"state":"active","ping":73},{"user_id":249,"name":"Shady guy","steam_id":76561198365698508,"connected_time":825000000000,"state":"active","ping":63},{"user_id":256,"name":"Watty","steam_id":76561198244580516,"connected_time":438000000000,"state":"active","ping":77},{"user_id":257,"name":"cryyptt_ ‚òÖ","steam_id":76561198059566837,"connected_time":422000000000,"state":"active","ping":54},{"user_id":246,"name":"0_Dan","steam_id":76561199006567387,"connected_time":1124000000000,"state":"active","ping":50},{"user_id":241,"name":"GAZZOLX","steam_id":76561199239470712,"connected_time":1372000000000,"state":"active","ping":61}]},{"server_id":21,"name":"Uncletopia | London | 5 | All Maps","name_short":"lon-5","host":"lon-1.uk.uncletopia.com","port":27055,"enabled":true,"region":"eu","cc":"gb","latitude":51.509865,"longitude":-0.118092,"reserved":0,"last_update":"0001-01-01T00:00:00Z","name_a2s":"Uncletopia | London | 5 | All Maps","protocol":17,"map":"cp_snakewater_final1","folder":"tf","game":"Team Fortress","app_id":440,"player_count":24,"max_players":24,"Bots":0,"server_type":"Dedicated","server_os":"Linux","password":true,"vac":true,"version":"7695204","steam_id":85568392924742829,"keywords":["cp","nocrits","nodmgspread","uncletopia"],"game_id":440,"stv_port":27056,"stv_name":"Uncletopia | London | 5 | All Maps | STV","players":[{"user_id":99,"name":"The Mage","steam_id":76561198019147244,"connected_time":553000000000,"state":"active","ping":75},{"user_id":71,"name":"Milca_11","steam_id":76561198848650365,"connected_time":2087000000000,"state":"active","ping":73},{"user_id":75,"name":"monkey style","steam_id":76561198850384450,"connected_time":1980000000000,"state":"active","ping":55},{"user_id":105,"name":"Ne(g/c)romancer","steam_id":76561198065912877,"connected_time":62000000000,"state":"active","ping":83},{"user_id":97,"name":"Hil","steam_id":76561198433744615,"connected_time":971000000000,"state":"active","ping":91},{"user_id":77,"name":"LionKing","steam_id":76561198023399545,"connected_time":1947000000000,"state":"active","ping":60},{"user_id":100,"name":"i stil remember","steam_id":76561198086309264,"connected_time":526000000000,"state":"active","ping":62},{"user_id":60,"name":"Crisps","steam_id":76561198088973774,"connected_time":3098000000000,"state":"active","ping":56},{"user_id":86,"name":"bruhemian but festive","steam_id":76561198191854931,"connected_time":1264000000000,"state":"active","ping":56},{"user_id":101,"name":"gizmo","steam_id":76561198143921841,"connected_time":513000000000,"state":"active","ping":90},{"user_id":79,"name":"BarrackOmaha","steam_id":76561198027922724,"connected_time":1882000000000,"state":"active","ping":67},{"user_id":62,"name":"Samus","steam_id":76561198045943019,"connected_time":2620000000000,"state":"active","ping":60},{"user_id":36,"name":"KillerQueen (he/they/she)","steam_id":76561199019399725,"connected_time":3947000000000,"state":"active","ping":54},{"user_id":46,"name":"bojangles","steam_id":76561198029266963,"connected_time":3743000000000,"state":"active","ping":52},{"user_id":102,"name":"binkstug","steam_id":76561198867644865,"connected_time":483000000000,"state":"active","ping":74},{"user_id":39,"name":"UltimateSlayer","steam_id":76561198384109309,"connected_time":3898000000000,"state":"active","ping":60},{"user_id":103,"name":"AWildTamim","steam_id":76561198048060652,"connected_time":428000000000,"state":"active","ping":37},{"user_id":80,"name":"Small Goodman","steam_id":76561198881753718,"connected_time":1869000000000,"state":"active","ping":60},{"user_id":42,"name":"sup3rfr3ddy.","steam_id":76561198119371683,"connected_time":3858000000000,"state":"active","ping":61},{"user_id":90,"name":"Valoxi","steam_id":76561197995042938,"connected_time":1185000000000,"state":"active","ping":64},{"user_id":66,"name":"ThiccMedicc","steam_id":76561198413675639,"connected_time":2336000000000,"state":"active","ping":70},{"user_id":91,"name":"[UiF] BafTac r/f*ckcars","steam_id":76561198060547050,"connected_time":1177000000000,"state":"active","ping":60},{"user_id":104,"name":"–≤–∞–∂–∫–∏–π —Ö–ª–æ–ø–µ—Ü—å","steam_id":76561198067755755,"connected_time":324000000000,"state":"active","ping":80},{"user_id":94,"name":"Standingo","steam_id":76561198035642311,"connected_time":1102000000000,"state":"active","ping":105}]},{"server_id":22,"name":"Uncletopia | London | 6 | All Maps","name_short":"lon-6","host":"lon-1.uk.uncletopia.com","port":27065,"enabled":true,"region":"eu","cc":"gb","latitude":51.509865,"longitude":-0.118092,"reserved":0,"last_update":"0001-01-01T00:00:00Z","name_a2s":"Uncletopia | London | 6 | All Maps","protocol":17,"map":"pl_thundermountain","folder":"tf","game":"Team Fortress","app_id":440,"player_count":23,"max_players":24,"Bots":0,"server_type":"Dedicated","server_os":"Linux","password":true,"vac":true,"version":"7695204","steam_id":85568392924742830,"keywords":["nocrits","nodmgspread","payload","uncletopia"],"game_id":440,"stv_port":27066,"stv_name":"Uncletopia | London | 6 | All Maps | STV","players":[{"user_id":95,"name":"moser23","steam_id":76561197960543171,"connected_time":1041000000000,"state":"active","ping":55},{"user_id":115,"name":"Meatballs","steam_id":76561198005948884,"connected_time":5000000000,"state":"spawning","ping":72},{"user_id":16,"name":"Frazzles","steam_id":76561199228009586,"connected_time":7256000000000,"state":"active","ping":48},{"user_id":69,"name":"Zoodly","steam_id":76561198080594440,"connected_time":3072000000000,"state":"active","ping":51},{"user_id":18,"name":"SliQster","steam_id":76561198036797969,"connected_time":6818000000000,"state":"active","ping":62},{"user_id":19,"name":"Diagon Galley","steam_id":76561197988571162,"connected_time":6816000000000,"state":"active","ping":93},{"user_id":54,"name":"Vinyl :3","steam_id":76561197999631733,"connected_time":4510000000000,"state":"active","ping":64},{"user_id":70,"name":"Volmari","steam_id":76561198054253542,"connected_time":3026000000000,"state":"active","ping":70},{"user_id":23,"name":"Pagon","steam_id":76561197997804336,"connected_time":6742000000000,"state":"active","ping":61},{"user_id":88,"name":"juni","steam_id":76561198036504214,"connected_time":1620000000000,"state":"active","ping":55},{"user_id":114,"name":"Mapus Lepoldus","steam_id":76561198067705233,"connected_time":104000000000,"state":"active","ping":67},{"user_id":85,"name":"Klik","steam_id":76561198891046692,"connected_time":1838000000000,"state":"active","ping":75},{"user_id":96,"name":"hubbles","steam_id":76561197961142646,"connected_time":1022000000000,"state":"active","ping":60},{"user_id":98,"name":"Cipher Guy","steam_id":76561198987064749,"connected_time":953000000000,"state":"active","ping":69},{"user_id":111,"name":"Joneatshorts","steam_id":76561199233449550,"connected_time":237000000000,"state":"active","ping":154},{"user_id":99,"name":"Marp.","steam_id":76561198073827052,"connected_time":953000000000,"state":"active","ping":53},{"user_id":113,"name":"flucK","steam_id":76561199078847021,"connected_time":207000000000,"state":"active","ping":87},{"user_id":108,"name":"Hatless","steam_id":76561198321182862,"connected_time":461000000000,"state":"active","ping":98},{"user_id":102,"name":"cyanic","steam_id":76561198047828651,"connected_time":882000000000,"state":"active","ping":55},{"user_id":79,"name":"ReDsinat0r","steam_id":76561198365973345,"connected_time":2607000000000,"state":"active","ping":62},{"user_id":80,"name":"sentient soup","steam_id":76561198887503216,"connected_time":2596000000000,"state":"active","ping":144},{"user_id":103,"name":"BigZZZ","steam_id":76561197998461614,"connected_time":841000000000,"state":"active","ping":56},{"user_id":112,"name":"glyphoglossus molossus","steam_id":76561198191291749,"connected_time":237000000000,"state":"active","ping":75}]},{"server_id":40,"name":"Uncletopia | London | 7 | No Payload","name_short":"lon-7","host":"lon-1.uk.uncletopia.com","port":27075,"enabled":true,"region":"eu","cc":"gb","latitude":51.509865,"longitude":-0.118092,"reserved":0,"last_update":"0001-01-01T00:00:00Z","name_a2s":"Uncletopia | London | 7 | No Payload","protocol":17,"map":"koth_suijin","folder":"tf","game":"Team Fortress","app_id":440,"player_count":0,"max_players":24,"Bots":0,"server_type":"Dedicated","server_os":"Linux","password":true,"vac":true,"version":"7695204","steam_id":85568392924964314,"keywords":["cp","nocrits","nodmgspread","uncletopia"],"game_id":440,"stv_port":27076,"stv_name":"Uncletopia | London | 7 | No Payload | STV","players":null},{"server_id":41,"name":"Uncletopia | London | 8 | Community","name_short":"lon-8","host":"lon-1.uk.uncletopia.com","port":27085,"enabled":true,"region":"eu","cc":"gb","latitude":51.509865,"longitude":-0.118092,"reserved":0,"last_update":"0001-01-01T00:00:00Z","name_a2s":"Uncletopia | London | 8 | Community","protocol":17,"map":"workshop/koth_synthetic_rc6a.ugc1549817316","folder":"tf","game":"Team Fortress","app_id":440,"player_count":0,"max_players":24,"Bots":0,"server_type":"Dedicated","server_os":"Linux","password":true,"vac":true,"version":"7695204","steam_id":85568392924964315,"keywords":["cp","nocrits","nodmgspread","uncletopia"],"game_id":440,"stv_port":27086,"stv_name":"Uncletopia | London | 8 | Community | STV","players":null},{"server_id":300,"name":"Uncletopia | Montr√©al | 1 | All Maps","name_short":"mtl-1","host":"mtl-1.ca.uncletopia.com","port":27015,"enabled":true,"region":"us-east","cc":"ca","latitude":45.50889,"longitude":-73.56167,"reserved":0,"last_update":"0001-01-01T00:00:00Z","name_a2s":"Uncletopia | Montr√©al | 1 | All Maps","protocol":17,"map":"koth_cascade","folder":"tf","game":"Team Fortress","app_id":440,"player_count":0,"max_players":24,"Bots":0,"server_type":"Dedicated","server_os":"Linux","password":true,"vac":true,"version":"7695204","steam_id":85568392924500087,"keywords":["cp","nocrits","nodmgspread","uncletopia"],"game_id":440,"stv_port":27016,"stv_name":"Uncletopia | Montr√©al | 1 | All Maps | STV","players":null},{"server_id":301,"name":"Uncletopia | Montr√©al | 2 | All Maps","name_short":"mtl-2","host":"mtl-1.ca.uncletopia.com","port":27025,"enabled":true,"region":"us-east","cc":"ca","latitude":45.50889,"longitude":-73.56167,"reserved":0,"last_update":"0001-01-01T00:00:00Z","name_a2s":"Uncletopia | Montr√©al | 2 | All Maps","protocol":17,"map":"pl_snowycoast","folder":"tf","game":"Team Fortress","app_id":440,"player_count":0,"max_players":24,"Bots":0,"server_type":"Dedicated","server_os":"Linux","password":true,"vac":true,"version":"7695204","steam_id":85568392924500088,"keywords":["nocrits","nodmgspread","payload","uncletopia"],"game_id":440,"stv_port":0,"stv_name":"","players":null},{"server_id":302,"name":"Uncletopia | Montr√©al | 3 | All Maps","name_short":"mtl-3","host":"mtl-1.ca.uncletopia.com","port":27035,"enabled":true,"region":"us-east","cc":"ca","latitude":45.50889,"longitude":-73.56167,"reserved":0,"last_update":"0001-01-01T00:00:00Z","name_a2s":"Uncletopia | Montr√©al | 3 | All Maps","protocol":17,"map":"koth_viaduct","folder":"tf","game":"Team Fortress","app_id":440,"player_count":0,"max_players":24,"Bots":0,"server_type":"Dedicated","server_os":"Linux","password":true,"vac":true,"version":"7695204","steam_id":85568392924500089,"keywords":["cp","nocrits","nodmgspread","uncletopia"],"game_id":440,"stv_port":0,"stv_name":"","players":null},{"server_id":303,"name":"Uncletopia | Montr√©al | 4 | No Payload","name_short":"mtl-4","host":"mtl-1.ca.uncletopia.com","port":27045,"enabled":true,"region":"us-east","cc":"ca","latitude":45.50889,"longitude":-73.56167,"reserved":0,"last_update":"0001-01-01T00:00:00Z","name_a2s":"Uncletopia | Montr√©al | 4 | No Payload","protocol":17,"map":"cp_dustbowl","folder":"tf","game":"Team Fortress","app_id":440,"player_count":0,"max_players":24,"Bots":0,"server_type":"Dedicated","server_os":"Linux","password":true,"vac":true,"version":"7695204","steam_id":85568392924500090,"keywords":["cp","nocrits","nodmgspread","uncletopia"],"game_id":440,"stv_port":0,"stv_name":"","players":null},{"server_id":13,"name":"Uncletopia | New York City | 1 | All Maps","name_short":"nyc-1","host":"nyc-1.us.uncletopia.com","port":27015,"enabled":true,"region":"us-east","cc":"us","latitude":40.73061,"longitude":-73.93524,"reserved":0,"last_update":"0001-01-01T00:00:00Z","name_a2s":"Uncletopia | New York City | 1 | All Maps","protocol":17,"map":"koth_lakeside_final","folder":"tf","game":"Team Fortress","app_id":440,"player_count":0,"max_players":24,"Bots":0,"server_type":"Dedicated","server_os":"Linux","password":true,"vac":true,"version":"7695204","steam_id":85568392924469993,"keywords":["cp","nocrits","nodmgspread","uncletopia"],"game_id":440,"stv_port":27016,"stv_name":"Uncletopia | New York City | 1 | All Maps | STV","players":null},{"server_id":14,"name":"Uncletopia | New York City | 2 | All Maps","name_short":"nyc-2","host":"nyc-1.us.uncletopia.com","port":27025,"enabled":true,"region":"us-east","cc":"us","latitude":40.73061,"longitude":-73.93524,"reserved":0,"last_update":"0001-01-01T00:00:00Z","name_a2s":"Uncletopia | New York City | 2 | All Maps","protocol":17,"map":"pl_borneo","folder":"tf","game":"Team Fortress","app_id":440,"player_count":0,"max_players":24,"Bots":0,"server_type":"Dedicated","server_os":"Linux","password":true,"vac":true,"version":"7695204","steam_id":85568392924469994,"keywords":["nocrits","nodmgspread","payload","uncletopia"],"game_id":440,"stv_port":0,"stv_name":"","players":null},{"server_id":15,"name":"Uncletopia | New York City | 3 | All Maps","name_short":"nyc-3","host":"nyc-1.us.uncletopia.com","port":27035,"enabled":true,"region":"us-east","cc":"us","latitude":40.73061,"longitude":-73.93524,"reserved":0,"last_update":"0001-01-01T00:00:00Z","name_a2s":"Uncletopia | New York City | 3 | All Maps","protocol":17,"map":"koth_highpass","folder":"tf","game":"Team Fortress","app_id":440,"player_count":0,"max_players":24,"Bots":0,"server_type":"Dedicated","server_os":"Linux","password":true,"vac":true,"version":"7695204","steam_id":85568392924742820,"keywords":["cp","nocrits","nodmgspread","uncletopia"],"game_id":440,"stv_port":27036,"stv_name":"Uncletopia | New York City | 3 | All Maps | STV","players":null},{"server_id":16,"name":"Uncletopia | New York City | 4 | Community","name_short":"nyc-4","host":"nyc-1.us.uncletopia.com","port":27045,"enabled":true,"region":"us-east","cc":"us","latitude":40.73061,"longitude":-73.93524,"reserved":0,"last_update":"0001-01-01T00:00:00Z","name_a2s":"Uncletopia | New York City | 4 | Community","protocol":17,"map":"workshop/cp_logjam_rc12.ugc454812035","folder":"tf","game":"Team Fortress","app_id":440,"player_count":0,"max_players":24,"Bots":0,"server_type":"Dedicated","server_os":"Linux","password":true,"vac":true,"version":"7695204","steam_id":85568392924742821,"keywords":["cp","nocrits","nodmgspread","uncletopia"],"game_id":440,"stv_port":27046,"stv_name":"Uncletopia | New York City | 4 | Community | STV","players":null},{"server_id":142,"name":"Uncletopia | S√£o Paulo | 1 | All Maps","name_short":"sao-1","host":"sao-1.br.uncletopia.com","port":27015,"enabled":true,"region":"sa","cc":"br","latitude":-23.533773,"longitude":-46.62529,"reserved":0,"last_update":"0001-01-01T00:00:00Z","name_a2s":"Uncletopia | S√£o Paulo | 1 | All Maps","protocol":17,"map":"koth_viaduct","folder":"tf","game":"Team Fortress","app_id":440,"player_count":5,"max_players":24,"Bots":0,"server_type":"Dedicated","server_os":"Linux","password":true,"vac":true,"version":"7695204","steam_id":85568392924469996,"keywords":["cp","nocrits","nodmgspread","uncletopia"],"game_id":440,"stv_port":27016,"stv_name":"Uncletopia | S√£o Paulo | 1 | All Maps | STV","players":[{"user_id":15,"name":"Mike Ehrmantraut(Microwave)","steam_id":76561199083162497,"connected_time":1055000000000,"state":"active","ping":221},{"user_id":13,"name":"siirtyaoliveira","steam_id":76561199176805537,"connected_time":1305000000000,"state":"active","ping":43},{"user_id":14,"name":"Sr.Bilada","steam_id":76561198145392752,"connected_time":1220000000000,"state":"active","ping":45},{"user_id":16,"name":"jr_rusty","steam_id":76561198313937899,"connected_time":374000000000,"state":"active","ping":45},{"user_id":18,"name":"Stoned Henrique","steam_id":76561199440339479,"connected_time":209000000000,"state":"active","ping":52}]},{"server_id":143,"name":"Uncletopia | S√£o Paulo | 2 | All Maps","name_short":"sao-2","host":"sao-2.br.uncletopia.com","port":27015,"enabled":true,"region":"sa","cc":"br","latitude":-23.533773,"longitude":-46.62529,"reserved":0,"last_update":"0001-01-01T00:00:00Z","name_a2s":"Uncletopia | S√£o Paulo | 2 | All Maps","protocol":17,"map":"koth_cascade","folder":"tf","game":"Team Fortress","app_id":440,"player_count":0,"max_players":24,"Bots":0,"server_type":"Dedicated","server_os":"Linux","password":true,"vac":true,"version":"7695204","steam_id":85568392924485349,"keywords":["cp","nocrits","nodmgspread","uncletopia"],"game_id":440,"stv_port":27016,"stv_name":"Uncletopia | S√£o Paulo | 2 | All Maps | STV","players":null},{"server_id":7,"name":"Uncletopia | Seattle | 1 | All Maps","name_short":"sea-1","host":"sea-1.us.uncletopia.com","port":27015,"enabled":true,"region":"us-west","cc":"us","latitude":47.608013,"longitude":-122.33517,"reserved":0,"last_update":"0001-01-01T00:00:00Z","name_a2s":"Uncletopia | Seattle | 1 | All Maps","protocol":17,"map":"koth_viaduct","folder":"tf","game":"Team Fortress","app_id":440,"player_count":0,"max_players":24,"Bots":0,"server_type":"Dedicated","server_os":"Linux","password":true,"vac":true,"version":"7695204","steam_id":85568392924469997,"keywords":["cp","nocrits","nodmgspread","uncletopia"],"game_id":440,"stv_port":27016,"stv_name":"Uncletopia | Seattle | 1 | All Maps | STV","players":null},{"server_id":119,"name":"Uncletopia | Seattle | 2 | All Maps","name_short":"sea-2","host":"sea-1.us.uncletopia.com","port":27025,"enabled":true,"region":"us-west","cc":"us","latitude":47.608013,"longitude":-122.33517,"reserved":0,"last_update":"0001-01-01T00:00:00Z","name_a2s":"Uncletopia | Seattle | 2 | All Maps","protocol":17,"map":"koth_lakeside_final","folder":"tf","game":"Team Fortress","app_id":440,"player_count":0,"max_players":24,"Bots":0,"server_type":"Dedicated","server_os":"Linux","password":true,"vac":true,"version":"7695204","steam_id":85568392924469998,"keywords":["cp","nocrits","nodmgspread","uncletopia"],"game_id":440,"stv_port":0,"stv_name":"","players":null},{"server_id":17,"name":"Uncletopia | San Francisco | 1 | All Maps","name_short":"sfo-1","host":"sfo-1.us.uncletopia.com","port":27015,"enabled":true,"region":"us-west","cc":"us","latitude":37.77397,"longitude":-122.4313,"reserved":0,"last_update":"0001-01-01T00:00:00Z","name_a2s":"Uncletopia | San Francisco | 1 | All Maps","protocol":17,"map":"cp_sunshine","folder":"tf","game":"Team Fortress","app_id":440,"player_count":0,"max_players":24,"Bots":0,"server_type":"Dedicated","server_os":"Linux","password":true,"vac":true,"version":"7695204","steam_id":85568392924469999,"keywords":["cp","nocrits","nodmgspread","uncletopia"],"game_id":440,"stv_port":0,"stv_name":"","players":null},{"server_id":18,"name":"Uncletopia | San Francisco | 2 | All Maps","name_short":"sfo-2","host":"sfo-1.us.uncletopia.com","port":27025,"enabled":true,"region":"us-west","cc":"us","latitude":37.77397,"longitude":-122.4313,"reserved":0,"last_update":"0001-01-01T00:00:00Z","name_a2s":"Uncletopia | San Francisco | 2 | All Maps","protocol":17,"map":"pl_swiftwater_final1","folder":"tf","game":"Team Fortress","app_id":440,"player_count":0,"max_players":24,"Bots":0,"server_type":"Dedicated","server_os":"Linux","password":true,"vac":true,"version":"7695204","steam_id":85568392924470000,"keywords":["nocrits","nodmgspread","payload","uncletopia"],"game_id":440,"stv_port":27026,"stv_name":"Uncletopia | San Francisco | 2 | All Maps | STV","players":null},{"server_id":19,"name":"Uncletopia | San Francisco | 3 | No Payload","name_short":"sfo-3","host":"sfo-1.us.uncletopia.com","port":27035,"enabled":true,"region":"us-west","cc":"us","latitude":37.77397,"longitude":-122.4313,"reserved":0,"last_update":"0001-01-01T00:00:00Z","name_a2s":"Uncletopia | San Francisco | 3 | No Payload","protocol":17,"map":"cp_snakewater_final1","folder":"tf","game":"Team Fortress","app_id":440,"player_count":0,"max_players":24,"Bots":0,"server_type":"Dedicated","server_os":"Linux","password":true,"vac":true,"version":"7695204","steam_id":85568392924742824,"keywords":["cp","nocrits","nodmgspread","uncletopia"],"game_id":440,"stv_port":0,"stv_name":"","players":null},{"server_id":20,"name":"Uncletopia | San Francisco | 4 | Community","name_short":"sfo-4","host":"sfo-1.us.uncletopia.com","port":27045,"enabled":true,"region":"us-west","cc":"us","latitude":37.77397,"longitude":-122.4313,"reserved":0,"last_update":"0001-01-01T00:00:00Z","name_a2s":"Uncletopia | San Francisco | 4 | Community","protocol":17,"map":"koth_highpass","folder":"tf","game":"Team Fortress","app_id":440,"player_count":0,"max_players":24,"Bots":0,"server_type":"Dedicated","server_os":"Linux","password":true,"vac":true,"version":"7695204","steam_id":85568392924742826,"keywords":["cp","nocrits","nodmgspread","uncletopia"],"game_id":440,"stv_port":0,"stv_name":"","players":null},{"server_id":141,"name":"Uncletopia | Sydney | 1 | All Maps","name_short":"syd-1","host":"syd-1.au.uncletopia.com","port":27015,"enabled":true,"region":"au","cc":"au","latitude":-33.865143,"longitude":151.2099,"reserved":0,"last_update":"0001-01-01T00:00:00Z","name_a2s":"Uncletopia | Sydney | 1 | All Maps","protocol":17,"map":"pl_upward","folder":"tf","game":"Team Fortress","app_id":440,"player_count":1,"max_players":24,"Bots":0,"server_type":"Dedicated","server_os":"Linux","password":true,"vac":true,"version":"7695204","steam_id":85568392924470001,"keywords":["nocrits","nodmgspread","payload","uncletopia"],"game_id":440,"stv_port":27016,"stv_name":"Uncletopia | Sydney | 1 | All Maps | STV","players":[{"user_id":6,"name":"The Zoo","steam_id":76561198061713340,"connected_time":309000000000,"state":"active","ping":64}]},{"server_id":123,"name":"Uncletopia | Sydney | 2 | All Maps","name_short":"syd-2","host":"syd-1.au.uncletopia.com","port":27025,"enabled":true,"region":"au","cc":"au","latitude":-33.865143,"longitude":151.2099,"reserved":0,"last_update":"0001-01-01T00:00:00Z","name_a2s":"Uncletopia | Sydney | 2 | All Maps","protocol":17,"map":"cp_process_final","folder":"tf","game":"Team Fortress","app_id":440,"player_count":0,"max_players":24,"Bots":0,"server_type":"Dedicated","server_os":"Linux","password":true,"vac":true,"version":"7695204","steam_id":85568392924470002,"keywords":["cp","nocrits","nodmgspread","uncletopia"],"game_id":440,"stv_port":0,"stv_name":"","players":null},{"server_id":395,"name":"Uncletopia | Sydney | 3 | All Maps","name_short":"syd-3","host":"syd-1.au.uncletopia.com","port":27035,"enabled":true,"region":"au","cc":"au","latitude":-33.865143,"longitude":151.2099,"reserved":0,"last_update":"0001-01-01T00:00:00Z","name_a2s":"Uncletopia | Sydney | 3 | All Maps","protocol":17,"map":"pl_borneo","folder":"tf","game":"Team Fortress","app_id":440,"player_count":0,"max_players":24,"Bots":0,"server_type":"Dedicated","server_os":"Linux","password":true,"vac":true,"version":"7695204","steam_id":85568392925194467,"keywords":["nocrits","nodmgspread","payload","uncletopia"],"game_id":440,"stv_port":27036,"stv_name":"Uncletopia | Sydney | 3 | All Maps | STV","players":null},{"server_id":396,"name":"Uncletopia | Sydney | 4 | All Maps","name_short":"syd-4","host":"syd-1.au.uncletopia.com","port":27045,"enabled":true,"region":"au","cc":"au","latitude":-33.865143,"longitude":151.2099,"reserved":0,"last_update":"0001-01-01T00:00:00Z","name_a2s":"Uncletopia | Sydney | 4 | All Maps","protocol":17,"map":"pl_badwater","folder":"tf","game":"Team Fortress","app_id":440,"player_count":0,"max_players":24,"Bots":0,"server_type":"Dedicated","server_os":"Linux","password":true,"vac":true,"version":"7695204","steam_id":85568392925397958,"keywords":["nocrits","nodmgspread","payload","uncletopia"],"game_id":440,"stv_port":27046,"stv_name":"Uncletopia | Sydney | 4 | All Maps | STV","players":null},{"server_id":58,"name":"Uncletopia | Sydney | 5 | No Payload","name_short":"syd-5","host":"syd-1.au.uncletopia.com","port":27055,"enabled":true,"region":"au","cc":"au","latitude":-33.865143,"longitude":151.2099,"reserved":0,"last_update":"0001-01-01T00:00:00Z","name_a2s":"Uncletopia | Sydney | 5 | No Payload","protocol":17,"map":"koth_viaduct","folder":"tf","game":"Team Fortress","app_id":440,"player_count":0,"max_players":24,"Bots":0,"server_type":"Dedicated","server_os":"Linux","password":true,"vac":true,"version":"7695204","steam_id":85568392925397959,"keywords":["cp","nocrits","nodmgspread","uncletopia"],"game_id":440,"stv_port":0,"stv_name":"","players":null},{"server_id":59,"name":"Uncletopia | Sydney | 6 | Community","name_short":"syd-6","host":"syd-1.au.uncletopia.com","port":27065,"enabled":true,"region":"au","cc":"au","latitude":-33.865143,"longitude":151.2099,"reserved":0,"last_update":"0001-01-01T00:00:00Z","name_a2s":"Uncletopia | Sydney | 6 | Community","protocol":17,"map":"pl_barnblitz","folder":"tf","game":"Team Fortress","app_id":440,"player_count":0,"max_players":24,"Bots":0,"server_type":"Dedicated","server_os":"Linux","password":true,"vac":true,"version":"7695204","steam_id":85568392925397960,"keywords":["nocrits","nodmgspread","payload","uncletopia"],"game_id":440,"stv_port":0,"stv_name":"","players":null},{"server_id":49,"name":"Uncletopia | Warsaw | 1 | All Maps","name_short":"waw-1","host":"waw-1.pl.uncletopia.com","port":27015,"enabled":true,"region":"eu","cc":"pl","latitude":52.2297,"longitude":21.017532,"reserved":0,"last_update":"0001-01-01T00:00:00Z","name_a2s":"Uncletopia | Warsaw | 1 | All Maps","protocol":17,"map":"koth_lakeside_final","folder":"tf","game":"Team Fortress","app_id":440,"player_count":0,"max_players":24,"Bots":0,"server_type":"Dedicated","server_os":"Linux","password":true,"vac":true,"version":"7695204","steam_id":85568392925397850,"keywords":["cp","nocrits","nodmgspread","uncletopia"],"game_id":440,"stv_port":27016,"stv_name":"Uncletopia | Warsaw | 1 | All Maps | STV","players":null},{"server_id":50,"name":"Uncletopia | Warsaw | 2 | All Maps","name_short":"waw-2","host":"waw-1.pl.uncletopia.com","port":27025,"enabled":true,"region":"eu","cc":"pl","latitude":52.2297,"longitude":21.017532,"reserved":0,"last_update":"0001-01-01T00:00:00Z","name_a2s":"Uncletopia | Warsaw | 2 | All Maps","protocol":17,"map":"pl_swiftwater_final1","folder":"tf","game":"Team Fortress","app_id":440,"player_count":0,"max_players":24,"Bots":0,"server_type":"Dedicated","server_os":"Linux","password":true,"vac":true,"version":"7695204","steam_id":85568392925397851,"keywords":["nocrits","nodmgspread","payload","uncletopia"],"game_id":440,"stv_port":27026,"stv_name":"Uncletopia | Warsaw | 2 | All Maps | STV","players":null},{"server_id":51,"name":"Uncletopia | Warsaw | 3 | All Maps","name_short":"waw-3","host":"waw-1.pl.uncletopia.com","port":27035,"enabled":true,"region":"eu","cc":"pl","latitude":52.2297,"longitude":21.017532,"reserved":0,"last_update":"0001-01-01T00:00:00Z","name_a2s":"Uncletopia | Warsaw | 3 | All Maps","protocol":17,"map":"koth_lakeside_final","folder":"tf","game":"Team Fortress","app_id":440,"player_count":0,"max_players":24,"Bots":0,"server_type":"Dedicated","server_os":"Linux","password":true,"vac":true,"version":"7695204","steam_id":85568392925397852,"keywords":["cp","nocrits","nodmgspread","uncletopia"],"game_id":440,"stv_port":27036,"stv_name":"Uncletopia | Warsaw | 3 | All Maps | STV","players":null},{"server_id":52,"name":"Uncletopia | Warsaw | 4 | All Maps","name_short":"waw-4","host":"waw-1.pl.uncletopia.com","port":27045,"enabled":true,"region":"eu","cc":"pl","latitude":52.2297,"longitude":21.017532,"reserved":0,"last_update":"0001-01-01T00:00:00Z","name_a2s":"Uncletopia | Warsaw | 4 | All Maps","protocol":17,"map":"pl_frontier_final","folder":"tf","game":"Team Fortress","app_id":440,"player_count":0,"max_players":24,"Bots":0,"server_type":"Dedicated","server_os":"Linux","password":true,"vac":true,"version":"7695204","steam_id":85568392925397853,"keywords":["nocrits","nodmgspread","payload","uncletopia"],"game_id":440,"stv_port":27046,"stv_name":"Uncletopia | Warsaw | 4 | All Maps | STV","players":null},{"server_id":53,"name":"Uncletopia | Warsaw | 5 | No Payload","name_short":"waw-5","host":"waw-1.pl.uncletopia.com","port":27055,"enabled":true,"region":"eu","cc":"pl","latitude":52.2297,"longitude":21.017532,"reserved":0,"last_update":"0001-01-01T00:00:00Z","name_a2s":"Uncletopia | Warsaw | 5 | No Payload","protocol":17,"map":"koth_king","folder":"tf","game":"Team Fortress","app_id":440,"player_count":0,"max_players":24,"Bots":0,"server_type":"Dedicated","server_os":"Linux","password":true,"vac":true,"version":"7695204","steam_id":85568392925397854,"keywords":["cp","nocrits","nodmgspread","uncletopia"],"game_id":440,"stv_port":27056,"stv_name":"Uncletopia | Warsaw | 5 | No Payload | STV","players":null},{"server_id":54,"name":"Uncletopia | Warsaw | 6 | Community","name_short":"waw-6","host":"waw-1.pl.uncletopia.com","port":27065,"enabled":true,"region":"eu","cc":"pl","latitude":52.2297,"longitude":21.017532,"reserved":0,"last_update":"0001-01-01T00:00:00Z","name_a2s":"Uncletopia | Warsaw | 6 | Community","protocol":17,"map":"workshop/koth_ashville_final.ugc2130459942","folder":"tf","game":"Team Fortress","app_id":440,"player_count":0,"max_players":24,"Bots":0,"server_type":"Dedicated","server_os":"Linux","password":true,"vac":true,"version":"7695204","steam_id":85568392925397856,"keywords":["cp","nocrits","nodmgspread","uncletopia"],"game_id":440,"stv_port":27066,"stv_name":"Uncletopia | Warsaw | 6 | Community | STV","players":null}]}