{"status":true,"message":"","result":[{"server_id":9,"name":"Uncletopia | Atlanta | 1 | All Maps","name_short":"atl-1","host":"atl-1.us.uncletopia.com","port":27015,"enabled":true,"region":"us-east","cc":"us","latitude":33.753746,"longitude":-84.38633,"reserved":0,"last_update":"0001-01-01T00:00:00Z","name_a2s":"Uncletopia | Atlanta | 1 | All Maps","protocol":17,"map":"pl_upward","folder":"tf","game":"Team Fortress","app_id":440,"player_count":19,"max_players":24,"Bots":0,"server_type":"Dedicated","server_os":"Linux","password":true,"vac":true,"version":"7742253","steam_id":85568392924469982,"keywords":["nocrits","nodmgspread","payload","uncletopia"],"game_id":440,"stv_port":27016,"stv_name":"Uncletopia | Atlanta | 1 | All Maps | STV","players":[{"user_id":687,"name":"Bug","steam_id":76561198279239047,"connected_time":927000000000,"state":"active","ping":79},{"user_id":651,"name":"☙ Corrupt ❧","steam_id":76561197977631915,"connected_time":4801000000000,"state":"active","ping":66},{"user_id":655,"name":"Plains Phoenix","steam_id":76561198817161299,"connected_time":3917000000000,"state":"active","ping":62},{"user_id":620,"name":"guappodiablo2","steam_id":76561198132087785,"connected_time":8306000000000,"state":"active","ping":77},{"user_id":633,"name":"Shmoopy","steam_id":76561198030459152,"connected_time":5889000000000,"state":"active","ping":59},{"user_id":668,"name":"kittenkitchen24","steam_id":76561199171056489,"connected_time":3219000000000,"state":"active","ping":93},{"user_id":681,"name":"happyman","steam_id":76561199430019599,"connected_time":1641000000000,"state":"active","ping":73},{"user_id":677,"name":"psy","steam_id":76561198013195018,"connected_time":2451000000000,"state":"active","ping":86},{"user_id":659,"name":"Generic Name","steam_id":76561198840019488,"connected_time":3760000000000,"state":"active","ping":95},{"user_id":691,"name":"Ch4n","steam_id":76561198797670090,"connected_time":299000000000,"state":"active","ping":45},{"user_id":671,"name":"Nerf Gun Survivor","steam_id":76561198036032168,"connected_time":3120000000000,"state":"active","ping":84},{"user_id":614,"name":"Rose","steam_id":76561198068421587,"connected_time":8587000000000,"state":"active","ping":106},{"user_id":629,"name":"Abbashea","steam_id":76561199182136969,"connected_time":6177000000000,"state":"active","ping":95},{"user_id":661,"name":"FemboyNate","steam_id":76561198146636410,"connected_time":3704000000000,"state":"active","ping":72},{"user_id":678,"name":"JuiceBoxoi","steam_id":76561198892677253,"connected_time":2432000000000,"state":"active","ping":75},{"user_id":669,"name":"gangstalker","steam_id":76561198363267009,"connected_time":3161000000000,"state":"active","ping":60},{"user_id":688,"name":"JZ","steam_id":76561198377029198,"connected_time":744000000000,"state":"active","ping":109},{"user_id":686,"name":"LuckyCrow_","steam_id":76561198952465404,"connected_time":1109000000000,"state":"active","ping":61}]},{"server_id":400,"name":"Uncletopia | Atlanta | 3 | Stopwatch Beta","name_short":"atl-3","host":"atl-1.us.uncletopia.com","port":27035,"enabled":true,"region":"us-east","cc":"us","latitude":33.753746,"longitude":-84.38633,"reserved":0,"last_update":"0001-01-01T00:00:00Z","name_a2s":"Uncletopia | Atlanta | 3 | Stopwatch Beta","protocol":17,"map":"cp_sunshine","folder":"tf","game":"Team Fortress","app_id":440,"player_count":0,"max_players":24,"Bots":0,"server_type":"Dedicated","server_os":"Linux","password":true,"vac":true,"version":"7742253","steam_id":85568392924515187,"keywords":["cp","nocrits","nodmgspread","uncletopia"],"game_id":440,"stv_port":27036,"stv_name":"Uncletopia | Atlanta | 3 | Stopwatch Beta | STV","players":null},{"server_id":401,"name":"Uncletopia | Atlanta | 4 | No Payload","name_short":"atl-4","host":"atl-1.us.uncletopia.com","port":27045,"enabled":true,"region":"us-east","cc":"us","latitude":33.753746,"longitude":-84.38633,"reserved":0,"last_update":"0001-01-01T00:00:00Z","name_a2s":"Uncletopia | Atlanta | 4 | No Payload","protocol":17,"map":"pl_pier","folder":"tf","game":"Team Fortress","app_id":440,"player_count":0,"max_players":24,"Bots":0,"server_type":"Dedicated","server_os":"Linux","password":true,"vac":true,"version":"7723704","steam_id":85568392924515188,"keywords":["nocrits","nodmgspread","payload","uncletopia"],"game_id":440,"stv_port":27046,"stv_name":"Uncletopia | Atlanta | 4 | No Payload | STV","players":null},{"server_id":2,"name":"Uncletopia | Chicago | 1 | All Maps","name_short":"chi-1","host":"chi-1.us.uncletopia.com","port":27015,"enabled":true,"region":"us-central","cc":"us","latitude":41.881832,"longitude":-87.62318,"reserved":0,"last_update":"0001-01-01T00:00:00Z","name_a2s":"Uncletopia | Chicago | 1 | All Maps","protocol":17,"map":"pl_barnblitz","folder":"tf","game":"Team Fortress","app_id":440,"player_count":24,"max_players":24,"Bots":0,"server_type":"Dedicated","server_os":"Linux","password":true,"vac":true,"version":"7742253","steam_id":85568392924469984,"keywords":["nocrits","nodmgspread","payload","uncletopia"],"game_id":440,"stv_port":27016,"stv_name":"Uncletopia | Chicago | 1 | All Maps | STV","players":[{"user_id":856,"name":"RawLawson","steam_id":76561198398752800,"connected_time":1353000000000,"state":"active","ping":86},{"user_id":857,"name":"JASC","steam_id":76561198050683512,"connected_time":1317000000000,"state":"active","ping":84},{"user_id":861,"name":"SneakySneak","steam_id":76561198064847921,"connected_time":1181000000000,"state":"active","ping":108},{"user_id":798,"name":"peter griffin","steam_id":76561198079485096,"connected_time":9019000000000,"state":"active","ping":73},{"user_id":855,"name":"THICC","steam_id":76561198273234133,"connected_time":1384000000000,"state":"active","ping":79},{"user_id":832,"name":"Adrena1ine","steam_id":76561198393206876,"connected_time":3469000000000,"state":"active","ping":91},{"user_id":869,"name":"exa","steam_id":76561198044511912,"connected_time":459000000000,"state":"active","ping":90},{"user_id":824,"name":"Aribari","steam_id":76561198117327938,"connected_time":5036000000000,"state":"active","ping":57},{"user_id":834,"name":"Bishop","steam_id":76561197997899507,"connected_time":3300000000000,"state":"active","ping":62},{"user_id":859,"name":"None of that $9.99 bullshit","steam_id":76561198116169903,"connected_time":1222000000000,"state":"active","ping":45},{"user_id":860,"name":"Uhonlapjontetzika","steam_id":76561199431280503,"connected_time":1218000000000,"state":"active","ping":60},{"user_id":862,"name":"ahab","steam_id":76561198211780469,"connected_time":1155000000000,"state":"active","ping":32},{"user_id":842,"name":"JFK Gamer","steam_id":76561199229169396,"connected_time":2983000000000,"state":"active","ping":50},{"user_id":852,"name":"Wug","steam_id":76561198084112264,"connected_time":1507000000000,"state":"active","ping":79},{"user_id":840,"name":"xFactr","steam_id":76561198129007422,"connected_time":3052000000000,"state":"active","ping":61},{"user_id":863,"name":"Toxapex/Clefable/Umbreon Stall","steam_id":76561198102868313,"connected_time":1149000000000,"state":"active","ping":97},{"user_id":872,"name":"TheHarmacist","steam_id":76561198068249096,"connected_time":381000000000,"state":"active","ping":45},{"user_id":864,"name":"CamTheCheeseLord","steam_id":76561199006141799,"connected_time":1139000000000,"state":"active","ping":63},{"user_id":870,"name":"The Weatherman is fucking dying","steam_id":76561198000445420,"connected_time":442000000000,"state":"active","ping":70},{"user_id":874,"name":"Ducter","steam_id":76561198085369908,"connected_time":15000000000,"state":"spawning","ping":61},{"user_id":866,"name":"GrapeJuiceThePaintEater","steam_id":76561198203586415,"connected_time":868000000000,"state":"active","ping":63},{"user_id":873,"name":"Yu Plush","steam_id":76561198800891125,"connected_time":312000000000,"state":"active","ping":103},{"user_id":854,"name":"Aeterna Victrix","steam_id":76561198067701236,"connected_time":1389000000000,"state":"active","ping":58}]},{"server_id":106,"name":"Uncletopia | Chicago | 2 | All Maps","name_short":"chi-2","host":"chi-1.us.uncletopia.com","port":27025,"enabled":true,"region":"us-central","cc":"us","latitude":41.881832,"longitude":-87.62318,"reserved":0,"last_update":"0001-01-01T00:00:00Z","name_a2s":"Uncletopia | Chicago | 2 | All Maps","protocol":17,"map":"pl_swiftwater_final1","folder":"tf","game":"Team Fortress","app_id":440,"player_count":24,"max_players":24,"Bots":0,"server_type":"Dedicated","server_os":"Linux","password":true,"vac":true,"version":"7742253","steam_id":85568392924469985,"keywords":["nocrits","nodmgspread","payload","uncletopia"],"game_id":440,"stv_port":27026,"stv_name":"Uncletopia | Chicago | 2 | All Maps | STV","players":[{"user_id":805,"name":"RIZZLY BEAR","steam_id":76561198213525809,"connected_time":44000000000,"state":"active","ping":75},{"user_id":771,"name":"Semi","steam_id":76561199105889252,"connected_time":5799000000000,"state":"active","ping":158},{"user_id":770,"name":"walito12","steam_id":76561198244902626,"connected_time":6251000000000,"state":"active","ping":110},{"user_id":759,"name":"SensualNic","steam_id":76561198042566460,"connected_time":7755000000000,"state":"active","ping":65},{"user_id":799,"name":"herp derp ☕","steam_id":76561198047646956,"connected_time":261000000000,"state":"active","ping":110},{"user_id":773,"name":"can my wife use your toilet","steam_id":76561198120973162,"connected_time":5761000000000,"state":"active","ping":71},{"user_id":787,"name":"Grognak","steam_id":76561198044710527,"connected_time":2401000000000,"state":"active","ping":87},{"user_id":791,"name":"jayy.t","steam_id":76561198059575962,"connected_time":1973000000000,"state":"active","ping":57},{"user_id":795,"name":"MoonWolf","steam_id":76561198095735033,"connected_time":496000000000,"state":"active","ping":75},{"user_id":781,"name":"Lavender","steam_id":76561198142770666,"connected_time":3006000000000,"state":"active","ping":61},{"user_id":655,"name":"Squid121","steam_id":76561198038832034,"connected_time":15053000000000,"state":"active","ping":96},{"user_id":762,"name":"femineralization","steam_id":76561198090412935,"connected_time":7547000000000,"state":"active","ping":84},{"user_id":789,"name":"weeb_whacker #Jenius","steam_id":76561198187098041,"connected_time":2368000000000,"state":"active","ping":53},{"user_id":796,"name":"Poverty's Finest","steam_id":76561198127704044,"connected_time":475000000000,"state":"active","ping":66},{"user_id":760,"name":"knip","steam_id":76561198147061182,"connected_time":7601000000000,"state":"active","ping":79},{"user_id":801,"name":"Tilly","steam_id":76561198211149709,"connected_time":126000000000,"state":"active","ping":45},{"user_id":793,"name":"namaste at home dad","steam_id":76561198056971063,"connected_time":1624000000000,"state":"active","ping":59},{"user_id":766,"name":"NovaSc6ut","steam_id":76561198277163301,"connected_time":7203000000000,"state":"active","ping":64},{"user_id":790,"name":"SpiderString (She/She++)","steam_id":76561198092409181,"connected_time":2360000000000,"state":"active","ping":89},{"user_id":800,"name":"Gustavo","steam_id":76561198440103987,"connected_time":249000000000,"state":"active","ping":64},{"user_id":733,"name":"Ace Chromatica","steam_id":76561198042211131,"connected_time":10033000000000,"state":"active","ping":50},{"user_id":761,"name":"Nickson1","steam_id":76561198175839309,"connected_time":7559000000000,"state":"active","ping":74},{"user_id":802,"name":"SCAMMER","steam_id":76561197969386201,"connected_time":93000000000,"state":"active","ping":68},{"user_id":767,"name":"Phillip Jeffries","steam_id":76561198064052174,"connected_time":6839000000000,"state":"active","ping":66}]},{"server_id":402,"name":"Uncletopia | Chicago | 3 | All Maps","name_short":"chi-3","host":"chi-1.us.uncletopia.com","port":27035,"enabled":true,"region":"us-central","cc":"us","latitude":41.881832,"longitude":-87.62318,"reserved":0,"last_update":"0001-01-01T00:00:00Z","name_a2s":"Uncletopia | Chicago | 3 | All Maps","protocol":17,"map":"cp_sunshine","folder":"tf","game":"Team Fortress","app_id":440,"player_count":0,"max_players":24,"Bots":0,"server_type":"Dedicated","server_os":"Linux","password":true,"vac":true,"version":"7742253","steam_id":85568392924515191,"keywords":["cp","nocrits","nodmgspread","uncletopia"],"game_id":440,"stv_port":27036,"stv_name":"Uncletopia | Chicago | 3 | All Maps | STV","players":null},{"server_id":403,"name":"Uncletopia | Chicago | 4 | All Maps","name_short":"chi-4","host":"chi-1.us.uncletopia.com","port":27045,"enabled":true,"region":"us-central","cc":"us","latitude":41.881832,"longitude":-87.62318,"reserved":0,"last_update":"0001-01-01T00:00:00Z","name_a2s":"Uncletopia | Chicago | 4 | All Maps","protocol":17,"map":"pl_badwater","folder":"tf","game":"Team Fortress","app_id":440,"player_count":24,"max_players":24,"Bots":0,"server_type":"Dedicated","server_os":"Linux","password":true,"vac":true,"version":"7742253","steam_id":85568392924515193,"keywords":["nocrits","nodmgspread","payload","uncletopia"],"game_id":440,"stv_port":27046,"stv_name":"Uncletopia | Chicago | 4 | All Maps | STV","players":[{"user_id":674,"name":"HanakoToast","steam_id":76561198045233131,"connected_time":4093000000000,"state":"active","ping":95},{"user_id":671,"name":"WhoIsFrosty","steam_id":76561198880588117,"connected_time":4474000000000,"state":"active","ping":50},{"user_id":683,"name":"Ace Attorney","steam_id":76561198133011705,"connected_time":3004000000000,"state":"active","ping":61},{"user_id":667,"name":"Vaude","steam_id":76561198369187511,"connected_time":4694000000000,"state":"active","ping":70},{"user_id":713,"name":"SumTingWong","steam_id":76561198119286222,"connected_time":634000000000,"state":"active","ping":94},{"user_id":687,"name":"Rusty","steam_id":76561198055585129,"connected_time":2288000000000,"state":"active","ping":89},{"user_id":621,"name":"Némiscau","steam_id":76561198257979613,"connected_time":7471000000000,"state":"active","ping":86},{"user_id":706,"name":"Nexus","steam_id":76561198156374282,"connected_time":1105000000000,"state":"active","ping":65},{"user_id":622,"name":"foura","steam_id":76561198181972739,"connected_time":7466000000000,"state":"active","ping":95},{"user_id":708,"name":"iCarly Lore Expert","steam_id":76561198111902910,"connected_time":1021000000000,"state":"active","ping":66},{"user_id":694,"name":"Brendan","steam_id":76561198041079914,"connected_time":1963000000000,"state":"active","ping":74},{"user_id":661,"name":"CFDv20","steam_id":76561198450073779,"connected_time":4942000000000,"state":"active","ping":102},{"user_id":704,"name":"cam","steam_id":76561198353950318,"connected_time":1341000000000,"state":"active","ping":82},{"user_id":711,"name":"non_ai","steam_id":76561198270951938,"connected_time":676000000000,"state":"active","ping":61},{"user_id":677,"name":"ratboy","steam_id":76561198087649133,"connected_time":3508000000000,"state":"active","ping":77},{"user_id":715,"name":"МойНик","steam_id":76561198287439676,"connected_time":52000000000,"state":"active","ping":180},{"user_id":693,"name":"Lore","steam_id":76561198098407538,"connected_time":1976000000000,"state":"active","ping":57},{"user_id":712,"name":"Trusty","steam_id":76561198035444237,"connected_time":661000000000,"state":"active","ping":64},{"user_id":714,"name":"Bitter","steam_id":76561198146532457,"connected_time":348000000000,"state":"active","ping":75},{"user_id":696,"name":"TMKDash","steam_id":76561198115860793,"connected_time":1855000000000,"state":"active","ping":81},{"user_id":701,"name":"derdds","steam_id":76561198034339940,"connected_time":1715000000000,"state":"active","ping":57},{"user_id":698,"name":"Randy \"the Man\" Johnson","steam_id":76561198039124445,"connected_time":1829000000000,"state":"active","ping":99},{"user_id":700,"name":"Sovulous","steam_id":76561198045389233,"connected_time":1745000000000,"state":"active","ping":66},{"user_id":705,"name":"EagleEye2000","steam_id":76561198233776704,"connected_time":1254000000000,"state":"active","ping":61}]},{"server_id":36,"name":"Uncletopia | Chicago | 5 | All Maps","name_short":"chi-5","host":"chi-2.us.uncletopia.com","port":27015,"enabled":true,"region":"us-central","cc":"us","latitude":41.881832,"longitude":-87.62318,"reserved":0,"last_update":"0001-01-01T00:00:00Z","name_a2s":"Uncletopia | Chicago | 5 | All Maps","protocol":17,"map":"koth_cascade","folder":"tf","game":"Team Fortress","app_id":440,"player_count":0,"max_players":24,"Bots":0,"server_type":"Dedicated","server_os":"Linux","password":true,"vac":true,"version":"7742253","steam_id":85568392924866362,"keywords":["cp","nocrits","nodmgspread","uncletopia"],"game_id":440,"stv_port":27016,"stv_name":"Uncletopia | Chicago | 5 | All Maps | STV","players":null},{"server_id":37,"name":"Uncletopia | Chicago | 6 | All Maps","name_short":"chi-6","host":"chi-2.us.uncletopia.com","port":27025,"enabled":true,"region":"us-central","cc":"us","latitude":41.881832,"longitude":-87.62318,"reserved":0,"last_update":"0001-01-01T00:00:00Z","name_a2s":"Uncletopia | Chicago | 6 | All Maps","protocol":17,"map":"pl_borneo","folder":"tf","game":"Team Fortress","app_id":440,"player_count":0,"max_players":24,"Bots":0,"server_type":"Dedicated","server_os":"Linux","password":true,"vac":true,"version":"7742253","steam_id":85568392924866363,"keywords":["nocrits","nodmgspread","payload","uncletopia"],"game_id":440,"stv_port":27026,"stv_name":"Uncletopia | Chicago | 6 | All Maps | STV","players":null},{"server_id":38,"name":"Uncletopia | Chicago | 7 | Stopwatch Beta","name_short":"chi-7","host":"chi-2.us.uncletopia.com","port":27035,"enabled":true,"region":"us-central","cc":"us","latitude":41.881832,"longitude":-87.62318,"reserved":0,"last_update":"0001-01-01T00:00:00Z","name_a2s":"Uncletopia | Chicago | 7 | Stopwatch Beta","protocol":17,"map":"workshop/pl_barnblitz_pro7.ugc582280235","folder":"tf","game":"Team Fortress","app_id":440,"player_count":0,"max_players":24,"Bots":0,"server_type":"Dedicated","server_os":"Linux","password":true,"vac":true,"version":"7742253","steam_id":85568392924866364,"keywords":["nocrits","nodmgspread","payload","uncletopia"],"game_id":440,"stv_port":27036,"stv_name":"Uncletopia | Chicago | 7 | Stopwatch Beta | STV","players":null},{"server_id":39,"name":"Uncletopia | Chicago | 8 | Community","name_short":"chi-8","host":"chi-2.us.uncletopia.com","port":27045,"enabled":true,"region":"us-central","cc":"us","latitude":41.881832,"longitude":-87.62318,"reserved":0,"last_update":"0001-01-01T00:00:00Z","name_a2s":"Uncletopia | Chicago | 8 | Community","protocol":17,"map":"koth_lakeside_final","folder":"tf","game":"Team Fortress","app_id":440,"player_count":0,"max_players":24,"Bots":0,"server_type":"Dedicated","server_os":"Linux","password":true,"vac":true,"version":"7742253","steam_id":85568392924866365,"keywords":["cp","nocrits","nodmgspread","uncletopia"],"game_id":440,"stv_port":27046,"stv_name":"Uncletopia | Chicago | 8 | Community | STV","players":null},{"server_id":8,"name":"Uncletopia | Dallas | 1 | All Maps","name_short":"dal-1","host":"dal-1.us.uncletopia.com","port":27015,"enabled":true,"region":"us-central","cc":"us","latitude":32.779167,"longitude":-96.80889,"reserved":0,"last_update":"0001-01-01T00:00:00Z","name_a2s":"Uncletopia | Dallas | 1 | All Maps","protocol":17,"map":"pl_frontier_final","folder":"tf","game":"Team Fortress","app_id":440,"player_count":23,"max_players":24,"Bots":0,"server_type":"Dedicated","server_os":"Linux","password":true,"vac":true,"version":"7742253","steam_id":85568392924469986,"keywords":["nocrits","nodmgspread","payload","uncletopia"],"game_id":440,"stv_port":27016,"stv_name":"Uncletopia | Dallas | 1 | All Maps | STV","players":[{"user_id":472,"name":"BIG HOG","steam_id":76561198079923652,"connected_time":3795000000000,"state":"active","ping":61},{"user_id":503,"name":"Ap1hw","steam_id":76561199122883466,"connected_time":593000000000,"state":"active","ping":49},{"user_id":495,"name":"fire","steam_id":76561198044354279,"connected_time":1312000000000,"state":"active","ping":77},{"user_id":504,"name":"Tetanus Bob","steam_id":76561198074500319,"connected_time":525000000000,"state":"active","ping":101},{"user_id":505,"name":"TheArachnidGamer","steam_id":76561198304986752,"connected_time":513000000000,"state":"active","ping":52},{"user_id":506,"name":"卩丂ㄚ卄ㄖ卩卂ㄒ卄","steam_id":76561199090108136,"connected_time":324000000000,"state":"active","ping":105},{"user_id":513,"name":"honked off the bobo","steam_id":76561198123287268,"connected_time":59000000000,"state":"active","ping":75},{"user_id":477,"name":"Festive Turnip","steam_id":76561198215801344,"connected_time":3427000000000,"state":"active","ping":61},{"user_id":507,"name":"Ham bones","steam_id":76561198259610648,"connected_time":271000000000,"state":"active","ping":78},{"user_id":468,"name":"ManiacalPotato","steam_id":76561198055603041,"connected_time":4013000000000,"state":"active","ping":46},{"user_id":510,"name":"Bigg Papa Clay","steam_id":76561198217613244,"connected_time":163000000000,"state":"active","ping":66},{"user_id":479,"name":"Pyro410","steam_id":76561199241277109,"connected_time":3408000000000,"state":"active","ping":67},{"user_id":502,"name":"Pneumo.","steam_id":76561197987911883,"connected_time":657000000000,"state":"active","ping":125},{"user_id":512,"name":"BIG DAWG LFTeez Nuts","steam_id":76561198209881263,"connected_time":128000000000,"state":"active","ping":79},{"user_id":493,"name":"Koyota","steam_id":76561198069878114,"connected_time":1565000000000,"state":"active","ping":95},{"user_id":499,"name":"Ash40000","steam_id":76561198092841526,"connected_time":793000000000,"state":"active","ping":57},{"user_id":508,"name":"Jadus","steam_id":76561199091462938,"connected_time":223000000000,"state":"active","ping":71},{"user_id":459,"name":"Omegalite","steam_id":76561198796787101,"connected_time":4782000000000,"state":"active","ping":62},{"user_id":509,"name":"Matches_                       ","steam_id":76561198048925904,"connected_time":192000000000,"state":"active","ping":88},{"user_id":417,"name":"little hog","steam_id":76561199230929836,"connected_time":8757000000000,"state":"active","ping":73},{"user_id":511,"name":"schizo","steam_id":76561199116392718,"connected_time":161000000000,"state":"active","ping":77},{"user_id":514,"name":"Magitrex","steam_id":76561199088811754,"connected_time":20000000000,"state":"spawning","ping":60},{"user_id":483,"name":"DeckofDragons","steam_id":76561198057398213,"connected_time":3279000000000,"state":"active","ping":62}]},{"server_id":108,"name":"Uncletopia | Dallas | 2 | All Maps","name_short":"dal-2","host":"dal-1.us.uncletopia.com","port":27025,"enabled":true,"region":"us-central","cc":"us","latitude":32.779167,"longitude":-96.80889,"reserved":0,"last_update":"0001-01-01T00:00:00Z","name_a2s":"Uncletopia | Dallas | 2 | All Maps","protocol":17,"map":"cp_process_final","folder":"tf","game":"Team Fortress","app_id":440,"player_count":0,"max_players":24,"Bots":0,"server_type":"Dedicated","server_os":"Linux","password":true,"vac":true,"version":"7742253","steam_id":85568392924469988,"keywords":["cp","nocrits","nodmgspread","uncletopia"],"game_id":440,"stv_port":27026,"stv_name":"Uncletopia | Dallas | 2 | All Maps | STV","players":null},{"server_id":5,"name":"Uncletopia | Frankfurt | 1 | All Maps","name_short":"frk-1","host":"frk-1.de.uncletopia.com","port":27015,"enabled":true,"region":"eu","cc":"de","latitude":50.110924,"longitude":8.682127,"reserved":0,"last_update":"0001-01-01T00:00:00Z","name_a2s":"Uncletopia | Frankfurt | 1 | All Maps","protocol":17,"map":"koth_viaduct","folder":"tf","game":"Team Fortress","app_id":440,"player_count":7,"max_players":24,"Bots":0,"server_type":"Dedicated","server_os":"Linux","password":true,"vac":true,"version":"7742253","steam_id":85568392924469989,"keywords":["cp","nocrits","nodmgspread","uncletopia"],"game_id":440,"stv_port":27016,"stv_name":"Uncletopia | Frankfurt | 1 | All Maps | STV","players":[{"user_id":3,"name":"quadr","steam_id":76561198871716755,"connected_time":1726000000000,"state":"active","ping":83},{"user_id":5,"name":"jker","steam_id":76561198816714058,"connected_time":1556000000000,"state":"active","ping":101},{"user_id":9,"name":"Linakas","steam_id":76561198299757435,"connected_time":368000000000,"state":"active","ping":67},{"user_id":8,"name":"deep7thfeb","steam_id":76561199076017741,"connected_time":782000000000,"state":"active","ping":192},{"user_id":10,"name":"GreggieBoi","steam_id":76561199085200364,"connected_time":297000000000,"state":"active","ping":197},{"user_id":11,"name":"zen","steam_id":76561198160747675,"connected_time":243000000000,"state":"active","ping":96},{"user_id":12,"name":"IskNinja","steam_id":76561199236354115,"connected_time":156000000000,"state":"active","ping":83}]},{"server_id":110,"name":"Uncletopia | Frankfurt | 2 | All Maps","name_short":"frk-2","host":"frk-1.de.uncletopia.com","port":27025,"enabled":true,"region":"eu","cc":"de","latitude":50.110924,"longitude":8.682127,"reserved":0,"last_update":"0001-01-01T00:00:00Z","name_a2s":"Uncletopia | Frankfurt | 2 | All Maps","protocol":17,"map":"pl_swiftwater_final1","folder":"tf","game":"Team Fortress","app_id":440,"player_count":0,"max_players":24,"Bots":0,"server_type":"Dedicated","server_os":"Linux","password":true,"vac":true,"version":"7742253","steam_id":85568392924469990,"keywords":["nocrits","nodmgspread","payload","uncletopia"],"game_id":440,"stv_port":27026,"stv_name":"Uncletopia | Frankfurt | 2 | All Maps | STV","players":null},{"server_id":308,"name":"Uncletopia | Frankfurt | 3 | All Maps","name_short":"frk-3","host":"frk-1.de.uncletopia.com","port":27035,"enabled":true,"region":"eu","cc":"de","latitude":50.110924,"longitude":8.682127,"reserved":0,"last_update":"0001-01-01T00:00:00Z","name_a2s":"Uncletopia | Frankfurt | 3 | All Maps","protocol":17,"map":"cp_dustbowl","folder":"tf","game":"Team Fortress","app_id":440,"player_count":0,"max_players":24,"Bots":0,"server_type":"Dedicated","server_os":"Linux","password":true,"vac":true,"version":"7742253","steam_id":85568392924504274,"keywords":["cp","nocrits","nodmgspread","uncletopia"],"game_id":440,"stv_port":27036,"stv_name":"Uncletopia | Frankfurt | 3 | All Maps | STV","players":null},{"server_id":309,"name":"Uncletopia | Frankfurt | 4 | All Maps","name_short":"frk-4","host":"frk-1.de.uncletopia.com","port":27045,"enabled":true,"region":"eu","cc":"de","latitude":50.110924,"longitude":8.682127,"reserved":0,"last_update":"0001-01-01T00:00:00Z","name_a2s":"Uncletopia | Frankfurt | 4 | All Maps","protocol":17,"map":"cp_snakewater_final1","folder":"tf","game":"Team Fortress","app_id":440,"player_count":0,"max_players":24,"Bots":0,"server_type":"Dedicated","server_os":"Linux","password":true,"vac":true,"version":"7742253","steam_id":85568392924504275,"keywords":["cp","nocrits","nodmgspread","uncletopia"],"game_id":440,"stv_port":27046,"stv_name":"Uncletopia | Frankfurt | 4 | All Maps | STV","players":null},{"server_id":310,"name":"Uncletopia | Frankfurt | 5 | All Maps","name_short":"frk-5","host":"frk-1.de.uncletopia.com","port":27055,"enabled":true,"region":"eu","cc":"de","latitude":50.110924,"longitude":8.682127,"reserved":0,"last_update":"0001-01-01T00:00:00Z","name_a2s":"Uncletopia | Frankfurt | 5 | All Maps","protocol":17,"map":"koth_highpass","folder":"tf","game":"Team Fortress","app_id":440,"player_count":0,"max_players":24,"Bots":0,"server_type":"Dedicated","server_os":"Linux","password":true,"vac":true,"version":"7742253","steam_id":85568392924504277,"keywords":["cp","nocrits","nodmgspread","uncletopia"],"game_id":440,"stv_port":27056,"stv_name":"Uncletopia | Frankfurt | 5 | All Maps | STV","players":null},{"server_id":311,"name":"Uncletopia | Frankfurt | 6 | All Maps","name_short":"frk-6","host":"frk-1.de.uncletopia.com","port":27065,"enabled":true,"region":"eu","cc":"de","latitude":50.110924,"longitude":8.682127,"reserved":0,"last_update":"0001-01-01T00:00:00Z","name_a2s":"Uncletopia | Frankfurt | 6 | All Maps","protocol":17,"map":"koth_lakeside_final","folder":"tf","game":"Team Fortress","app_id":440,"player_count":0,"max_players":24,"Bots":0,"server_type":"Dedicated","server_os":"Linux","password":true,"vac":true,"version":"7742253","steam_id":85568392924504278,"keywords":["cp","nocrits","nodmgspread","uncletopia"],"game_id":440,"stv_port":27066,"stv_name":"Uncletopia | Frankfurt | 6 | All Maps | STV","players":null},{"server_id":23,"name":"Uncletopia | Frankfurt | 7 | Stopwatch Beta","name_short":"frk-7","host":"frk-1.de.uncletopia.com","port":27075,"enabled":true,"region":"eu","cc":"de","latitude":50.110924,"longitude":8.682127,"reserved":0,"last_update":"0001-01-01T00:00:00Z","name_a2s":"Uncletopia | Frankfurt | 7 | Stopwatch Beta","protocol":17,"map":"workshop/koth_bagel_rc5.ugc2514036946","folder":"tf","game":"Team Fortress","app_id":440,"player_count":0,"max_players":24,"Bots":0,"server_type":"Dedicated","server_os":"Linux","password":true,"vac":true,"version":"7742253","steam_id":85568392924742827,"keywords":["cp","nocrits","nodmgspread","uncletopia"],"game_id":440,"stv_port":27076,"stv_name":"Uncletopia | Frankfurt | 7 | Stopwatch Beta | STV","players":null},{"server_id":24,"name":"Uncletopia | Frankfurt | 8 | Community","name_short":"frk-8","host":"frk-1.de.uncletopia.com","port":27085,"enabled":true,"region":"eu","cc":"de","latitude":50.110924,"longitude":8.682127,"reserved":0,"last_update":"0001-01-01T00:00:00Z","name_a2s":"Uncletopia | Frankfurt | 8 | Community","protocol":17,"map":"koth_cascade","folder":"tf","game":"Team Fortress","app_id":440,"player_count":0,"max_players":24,"Bots":0,"server_type":"Dedicated","server_os":"Linux","password":true,"vac":true,"version":"7742253","steam_id":85568392924742828,"keywords":["cp","nocrits","nodmgspread","uncletopia"],"game_id":440,"stv_port":27086,"stv_name":"Uncletopia | Frankfurt | 8 | Community | STV","players":null},{"server_id":202,"name":"Uncletopia | Hong Kong | 1 | All Maps","name_short":"hgk-1","host":"hgk-1.hk.uncletopia.com","port":27015,"enabled":true,"region":"asia","cc":"hk","latitude":22.302711,"longitude":114.177216,"reserved":0,"last_update":"0001-01-01T00:00:00Z","name_a2s":"Uncletopia | Hong Kong | 1 | All Maps","protocol":17,"map":"pl_upward","folder":"tf","game":"Team Fortress","app_id":440,"player_count":24,"max_players":24,"Bots":0,"server_type":"Dedicated","server_os":"Linux","password":true,"vac":true,"version":"7742253","steam_id":85568392924494504,"keywords":["nocrits","nodmgspread","payload","uncletopia"],"game_id":440,"stv_port":27016,"stv_name":"Uncletopia | Hong Kong | 1 | All Maps | STV","players":[{"user_id":385,"name":"포말양홍원이센스칸예","steam_id":76561199443938682,"connected_time":2129000000000,"state":"active","ping":105},{"user_id":337,"name":":)","steam_id":76561198437941450,"connected_time":4278000000000,"state":"active","ping":74},{"user_id":391,"name":"anim malgo","steam_id":76561198117247378,"connected_time":725000000000,"state":"active","ping":74},{"user_id":382,"name":"Michael Scott","steam_id":76561198023082794,"connected_time":2387000000000,"state":"active","ping":45},{"user_id":397,"name":"FriendlyFortressFighter :)","steam_id":76561199417737666,"connected_time":705000000000,"state":"active","ping":83},{"user_id":398,"name":"uptriste","steam_id":76561198158666692,"connected_time":691000000000,"state":"active","ping":33},{"user_id":350,"name":"conq","steam_id":76561199110124835,"connected_time":4150000000000,"state":"active","ping":135},{"user_id":374,"name":"whea uncorrectable error","steam_id":76561198093997273,"connected_time":2612000000000,"state":"active","ping":38},{"user_id":399,"name":"momosneakeradventure","steam_id":76561199046440440,"connected_time":553000000000,"state":"active","ping":34},{"user_id":381,"name":"r/leroy","steam_id":76561199137927625,"connected_time":2529000000000,"state":"active","ping":93},{"user_id":375,"name":"v1.","steam_id":76561198037571054,"connected_time":2611000000000,"state":"active","ping":38},{"user_id":378,"name":"SINDACCO MELON","steam_id":76561199254288337,"connected_time":2606000000000,"state":"active","ping":85},{"user_id":333,"name":"TomProPlayer","steam_id":76561199223292521,"connected_time":4443000000000,"state":"active","ping":69},{"user_id":379,"name":"lettuce at 58p","steam_id":76561199401283123,"connected_time":2606000000000,"state":"active","ping":87},{"user_id":362,"name":"Momoxhien","steam_id":76561198414997429,"connected_time":2863000000000,"state":"active","ping":63},{"user_id":356,"name":"brizzard","steam_id":76561198048438653,"connected_time":3268000000000,"state":"active","ping":47},{"user_id":358,"name":"Light Rainbow","steam_id":76561198118966673,"connected_time":3091000000000,"state":"active","ping":44},{"user_id":380,"name":"UZ","steam_id":76561198179320563,"connected_time":2602000000000,"state":"active","ping":137},{"user_id":392,"name":"Shades on Goggles","steam_id":76561198406067629,"connected_time":725000000000,"state":"active","ping":55},{"user_id":395,"name":"Vladimir Spencer Pootis","steam_id":76561198144686119,"connected_time":716000000000,"state":"active","ping":67},{"user_id":394,"name":"Batbob","steam_id":76561198999413123,"connected_time":717000000000,"state":"active","ping":72},{"user_id":387,"name":"BAKABAZOOKA","steam_id":76561198061628689,"connected_time":1320000000000,"state":"active","ping":49},{"user_id":396,"name":"screaming sniper","steam_id":76561199085568674,"connected_time":715000000000,"state":"active","ping":78},{"user_id":402,"name":"ɔuᗡඞ ɟƨuᒐ","steam_id":76561199031283970,"connected_time":130000000000,"state":"active","ping":71}]},{"server_id":1,"name":"Uncletopia | Los Angeles | 1 | All Maps","name_short":"lax-1","host":"lax-1.us.uncletopia.com","port":27015,"enabled":true,"region":"us-west","cc":"us","latitude":33.94279,"longitude":-118.41004,"reserved":0,"last_update":"0001-01-01T00:00:00Z","name_a2s":"Uncletopia | Los Angeles | 1 | All Maps","protocol":17,"map":"koth_lakeside_final","folder":"tf","game":"Team Fortress","app_id":440,"player_count":0,"max_players":24,"Bots":0,"server_type":"Dedicated","server_os":"Linux","password":true,"vac":true,"version":"7742253","steam_id":85568392924469991,"keywords":["cp","nocrits","nodmgspread","uncletopia"],"game_id":440,"stv_port":27016,"stv_name":"Uncletopia | Los Angeles | 1 | All Maps | STV","players":null},{"server_id":112,"name":"Uncletopia | Los Angeles | 2 | All Maps","name_short":"lax-2","host":"lax-1.us.uncletopia.com","port":27025,"enabled":true,"region":"us-west","cc":"us","latitude":33.94279,"longitude":-118.41004,"reserved":0,"last_update":"0001-01-01T00:00:00Z","name_a2s":"Uncletopia | Los Angeles | 2 | All Maps","protocol":17,"map":"pl_barnblitz","folder":"tf","game":"Team Fortress","app_id":440,"player_count":24,"max_players":24,"Bots":0,"server_type":"Dedicated","server_os":"Linux","password":true,"vac":true,"version":"7742253","steam_id":85568392924469992,"keywords":["nocrits","nodmgspread","payload","uncletopia"],"game_id":440,"stv_port":27026,"stv_name":"Uncletopia | Los Angeles | 2 | All Maps | STV","players":[{"user_id":447,"name":"Doctor X (Michiko Daemon)","steam_id":76561199106264424,"connected_time":8319000000000,"state":"active","ping":94},{"user_id":522,"name":"DeathSushi","steam_id":76561199156131540,"connected_time":1803000000000,"state":"active","ping":87},{"user_id":534,"name":"SuaveFrenchman","steam_id":76561198043762683,"connected_time":708000000000,"state":"active","ping":52},{"user_id":531,"name":"invb","steam_id":76561197998263914,"connected_time":1408000000000,"state":"active","ping":104},{"user_id":535,"name":"[δ] Delta","steam_id":76561198287190116,"connected_time":524000000000,"state":"active","ping":75},{"user_id":491,"name":"Pacman","steam_id":76561199466007022,"connected_time":4676000000000,"state":"active","ping":51},{"user_id":452,"name":"player 2","steam_id":76561198158952440,"connected_time":8266000000000,"state":"active","ping":67},{"user_id":513,"name":"toki","steam_id":76561199196943730,"connected_time":2655000000000,"state":"active","ping":63},{"user_id":446,"name":"Pog","steam_id":76561198957479336,"connected_time":8320000000000,"state":"active","ping":96},{"user_id":457,"name":"howtobepker","steam_id":76561198115053865,"connected_time":8074000000000,"state":"active","ping":72},{"user_id":448,"name":"kebo","steam_id":76561198237159430,"connected_time":8315000000000,"state":"active","ping":58},{"user_id":536,"name":"The Population of Sweden","steam_id":76561198202201644,"connected_time":115000000000,"state":"active","ping":70},{"user_id":500,"name":"Yukihana","steam_id":76561198348354629,"connected_time":4611000000000,"state":"active","ping":42},{"user_id":454,"name":"Video game victim","steam_id":76561198308017082,"connected_time":8230000000000,"state":"active","ping":78},{"user_id":455,"name":"HELP ME!!!!!!!!!!!!!!!!!!!!","steam_id":76561198069229523,"connected_time":8223000000000,"state":"active","ping":62},{"user_id":524,"name":"Exxon","steam_id":76561198997885594,"connected_time":1700000000000,"state":"active","ping":194},{"user_id":525,"name":"Harold","steam_id":76561198057317770,"connected_time":1654000000000,"state":"active","ping":45},{"user_id":499,"name":"Frontier Psychiatrist","steam_id":76561198038689088,"connected_time":4636000000000,"state":"active","ping":110},{"user_id":521,"name":"fm","steam_id":76561198044703428,"connected_time":2153000000000,"state":"active","ping":58},{"user_id":506,"name":"Joker's Skull","steam_id":76561199185320627,"connected_time":3894000000000,"state":"active","ping":97},{"user_id":527,"name":"Sad Sapling","steam_id":76561198075612150,"connected_time":1612000000000,"state":"active","ping":56},{"user_id":533,"name":"Seriously Bruh","steam_id":76561198070408485,"connected_time":1129000000000,"state":"active","ping":89},{"user_id":530,"name":"thespringbunny","steam_id":76561198453680089,"connected_time":1441000000000,"state":"active","ping":70},{"user_id":501,"name":"Knock on the sky and listen","steam_id":76561198077597130,"connected_time":4463000000000,"state":"active","ping":68}]},{"server_id":324,"name":"Uncletopia | Los Angeles | 3 | All Maps","name_short":"lax-3","host":"lax-1.us.uncletopia.com","port":27035,"enabled":true,"region":"us-west","cc":"us","latitude":33.94279,"longitude":-118.41004,"reserved":0,"last_update":"0001-01-01T00:00:00Z","name_a2s":"Uncletopia | Los Angeles | 3 | All Maps","protocol":17,"map":"pl_swiftwater_final1","folder":"tf","game":"Team Fortress","app_id":440,"player_count":24,"max_players":24,"Bots":0,"server_type":"Dedicated","server_os":"Linux","password":true,"vac":true,"version":"7742253","steam_id":85568392924510198,"keywords":["nocrits","nodmgspread","payload","uncletopia"],"game_id":440,"stv_port":27036,"stv_name":"Uncletopia | Los Angeles | 3 | All Maps | STV","players":[{"user_id":321,"name":"ABC Sweet Soy Sauce","steam_id":76561198964025682,"connected_time":1231000000000,"state":"active","ping":43},{"user_id":332,"name":"LennyClan","steam_id":76561198182959074,"connected_time":686000000000,"state":"active","ping":62},{"user_id":270,"name":"SweetLou","steam_id":76561198064569582,"connected_time":5946000000000,"state":"active","ping":53},{"user_id":320,"name":"Slime the Protogen","steam_id":76561198070632295,"connected_time":1400000000000,"state":"active","ping":169},{"user_id":339,"name":"Brynkiwi","steam_id":76561198052177917,"connected_time":159000000000,"state":"active","ping":63},{"user_id":325,"name":"nolife","steam_id":76561198414300607,"connected_time":1010000000000,"state":"active","ping":52},{"user_id":326,"name":"EvenCoinApple","steam_id":76561198987947291,"connected_time":982000000000,"state":"active","ping":59},{"user_id":342,"name":"The Magic Whip","steam_id":76561198116408865,"connected_time":115000000000,"state":"active","ping":107},{"user_id":340,"name":"Athenara_","steam_id":76561199120696315,"connected_time":149000000000,"state":"active","ping":118},{"user_id":290,"name":"NeoN","steam_id":76561198117608366,"connected_time":4495000000000,"state":"active","ping":192},{"user_id":281,"name":"Frongussy","steam_id":76561197979056451,"connected_time":5203000000000,"state":"active","ping":74},{"user_id":344,"name":"Testicular Torsion","steam_id":76561197968179862,"connected_time":88000000000,"state":"active","ping":65},{"user_id":329,"name":"[PALS] Spookyboots the horrific","steam_id":76561197982140612,"connected_time":798000000000,"state":"active","ping":92},{"user_id":302,"name":"Dylanardo","steam_id":76561198294726950,"connected_time":3561000000000,"state":"active","ping":128},{"user_id":330,"name":"[PALS] THE KRAKEN","steam_id":76561197972070022,"connected_time":757000000000,"state":"active","ping":83},{"user_id":343,"name":"UGLYBUGLY","steam_id":76561198095312764,"connected_time":111000000000,"state":"active","ping":86},{"user_id":277,"name":"self sufficient kitten","steam_id":76561197960592612,"connected_time":5689000000000,"state":"active","ping":75},{"user_id":262,"name":"Arbiter Soul","steam_id":76561198067798973,"connected_time":6692000000000,"state":"active","ping":60},{"user_id":334,"name":"R5-D4","steam_id":76561198025196439,"connected_time":636000000000,"state":"active","ping":74},{"user_id":316,"name":"en.wikipedia.org/wiki/Nae_Nae","steam_id":76561198418288939,"connected_time":1937000000000,"state":"active","ping":54},{"user_id":333,"name":"BackToSchoolAds","steam_id":76561198870281128,"connected_time":682000000000,"state":"active","ping":89},{"user_id":346,"name":"RMBL","steam_id":76561198150137369,"connected_time":29000000000,"state":"active","ping":48},{"user_id":347,"name":"Farmaloo","steam_id":76561198220618020,"connected_time":7000000000,"state":"active","ping":263},{"user_id":279,"name":"butt3r_ LFT","steam_id":76561198156374792,"connected_time":5677000000000,"state":"active","ping":68}]},{"server_id":25,"name":"Uncletopia | Los Angeles | 4 | Stopwatch Beta","name_short":"lax-4","host":"lax-1.us.uncletopia.com","port":27045,"enabled":true,"region":"us-west","cc":"us","latitude":33.94279,"longitude":-118.41004,"reserved":0,"last_update":"0001-01-01T00:00:00Z","name_a2s":"Uncletopia | Los Angeles | 4 | Stopwatch Beta","protocol":17,"map":"pl_borneo","folder":"tf","game":"Team Fortress","app_id":440,"player_count":0,"max_players":24,"Bots":0,"server_type":"Dedicated","server_os":"Linux","password":true,"vac":true,"version":"7742253","steam_id":85568392924510199,"keywords":["nocrits","nodmgspread","payload","uncletopia"],"game_id":440,"stv_port":27046,"stv_name":"Uncletopia | Los Angeles | 4 | Stopwatch Beta | STV","players":null},{"server_id":11,"name":"Uncletopia | London | 1 | All Maps","name_short":"lon-1","host":"lon-1.uk.uncletopia.com","port":27015,"enabled":true,"region":"eu","cc":"gb","latitude":51.509865,"longitude":-0.118092,"reserved":0,"last_update":"0001-01-01T00:00:00Z","name_a2s":"Uncletopia | London | 1 | All Maps","protocol":17,"map":"pl_borneo","folder":"tf","game":"Team Fortress","app_id":440,"player_count":0,"max_players":24,"Bots":0,"server_type":"Dedicated","server_os":"Linux","password":true,"vac":true,"version":"7742253","steam_id":85568392924367362,"keywords":["nocrits","nodmgspread","payload","uncletopia"],"game_id":440,"stv_port":27016,"stv_name":"Uncletopia | London | 1 | All Maps | STV","players":null},{"server_id":114,"name":"Uncletopia | London | 2 | All Maps","name_short":"lon-2","host":"lon-1.uk.uncletopia.com","port":27025,"enabled":true,"region":"eu","cc":"gb","latitude":51.509865,"longitude":-0.118092,"reserved":0,"last_update":"0001-01-01T00:00:00Z","name_a2s":"Uncletopia | London | 2 | All Maps","protocol":17,"map":"pl_upward","folder":"tf","game":"Team Fortress","app_id":440,"player_count":21,"max_players":24,"Bots":0,"server_type":"Dedicated","server_os":"Linux","password":true,"vac":true,"version":"7742253","steam_id":85568392924470941,"keywords":["nocrits","nodmgspread","payload","uncletopia"],"game_id":440,"stv_port":27026,"stv_name":"Uncletopia | London | 2 | All Maps | STV","players":[{"user_id":60,"name":"juicymangoes","steam_id":76561198131670413,"connected_time":3962000000000,"state":"active","ping":60},{"user_id":31,"name":"Lazulura","steam_id":76561198103569919,"connected_time":5882000000000,"state":"active","ping":78},{"user_id":55,"name":"Chad IV","steam_id":76561198107767058,"connected_time":4324000000000,"state":"active","ping":89},{"user_id":101,"name":"Brick","steam_id":76561197993202139,"connected_time":117000000000,"state":"active","ping":49},{"user_id":98,"name":"Poor Fucking Infantry","steam_id":76561198055978522,"connected_time":232000000000,"state":"active","ping":50},{"user_id":35,"name":"MonkeyBOYXD","steam_id":76561198156224952,"connected_time":5590000000000,"state":"active","ping":45},{"user_id":62,"name":"Mega Saturn","steam_id":76561198024750500,"connected_time":3550000000000,"state":"active","ping":79},{"user_id":99,"name":"Gencay","steam_id":76561198973232202,"connected_time":229000000000,"state":"active","ping":92},{"user_id":100,"name":"Wolfie♡","steam_id":76561199081625951,"connected_time":159000000000,"state":"active","ping":75},{"user_id":75,"name":"Making Coffee","steam_id":76561198138281039,"connected_time":2523000000000,"state":"active","ping":64},{"user_id":42,"name":"Fan","steam_id":76561198210792815,"connected_time":5063000000000,"state":"active","ping":74},{"user_id":96,"name":"asetils","steam_id":76561198897732673,"connected_time":346000000000,"state":"active","ping":90},{"user_id":83,"name":"Shlongulator","steam_id":76561198149779201,"connected_time":1931000000000,"state":"active","ping":53},{"user_id":92,"name":"timby","steam_id":76561198094389483,"connected_time":1014000000000,"state":"active","ping":66},{"user_id":46,"name":"Pirateer","steam_id":76561198017114970,"connected_time":4818000000000,"state":"active","ping":42},{"user_id":47,"name":"minn","steam_id":76561198099101232,"connected_time":4778000000000,"state":"active","ping":55},{"user_id":91,"name":"God´s Cock","steam_id":76561198058947923,"connected_time":1214000000000,"state":"active","ping":64},{"user_id":95,"name":"murderwow","steam_id":76561198024566944,"connected_time":500000000000,"state":"active","ping":110},{"user_id":82,"name":"zaza","steam_id":76561198890409949,"connected_time":2154000000000,"state":"active","ping":89},{"user_id":90,"name":"CJ_from_Groove","steam_id":76561198889928743,"connected_time":1375000000000,"state":"active","ping":96},{"user_id":87,"name":"MarioThePlumber","steam_id":76561198314229530,"connected_time":1635000000000,"state":"active","ping":82}]},{"server_id":320,"name":"Uncletopia | London | 3 | All Maps","name_short":"lon-3","host":"lon-1.uk.uncletopia.com","port":27035,"enabled":true,"region":"eu","cc":"gb","latitude":51.509865,"longitude":-0.118092,"reserved":0,"last_update":"0001-01-01T00:00:00Z","name_a2s":"Uncletopia | London | 3 | All Maps","protocol":17,"map":"pl_upward","folder":"tf","game":"Team Fortress","app_id":440,"player_count":0,"max_players":24,"Bots":0,"server_type":"Dedicated","server_os":"Linux","password":true,"vac":true,"version":"7742253","steam_id":85568392924510192,"keywords":["nocrits","nodmgspread","payload","uncletopia"],"game_id":440,"stv_port":27036,"stv_name":"Uncletopia | London | 3 | All Maps | STV","players":null},{"server_id":321,"name":"Uncletopia | London | 4 | All Maps","name_short":"lon-4","host":"lon-1.uk.uncletopia.com","port":27045,"enabled":true,"region":"eu","cc":"gb","latitude":51.509865,"longitude":-0.118092,"reserved":0,"last_update":"0001-01-01T00:00:00Z","name_a2s":"Uncletopia | London | 4 | All Maps","protocol":17,"map":"koth_highpass","folder":"tf","game":"Team Fortress","app_id":440,"player_count":0,"max_players":24,"Bots":0,"server_type":"Dedicated","server_os":"Linux","password":true,"vac":true,"version":"7742253","steam_id":85568392924510193,"keywords":["cp","nocrits","nodmgspread","uncletopia"],"game_id":440,"stv_port":27046,"stv_name":"Uncletopia | London | 4 | All Maps | STV","players":null},{"server_id":21,"name":"Uncletopia | London | 5 | All Maps","name_short":"lon-5","host":"lon-1.uk.uncletopia.com","port":27055,"enabled":true,"region":"eu","cc":"gb","latitude":51.509865,"longitude":-0.118092,"reserved":0,"last_update":"0001-01-01T00:00:00Z","name_a2s":"Uncletopia | London | 5 | All Maps","protocol":17,"map":"pl_frontier_final","folder":"tf","game":"Team Fortress","app_id":440,"player_count":0,"max_players":24,"Bots":0,"server_type":"Dedicated","server_os":"Linux","password":true,"vac":true,"version":"7742253","steam_id":85568392924742829,"keywords":["nocrits","nodmgspread","payload","uncletopia"],"game_id":440,"stv_port":27056,"stv_name":"Uncletopia | London | 5 | All Maps | STV","players":null},{"server_id":22,"name":"Uncletopia | London | 6 | All Maps","name_short":"lon-6","host":"lon-1.uk.uncletopia.com","port":27065,"enabled":true,"region":"eu","cc":"gb","latitude":51.509865,"longitude":-0.118092,"reserved":0,"last_update":"0001-01-01T00:00:00Z","name_a2s":"Uncletopia | London | 6 | All Maps","protocol":17,"map":"cp_dustbowl","folder":"tf","game":"Team Fortress","app_id":440,"player_count":0,"max_players":24,"Bots":0,"server_type":"Dedicated","server_os":"Linux","password":true,"vac":true,"version":"7742253","steam_id":85568392924742830,"keywords":["cp","nocrits","nodmgspread","uncletopia"],"game_id":440,"stv_port":27066,"stv_name":"Uncletopia | London | 6 | All Maps | STV","players":null},{"server_id":40,"name":"Uncletopia | London | 7 | No Payload","name_short":"lon-7","host":"lon-1.uk.uncletopia.com","port":27075,"enabled":true,"region":"eu","cc":"gb","latitude":51.509865,"longitude":-0.118092,"reserved":0,"last_update":"0001-01-01T00:00:00Z","name_a2s":"Uncletopia | London | 7 | No Payload","protocol":17,"map":"koth_viaduct","folder":"tf","game":"Team Fortress","app_id":440,"player_count":0,"max_players":24,"Bots":0,"server_type":"Dedicated","server_os":"Linux","password":true,"vac":true,"version":"7742253","steam_id":85568392924964314,"keywords":["cp","nocrits","nodmgspread","uncletopia"],"game_id":440,"stv_port":27076,"stv_name":"Uncletopia | London | 7 | No Payload | STV","players":null},{"server_id":41,"name":"Uncletopia | London | 8 | Community","name_short":"lon-8","host":"lon-1.uk.uncletopia.com","port":27085,"enabled":true,"region":"eu","cc":"gb","latitude":51.509865,"longitude":-0.118092,"reserved":0,"last_update":"0001-01-01T00:00:00Z","name_a2s":"Uncletopia | London | 8 | Community","protocol":17,"map":"cp_altitude","folder":"tf","game":"Team Fortress","app_id":440,"player_count":0,"max_players":24,"Bots":0,"server_type":"Dedicated","server_os":"Linux","password":true,"vac":true,"version":"7742253","steam_id":85568392924964315,"keywords":["cp","nocrits","nodmgspread","uncletopia"],"game_id":440,"stv_port":27086,"stv_name":"Uncletopia | London | 8 | Community | STV","players":null},{"server_id":300,"name":"Uncletopia | Montréal | 1 | All Maps","name_short":"mtl-1","host":"mtl-1.ca.uncletopia.com","port":27015,"enabled":true,"region":"us-east","cc":"ca","latitude":45.50889,"longitude":-73.56167,"reserved":0,"last_update":"0001-01-01T00:00:00Z","name_a2s":"Uncletopia | Montréal | 1 | All Maps","protocol":17,"map":"pl_snowycoast","folder":"tf","game":"Team Fortress","app_id":440,"player_count":0,"max_players":24,"Bots":0,"server_type":"Dedicated","server_os":"Linux","password":true,"vac":true,"version":"7742253","steam_id":85568392924500087,"keywords":["nocrits","nodmgspread","payload","uncletopia"],"game_id":440,"stv_port":27016,"stv_name":"Uncletopia | Montréal | 1 | All Maps | STV","players":null},{"server_id":301,"name":"Uncletopia | Montréal | 2 | All Maps","name_short":"mtl-2","host":"mtl-1.ca.uncletopia.com","port":27025,"enabled":true,"region":"us-east","cc":"ca","latitude":45.50889,"longitude":-73.56167,"reserved":0,"last_update":"0001-01-01T00:00:00Z","name_a2s":"Uncletopia | Montréal | 2 | All Maps","protocol":17,"map":"koth_highpass","folder":"tf","game":"Team Fortress","app_id":440,"player_count":0,"max_players":24,"Bots":0,"server_type":"Dedicated","server_os":"Linux","password":true,"vac":true,"version":"7742253","steam_id":85568392924500088,"keywords":["cp","nocrits","nodmgspread","uncletopia"],"game_id":440,"stv_port":27026,"stv_name":"Uncletopia | Montréal | 2 | All Maps | STV","players":null},{"server_id":302,"name":"Uncletopia | Montréal | 3 | All Maps","name_short":"mtl-3","host":"mtl-1.ca.uncletopia.com","port":27035,"enabled":true,"region":"us-east","cc":"ca","latitude":45.50889,"longitude":-73.56167,"reserved":0,"last_update":"0001-01-01T00:00:00Z","name_a2s":"Uncletopia | Montréal | 3 | All Maps","protocol":17,"map":"pl_snowycoast","folder":"tf","game":"Team Fortress","app_id":440,"player_count":13,"max_players":24,"Bots":0,"server_type":"Dedicated","server_os":"Linux","password":true,"vac":true,"version":"7742253","steam_id":85568392924500089,"keywords":["nocrits","nodmgspread","payload","uncletopia"],"game_id":440,"stv_port":27036,"stv_name":"Uncletopia | Montréal | 3 | All Maps | STV","players":[{"user_id":196,"name":"wul","steam_id":76561198332704108,"connected_time":1441000000000,"state":"active","ping":64},{"user_id":185,"name":"-W3E- grim10465","steam_id":76561198045698581,"connected_time":3091000000000,"state":"active","ping":41},{"user_id":168,"name":"--_Cook_--","steam_id":76561198080855748,"connected_time":4767000000000,"state":"active","ping":76},{"user_id":159,"name":"C papi","steam_id":76561198027779564,"connected_time":5505000000000,"state":"active","ping":64},{"user_id":158,"name":"Room","steam_id":76561199174579733,"connected_time":5683000000000,"state":"active","ping":56},{"user_id":182,"name":"kezia","steam_id":76561198059815894,"connected_time":3176000000000,"state":"active","ping":44},{"user_id":192,"name":"Piggyfriend1792","steam_id":76561198417956462,"connected_time":2267000000000,"state":"active","ping":126},{"user_id":199,"name":"Carsen","steam_id":76561198225481404,"connected_time":980000000000,"state":"active","ping":63},{"user_id":160,"name":"daemon","steam_id":76561198001541433,"connected_time":5501000000000,"state":"active","ping":60},{"user_id":193,"name":"Emi","steam_id":76561198093997529,"connected_time":2253000000000,"state":"active","ping":59},{"user_id":203,"name":"segway cop","steam_id":76561198225609936,"connected_time":633000000000,"state":"active","ping":58},{"user_id":195,"name":"ricky","steam_id":76561199104521318,"connected_time":2000000000000,"state":"active","ping":46},{"user_id":204,"name":"dzcreeper","steam_id":76561198072250723,"connected_time":623000000000,"state":"active","ping":96}]},{"server_id":303,"name":"Uncletopia | Montréal | 4 | No Payload","name_short":"mtl-4","host":"mtl-1.ca.uncletopia.com","port":27045,"enabled":true,"region":"us-east","cc":"ca","latitude":45.50889,"longitude":-73.56167,"reserved":0,"last_update":"0001-01-01T00:00:00Z","name_a2s":"Uncletopia | Montréal | 4 | No Payload","protocol":17,"map":"koth_nucleus","folder":"tf","game":"Team Fortress","app_id":440,"player_count":0,"max_players":24,"Bots":0,"server_type":"Dedicated","server_os":"Linux","password":true,"vac":true,"version":"7742253","steam_id":85568392924500090,"keywords":["cp","nocrits","nodmgspread","uncletopia"],"game_id":440,"stv_port":27046,"stv_name":"Uncletopia | Montréal | 4 | No Payload | STV","players":null},{"server_id":13,"name":"Uncletopia | New York City | 1 | All Maps","name_short":"nyc-1","host":"nyc-1.us.uncletopia.com","port":27015,"enabled":true,"region":"us-east","cc":"us","latitude":40.73061,"longitude":-73.93524,"reserved":0,"last_update":"0001-01-01T00:00:00Z","name_a2s":"Uncletopia | New York City | 1 | All Maps","protocol":17,"map":"koth_highpass","folder":"tf","game":"Team Fortress","app_id":440,"player_count":0,"max_players":24,"Bots":0,"server_type":"Dedicated","server_os":"Linux","password":true,"vac":true,"version":"7742253","steam_id":85568392924469993,"keywords":["cp","nocrits","nodmgspread","uncletopia"],"game_id":440,"stv_port":27016,"stv_name":"Uncletopia | New York City | 1 | All Maps | STV","players":null},{"server_id":14,"name":"Uncletopia | New York City | 2 | All Maps","name_short":"nyc-2","host":"nyc-1.us.uncletopia.com","port":27025,"enabled":true,"region":"us-east","cc":"us","latitude":40.73061,"longitude":-73.93524,"reserved":0,"last_update":"0001-01-01T00:00:00Z","name_a2s":"Uncletopia | New York City | 2 | All Maps","protocol":17,"map":"pl_barnblitz","folder":"tf","game":"Team Fortress","app_id":440,"player_count":20,"max_players":24,"Bots":0,"server_type":"Dedicated","server_os":"Linux","password":true,"vac":true,"version":"7742253","steam_id":85568392924469994,"keywords":["nocrits","nodmgspread","payload","uncletopia"],"game_id":440,"stv_port":27026,"stv_name":"Uncletopia | New York City | 2 | All Maps | STV","players":[{"user_id":851,"name":"Albino Jellyfish","steam_id":76561198208561097,"connected_time":1065000000000,"state":"active","ping":42},{"user_id":841,"name":"T.tvWizops","steam_id":76561198907030448,"connected_time":2292000000000,"state":"active","ping":60},{"user_id":820,"name":"ObeseLions","steam_id":76561198084095917,"connected_time":4214000000000,"state":"active","ping":65},{"user_id":858,"name":"Herr Müller","steam_id":76561198064876829,"connected_time":188000000000,"state":"active","ping":97},{"user_id":836,"name":"Glitchy stick","steam_id":76561199013429386,"connected_time":3273000000000,"state":"active","ping":59},{"user_id":823,"name":"Big Dragon, Thick Wagon","steam_id":76561198040425096,"connected_time":4092000000000,"state":"active","ping":73},{"user_id":824,"name":"JoānKisaragiⱽ⁰","steam_id":76561199370650064,"connected_time":4051000000000,"state":"active","ping":132},{"user_id":855,"name":"greengun","steam_id":76561198134373465,"connected_time":424000000000,"state":"active","ping":72},{"user_id":856,"name":"watchfull","steam_id":76561198433266742,"connected_time":414000000000,"state":"active","ping":122},{"user_id":850,"name":"n8thegr83008","steam_id":76561198214814260,"connected_time":1316000000000,"state":"active","ping":74},{"user_id":810,"name":"Mr.Momo","steam_id":76561199013406551,"connected_time":5341000000000,"state":"active","ping":73},{"user_id":848,"name":"klaus","steam_id":76561199008634102,"connected_time":1408000000000,"state":"active","ping":90},{"user_id":857,"name":"Rex","steam_id":76561198138365053,"connected_time":413000000000,"state":"active","ping":129},{"user_id":846,"name":"Panthera","steam_id":76561198095641424,"connected_time":1538000000000,"state":"active","ping":76},{"user_id":853,"name":"wristcz","steam_id":76561198381486839,"connected_time":578000000000,"state":"active","ping":149},{"user_id":830,"name":"mammoth!?","steam_id":76561198066881911,"connected_time":3591000000000,"state":"active","ping":73},{"user_id":816,"name":"drifloy","steam_id":76561198153437083,"connected_time":4593000000000,"state":"active","ping":45},{"user_id":834,"name":"peachy","steam_id":76561198026664629,"connected_time":3378000000000,"state":"active","ping":53},{"user_id":835,"name":"Sprial.Prince","steam_id":76561198450813914,"connected_time":3361000000000,"state":"active","ping":90},{"user_id":839,"name":"Kamakura","steam_id":76561198871892477,"connected_time":3158000000000,"state":"active","ping":94}]},{"server_id":15,"name":"Uncletopia | New York City | 3 | Stopwatch Beta","name_short":"nyc-3","host":"nyc-1.us.uncletopia.com","port":27035,"enabled":true,"region":"us-east","cc":"us","latitude":40.73061,"longitude":-73.93524,"reserved":0,"last_update":"0001-01-01T00:00:00Z","name_a2s":"Uncletopia | New York City | 3 | Stopwatch Beta","protocol":17,"map":"workshop/pl_vigil_rc9.ugc1266210012","folder":"tf","game":"Team Fortress","app_id":440,"player_count":0,"max_players":24,"Bots":0,"server_type":"Dedicated","server_os":"Linux","password":true,"vac":true,"version":"7742253","steam_id":85568392924742820,"keywords":["nocrits","nodmgspread","payload","uncletopia"],"game_id":440,"stv_port":27036,"stv_name":"Uncletopia | New York City | 3 | Stopwatch Beta | STV","players":null},{"server_id":16,"name":"Uncletopia | New York City | 4 | Community","name_short":"nyc-4","host":"nyc-1.us.uncletopia.com","port":27045,"enabled":true,"region":"us-east","cc":"us","latitude":40.73061,"longitude":-73.93524,"reserved":0,"last_update":"0001-01-01T00:00:00Z","name_a2s":"Uncletopia | New York City | 4 | Community","protocol":17,"map":"workshop/koth_bagel_rc5.ugc2514036946","folder":"tf","game":"Team Fortress","app_id":440,"player_count":0,"max_players":24,"Bots":0,"server_type":"Dedicated","server_os":"Linux","password":true,"vac":true,"version":"7742253","steam_id":85568392924742821,"keywords":["cp","nocrits","nodmgspread","uncletopia"],"game_id":440,"stv_port":27046,"stv_name":"Uncletopia | New York City | 4 | Community | STV","players":null},{"server_id":142,"name":"Uncletopia | São Paulo | 1 | All Maps","name_short":"sao-1","host":"sao-1.br.uncletopia.com","port":27015,"enabled":true,"region":"sa","cc":"br","latitude":-23.533773,"longitude":-46.62529,"reserved":0,"last_update":"0001-01-01T00:00:00Z","name_a2s":"Uncletopia | São Paulo | 1 | All Maps","protocol":17,"map":"cp_sunshine","folder":"tf","game":"Team Fortress","app_id":440,"player_count":0,"max_players":24,"Bots":0,"server_type":"Dedicated","server_os":"Linux","password":true,"vac":true,"version":"7742253","steam_id":85568392924469996,"keywords":["cp","nocrits","nodmgspread","uncletopia"],"game_id":440,"stv_port":27016,"stv_name":"Uncletopia | São Paulo | 1 | All Maps | STV","players":null},{"server_id":143,"name":"Uncletopia | São Paulo | 2 | All Maps","name_short":"sao-2","host":"sao-2.br.uncletopia.com","port":27015,"enabled":true,"region":"sa","cc":"br","latitude":-23.533773,"longitude":-46.62529,"reserved":0,"last_update":"0001-01-01T00:00:00Z","name_a2s":"Uncletopia | São Paulo | 2 | All Maps","protocol":17,"map":"pl_barnblitz","folder":"tf","game":"Team Fortress","app_id":440,"player_count":0,"max_players":24,"Bots":0,"server_type":"Dedicated","server_os":"Linux","password":true,"vac":true,"version":"7742253","steam_id":85568392924485349,"keywords":["nocrits","nodmgspread","payload","uncletopia"],"game_id":440,"stv_port":27016,"stv_name":"Uncletopia | São Paulo | 2 | All Maps | STV","players":null},{"server_id":7,"name":"Uncletopia | Seattle | 1 | All Maps","name_short":"sea-1","host":"sea-1.us.uncletopia.com","port":27015,"enabled":true,"region":"us-west","cc":"us","latitude":47.608013,"longitude":-122.33517,"reserved":0,"last_update":"0001-01-01T00:00:00Z","name_a2s":"Uncletopia | Seattle | 1 | All Maps","protocol":17,"map":"koth_harvest_final","folder":"tf","game":"Team Fortress","app_id":440,"player_count":22,"max_players":24,"Bots":0,"server_type":"Dedicated","server_os":"Linux","password":true,"vac":true,"version":"7742253","steam_id":85568392924469997,"keywords":["cp","nocrits","nodmgspread","uncletopia"],"game_id":440,"stv_port":27016,"stv_name":"Uncletopia | Seattle | 1 | All Maps | STV","players":[{"user_id":814,"name":"goldhed","steam_id":76561198051751133,"connected_time":3718000000000,"state":"active","ping":56},{"user_id":821,"name":"strong and healthy gamer","steam_id":76561198049489349,"connected_time":3012000000000,"state":"active","ping":57},{"user_id":842,"name":"Ducks","steam_id":76561198130038345,"connected_time":1109000000000,"state":"active","ping":63},{"user_id":809,"name":"rat gets the cheese","steam_id":76561198031234032,"connected_time":4399000000000,"state":"active","ping":94},{"user_id":845,"name":"Leidon","steam_id":76561198078386945,"connected_time":1053000000000,"state":"active","ping":67},{"user_id":825,"name":"demoman","steam_id":76561199389584938,"connected_time":2847000000000,"state":"active","ping":42},{"user_id":728,"name":"Ayayahuasca","steam_id":76561199002906056,"connected_time":9697000000000,"state":"active","ping":46},{"user_id":852,"name":"exephur","steam_id":76561198135763234,"connected_time":260000000000,"state":"active","ping":59},{"user_id":850,"name":"Bagaboned","steam_id":76561198043761335,"connected_time":557000000000,"state":"active","ping":50},{"user_id":834,"name":"sniffy","steam_id":76561198184933255,"connected_time":2195000000000,"state":"active","ping":73},{"user_id":848,"name":"lol dude it's the big slime","steam_id":76561198128164970,"connected_time":832000000000,"state":"active","ping":73},{"user_id":794,"name":"BlueZy","steam_id":76561198059111030,"connected_time":5713000000000,"state":"active","ping":46},{"user_id":731,"name":"Sniff","steam_id":76561198010270922,"connected_time":9662000000000,"state":"active","ping":42},{"user_id":824,"name":"jacix3 [gay wolfgirl]{she/it}","steam_id":76561198205004165,"connected_time":2872000000000,"state":"active","ping":58},{"user_id":838,"name":"bbbbb","steam_id":76561198095480838,"connected_time":2094000000000,"state":"active","ping":45},{"user_id":803,"name":"Mr. Big Quack","steam_id":76561198062219416,"connected_time":4565000000000,"state":"active","ping":75},{"user_id":836,"name":"scarfhero","steam_id":76561198257541502,"connected_time":2154000000000,"state":"active","ping":57},{"user_id":828,"name":"Krow Lincoln (she/her)","steam_id":76561198085410622,"connected_time":2805000000000,"state":"active","ping":61},{"user_id":844,"name":"Tom H.A.N.X","steam_id":76561198061064737,"connected_time":1103000000000,"state":"active","ping":53},{"user_id":853,"name":"p9 delight","steam_id":76561197980280272,"connected_time":206000000000,"state":"active","ping":53},{"user_id":839,"name":"shokie","steam_id":76561197997961542,"connected_time":2017000000000,"state":"active","ping":113},{"user_id":849,"name":"Panic Opossum","steam_id":76561198043838227,"connected_time":830000000000,"state":"active","ping":100}]},{"server_id":119,"name":"Uncletopia | Seattle | 2 | All Maps","name_short":"sea-2","host":"sea-1.us.uncletopia.com","port":27025,"enabled":true,"region":"us-west","cc":"us","latitude":47.608013,"longitude":-122.33517,"reserved":0,"last_update":"0001-01-01T00:00:00Z","name_a2s":"Uncletopia | Seattle | 2 | All Maps","protocol":17,"map":"pl_barnblitz","folder":"tf","game":"Team Fortress","app_id":440,"player_count":0,"max_players":24,"Bots":0,"server_type":"Dedicated","server_os":"Linux","password":true,"vac":true,"version":"7742253","steam_id":85568392924469998,"keywords":["nocrits","nodmgspread","payload","uncletopia"],"game_id":440,"stv_port":27026,"stv_name":"Uncletopia | Seattle | 2 | All Maps | STV","players":null},{"server_id":406,"name":"Uncletopia | Seattle | 3 | Stopwatch Beta","name_short":"sea-3","host":"sea-1.us.uncletopia.com","port":27035,"enabled":true,"region":"us-west","cc":"us","latitude":47.608013,"longitude":-122.33517,"reserved":0,"last_update":"0001-01-01T00:00:00Z","name_a2s":"Uncletopia | Seattle | 3 | Stopwatch Beta","protocol":17,"map":"workshop/pl_badwater_pro_v12.ugc2142942074","folder":"tf","game":"Team Fortress","app_id":440,"player_count":0,"max_players":24,"Bots":0,"server_type":"Dedicated","server_os":"Linux","password":true,"vac":true,"version":"7742253","steam_id":85568392924515217,"keywords":["nocrits","nodmgspread","payload","uncletopia"],"game_id":440,"stv_port":27036,"stv_name":"Uncletopia | Seattle | 3 | Stopwatch Beta | STV","players":null},{"server_id":17,"name":"Uncletopia | San Francisco | 1 | All Maps","name_short":"sfo-1","host":"sfo-1.us.uncletopia.com","port":27015,"enabled":true,"region":"us-west","cc":"us","latitude":37.77397,"longitude":-122.4313,"reserved":0,"last_update":"0001-01-01T00:00:00Z","name_a2s":"Uncletopia | San Francisco | 1 | All Maps","protocol":17,"map":"koth_cascade","folder":"tf","game":"Team Fortress","app_id":440,"player_count":10,"max_players":24,"Bots":0,"server_type":"Dedicated","server_os":"Linux","password":true,"vac":true,"version":"7742253","steam_id":85568392924469999,"keywords":["cp","nocrits","nodmgspread","uncletopia"],"game_id":440,"stv_port":27016,"stv_name":"Uncletopia | San Francisco | 1 | All Maps | STV","players":[{"user_id":50,"name":"Павло Паченко","steam_id":76561198314446564,"connected_time":345000000000,"state":"active","ping":42},{"user_id":41,"name":"kontractkiller","steam_id":76561198083199441,"connected_time":1711000000000,"state":"active","ping":45},{"user_id":42,"name":"I'mHighAFPNW","steam_id":76561198067967924,"connected_time":1697000000000,"state":"active","ping":94},{"user_id":52,"name":"SvicidalBug","steam_id":76561198221390504,"connected_time":207000000000,"state":"active","ping":84},{"user_id":44,"name":"Pyrolimited","steam_id":76561198195455657,"connected_time":1640000000000,"state":"active","ping":81},{"user_id":35,"name":"KnockOutClock","steam_id":76561199436877307,"connected_time":3888000000000,"state":"active","ping":58},{"user_id":43,"name":"PUFFNPASS-PNW","steam_id":76561198344539237,"connected_time":1677000000000,"state":"active","ping":68},{"user_id":46,"name":"Kingcole2022","steam_id":76561198030663950,"connected_time":1288000000000,"state":"active","ping":110},{"user_id":51,"name":"rock gaming","steam_id":76561199402868311,"connected_time":252000000000,"state":"active","ping":65},{"user_id":53,"name":"Vegan Veal","steam_id":76561198123607452,"connected_time":54000000000,"state":"spawning","ping":66}]},{"server_id":18,"name":"Uncletopia | San Francisco | 2 | All Maps","name_short":"sfo-2","host":"sfo-1.us.uncletopia.com","port":27025,"enabled":true,"region":"us-west","cc":"us","latitude":37.77397,"longitude":-122.4313,"reserved":0,"last_update":"0001-01-01T00:00:00Z","name_a2s":"Uncletopia | San Francisco | 2 | All Maps","protocol":17,"map":"koth_highpass","folder":"tf","game":"Team Fortress","app_id":440,"player_count":0,"max_players":24,"Bots":0,"server_type":"Dedicated","server_os":"Linux","password":true,"vac":true,"version":"7742253","steam_id":85568392924470000,"keywords":["cp","nocrits","nodmgspread","uncletopia"],"game_id":440,"stv_port":27026,"stv_name":"Uncletopia | San Francisco | 2 | All Maps | STV","players":null},{"server_id":19,"name":"Uncletopia | San Francisco | 3 | Stopwatch Beta","name_short":"sfo-3","host":"sfo-1.us.uncletopia.com","port":27035,"enabled":true,"region":"us-west","cc":"us","latitude":37.77397,"longitude":-122.4313,"reserved":0,"last_update":"0001-01-01T00:00:00Z","name_a2s":"Uncletopia | San Francisco | 3 | Stopwatch Beta","protocol":17,"map":"workshop/pl_vigil_rc9.ugc1266210012","folder":"tf","game":"Team Fortress","app_id":440,"player_count":0,"max_players":24,"Bots":0,"server_type":"Dedicated","server_os":"Linux","password":true,"vac":true,"version":"7742253","steam_id":85568392924742824,"keywords":["nocrits","nodmgspread","payload","uncletopia"],"game_id":440,"stv_port":27036,"stv_name":"Uncletopia | San Francisco | 3 | Stopwatch Beta | STV","players":null},{"server_id":20,"name":"Uncletopia | San Francisco | 4 | Community","name_short":"sfo-4","host":"sfo-1.us.uncletopia.com","port":27045,"enabled":true,"region":"us-west","cc":"us","latitude":37.77397,"longitude":-122.4313,"reserved":0,"last_update":"0001-01-01T00:00:00Z","name_a2s":"Uncletopia | San Francisco | 4 | Community","protocol":17,"map":"workshop/koth_product_final.ugc454272353","folder":"tf","game":"Team Fortress","app_id":440,"player_count":0,"max_players":24,"Bots":0,"server_type":"Dedicated","server_os":"Linux","password":true,"vac":true,"version":"7742253","steam_id":85568392924742826,"keywords":["cp","nocrits","nodmgspread","uncletopia"],"game_id":440,"stv_port":27046,"stv_name":"Uncletopia | San Francisco | 4 | Community | STV","players":null},{"server_id":141,"name":"Uncletopia | Sydney | 1 | All Maps","name_short":"syd-1","host":"syd-1.au.uncletopia.com","port":27015,"enabled":true,"region":"au","cc":"au","latitude":-33.865143,"longitude":151.2099,"reserved":0,"last_update":"0001-01-01T00:00:00Z","name_a2s":"Uncletopia | Sydney | 1 | All Maps","protocol":17,"map":"pl_rumford_event","folder":"tf","game":"Team Fortress","app_id":440,"player_count":1,"max_players":24,"Bots":0,"server_type":"Dedicated","server_os":"Linux","password":true,"vac":true,"version":"7742253","steam_id":85568392924470001,"keywords":["nocrits","nodmgspread","payload","uncletopia"],"game_id":440,"stv_port":27016,"stv_name":"Uncletopia | Sydney | 1 | All Maps | STV","players":[{"user_id":84,"name":"perturb","steam_id":76561198085124297,"connected_time":369000000000,"state":"active","ping":45}]},{"server_id":123,"name":"Uncletopia | Sydney | 2 | All Maps","name_short":"syd-2","host":"syd-1.au.uncletopia.com","port":27025,"enabled":true,"region":"au","cc":"au","latitude":-33.865143,"longitude":151.2099,"reserved":0,"last_update":"0001-01-01T00:00:00Z","name_a2s":"Uncletopia | Sydney | 2 | All Maps","protocol":17,"map":"pl_upward","folder":"tf","game":"Team Fortress","app_id":440,"player_count":24,"max_players":24,"Bots":0,"server_type":"Dedicated","server_os":"Linux","password":true,"vac":true,"version":"7742253","steam_id":85568392924470002,"keywords":["nocrits","nodmgspread","payload","uncletopia"],"game_id":440,"stv_port":27026,"stv_name":"Uncletopia | Sydney | 2 | All Maps | STV","players":[{"user_id":516,"name":"Pug","steam_id":76561198136794372,"connected_time":1253000000000,"state":"active","ping":49},{"user_id":500,"name":"xbox720","steam_id":76561198452767008,"connected_time":2945000000000,"state":"active","ping":51},{"user_id":526,"name":"Tweet TWEET!!!","steam_id":76561198121637474,"connected_time":554000000000,"state":"active","ping":138},{"user_id":490,"name":"ZaEpicScout205","steam_id":76561198170693338,"connected_time":3409000000000,"state":"active","ping":82},{"user_id":518,"name":"hawk","steam_id":76561198135164277,"connected_time":1225000000000,"state":"active","ping":51},{"user_id":461,"name":"LightningBlock","steam_id":76561198289997742,"connected_time":5125000000000,"state":"active","ping":30},{"user_id":517,"name":"Livid","steam_id":76561198060024585,"connected_time":1250000000000,"state":"active","ping":36},{"user_id":524,"name":"Dusk ᘛ⁐̤ᕐᐷ","steam_id":76561198061998379,"connected_time":725000000000,"state":"active","ping":48},{"user_id":522,"name":"starjunk","steam_id":76561198302670452,"connected_time":1039000000000,"state":"active","ping":56},{"user_id":512,"name":"Macca","steam_id":76561198010207998,"connected_time":1264000000000,"state":"active","ping":55},{"user_id":449,"name":"lofty","steam_id":76561198380588357,"connected_time":5907000000000,"state":"active","ping":66},{"user_id":510,"name":"ziah","steam_id":76561198159375596,"connected_time":1887000000000,"state":"active","ping":55},{"user_id":530,"name":"the rot consumes","steam_id":76561199445490119,"connected_time":351000000000,"state":"active","ping":32},{"user_id":509,"name":"krandlez` (Any/All)","steam_id":76561198044839726,"connected_time":1973000000000,"state":"active","ping":44},{"user_id":496,"name":"Nenguu","steam_id":76561198243952386,"connected_time":3212000000000,"state":"active","ping":71},{"user_id":495,"name":"Dr Rags","steam_id":76561198179481430,"connected_time":3287000000000,"state":"active","ping":91},{"user_id":523,"name":"RBY","steam_id":76561198279663555,"connected_time":872000000000,"state":"active","ping":53},{"user_id":432,"name":"MikkyD","steam_id":76561198043452962,"connected_time":6597000000000,"state":"active","ping":62},{"user_id":431,"name":"zebulon","steam_id":76561198063481761,"connected_time":6703000000000,"state":"active","ping":44},{"user_id":521,"name":"¿eTheRealMe?","steam_id":76561198033297147,"connected_time":1103000000000,"state":"active","ping":101},{"user_id":513,"name":"sherruk","steam_id":76561198075616324,"connected_time":1264000000000,"state":"active","ping":60},{"user_id":525,"name":"Easel (any/all)","steam_id":76561198049213583,"connected_time":713000000000,"state":"active","ping":60},{"user_id":528,"name":"Mouse Balls","steam_id":76561199037470627,"connected_time":541000000000,"state":"active","ping":101}]},{"server_id":395,"name":"Uncletopia | Sydney | 3 | All Maps","name_short":"syd-3","host":"syd-1.au.uncletopia.com","port":27035,"enabled":true,"region":"au","cc":"au","latitude":-33.865143,"longitude":151.2099,"reserved":0,"last_update":"0001-01-01T00:00:00Z","name_a2s":"Uncletopia | Sydney | 3 | All Maps","protocol":17,"map":"koth_viaduct","folder":"tf","game":"Team Fortress","app_id":440,"player_count":0,"max_players":24,"Bots":0,"server_type":"Dedicated","server_os":"Linux","password":true,"vac":true,"version":"7742253","steam_id":85568392925194467,"keywords":["cp","nocrits","nodmgspread","uncletopia"],"game_id":440,"stv_port":27036,"stv_name":"Uncletopia | Sydney | 3 | All Maps | STV","players":null},{"server_id":396,"name":"Uncletopia | Sydney | 4 | All Maps","name_short":"syd-4","host":"syd-1.au.uncletopia.com","port":27045,"enabled":true,"region":"au","cc":"au","latitude":-33.865143,"longitude":151.2099,"reserved":0,"last_update":"0001-01-01T00:00:00Z","name_a2s":"Uncletopia | Sydney | 4 | All Maps","protocol":17,"map":"cp_mountainlab","folder":"tf","game":"Team Fortress","app_id":440,"player_count":0,"max_players":24,"Bots":0,"server_type":"Dedicated","server_os":"Linux","password":true,"vac":true,"version":"7742253","steam_id":85568392925397958,"keywords":["cp","nocrits","nodmgspread","uncletopia"],"game_id":440,"stv_port":27046,"stv_name":"Uncletopia | Sydney | 4 | All Maps | STV","players":null},{"server_id":58,"name":"Uncletopia | Sydney | 5 | Stopwatch Beta","name_short":"syd-5","host":"syd-1.au.uncletopia.com","port":27055,"enabled":true,"region":"au","cc":"au","latitude":-33.865143,"longitude":151.2099,"reserved":0,"last_update":"0001-01-01T00:00:00Z","name_a2s":"Uncletopia | Sydney | 5 | Stopwatch Beta","protocol":17,"map":"workshop/cp_process_f11.ugc2302948105","folder":"tf","game":"Team Fortress","app_id":440,"player_count":0,"max_players":24,"Bots":0,"server_type":"Dedicated","server_os":"Linux","password":true,"vac":true,"version":"7742253","steam_id":85568392925397959,"keywords":["cp","nocrits","nodmgspread","uncletopia"],"game_id":440,"stv_port":27056,"stv_name":"Uncletopia | Sydney | 5 | Stopwatch Beta | STV","players":null},{"server_id":59,"name":"Uncletopia | Sydney | 6 | Community","name_short":"syd-6","host":"syd-1.au.uncletopia.com","port":27065,"enabled":true,"region":"au","cc":"au","latitude":-33.865143,"longitude":151.2099,"reserved":0,"last_update":"0001-01-01T00:00:00Z","name_a2s":"Uncletopia | Sydney | 6 | Community","protocol":17,"map":"workshop/koth_slaughter_rc1.ugc1712845210","folder":"tf","game":"Team Fortress","app_id":440,"player_count":0,"max_players":24,"Bots":0,"server_type":"Dedicated","server_os":"Linux","password":true,"vac":true,"version":"7742253","steam_id":85568392925397960,"keywords":["cp","nocrits","nodmgspread","uncletopia"],"game_id":440,"stv_port":27066,"stv_name":"Uncletopia | Sydney | 6 | Community | STV","players":null},{"server_id":49,"name":"Uncletopia | Warsaw | 1 | All Maps","name_short":"waw-1","host":"waw-1.pl.uncletopia.com","port":27015,"enabled":true,"region":"eu","cc":"pl","latitude":52.2297,"longitude":21.017532,"reserved":0,"last_update":"0001-01-01T00:00:00Z","name_a2s":"","protocol":0,"map":"","folder":"","game":"","app_id":0,"player_count":0,"max_players":0,"Bots":0,"server_type":"","server_os":"","password":false,"vac":false,"version":"","steam_id":0,"keywords":null,"game_id":0,"stv_port":0,"stv_name":"","players":null},{"server_id":50,"name":"Uncletopia | Warsaw | 2 | All Maps","name_short":"waw-2","host":"waw-1.pl.uncletopia.com","port":27025,"enabled":true,"region":"eu","cc":"pl","latitude":52.2297,"longitude":21.017532,"reserved":0,"last_update":"0001-01-01T00:00:00Z","name_a2s":"Uncletopia | Warsaw | 2 | All Maps","protocol":17,"map":"cp_snakewater_final1","folder":"tf","game":"Team Fortress","app_id":440,"player_count":0,"max_players":24,"Bots":0,"server_type":"Dedicated","server_os":"Linux","password":true,"vac":true,"version":"7742253","steam_id":85568392925397851,"keywords":["cp","nocrits","nodmgspread","uncletopia"],"game_id":440,"stv_port":27026,"stv_name":"Uncletopia | Warsaw | 2 | All Maps | STV","players":null},{"server_id":51,"name":"Uncletopia | Warsaw | 3 | All Maps","name_short":"waw-3","host":"waw-1.pl.uncletopia.com","port":27035,"enabled":true,"region":"eu","cc":"pl","latitude":52.2297,"longitude":21.017532,"reserved":0,"last_update":"0001-01-01T00:00:00Z","name_a2s":"Uncletopia | Warsaw | 3 | All Maps","protocol":17,"map":"koth_lakeside_final","folder":"tf","game":"Team Fortress","app_id":440,"player_count":0,"max_players":24,"Bots":0,"server_type":"Dedicated","server_os":"Linux","password":true,"vac":true,"version":"7742253","steam_id":85568392925397852,"keywords":["cp","nocrits","nodmgspread","uncletopia"],"game_id":440,"stv_port":27036,"stv_name":"Uncletopia | Warsaw | 3 | All Maps | STV","players":null},{"server_id":52,"name":"Uncletopia | Warsaw | 4 | All Maps","name_short":"waw-4","host":"waw-1.pl.uncletopia.com","port":27045,"enabled":true,"region":"eu","cc":"pl","latitude":52.2297,"longitude":21.017532,"reserved":0,"last_update":"0001-01-01T00:00:00Z","name_a2s":"Uncletopia | Warsaw | 4 | All Maps","protocol":17,"map":"pl_swiftwater_final1","folder":"tf","game":"Team Fortress","app_id":440,"player_count":8,"max_players":24,"Bots":0,"server_type":"Dedicated","server_os":"Linux","password":true,"vac":true,"version":"7742253","steam_id":85568392925397853,"keywords":["nocrits","nodmgspread","payload","uncletopia"],"game_id":440,"stv_port":27046,"stv_name":"Uncletopia | Warsaw | 4 | All Maps | STV","players":[{"user_id":7,"name":"Hotdog_Gentleman","steam_id":76561199309867837,"connected_time":2808000000000,"state":"active","ping":115},{"user_id":15,"name":"holmes6007","steam_id":76561198200075734,"connected_time":854000000000,"state":"active","ping":111},{"user_id":17,"name":"joona","steam_id":76561198156305446,"connected_time":665000000000,"state":"active","ping":120},{"user_id":16,"name":"Floppa The Slav","steam_id":76561199388080503,"connected_time":745000000000,"state":"active","ping":44},{"user_id":18,"name":"lagzer","steam_id":76561198029295449,"connected_time":584000000000,"state":"active","ping":51},{"user_id":10,"name":"Seuzon","steam_id":76561198416448649,"connected_time":1605000000000,"state":"active","ping":101},{"user_id":20,"name":"leonardini.w #SaveTF2","steam_id":76561199097963071,"connected_time":277000000000,"state":"active","ping":62},{"user_id":21,"name":"autistic luigi","steam_id":76561199218285040,"connected_time":242000000000,"state":"active","ping":47}]},{"server_id":53,"name":"Uncletopia | Warsaw | 5 | Stopwatch Beta","name_short":"waw-5","host":"waw-1.pl.uncletopia.com","port":27055,"enabled":true,"region":"eu","cc":"pl","latitude":52.2297,"longitude":21.017532,"reserved":0,"last_update":"0001-01-01T00:00:00Z","name_a2s":"Uncletopia | Warsaw | 5 | Stopwatch Beta","protocol":17,"map":"pl_swiftwater_final1","folder":"tf","game":"Team Fortress","app_id":440,"player_count":0,"max_players":24,"Bots":0,"server_type":"Dedicated","server_os":"Linux","password":true,"vac":true,"version":"7742253","steam_id":85568392925397854,"keywords":["nocrits","nodmgspread","payload","uncletopia"],"game_id":440,"stv_port":27056,"stv_name":"Uncletopia | Warsaw | 5 | Stopwatch Beta | STV","players":null},{"server_id":54,"name":"Uncletopia | Warsaw | 6 | Community","name_short":"waw-6","host":"waw-1.pl.uncletopia.com","port":27065,"enabled":true,"region":"eu","cc":"pl","latitude":52.2297,"longitude":21.017532,"reserved":0,"last_update":"0001-01-01T00:00:00Z","name_a2s":"Uncletopia | Warsaw | 6 | Community","protocol":17,"map":"koth_highpass","folder":"tf","game":"Team Fortress","app_id":440,"player_count":0,"max_players":24,"Bots":0,"server_type":"Dedicated","server_os":"Linux","password":true,"vac":true,"version":"7742253","steam_id":85568392925397856,"keywords":["cp","nocrits","nodmgspread","uncletopia"],"game_id":440,"stv_port":27066,"stv_name":"Uncletopia | Warsaw | 6 | Community | STV","players":null}]}