{"status":true,"message":"","result":[{"server_id":9,"name":"Uncletopia | Atlanta | 1 | All Maps","name_short":"atl-1","host":"atl-1.us.uncletopia.com","port":27015,"enabled":true,"region":"us-east","cc":"us","latitude":33.753746,"longitude":-84.38633,"reserved":0,"last_update":"0001-01-01T00:00:00Z","name_a2s":"Uncletopia | Atlanta | 1 | All Maps","protocol":17,"map":"koth_viaduct","folder":"tf","game":"Team Fortress","app_id":440,"player_count":1,"max_players":24,"Bots":0,"server_type":"Dedicated","server_os":"Linux","password":true,"vac":true,"version":"7961495","steam_id":85568392924469982,"keywords":["cp","nocrits","nodmgspread","uncletopia"],"game_id":440,"stv_port":27016,"stv_name":"Uncletopia | Atlanta | 1 | All Maps | STV","players":null},{"server_id":104,"name":"Uncletopia | Atlanta | 2 | All Maps","name_short":"atl-2","host":"atl-1.us.uncletopia.com","port":27025,"enabled":true,"region":"us-east","cc":"us","latitude":33.753746,"longitude":-84.38633,"reserved":0,"last_update":"0001-01-01T00:00:00Z","name_a2s":"Uncletopia | Atlanta | 2 | All Maps","protocol":17,"map":"koth_cascade","folder":"tf","game":"Team Fortress","app_id":440,"player_count":1,"max_players":24,"Bots":0,"server_type":"Dedicated","server_os":"Linux","password":true,"vac":true,"version":"7961495","steam_id":85568392924469983,"keywords":["cp","nocrits","nodmgspread","uncletopia"],"game_id":440,"stv_port":27026,"stv_name":"Uncletopia | Atlanta | 2 | All Maps | STV","players":null},{"server_id":400,"name":"Uncletopia | Atlanta | 3 | Stopwatch","name_short":"atl-3","host":"atl-1.us.uncletopia.com","port":27035,"enabled":true,"region":"us-east","cc":"us","latitude":33.753746,"longitude":-84.38633,"reserved":0,"last_update":"0001-01-01T00:00:00Z","name_a2s":"Uncletopia | Atlanta | 3 | Stopwatch","protocol":17,"map":"pl_badwater","folder":"tf","game":"Team Fortress","app_id":440,"player_count":0,"max_players":24,"Bots":0,"server_type":"Dedicated","server_os":"Linux","password":true,"vac":true,"version":"7961495","steam_id":85568392924515187,"keywords":["nocrits","nodmgspread","payload","uncletopia"],"game_id":440,"stv_port":27036,"stv_name":"Uncletopia | Atlanta | 3 | Stopwatch | STV","players":null},{"server_id":401,"name":"Uncletopia | Atlanta | 4 | Community","name_short":"atl-4","host":"atl-1.us.uncletopia.com","port":27045,"enabled":true,"region":"us-east","cc":"us","latitude":33.753746,"longitude":-84.38633,"reserved":0,"last_update":"0001-01-01T00:00:00Z","name_a2s":"Uncletopia | Atlanta | 4 | Community","protocol":17,"map":"cp_sunshine","folder":"tf","game":"Team Fortress","app_id":440,"player_count":0,"max_players":24,"Bots":0,"server_type":"Dedicated","server_os":"Linux","password":true,"vac":true,"version":"7961495","steam_id":85568392924515188,"keywords":["cp","nocrits","nodmgspread","uncletopia"],"game_id":440,"stv_port":27046,"stv_name":"Uncletopia | Atlanta | 4 | Community | STV","players":null},{"server_id":2,"name":"Uncletopia | Chicago | 1 | All Maps","name_short":"chi-1","host":"chi-1.us.uncletopia.com","port":27015,"enabled":true,"region":"us-central","cc":"us","latitude":41.881832,"longitude":-87.62318,"reserved":0,"last_update":"0001-01-01T00:00:00Z","name_a2s":"Uncletopia | Chicago | 1 | All Maps","protocol":17,"map":"pl_badwater","folder":"tf","game":"Team Fortress","app_id":440,"player_count":25,"max_players":24,"Bots":0,"server_type":"Dedicated","server_os":"Linux","password":true,"vac":true,"version":"7961495","steam_id":85568392924469984,"keywords":["nocrits","nodmgspread","payload","uncletopia"],"game_id":440,"stv_port":27016,"stv_name":"Uncletopia | Chicago | 1 | All Maps | STV","players":[{"user_id":317,"name":"Fredfredfood","steam_id":76561198072824802,"connected_time":1552000000000,"state":"active","ping":58},{"user_id":306,"name":"B R O W N","steam_id":76561198084016173,"connected_time":2409000000000,"state":"active","ping":73},{"user_id":327,"name":"Mae","steam_id":76561198085815757,"connected_time":711000000000,"state":"active","ping":71},{"user_id":305,"name":"Maverick","steam_id":76561198322829814,"connected_time":2760000000000,"state":"active","ping":79},{"user_id":330,"name":"Smittywerbenjager-manjenson","steam_id":76561198067060742,"connected_time":619000000000,"state":"active","ping":62},{"user_id":331,"name":"aiden","steam_id":76561198449527009,"connected_time":617000000000,"state":"active","ping":98},{"user_id":318,"name":"oxbudy","steam_id":76561198022120207,"connected_time":1520000000000,"state":"active","ping":62},{"user_id":321,"name":"Jericho von Generico","steam_id":76561198206139559,"connected_time":1318000000000,"state":"active","ping":84},{"user_id":333,"name":"Ras","steam_id":76561198123546775,"connected_time":223000000000,"state":"active","ping":92},{"user_id":324,"name":"mylomalopi","steam_id":76561198354990729,"connected_time":1140000000000,"state":"active","ping":80},{"user_id":312,"name":"LORD CANTI","steam_id":76561198254479725,"connected_time":2018000000000,"state":"active","ping":45},{"user_id":311,"name":"The Juice","steam_id":76561198065307144,"connected_time":2092000000000,"state":"active","ping":75},{"user_id":334,"name":"Smooth, Refreshing Bleach‚Ñ¢","steam_id":76561197981060504,"connected_time":211000000000,"state":"active","ping":49},{"user_id":304,"name":"The Helpful Mute","steam_id":76561198078359985,"connected_time":2863000000000,"state":"active","ping":59},{"user_id":313,"name":"Grandpa 1MinecraftEmpire","steam_id":76561198069046338,"connected_time":1929000000000,"state":"active","ping":68},{"user_id":322,"name":"‚ô• alixei! ‚ô•","steam_id":76561198014557455,"connected_time":1286000000000,"state":"active","ping":56},{"user_id":300,"name":"Primal","steam_id":76561197983118203,"connected_time":3623000000000,"state":"active","ping":78},{"user_id":299,"name":"[SK] Punish ‚ô• ÁâßÊøëÁ∫¢ËéâÊ†ñ","steam_id":76561198207987376,"connected_time":3673000000000,"state":"active","ping":51},{"user_id":326,"name":"mechiimi","steam_id":76561198321627268,"connected_time":888000000000,"state":"active","ping":121},{"user_id":278,"name":"M√£…æ û√≥≈¶ƒß","steam_id":76561198819418878,"connected_time":4570000000000,"state":"active","ping":75},{"user_id":287,"name":"josh","steam_id":76561198077902438,"connected_time":3827000000000,"state":"active","ping":76},{"user_id":328,"name":"Mortal Flame","steam_id":76561198130698418,"connected_time":689000000000,"state":"active","ping":89},{"user_id":335,"name":"freyja","steam_id":76561198249206656,"connected_time":1000000000,"state":"spawning","ping":51},{"user_id":265,"name":"songcreator","steam_id":76561198076822464,"connected_time":5340000000000,"state":"active","ping":50},{"user_id":308,"name":"a fool","steam_id":76561198097857418,"connected_time":2235000000000,"state":"active","ping":103}]},{"server_id":106,"name":"Uncletopia | Chicago | 2 | All Maps","name_short":"chi-2","host":"chi-1.us.uncletopia.com","port":27025,"enabled":true,"region":"us-central","cc":"us","latitude":41.881832,"longitude":-87.62318,"reserved":0,"last_update":"0001-01-01T00:00:00Z","name_a2s":"Uncletopia | Chicago | 2 | All Maps","protocol":17,"map":"koth_sawmill","folder":"tf","game":"Team Fortress","app_id":440,"player_count":24,"max_players":24,"Bots":0,"server_type":"Dedicated","server_os":"Linux","password":true,"vac":true,"version":"7961495","steam_id":85568392924469985,"keywords":["cp","nocrits","nodmgspread","uncletopia"],"game_id":440,"stv_port":27026,"stv_name":"Uncletopia | Chicago | 2 | All Maps | STV","players":[{"user_id":8,"name":"Bobato Chaps","steam_id":76561198065103552,"connected_time":8949000000000,"state":"active","ping":50},{"user_id":97,"name":"qt pa 2t","steam_id":76561198066867150,"connected_time":3106000000000,"state":"active","ping":66},{"user_id":135,"name":"Nukalaunch","steam_id":76561199255653942,"connected_time":296000000000,"state":"active","ping":110},{"user_id":120,"name":"raw chicken enjoyer","steam_id":76561198986943063,"connected_time":591000000000,"state":"active","ping":55},{"user_id":125,"name":"Garfield Expert","steam_id":76561198092452824,"connected_time":572000000000,"state":"active","ping":66},{"user_id":91,"name":"granola","steam_id":76561198349359281,"connected_time":3609000000000,"state":"active","ping":64},{"user_id":136,"name":"Natural stupidity","steam_id":76561198164619692,"connected_time":290000000000,"state":"active","ping":80},{"user_id":95,"name":"fi_ji","steam_id":76561198126087725,"connected_time":3129000000000,"state":"active","ping":69},{"user_id":129,"name":"PoisonIvy","steam_id":76561198072384574,"connected_time":527000000000,"state":"active","ping":55},{"user_id":133,"name":"Zetta","steam_id":76561198045710113,"connected_time":458000000000,"state":"active","ping":116},{"user_id":141,"name":"Moss","steam_id":76561199122200727,"connected_time":74000000000,"state":"active","ping":71},{"user_id":137,"name":"William Wallace","steam_id":76561199343316814,"connected_time":274000000000,"state":"active","ping":74},{"user_id":78,"name":"i suffer from ligma","steam_id":76561199158496518,"connected_time":4783000000000,"state":"active","ping":107},{"user_id":138,"name":"Wagemage","steam_id":76561198013625580,"connected_time":273000000000,"state":"active","ping":60},{"user_id":128,"name":"Bear","steam_id":76561198062949510,"connected_time":549000000000,"state":"active","ping":60},{"user_id":140,"name":"the rizzler","steam_id":76561198012917426,"connected_time":236000000000,"state":"active","ping":70},{"user_id":131,"name":"Don't Fuckle with Shuckle","steam_id":76561199020102367,"connected_time":480000000000,"state":"active","ping":79},{"user_id":132,"name":"evegioyidechadab","steam_id":76561198075991626,"connected_time":475000000000,"state":"active","ping":156},{"user_id":117,"name":"kimchy101","steam_id":76561198202721584,"connected_time":891000000000,"state":"active","ping":55},{"user_id":111,"name":"garbage pale kids","steam_id":76561198121633820,"connected_time":2014000000000,"state":"active","ping":102},{"user_id":118,"name":"::INVEST IN SKYNET::","steam_id":76561198144436132,"connected_time":887000000000,"state":"active","ping":79},{"user_id":77,"name":"Old Man","steam_id":76561198149378517,"connected_time":4797000000000,"state":"active","ping":61},{"user_id":112,"name":"shnowshner","steam_id":76561198066450438,"connected_time":2001000000000,"state":"active","ping":87},{"user_id":139,"name":"dunbar","steam_id":76561198143771806,"connected_time":271000000000,"state":"active","ping":72}]},{"server_id":402,"name":"Uncletopia | Chicago | 3 | All Maps","name_short":"chi-3","host":"chi-1.us.uncletopia.com","port":27035,"enabled":true,"region":"us-central","cc":"us","latitude":41.881832,"longitude":-87.62318,"reserved":0,"last_update":"0001-01-01T00:00:00Z","name_a2s":"Uncletopia | Chicago | 3 | All Maps","protocol":17,"map":"pl_swiftwater_final1","folder":"tf","game":"Team Fortress","app_id":440,"player_count":0,"max_players":24,"Bots":0,"server_type":"Dedicated","server_os":"Linux","password":true,"vac":true,"version":"7961495","steam_id":85568392924515191,"keywords":["nocrits","nodmgspread","payload","uncletopia"],"game_id":440,"stv_port":27036,"stv_name":"Uncletopia | Chicago | 3 | All Maps | STV","players":null},{"server_id":403,"name":"Uncletopia | Chicago | 4 | All Maps","name_short":"chi-4","host":"chi-1.us.uncletopia.com","port":27045,"enabled":true,"region":"us-central","cc":"us","latitude":41.881832,"longitude":-87.62318,"reserved":0,"last_update":"0001-01-01T00:00:00Z","name_a2s":"Uncletopia | Chicago | 4 | All Maps","protocol":17,"map":"koth_cascade","folder":"tf","game":"Team Fortress","app_id":440,"player_count":0,"max_players":24,"Bots":0,"server_type":"Dedicated","server_os":"Linux","password":true,"vac":true,"version":"7961495","steam_id":85568392924515193,"keywords":["cp","nocrits","nodmgspread","uncletopia"],"game_id":440,"stv_port":27046,"stv_name":"Uncletopia | Chicago | 4 | All Maps | STV","players":null},{"server_id":36,"name":"Uncletopia | Chicago | 5 | All Maps","name_short":"chi-5","host":"chi-2.us.uncletopia.com","port":27015,"enabled":true,"region":"us-central","cc":"us","latitude":41.881832,"longitude":-87.62318,"reserved":0,"last_update":"0001-01-01T00:00:00Z","name_a2s":"Uncletopia | Chicago | 5 | All Maps","protocol":17,"map":"koth_viaduct","folder":"tf","game":"Team Fortress","app_id":440,"player_count":0,"max_players":24,"Bots":0,"server_type":"Dedicated","server_os":"Linux","password":true,"vac":true,"version":"7961495","steam_id":85568392924866362,"keywords":["cp","nocrits","nodmgspread","uncletopia"],"game_id":440,"stv_port":27016,"stv_name":"Uncletopia | Chicago | 5 | All Maps | STV","players":null},{"server_id":37,"name":"Uncletopia | Chicago | 6 | All Maps","name_short":"chi-6","host":"chi-2.us.uncletopia.com","port":27025,"enabled":true,"region":"us-central","cc":"us","latitude":41.881832,"longitude":-87.62318,"reserved":0,"last_update":"0001-01-01T00:00:00Z","name_a2s":"Uncletopia | Chicago | 6 | All Maps","protocol":17,"map":"pl_frontier_final","folder":"tf","game":"Team Fortress","app_id":440,"player_count":0,"max_players":24,"Bots":0,"server_type":"Dedicated","server_os":"Linux","password":true,"vac":true,"version":"7961495","steam_id":85568392924866363,"keywords":["nocrits","nodmgspread","payload","uncletopia"],"game_id":440,"stv_port":27026,"stv_name":"Uncletopia | Chicago | 6 | All Maps | STV","players":null},{"server_id":38,"name":"Uncletopia | Chicago | 7 | Stopwatch","name_short":"chi-7","host":"chi-2.us.uncletopia.com","port":27035,"enabled":true,"region":"us-central","cc":"us","latitude":41.881832,"longitude":-87.62318,"reserved":0,"last_update":"0001-01-01T00:00:00Z","name_a2s":"Uncletopia | Chicago | 7 | Stopwatch","protocol":17,"map":"cp_snakewater_final1","folder":"tf","game":"Team Fortress","app_id":440,"player_count":0,"max_players":24,"Bots":0,"server_type":"Dedicated","server_os":"Linux","password":true,"vac":true,"version":"7961495","steam_id":85568392924866364,"keywords":["cp","nocrits","nodmgspread","uncletopia"],"game_id":440,"stv_port":27036,"stv_name":"Uncletopia | Chicago | 7 | Stopwatch | STV","players":null},{"server_id":39,"name":"Uncletopia | Chicago | 8 | Community","name_short":"chi-8","host":"chi-2.us.uncletopia.com","port":27045,"enabled":true,"region":"us-central","cc":"us","latitude":41.881832,"longitude":-87.62318,"reserved":0,"last_update":"0001-01-01T00:00:00Z","name_a2s":"Uncletopia | Chicago | 8 | Community","protocol":17,"map":"workshop/koth_trenchfoot_b1a.ugc731436616","folder":"tf","game":"Team Fortress","app_id":440,"player_count":0,"max_players":24,"Bots":0,"server_type":"Dedicated","server_os":"Linux","password":true,"vac":true,"version":"7961495","steam_id":85568392924866365,"keywords":["cp","nocrits","nodmgspread","uncletopia"],"game_id":440,"stv_port":27046,"stv_name":"Uncletopia | Chicago | 8 | Community | STV","players":null},{"server_id":8,"name":"Uncletopia | Dallas | 1 | All Maps","name_short":"dal-1","host":"dal-1.us.uncletopia.com","port":27015,"enabled":true,"region":"us-central","cc":"us","latitude":32.779167,"longitude":-96.80889,"reserved":0,"last_update":"0001-01-01T00:00:00Z","name_a2s":"Uncletopia | Dallas | 1 | All Maps","protocol":17,"map":"pl_frontier_final","folder":"tf","game":"Team Fortress","app_id":440,"player_count":0,"max_players":24,"Bots":0,"server_type":"Dedicated","server_os":"Linux","password":true,"vac":true,"version":"7961495","steam_id":85568392924469986,"keywords":["nocrits","nodmgspread","payload","uncletopia"],"game_id":440,"stv_port":27016,"stv_name":"Uncletopia | Dallas | 1 | All Maps | STV","players":null},{"server_id":108,"name":"Uncletopia | Dallas | 2 | All Maps","name_short":"dal-2","host":"dal-1.us.uncletopia.com","port":27025,"enabled":true,"region":"us-central","cc":"us","latitude":32.779167,"longitude":-96.80889,"reserved":0,"last_update":"0001-01-01T00:00:00Z","name_a2s":"Uncletopia | Dallas | 2 | All Maps","protocol":17,"map":"koth_highpass","folder":"tf","game":"Team Fortress","app_id":440,"player_count":24,"max_players":24,"Bots":0,"server_type":"Dedicated","server_os":"Linux","password":true,"vac":true,"version":"7961495","steam_id":85568392924469988,"keywords":["cp","nocrits","nodmgspread","uncletopia"],"game_id":440,"stv_port":27026,"stv_name":"Uncletopia | Dallas | 2 | All Maps | STV","players":[{"user_id":280,"name":"Boomer Gaming","steam_id":76561198037803087,"connected_time":819000000000,"state":"active","ping":62},{"user_id":281,"name":"Agent Heavy Bear","steam_id":76561198123395620,"connected_time":766000000000,"state":"active","ping":93},{"user_id":286,"name":"Marik4Pharaoh","steam_id":76561198242353570,"connected_time":687000000000,"state":"active","ping":95},{"user_id":283,"name":"RuinLucky","steam_id":76561199481172481,"connected_time":746000000000,"state":"active","ping":97},{"user_id":255,"name":"Pango","steam_id":76561198069811545,"connected_time":3022000000000,"state":"active","ping":69},{"user_id":284,"name":"Kid named download","steam_id":76561199192074448,"connected_time":716000000000,"state":"active","ping":102},{"user_id":275,"name":"Dr_chilly","steam_id":76561198445383213,"connected_time":1147000000000,"state":"active","ping":97},{"user_id":277,"name":"peep! qki","steam_id":76561198056198168,"connected_time":885000000000,"state":"active","ping":60},{"user_id":285,"name":"A rotting llama corpse","steam_id":76561198140840588,"connected_time":699000000000,"state":"active","ping":69},{"user_id":287,"name":"Gutsavo the Branded  Espadach√≠","steam_id":76561198133608354,"connected_time":637000000000,"state":"active","ping":62},{"user_id":288,"name":"Cyrllo","steam_id":76561198207809512,"connected_time":637000000000,"state":"active","ping":60},{"user_id":265,"name":"Your Dad‚Ñ¢","steam_id":76561198254739340,"connected_time":2267000000000,"state":"active","ping":91},{"user_id":276,"name":"ALDOMLG","steam_id":76561198343776095,"connected_time":892000000000,"state":"active","ping":98},{"user_id":230,"name":"johnny","steam_id":76561198855841242,"connected_time":5855000000000,"state":"active","ping":86},{"user_id":289,"name":"Gaminglast","steam_id":76561198362927765,"connected_time":621000000000,"state":"active","ping":123},{"user_id":290,"name":"meinsword","steam_id":76561198272653535,"connected_time":579000000000,"state":"active","ping":92},{"user_id":219,"name":"the keebler","steam_id":76561199486326945,"connected_time":6497000000000,"state":"active","ping":76},{"user_id":297,"name":"Mellou","steam_id":76561198212048740,"connected_time":46000000000,"state":"spawning","ping":52},{"user_id":292,"name":"aisu","steam_id":76561198043768507,"connected_time":533000000000,"state":"active","ping":91},{"user_id":244,"name":"lynt","steam_id":76561198988333976,"connected_time":4214000000000,"state":"active","ping":59},{"user_id":278,"name":"SES3","steam_id":76561198054380259,"connected_time":885000000000,"state":"active","ping":96},{"user_id":279,"name":"Rat Smoker","steam_id":76561198090419068,"connected_time":882000000000,"state":"active","ping":130},{"user_id":293,"name":"Flying Chemist","steam_id":76561198085039837,"connected_time":507000000000,"state":"active","ping":178},{"user_id":295,"name":"shield","steam_id":76561198976876859,"connected_time":391000000000,"state":"active","ping":84}]},{"server_id":404,"name":"Uncletopia | Dallas | 3 | All Maps","name_short":"dal-3","host":"dal-1.us.uncletopia.com","port":27035,"enabled":true,"region":"us-central","cc":"us","latitude":32.779167,"longitude":-96.80889,"reserved":0,"last_update":"0001-01-01T00:00:00Z","name_a2s":"Uncletopia | Dallas | 3 | All Maps","protocol":17,"map":"pl_swiftwater_final1","folder":"tf","game":"Team Fortress","app_id":440,"player_count":0,"max_players":24,"Bots":0,"server_type":"Dedicated","server_os":"Linux","password":true,"vac":true,"version":"7961495","steam_id":85568392924515219,"keywords":["nocrits","nodmgspread","payload","uncletopia"],"game_id":440,"stv_port":27036,"stv_name":"Uncletopia | Dallas | 3 | All Maps | STV","players":null},{"server_id":405,"name":"Uncletopia | Dallas | 4 | Community","name_short":"dal-4","host":"dal-1.us.uncletopia.com","port":27045,"enabled":true,"region":"us-central","cc":"us","latitude":32.779167,"longitude":-96.80889,"reserved":0,"last_update":"0001-01-01T00:00:00Z","name_a2s":"Uncletopia | Dallas | 4 | Community","protocol":17,"map":"pl_pier","folder":"tf","game":"Team Fortress","app_id":440,"player_count":0,"max_players":24,"Bots":0,"server_type":"Dedicated","server_os":"Linux","password":true,"vac":true,"version":"7961495","steam_id":85568392924515220,"keywords":["nocrits","nodmgspread","payload","uncletopia"],"game_id":440,"stv_port":27046,"stv_name":"Uncletopia | Dallas | 4 | Community | STV","players":null},{"server_id":5,"name":"Uncletopia | Frankfurt | 1 | All Maps","name_short":"frk-1","host":"frk-1.de.uncletopia.com","port":27015,"enabled":true,"region":"eu","cc":"de","latitude":50.110924,"longitude":8.682127,"reserved":0,"last_update":"0001-01-01T00:00:00Z","name_a2s":"Uncletopia | Frankfurt | 1 | All Maps","protocol":17,"map":"cp_dustbowl","folder":"tf","game":"Team Fortress","app_id":440,"player_count":24,"max_players":24,"Bots":0,"server_type":"Dedicated","server_os":"Linux","password":true,"vac":true,"version":"7961495","steam_id":85568392924469989,"keywords":["cp","nocrits","nodmgspread","uncletopia"],"game_id":440,"stv_port":27016,"stv_name":"Uncletopia | Frankfurt | 1 | All Maps | STV","players":[{"user_id":357,"name":"Synth","steam_id":76561198155450360,"connected_time":241000000000,"state":"active","ping":80},{"user_id":360,"name":"ÎßàÏπò","steam_id":76561198263068744,"connected_time":183000000000,"state":"active","ping":118},{"user_id":352,"name":"Mr.TEA","steam_id":76561198014381591,"connected_time":1118000000000,"state":"active","ping":66},{"user_id":322,"name":"Bunnygirl Stalin","steam_id":76561199044101274,"connected_time":2787000000000,"state":"active","ping":68},{"user_id":268,"name":"Chappi","steam_id":76561198075512843,"connected_time":4788000000000,"state":"active","ping":79},{"user_id":356,"name":"ROB","steam_id":76561198982164150,"connected_time":638000000000,"state":"active","ping":78},{"user_id":353,"name":"shoras","steam_id":76561198019680159,"connected_time":1117000000000,"state":"active","ping":84},{"user_id":335,"name":"Osqq :s","steam_id":76561198075465106,"connected_time":2312000000000,"state":"active","ping":66},{"user_id":309,"name":"Lukas","steam_id":76561198454286820,"connected_time":3081000000000,"state":"active","ping":72},{"user_id":347,"name":"Ecton","steam_id":76561198025103720,"connected_time":1364000000000,"state":"active","ping":60},{"user_id":329,"name":"Not A Fake Uncletopia Server","steam_id":76561198152871288,"connected_time":2664000000000,"state":"active","ping":64},{"user_id":363,"name":"VampiuS","steam_id":76561197998827007,"connected_time":12000000000,"state":"spawning","ping":66},{"user_id":330,"name":"WomenBeardLike","steam_id":76561198390184314,"connected_time":2652000000000,"state":"active","ping":65},{"user_id":313,"name":"Haraldxd77","steam_id":76561198802041616,"connected_time":3045000000000,"state":"active","ping":85},{"user_id":362,"name":"biohazard","steam_id":76561198162873354,"connected_time":66000000000,"state":"active","ping":107},{"user_id":355,"name":"AlphaDog","steam_id":76561198110238357,"connected_time":1034000000000,"state":"active","ping":60},{"user_id":338,"name":"booba","steam_id":76561198158018284,"connected_time":1882000000000,"state":"active","ping":56},{"user_id":288,"name":"jjkun786","steam_id":76561199438517484,"connected_time":3686000000000,"state":"active","ping":59},{"user_id":350,"name":"c4ctus","steam_id":76561198925655488,"connected_time":1320000000000,"state":"active","ping":95},{"user_id":332,"name":"Sheen (Khang)","steam_id":76561198371062974,"connected_time":2641000000000,"state":"active","ping":82},{"user_id":181,"name":"üòà COCKDESTROYER üòà","steam_id":76561198042846999,"connected_time":11947000000000,"state":"active","ping":68},{"user_id":336,"name":"Leah Kate","steam_id":76561198974207724,"connected_time":2153000000000,"state":"active","ping":107},{"user_id":351,"name":"pretty dick peso","steam_id":76561198798177799,"connected_time":1273000000000,"state":"active","ping":86},{"user_id":358,"name":"pep","steam_id":76561198207543607,"connected_time":218000000000,"state":"active","ping":70}]},{"server_id":110,"name":"Uncletopia | Frankfurt | 2 | All Maps","name_short":"frk-2","host":"frk-1.de.uncletopia.com","port":27025,"enabled":true,"region":"eu","cc":"de","latitude":50.110924,"longitude":8.682127,"reserved":0,"last_update":"0001-01-01T00:00:00Z","name_a2s":"Uncletopia | Frankfurt | 2 | All Maps","protocol":17,"map":"cp_steel","folder":"tf","game":"Team Fortress","app_id":440,"player_count":24,"max_players":24,"Bots":0,"server_type":"Dedicated","server_os":"Linux","password":true,"vac":true,"version":"7961495","steam_id":85568392924469990,"keywords":["cp","nocrits","nodmgspread","uncletopia"],"game_id":440,"stv_port":27026,"stv_name":"Uncletopia | Frankfurt | 2 | All Maps | STV","players":[{"user_id":423,"name":"Jannisxxl","steam_id":76561198048377916,"connected_time":2911000000000,"state":"active","ping":79},{"user_id":442,"name":"HHH","steam_id":76561199492732323,"connected_time":1438000000000,"state":"active","ping":57},{"user_id":472,"name":"MISTER SUIIII","steam_id":76561198018330092,"connected_time":259000000000,"state":"active","ping":70},{"user_id":451,"name":"King Goomba","steam_id":76561198146467813,"connected_time":1030000000000,"state":"active","ping":75},{"user_id":459,"name":"benifis163","steam_id":76561198420973492,"connected_time":944000000000,"state":"active","ping":93},{"user_id":438,"name":"Palex","steam_id":76561198093219465,"connected_time":1641000000000,"state":"active","ping":55},{"user_id":452,"name":"McMonty","steam_id":76561198028973788,"connected_time":1023000000000,"state":"active","ping":73},{"user_id":474,"name":"meriones","steam_id":76561198034234373,"connected_time":134000000000,"state":"active","ping":59},{"user_id":476,"name":"Laki","steam_id":76561198126078953,"connected_time":66000000000,"state":"active","ping":192},{"user_id":411,"name":"Bostrash641","steam_id":76561199447225685,"connected_time":3554000000000,"state":"active","ping":68},{"user_id":400,"name":"Eujekas","steam_id":76561198010527145,"connected_time":3799000000000,"state":"active","ping":93},{"user_id":467,"name":"sex havin'","steam_id":76561198169857427,"connected_time":467000000000,"state":"active","ping":95},{"user_id":475,"name":"ÍßÅ‡ºíXenon‡ºíÍßÇ","steam_id":76561198120502313,"connected_time":95000000000,"state":"active","ping":90},{"user_id":439,"name":"toy elf","steam_id":76561198089655018,"connected_time":1600000000000,"state":"active","ping":85},{"user_id":443,"name":"Katealyst","steam_id":76561198331215039,"connected_time":1435000000000,"state":"active","ping":62},{"user_id":448,"name":"Tree","steam_id":76561198054795379,"connected_time":1169000000000,"state":"active","ping":53},{"user_id":434,"name":"t.tv/Montreetor","steam_id":76561198088729562,"connected_time":1720000000000,"state":"active","ping":53},{"user_id":460,"name":"Nakano","steam_id":76561198866569125,"connected_time":902000000000,"state":"active","ping":74},{"user_id":471,"name":"zinzyk","steam_id":76561198128011822,"connected_time":279000000000,"state":"active","ping":58},{"user_id":457,"name":"CLIF Bar Blueberry Crisp","steam_id":76561198060339391,"connected_time":1003000000000,"state":"active","ping":44},{"user_id":433,"name":"Tobi Kool","steam_id":76561198421707721,"connected_time":1866000000000,"state":"active","ping":82},{"user_id":449,"name":"D√•vid","steam_id":76561198184135755,"connected_time":1116000000000,"state":"active","ping":61},{"user_id":458,"name":"Brick Of Beans","steam_id":76561198828750755,"connected_time":998000000000,"state":"active","ping":60},{"user_id":462,"name":"Yodie","steam_id":76561198338197020,"connected_time":869000000000,"state":"active","ping":60}]},{"server_id":308,"name":"Uncletopia | Frankfurt | 3 | All Maps","name_short":"frk-3","host":"frk-1.de.uncletopia.com","port":27035,"enabled":true,"region":"eu","cc":"de","latitude":50.110924,"longitude":8.682127,"reserved":0,"last_update":"0001-01-01T00:00:00Z","name_a2s":"Uncletopia | Frankfurt | 3 | All Maps","protocol":17,"map":"pl_barnblitz","folder":"tf","game":"Team Fortress","app_id":440,"player_count":24,"max_players":24,"Bots":0,"server_type":"Dedicated","server_os":"Linux","password":true,"vac":true,"version":"7961495","steam_id":85568392924504274,"keywords":["nocrits","nodmgspread","payload","uncletopia"],"game_id":440,"stv_port":27036,"stv_name":"Uncletopia | Frankfurt | 3 | All Maps | STV","players":[{"user_id":298,"name":"Alice_Neko","steam_id":76561198411388911,"connected_time":526000000000,"state":"active","ping":121},{"user_id":303,"name":"BLOB","steam_id":76561198027371300,"connected_time":123000000000,"state":"active","ping":65},{"user_id":289,"name":"Waluigi","steam_id":76561199070474380,"connected_time":1351000000000,"state":"active","ping":86},{"user_id":296,"name":"mp1mp2mp3","steam_id":76561198088967665,"connected_time":661000000000,"state":"active","ping":90},{"user_id":279,"name":"LemonLeCitron","steam_id":76561198215545267,"connected_time":2253000000000,"state":"active","ping":75},{"user_id":297,"name":"Sir William Gaming","steam_id":76561198037676472,"connected_time":661000000000,"state":"active","ping":84},{"user_id":277,"name":"Ozzie","steam_id":76561197992915315,"connected_time":2772000000000,"state":"active","ping":75},{"user_id":224,"name":"RainbowLlama","steam_id":76561198132079405,"connected_time":4567000000000,"state":"active","ping":56},{"user_id":275,"name":"Roland Deschain","steam_id":76561198023296355,"connected_time":2862000000000,"state":"active","ping":101},{"user_id":232,"name":"Baklava Enjoyer","steam_id":76561198990679631,"connected_time":4211000000000,"state":"active","ping":63},{"user_id":287,"name":"hejko","steam_id":76561198963293449,"connected_time":1593000000000,"state":"active","ping":67},{"user_id":300,"name":"Dakeyras","steam_id":76561198057069564,"connected_time":421000000000,"state":"active","ping":114},{"user_id":172,"name":"gucio","steam_id":76561198133682151,"connected_time":7724000000000,"state":"active","ping":68},{"user_id":293,"name":"an idiot","steam_id":76561198172542535,"connected_time":862000000000,"state":"active","ping":71},{"user_id":285,"name":"quarks and stuff","steam_id":76561198137869662,"connected_time":1905000000000,"state":"active","ping":99},{"user_id":233,"name":"DaviX","steam_id":76561198345406679,"connected_time":4180000000000,"state":"active","ping":91},{"user_id":216,"name":"Oceanic | tuesday maybe","steam_id":76561197979741827,"connected_time":5497000000000,"state":"active","ping":72},{"user_id":299,"name":"Dr. Pickle Brains","steam_id":76561198169426623,"connected_time":494000000000,"state":"active","ping":81},{"user_id":290,"name":"Sex Man TF2","steam_id":76561198798657045,"connected_time":1350000000000,"state":"active","ping":98},{"user_id":252,"name":"Lucan","steam_id":76561198219195135,"connected_time":3606000000000,"state":"active","ping":54},{"user_id":257,"name":"2D","steam_id":76561199113659141,"connected_time":3534000000000,"state":"active","ping":125},{"user_id":295,"name":"Silver","steam_id":76561198175238807,"connected_time":743000000000,"state":"active","ping":63},{"user_id":283,"name":"please do not the cat","steam_id":76561198089003514,"connected_time":1987000000000,"state":"active","ping":45},{"user_id":286,"name":"Kaktus_kak","steam_id":76561198250938524,"connected_time":1896000000000,"state":"active","ping":56}]},{"server_id":309,"name":"Uncletopia | Frankfurt | 4 | All Maps","name_short":"frk-4","host":"frk-1.de.uncletopia.com","port":27045,"enabled":true,"region":"eu","cc":"de","latitude":50.110924,"longitude":8.682127,"reserved":0,"last_update":"0001-01-01T00:00:00Z","name_a2s":"Uncletopia | Frankfurt | 4 | All Maps","protocol":17,"map":"pl_snowycoast","folder":"tf","game":"Team Fortress","app_id":440,"player_count":24,"max_players":24,"Bots":0,"server_type":"Dedicated","server_os":"Linux","password":true,"vac":true,"version":"7961495","steam_id":85568392924504275,"keywords":["nocrits","nodmgspread","payload","uncletopia"],"game_id":440,"stv_port":27046,"stv_name":"Uncletopia | Frankfurt | 4 | All Maps | STV","players":[{"user_id":378,"name":"Mads Mikkelsen","steam_id":76561198083482001,"connected_time":553000000000,"state":"active","ping":55},{"user_id":339,"name":"Micha≈Ç","steam_id":76561198320346362,"connected_time":3421000000000,"state":"active","ping":68},{"user_id":357,"name":"Flohr","steam_id":76561198191948841,"connected_time":2005000000000,"state":"active","ping":59},{"user_id":361,"name":"Cookies and Bakies","steam_id":76561198017442928,"connected_time":1402000000000,"state":"active","ping":56},{"user_id":325,"name":"Aven","steam_id":76561198974343597,"connected_time":4245000000000,"state":"active","ping":89},{"user_id":346,"name":"modavak","steam_id":76561198946290908,"connected_time":2780000000000,"state":"active","ping":90},{"user_id":379,"name":"THE Grosser","steam_id":76561197995530666,"connected_time":495000000000,"state":"active","ping":52},{"user_id":380,"name":"Masa","steam_id":76561198343396172,"connected_time":461000000000,"state":"active","ping":99},{"user_id":336,"name":"wasto-/-‚Ñ¢","steam_id":76561198102888038,"connected_time":3476000000000,"state":"active","ping":51},{"user_id":363,"name":"Kompot","steam_id":76561198281613592,"connected_time":1334000000000,"state":"active","ping":70},{"user_id":306,"name":"tequila sunset","steam_id":76561198315969106,"connected_time":5787000000000,"state":"active","ping":91},{"user_id":383,"name":"I jazzed myself","steam_id":76561198203016603,"connected_time":291000000000,"state":"active","ping":89},{"user_id":381,"name":"t0ast","steam_id":76561198141722573,"connected_time":445000000000,"state":"active","ping":46},{"user_id":365,"name":"3L","steam_id":76561198007208996,"connected_time":1311000000000,"state":"active","ping":45},{"user_id":269,"name":"Solid","steam_id":76561198357049292,"connected_time":8931000000000,"state":"active","ping":87},{"user_id":386,"name":"Fandovec03","steam_id":76561198252567650,"connected_time":126000000000,"state":"active","ping":50},{"user_id":375,"name":"Redmailbox","steam_id":76561198042930322,"connected_time":1047000000000,"state":"active","ping":60},{"user_id":384,"name":"Zm4j","steam_id":76561198259465946,"connected_time":283000000000,"state":"active","ping":75},{"user_id":348,"name":"gx71","steam_id":76561198035112358,"connected_time":2620000000000,"state":"active","ping":61},{"user_id":358,"name":"Hey, I¬¥m Andy!","steam_id":76561198060337777,"connected_time":1975000000000,"state":"active","ping":98},{"user_id":371,"name":"sBLOCKER  85","steam_id":76561198939078994,"connected_time":1221000000000,"state":"active","ping":139},{"user_id":352,"name":"Dr. Jabbinton","steam_id":76561198180007387,"connected_time":2299000000000,"state":"active","ping":52},{"user_id":377,"name":"a freakin' knight","steam_id":76561198371341044,"connected_time":920000000000,"state":"active","ping":138},{"user_id":356,"name":"‚Ä†ùî•e œâoo","steam_id":76561198929808815,"connected_time":2055000000000,"state":"active","ping":46}]},{"server_id":310,"name":"Uncletopia | Frankfurt | 5 | All Maps","name_short":"frk-5","host":"frk-1.de.uncletopia.com","port":27055,"enabled":true,"region":"eu","cc":"de","latitude":50.110924,"longitude":8.682127,"reserved":0,"last_update":"0001-01-01T00:00:00Z","name_a2s":"Uncletopia | Frankfurt | 5 | All Maps","protocol":17,"map":"cp_mercenarypark","folder":"tf","game":"Team Fortress","app_id":440,"player_count":24,"max_players":24,"Bots":0,"server_type":"Dedicated","server_os":"Linux","password":true,"vac":true,"version":"7961495","steam_id":85568392924504277,"keywords":["cp","nocrits","nodmgspread","uncletopia"],"game_id":440,"stv_port":27056,"stv_name":"Uncletopia | Frankfurt | 5 | All Maps | STV","players":[{"user_id":479,"name":"Dyld","steam_id":76561197979603871,"connected_time":433000000000,"state":"active","ping":60},{"user_id":419,"name":"norespectforthedevil","steam_id":76561197998922218,"connected_time":4778000000000,"state":"active","ping":91},{"user_id":395,"name":"ScoutPilgrim","steam_id":76561198013007215,"connected_time":5811000000000,"state":"active","ping":52},{"user_id":478,"name":"prot√´in","steam_id":76561197998423616,"connected_time":748000000000,"state":"active","ping":76},{"user_id":443,"name":"the one who grips","steam_id":76561198381106289,"connected_time":2791000000000,"state":"active","ping":76},{"user_id":435,"name":"Hexagon","steam_id":76561198151205758,"connected_time":3934000000000,"state":"active","ping":48},{"user_id":468,"name":"Matt","steam_id":76561198173692559,"connected_time":1272000000000,"state":"active","ping":76},{"user_id":469,"name":"Nanope","steam_id":76561198040056071,"connected_time":1270000000000,"state":"active","ping":63},{"user_id":445,"name":"glyph","steam_id":76561197980736364,"connected_time":2770000000000,"state":"active","ping":76},{"user_id":480,"name":"Dolcelatte","steam_id":76561198038501770,"connected_time":412000000000,"state":"active","ping":49},{"user_id":464,"name":"LOBZIK","steam_id":76561198114830120,"connected_time":1461000000000,"state":"active","ping":78},{"user_id":446,"name":"Qwerty","steam_id":76561198023525894,"connected_time":2750000000000,"state":"active","ping":118},{"user_id":470,"name":"my mom","steam_id":76561199225201569,"connected_time":1257000000000,"state":"active","ping":146},{"user_id":471,"name":"Raph","steam_id":76561198154800858,"connected_time":1239000000000,"state":"active","ping":63},{"user_id":452,"name":"GoatLord1","steam_id":76561198157964544,"connected_time":2339000000000,"state":"active","ping":62},{"user_id":463,"name":"Seal Mask","steam_id":76561198111462976,"connected_time":1483000000000,"state":"active","ping":77},{"user_id":487,"name":"Dominus Di Spiritus","steam_id":76561198200488383,"connected_time":73000000000,"state":"active","ping":71},{"user_id":455,"name":"Solymr ibn Wali Barad","steam_id":76561198044008976,"connected_time":2231000000000,"state":"active","ping":73},{"user_id":415,"name":"Mr. Mundy","steam_id":76561198132008918,"connected_time":5035000000000,"state":"active","ping":78},{"user_id":477,"name":"Jabussy","steam_id":76561198111148719,"connected_time":794000000000,"state":"active","ping":70},{"user_id":482,"name":"theodorc68","steam_id":76561199250592158,"connected_time":391000000000,"state":"active","ping":69},{"user_id":484,"name":"XiaBit","steam_id":76561199204102465,"connected_time":278000000000,"state":"active","ping":70},{"user_id":483,"name":"Will - no sound","steam_id":76561198173329977,"connected_time":385000000000,"state":"active","ping":71},{"user_id":486,"name":"GaryTheGuy2","steam_id":76561198979436926,"connected_time":207000000000,"state":"active","ping":114}]},{"server_id":311,"name":"Uncletopia | Frankfurt | 6 | All Maps","name_short":"frk-6","host":"frk-1.de.uncletopia.com","port":27065,"enabled":true,"region":"eu","cc":"de","latitude":50.110924,"longitude":8.682127,"reserved":0,"last_update":"0001-01-01T00:00:00Z","name_a2s":"Uncletopia | Frankfurt | 6 | All Maps","protocol":17,"map":"pl_pier","folder":"tf","game":"Team Fortress","app_id":440,"player_count":24,"max_players":24,"Bots":0,"server_type":"Dedicated","server_os":"Linux","password":true,"vac":true,"version":"7961495","steam_id":85568392924504278,"keywords":["nocrits","nodmgspread","payload","uncletopia"],"game_id":440,"stv_port":27066,"stv_name":"Uncletopia | Frankfurt | 6 | All Maps | STV","players":[{"user_id":341,"name":"Thors","steam_id":76561197968739075,"connected_time":224000000000,"state":"active","ping":45},{"user_id":342,"name":"Miquel128","steam_id":76561198274955794,"connected_time":41000000000,"state":"active","ping":82},{"user_id":324,"name":"cof","steam_id":76561199128417805,"connected_time":1398000000000,"state":"active","ping":66},{"user_id":293,"name":"_Alonso","steam_id":76561198041893314,"connected_time":2769000000000,"state":"active","ping":48},{"user_id":338,"name":"Qdarks","steam_id":76561198013391340,"connected_time":544000000000,"state":"active","ping":179},{"user_id":325,"name":"Eggy_The_Tyrone","steam_id":76561198036857277,"connected_time":1373000000000,"state":"active","ping":57},{"user_id":318,"name":"jerry","steam_id":76561199180176442,"connected_time":1780000000000,"state":"active","ping":55},{"user_id":237,"name":"Chronicles of Nornia","steam_id":76561198040509712,"connected_time":5263000000000,"state":"active","ping":59},{"user_id":289,"name":"Caliban","steam_id":76561197999696839,"connected_time":3192000000000,"state":"active","ping":114},{"user_id":336,"name":"cazador","steam_id":76561198123096922,"connected_time":643000000000,"state":"active","ping":89},{"user_id":343,"name":"Erection Man","steam_id":76561198021714542,"connected_time":39000000000,"state":"active","ping":61},{"user_id":312,"name":"‡πñ€£€úSir Robbiewolf","steam_id":76561198001357988,"connected_time":1911000000000,"state":"active","ping":70},{"user_id":330,"name":"FoOzTV","steam_id":76561197998636728,"connected_time":991000000000,"state":"active","ping":73},{"user_id":229,"name":"gaming time","steam_id":76561197971182017,"connected_time":5899000000000,"state":"active","ping":75},{"user_id":337,"name":"M Knighton","steam_id":76561199187764012,"connected_time":643000000000,"state":"active","ping":135},{"user_id":339,"name":"Duxxy","steam_id":76561198086796116,"connected_time":351000000000,"state":"active","ping":72},{"user_id":321,"name":"Mr.O","steam_id":76561198039567498,"connected_time":1629000000000,"state":"active","ping":64},{"user_id":344,"name":"TJ1212","steam_id":76561199013575313,"connected_time":21000000000,"state":"active","ping":61},{"user_id":304,"name":"Luuk","steam_id":76561198088266026,"connected_time":2255000000000,"state":"active","ping":57},{"user_id":292,"name":"Donki Wonki","steam_id":76561198327761273,"connected_time":3009000000000,"state":"active","ping":73},{"user_id":329,"name":"Pdawgdavis02","steam_id":76561199209633860,"connected_time":1055000000000,"state":"active","ping":167},{"user_id":202,"name":"El Gato Volador","steam_id":76561198021296882,"connected_time":7582000000000,"state":"active","ping":82},{"user_id":327,"name":"Maranhadas","steam_id":76561198152856761,"connected_time":1327000000000,"state":"active","ping":177},{"user_id":333,"name":"Sprite790856","steam_id":76561198440389325,"connected_time":820000000000,"state":"active","ping":167}]},{"server_id":23,"name":"Uncletopia | Frankfurt | 7 | Stopwatch","name_short":"frk-7","host":"frk-1.de.uncletopia.com","port":27075,"enabled":true,"region":"eu","cc":"de","latitude":50.110924,"longitude":8.682127,"reserved":0,"last_update":"0001-01-01T00:00:00Z","name_a2s":"Uncletopia | Frankfurt | 7 | Stopwatch","protocol":17,"map":"workshop/koth_product_final.ugc454272353","folder":"tf","game":"Team Fortress","app_id":440,"player_count":4,"max_players":24,"Bots":0,"server_type":"Dedicated","server_os":"Linux","password":true,"vac":true,"version":"7961495","steam_id":85568392924742827,"keywords":["cp","nocrits","nodmgspread","uncletopia"],"game_id":440,"stv_port":27076,"stv_name":"Uncletopia | Frankfurt | 7 | Stopwatch | STV","players":[{"user_id":53,"name":"Rez","steam_id":76561198410598772,"connected_time":252000000000,"state":"active","ping":45},{"user_id":48,"name":"Barmen","steam_id":76561198151904189,"connected_time":1014000000000,"state":"active","ping":104},{"user_id":49,"name":"Jeffrey Harpen","steam_id":76561199073314677,"connected_time":749000000000,"state":"active","ping":69},{"user_id":50,"name":"Darkf065","steam_id":76561199029257202,"connected_time":735000000000,"state":"active","ping":105}]},{"server_id":24,"name":"Uncletopia | Frankfurt | 8 | Community","name_short":"frk-8","host":"frk-1.de.uncletopia.com","port":27085,"enabled":true,"region":"eu","cc":"de","latitude":50.110924,"longitude":8.682127,"reserved":0,"last_update":"0001-01-01T00:00:00Z","name_a2s":"Uncletopia | Frankfurt | 8 | Community","protocol":17,"map":"workshop/pl_cactuscanyon_redux_final2.ugc2579644293","folder":"tf","game":"Team Fortress","app_id":440,"player_count":20,"max_players":24,"Bots":0,"server_type":"Dedicated","server_os":"Linux","password":true,"vac":true,"version":"7961495","steam_id":85568392924742828,"keywords":["nocrits","nodmgspread","payload","uncletopia"],"game_id":440,"stv_port":27086,"stv_name":"Uncletopia | Frankfurt | 8 | Community | STV","players":[{"user_id":105,"name":"Volt","steam_id":76561198237074532,"connected_time":847000000000,"state":"active","ping":103},{"user_id":90,"name":"Girlboy Theenie","steam_id":76561198029025500,"connected_time":1195000000000,"state":"active","ping":68},{"user_id":116,"name":"NothingMan","steam_id":76561198051284446,"connected_time":21000000000,"state":"spawning","ping":183},{"user_id":96,"name":"akakez","steam_id":76561198095432821,"connected_time":983000000000,"state":"active","ping":111},{"user_id":117,"name":"JazzMaster","steam_id":76561198204524845,"connected_time":1000000000,"state":"connecting","ping":0},{"user_id":42,"name":"joachym","steam_id":76561198428579761,"connected_time":3862000000000,"state":"active","ping":62},{"user_id":87,"name":"Maoma112","steam_id":76561199012536447,"connected_time":1570000000000,"state":"active","ping":80},{"user_id":77,"name":"üó°üó°üó°","steam_id":76561198427247304,"connected_time":2316000000000,"state":"active","ping":86},{"user_id":99,"name":"Alyx","steam_id":76561198064654326,"connected_time":933000000000,"state":"active","ping":54},{"user_id":83,"name":"Nox Equites","steam_id":76561198115438449,"connected_time":1845000000000,"state":"active","ping":92},{"user_id":65,"name":"monsieur sex","steam_id":76561198057215355,"connected_time":2527000000000,"state":"active","ping":71},{"user_id":69,"name":"Turek","steam_id":76561198280066503,"connected_time":2440000000000,"state":"active","ping":72},{"user_id":103,"name":"Garry_G","steam_id":76561198362834902,"connected_time":868000000000,"state":"active","ping":72},{"user_id":110,"name":"I Don't Know","steam_id":76561198841011430,"connected_time":675000000000,"state":"active","ping":75},{"user_id":104,"name":"zoinks!","steam_id":76561198068645362,"connected_time":854000000000,"state":"active","ping":45},{"user_id":112,"name":"Dark Wizart","steam_id":76561198377689439,"connected_time":641000000000,"state":"active","ping":67},{"user_id":91,"name":"alphareroooo","steam_id":76561198380799823,"connected_time":1162000000000,"state":"active","ping":68},{"user_id":88,"name":"Crispy Nugget Boy","steam_id":76561198256869589,"connected_time":1516000000000,"state":"active","ping":167},{"user_id":80,"name":"Axewo","steam_id":76561198986249074,"connected_time":2230000000000,"state":"active","ping":45},{"user_id":107,"name":"Amandus","steam_id":76561198036281079,"connected_time":812000000000,"state":"active","ping":59}]},{"server_id":202,"name":"Uncletopia | Hong Kong | 1 | All Maps","name_short":"hgk-1","host":"hgk-1.hk.uncletopia.com","port":27015,"enabled":true,"region":"asia","cc":"hk","latitude":22.302711,"longitude":114.177216,"reserved":0,"last_update":"0001-01-01T00:00:00Z","name_a2s":"Uncletopia | Hong Kong | 1 | All Maps","protocol":17,"map":"cp_mountainlab","folder":"tf","game":"Team Fortress","app_id":440,"player_count":0,"max_players":24,"Bots":0,"server_type":"Dedicated","server_os":"Linux","password":true,"vac":true,"version":"7961495","steam_id":85568392924494504,"keywords":["cp","nocrits","nodmgspread","uncletopia"],"game_id":440,"stv_port":27016,"stv_name":"Uncletopia | Hong Kong | 1 | All Maps | STV","players":null},{"server_id":1,"name":"Uncletopia | Los Angeles | 1 | All Maps","name_short":"lax-1","host":"lax-1.us.uncletopia.com","port":27015,"enabled":true,"region":"us-west","cc":"us","latitude":33.94279,"longitude":-118.41004,"reserved":0,"last_update":"0001-01-01T00:00:00Z","name_a2s":"Uncletopia | Los Angeles | 1 | All Maps","protocol":17,"map":"koth_highpass","folder":"tf","game":"Team Fortress","app_id":440,"player_count":0,"max_players":24,"Bots":0,"server_type":"Dedicated","server_os":"Linux","password":true,"vac":true,"version":"7961495","steam_id":85568392924469991,"keywords":["cp","nocrits","nodmgspread","uncletopia"],"game_id":440,"stv_port":27016,"stv_name":"Uncletopia | Los Angeles | 1 | All Maps | STV","players":null},{"server_id":112,"name":"Uncletopia | Los Angeles | 2 | All Maps","name_short":"lax-2","host":"lax-1.us.uncletopia.com","port":27025,"enabled":true,"region":"us-west","cc":"us","latitude":33.94279,"longitude":-118.41004,"reserved":0,"last_update":"0001-01-01T00:00:00Z","name_a2s":"Uncletopia | Los Angeles | 2 | All Maps","protocol":17,"map":"pl_badwater","folder":"tf","game":"Team Fortress","app_id":440,"player_count":24,"max_players":24,"Bots":0,"server_type":"Dedicated","server_os":"Linux","password":true,"vac":true,"version":"7961495","steam_id":85568392924469992,"keywords":["nocrits","nodmgspread","payload","uncletopia"],"game_id":440,"stv_port":27026,"stv_name":"Uncletopia | Los Angeles | 2 | All Maps | STV","players":[{"user_id":74,"name":"Bibleboy","steam_id":76561198049289869,"connected_time":80000000000,"state":"active","ping":119},{"user_id":65,"name":"Matisguy","steam_id":76561199020903681,"connected_time":959000000000,"state":"active","ping":87},{"user_id":7,"name":"dudescore","steam_id":76561199091453555,"connected_time":4649000000000,"state":"active","ping":63},{"user_id":42,"name":"DiscoTraveler","steam_id":76561199240168088,"connected_time":3133000000000,"state":"active","ping":102},{"user_id":61,"name":"SenTreats","steam_id":76561198085835841,"connected_time":1447000000000,"state":"active","ping":65},{"user_id":43,"name":"bL1nk","steam_id":76561198232213192,"connected_time":2952000000000,"state":"active","ping":86},{"user_id":11,"name":"Coffeemelon","steam_id":76561198285891257,"connected_time":4265000000000,"state":"active","ping":70},{"user_id":77,"name":"strabes","steam_id":76561197961480297,"connected_time":14000000000,"state":"active","ping":47},{"user_id":46,"name":"Apollo","steam_id":76561198162364702,"connected_time":2686000000000,"state":"active","ping":76},{"user_id":70,"name":"muffinoos","steam_id":76561199063285268,"connected_time":768000000000,"state":"active","ping":87},{"user_id":57,"name":"Soupcan","steam_id":76561198012807915,"connected_time":1591000000000,"state":"active","ping":100},{"user_id":69,"name":"albert jones","steam_id":76561198404271005,"connected_time":826000000000,"state":"active","ping":54},{"user_id":48,"name":"some nerd","steam_id":76561198297272878,"connected_time":2132000000000,"state":"active","ping":41},{"user_id":72,"name":"Unemployed","steam_id":76561199127423378,"connected_time":553000000000,"state":"active","ping":59},{"user_id":75,"name":"Le Big Spoon","steam_id":76561198835388940,"connected_time":63000000000,"state":"active","ping":51},{"user_id":66,"name":"deuce.souls","steam_id":76561198811179132,"connected_time":901000000000,"state":"active","ping":72},{"user_id":49,"name":"McLovin","steam_id":76561198114934503,"connected_time":2113000000000,"state":"active","ping":85},{"user_id":59,"name":"dudeguypersonmanhombre","steam_id":76561198052016845,"connected_time":1537000000000,"state":"active","ping":88},{"user_id":73,"name":"mega","steam_id":76561198089520959,"connected_time":444000000000,"state":"active","ping":118},{"user_id":35,"name":"The Great Eagle Scourge of 1822","steam_id":76561198325086209,"connected_time":3382000000000,"state":"active","ping":59},{"user_id":56,"name":"Melaza Madera","steam_id":76561199031977210,"connected_time":1722000000000,"state":"active","ping":91},{"user_id":67,"name":"cheesebro","steam_id":76561198002072852,"connected_time":898000000000,"state":"active","ping":48},{"user_id":71,"name":"johan","steam_id":76561198881144114,"connected_time":727000000000,"state":"active","ping":76},{"user_id":68,"name":"Jade Jetts [She/They]","steam_id":76561198206130076,"connected_time":887000000000,"state":"active","ping":62}]},{"server_id":324,"name":"Uncletopia | Los Angeles | 3 | All Maps","name_short":"lax-3","host":"lax-1.us.uncletopia.com","port":27035,"enabled":true,"region":"us-west","cc":"us","latitude":33.94279,"longitude":-118.41004,"reserved":0,"last_update":"0001-01-01T00:00:00Z","name_a2s":"Uncletopia | Los Angeles | 3 | All Maps","protocol":17,"map":"pl_frontier_final","folder":"tf","game":"Team Fortress","app_id":440,"player_count":0,"max_players":24,"Bots":0,"server_type":"Dedicated","server_os":"Linux","password":true,"vac":true,"version":"7961495","steam_id":85568392924510198,"keywords":["nocrits","nodmgspread","payload","uncletopia"],"game_id":440,"stv_port":27036,"stv_name":"Uncletopia | Los Angeles | 3 | All Maps | STV","players":null},{"server_id":25,"name":"Uncletopia | Los Angeles | 4 | Stopwatch","name_short":"lax-4","host":"lax-1.us.uncletopia.com","port":27045,"enabled":true,"region":"us-west","cc":"us","latitude":33.94279,"longitude":-118.41004,"reserved":0,"last_update":"0001-01-01T00:00:00Z","name_a2s":"Uncletopia | Los Angeles | 4 | Stopwatch","protocol":17,"map":"cp_gullywash_final1","folder":"tf","game":"Team Fortress","app_id":440,"player_count":0,"max_players":24,"Bots":0,"server_type":"Dedicated","server_os":"Linux","password":true,"vac":true,"version":"7961495","steam_id":85568392924510199,"keywords":["cp","nocrits","nodmgspread","uncletopia"],"game_id":440,"stv_port":27046,"stv_name":"Uncletopia | Los Angeles | 4 | Stopwatch | STV","players":null},{"server_id":11,"name":"Uncletopia | London | 1 | All Maps","name_short":"lon-1","host":"lon-1.uk.uncletopia.com","port":27015,"enabled":true,"region":"eu","cc":"gb","latitude":51.509865,"longitude":-0.118092,"reserved":0,"last_update":"0001-01-01T00:00:00Z","name_a2s":"Uncletopia | London | 1 | All Maps","protocol":17,"map":"pl_swiftwater_final1","folder":"tf","game":"Team Fortress","app_id":440,"player_count":24,"max_players":24,"Bots":0,"server_type":"Dedicated","server_os":"Linux","password":true,"vac":true,"version":"7961495","steam_id":85568392924367362,"keywords":["nocrits","nodmgspread","payload","uncletopia"],"game_id":440,"stv_port":27016,"stv_name":"Uncletopia | London | 1 | All Maps | STV","players":[{"user_id":400,"name":"Bl√•haj enjoyer","steam_id":76561198035037830,"connected_time":2235000000000,"state":"active","ping":54},{"user_id":383,"name":"face beautiful lies","steam_id":76561198079277466,"connected_time":3143000000000,"state":"active","ping":60},{"user_id":416,"name":"Clown","steam_id":76561198074657015,"connected_time":449000000000,"state":"active","ping":71},{"user_id":414,"name":"Asfreild","steam_id":76561198055901120,"connected_time":659000000000,"state":"active","ping":72},{"user_id":413,"name":"Brem","steam_id":76561198202349485,"connected_time":1010000000000,"state":"active","ping":74},{"user_id":402,"name":"Misza","steam_id":76561198163928904,"connected_time":1753000000000,"state":"active","ping":36},{"user_id":367,"name":"Alter","steam_id":76561199135934698,"connected_time":4797000000000,"state":"active","ping":89},{"user_id":382,"name":"yup that extream78711","steam_id":76561198106049954,"connected_time":3225000000000,"state":"active","ping":145},{"user_id":384,"name":"Without warning","steam_id":76561199383437138,"connected_time":3068000000000,"state":"active","ping":128},{"user_id":420,"name":"here widdle wabbit‚Ä¶ come here","steam_id":76561198190583242,"connected_time":256000000000,"state":"active","ping":80},{"user_id":415,"name":"Archer","steam_id":76561197994239444,"connected_time":616000000000,"state":"active","ping":108},{"user_id":411,"name":"YARrICk.¬´+¬ª","steam_id":76561197990126485,"connected_time":1087000000000,"state":"active","ping":59},{"user_id":424,"name":"static","steam_id":76561198836825741,"connected_time":49000000000,"state":"active","ping":54},{"user_id":410,"name":"spy main 69420","steam_id":76561199437330739,"connected_time":1091000000000,"state":"active","ping":64},{"user_id":394,"name":"‚òÖGluse Maruse","steam_id":76561198153753031,"connected_time":2649000000000,"state":"active","ping":69},{"user_id":403,"name":"GoblinGaming","steam_id":76561198360395476,"connected_time":1565000000000,"state":"active","ping":52},{"user_id":387,"name":"enine","steam_id":76561198890193313,"connected_time":2807000000000,"state":"active","ping":62},{"user_id":412,"name":"Powercart352","steam_id":76561197965181449,"connected_time":1086000000000,"state":"active","ping":61},{"user_id":380,"name":"Pantroglodytestherapy","steam_id":76561198236015392,"connected_time":3628000000000,"state":"active","ping":118},{"user_id":377,"name":"Tummy","steam_id":76561198045654910,"connected_time":3836000000000,"state":"active","ping":48},{"user_id":417,"name":"Trapezoid","steam_id":76561198059369295,"connected_time":443000000000,"state":"active","ping":69},{"user_id":397,"name":"RLCrazyCat3","steam_id":76561197983757878,"connected_time":2380000000000,"state":"active","ping":68},{"user_id":421,"name":"halow","steam_id":76561198061505163,"connected_time":156000000000,"state":"active","ping":107},{"user_id":422,"name":"FilipeLuk","steam_id":76561198150675438,"connected_time":155000000000,"state":"active","ping":71}]},{"server_id":114,"name":"Uncletopia | London | 2 | All Maps","name_short":"lon-2","host":"lon-1.uk.uncletopia.com","port":27025,"enabled":true,"region":"eu","cc":"gb","latitude":51.509865,"longitude":-0.118092,"reserved":0,"last_update":"0001-01-01T00:00:00Z","name_a2s":"Uncletopia | London | 2 | All Maps","protocol":17,"map":"koth_cascade","folder":"tf","game":"Team Fortress","app_id":440,"player_count":0,"max_players":24,"Bots":0,"server_type":"Dedicated","server_os":"Linux","password":true,"vac":true,"version":"7961495","steam_id":85568392924470941,"keywords":["cp","nocrits","nodmgspread","uncletopia"],"game_id":440,"stv_port":27026,"stv_name":"Uncletopia | London | 2 | All Maps | STV","players":null},{"server_id":320,"name":"Uncletopia | London | 3 | All Maps","name_short":"lon-3","host":"lon-1.uk.uncletopia.com","port":27035,"enabled":true,"region":"eu","cc":"gb","latitude":51.509865,"longitude":-0.118092,"reserved":0,"last_update":"0001-01-01T00:00:00Z","name_a2s":"Uncletopia | London | 3 | All Maps","protocol":17,"map":"pl_swiftwater_final1","folder":"tf","game":"Team Fortress","app_id":440,"player_count":24,"max_players":24,"Bots":0,"server_type":"Dedicated","server_os":"Linux","password":true,"vac":true,"version":"7961495","steam_id":85568392924510192,"keywords":["nocrits","nodmgspread","payload","uncletopia"],"game_id":440,"stv_port":27036,"stv_name":"Uncletopia | London | 3 | All Maps | STV","players":[{"user_id":249,"name":"fence_","steam_id":76561198150386379,"connected_time":1638000000000,"state":"active","ping":47},{"user_id":235,"name":"Tempest FIN","steam_id":76561198311021830,"connected_time":2923000000000,"state":"active","ping":94},{"user_id":254,"name":"JoCo","steam_id":76561198291368657,"connected_time":965000000000,"state":"active","ping":60},{"user_id":252,"name":"Caruzon - Obismal","steam_id":76561198036211170,"connected_time":972000000000,"state":"active","ping":81},{"user_id":182,"name":"Sovyo","steam_id":76561198320623299,"connected_time":5089000000000,"state":"active","ping":53},{"user_id":253,"name":"frosty","steam_id":76561198094560834,"connected_time":969000000000,"state":"active","ping":53},{"user_id":263,"name":"clunk","steam_id":76561198836460767,"connected_time":856000000000,"state":"active","ping":74},{"user_id":255,"name":"R8N - Obismal","steam_id":76561198007482714,"connected_time":964000000000,"state":"active","ping":76},{"user_id":267,"name":"ghenios","steam_id":76561198030011207,"connected_time":574000000000,"state":"active","ping":90},{"user_id":256,"name":"Tekky‚òª","steam_id":76561197990987315,"connected_time":957000000000,"state":"active","ping":41},{"user_id":246,"name":"Pogi820","steam_id":76561198320573568,"connected_time":1786000000000,"state":"active","ping":104},{"user_id":262,"name":"ËôæÊâØËõã.Lonely","steam_id":76561198022989560,"connected_time":873000000000,"state":"active","ping":54},{"user_id":228,"name":"Pegamenis","steam_id":76561198097054422,"connected_time":3058000000000,"state":"active","ping":73},{"user_id":251,"name":"cowb√∂y","steam_id":76561198048990716,"connected_time":1126000000000,"state":"active","ping":100},{"user_id":258,"name":"Ê±ü„ÉéÂ≥∂ÁõæÂ≠ê","steam_id":76561198248239796,"connected_time":952000000000,"state":"active","ping":60},{"user_id":259,"name":"coella","steam_id":76561198442803577,"connected_time":947000000000,"state":"active","ping":63},{"user_id":260,"name":"___U_w_U___","steam_id":76561198246939740,"connected_time":917000000000,"state":"active","ping":92},{"user_id":157,"name":"[HOL] Solringen","steam_id":76561198003584681,"connected_time":7189000000000,"state":"active","ping":78},{"user_id":261,"name":"Kierak","steam_id":76561198178455893,"connected_time":909000000000,"state":"active","ping":66},{"user_id":234,"name":"LOKKI","steam_id":76561198259022887,"connected_time":2959000000000,"state":"active","ping":78},{"user_id":247,"name":"CNTRL","steam_id":76561199125803827,"connected_time":1760000000000,"state":"active","ping":69},{"user_id":266,"name":"Spurt","steam_id":76561198078523852,"connected_time":670000000000,"state":"active","ping":50},{"user_id":243,"name":"Massmarine","steam_id":76561198038696531,"connected_time":2287000000000,"state":"active","ping":119},{"user_id":248,"name":"i will the cat","steam_id":76561198095560087,"connected_time":1759000000000,"state":"active","ping":79}]},{"server_id":321,"name":"Uncletopia | London | 4 | All Maps","name_short":"lon-4","host":"lon-1.uk.uncletopia.com","port":27045,"enabled":true,"region":"eu","cc":"gb","latitude":51.509865,"longitude":-0.118092,"reserved":0,"last_update":"0001-01-01T00:00:00Z","name_a2s":"Uncletopia | London | 4 | All Maps","protocol":17,"map":"pl_swiftwater_final1","folder":"tf","game":"Team Fortress","app_id":440,"player_count":24,"max_players":24,"Bots":0,"server_type":"Dedicated","server_os":"Linux","password":true,"vac":true,"version":"7961495","steam_id":85568392924510193,"keywords":["nocrits","nodmgspread","payload","uncletopia"],"game_id":440,"stv_port":27046,"stv_name":"Uncletopia | London | 4 | All Maps | STV","players":[{"user_id":413,"name":"Pvt. Prinny","steam_id":76561198030278562,"connected_time":1645000000000,"state":"active","ping":44},{"user_id":359,"name":"Dat Fat Cat","steam_id":76561198058652558,"connected_time":4710000000000,"state":"active","ping":37},{"user_id":279,"name":"Voxel","steam_id":76561199225333422,"connected_time":9167000000000,"state":"active","ping":50},{"user_id":414,"name":"Ascended Noob","steam_id":76561198079411460,"connected_time":1579000000000,"state":"active","ping":52},{"user_id":415,"name":"neophyte78","steam_id":76561198010009076,"connected_time":1543000000000,"state":"active","ping":55},{"user_id":435,"name":"Racco","steam_id":76561198198855238,"connected_time":157000000000,"state":"active","ping":60},{"user_id":364,"name":"mohemmedmokhter2005","steam_id":76561199197650506,"connected_time":4455000000000,"state":"active","ping":121},{"user_id":434,"name":"Not Sussy Tanuki","steam_id":76561198137289375,"connected_time":171000000000,"state":"active","ping":102},{"user_id":392,"name":"Carter","steam_id":76561198005243938,"connected_time":3094000000000,"state":"active","ping":60},{"user_id":402,"name":"MoudyGiboun54","steam_id":76561199123530913,"connected_time":2169000000000,"state":"active","ping":141},{"user_id":436,"name":"Jankyo","steam_id":76561198083339492,"connected_time":150000000000,"state":"active","ping":155},{"user_id":412,"name":"Goblin Tinkerer","steam_id":76561199195214616,"connected_time":1656000000000,"state":"active","ping":52},{"user_id":432,"name":"=SKINNY PENIS=","steam_id":76561198923721645,"connected_time":214000000000,"state":"active","ping":90},{"user_id":424,"name":"Someone","steam_id":76561199030195879,"connected_time":751000000000,"state":"active","ping":45},{"user_id":429,"name":"shr","steam_id":76561198449852071,"connected_time":365000000000,"state":"active","ping":44},{"user_id":426,"name":"Dommy","steam_id":76561197990864747,"connected_time":617000000000,"state":"active","ping":60},{"user_id":417,"name":"the_Qcumber","steam_id":76561199152515819,"connected_time":1494000000000,"state":"active","ping":81},{"user_id":437,"name":"BonnieDrag","steam_id":76561199149216429,"connected_time":148000000000,"state":"active","ping":79},{"user_id":425,"name":"Na'vi Misato (by popular demand","steam_id":76561198130860698,"connected_time":688000000000,"state":"active","ping":57},{"user_id":419,"name":"Foo.","steam_id":76561198000013666,"connected_time":1465000000000,"state":"active","ping":62},{"user_id":405,"name":"Luciat","steam_id":76561198114216087,"connected_time":2102000000000,"state":"active","ping":43},{"user_id":438,"name":"Vinhal Keller","steam_id":76561198145589528,"connected_time":112000000000,"state":"active","ping":58},{"user_id":289,"name":"‚ôÇ Animan ‚ôÇ Studios ‚ôÇ","steam_id":76561198308302932,"connected_time":8805000000000,"state":"active","ping":113},{"user_id":439,"name":"KODE","steam_id":76561198053212394,"connected_time":68000000000,"state":"active","ping":72}]},{"server_id":21,"name":"Uncletopia | London | 5 | All Maps","name_short":"lon-5","host":"lon-1.uk.uncletopia.com","port":27055,"enabled":true,"region":"eu","cc":"gb","latitude":51.509865,"longitude":-0.118092,"reserved":0,"last_update":"0001-01-01T00:00:00Z","name_a2s":"Uncletopia | London | 5 | All Maps","protocol":17,"map":"pl_frontier_final","folder":"tf","game":"Team Fortress","app_id":440,"player_count":21,"max_players":24,"Bots":0,"server_type":"Dedicated","server_os":"Linux","password":true,"vac":true,"version":"7961495","steam_id":85568392924742829,"keywords":["nocrits","nodmgspread","payload","uncletopia"],"game_id":440,"stv_port":27056,"stv_name":"Uncletopia | London | 5 | All Maps | STV","players":[{"user_id":357,"name":"Daemon","steam_id":76561198007015109,"connected_time":14000000000,"state":"active","ping":51},{"user_id":358,"name":"Lyell","steam_id":76561198350329389,"connected_time":10000000000,"state":"active","ping":81},{"user_id":327,"name":"Huh?","steam_id":76561199013532401,"connected_time":1513000000000,"state":"active","ping":97},{"user_id":307,"name":"rets_","steam_id":76561198061551392,"connected_time":3595000000000,"state":"active","ping":60},{"user_id":345,"name":"t.tv/soarfps","steam_id":76561198010662796,"connected_time":612000000000,"state":"active","ping":58},{"user_id":355,"name":"imrealylazy","steam_id":76561198878574518,"connected_time":191000000000,"state":"active","ping":74},{"user_id":322,"name":"traff","steam_id":76561198199834531,"connected_time":2016000000000,"state":"active","ping":53},{"user_id":349,"name":"Pierdu","steam_id":76561198028705770,"connected_time":324000000000,"state":"active","ping":66},{"user_id":359,"name":"None","steam_id":76561198255506492,"connected_time":6000000000,"state":"spawning","ping":123},{"user_id":353,"name":"Akkie.","steam_id":76561198017619091,"connected_time":257000000000,"state":"active","ping":67},{"user_id":319,"name":"ScampSixteen","steam_id":76561198021771000,"connected_time":2849000000000,"state":"active","ping":53},{"user_id":335,"name":"Binkle {Femboi}","steam_id":76561199184000174,"connected_time":1182000000000,"state":"active","ping":47},{"user_id":311,"name":"Chocolate Orange","steam_id":76561198134952872,"connected_time":3537000000000,"state":"active","ping":84},{"user_id":336,"name":"Mark Johnson","steam_id":76561198218293684,"connected_time":1181000000000,"state":"active","ping":67},{"user_id":343,"name":"Superhoovy","steam_id":76561198272561730,"connected_time":991000000000,"state":"active","ping":66},{"user_id":351,"name":"Nag","steam_id":76561197970488206,"connected_time":306000000000,"state":"active","ping":74},{"user_id":344,"name":"cryptidTD","steam_id":76561199094314945,"connected_time":639000000000,"state":"active","ping":56},{"user_id":339,"name":"tf2 snake","steam_id":76561198193971167,"connected_time":1146000000000,"state":"active","ping":68},{"user_id":321,"name":"Phat","steam_id":76561198272293356,"connected_time":2143000000000,"state":"active","ping":67},{"user_id":312,"name":"Max Power","steam_id":76561198019269089,"connected_time":3527000000000,"state":"active","ping":59},{"user_id":340,"name":"Lone Stranger","steam_id":76561198994639500,"connected_time":1131000000000,"state":"active","ping":98}]},{"server_id":22,"name":"Uncletopia | London | 6 | All Maps","name_short":"lon-6","host":"lon-1.uk.uncletopia.com","port":27065,"enabled":true,"region":"eu","cc":"gb","latitude":51.509865,"longitude":-0.118092,"reserved":0,"last_update":"0001-01-01T00:00:00Z","name_a2s":"Uncletopia | London | 6 | All Maps","protocol":17,"map":"koth_highpass","folder":"tf","game":"Team Fortress","app_id":440,"player_count":0,"max_players":24,"Bots":0,"server_type":"Dedicated","server_os":"Linux","password":true,"vac":true,"version":"7961495","steam_id":85568392924742830,"keywords":["cp","nocrits","nodmgspread","uncletopia"],"game_id":440,"stv_port":27066,"stv_name":"Uncletopia | London | 6 | All Maps | STV","players":null},{"server_id":40,"name":"Uncletopia | London | 7 | Stopwatch","name_short":"lon-7","host":"lon-1.uk.uncletopia.com","port":27075,"enabled":true,"region":"eu","cc":"gb","latitude":51.509865,"longitude":-0.118092,"reserved":0,"last_update":"0001-01-01T00:00:00Z","name_a2s":"Uncletopia | London | 7 | Stopwatch","protocol":17,"map":"workshop/koth_ramjam_rc1.ugc459778887","folder":"tf","game":"Team Fortress","app_id":440,"player_count":0,"max_players":24,"Bots":0,"server_type":"Dedicated","server_os":"Linux","password":true,"vac":true,"version":"7961495","steam_id":85568392924964314,"keywords":["cp","nocrits","nodmgspread","uncletopia"],"game_id":440,"stv_port":27076,"stv_name":"Uncletopia | London | 7 | Stopwatch | STV","players":null},{"server_id":41,"name":"Uncletopia | London | 8 | Community","name_short":"lon-8","host":"lon-1.uk.uncletopia.com","port":27085,"enabled":true,"region":"eu","cc":"gb","latitude":51.509865,"longitude":-0.118092,"reserved":0,"last_update":"0001-01-01T00:00:00Z","name_a2s":"Uncletopia | London | 8 | Community","protocol":17,"map":"workshop/koth_kemptown_rc1.ugc767410655","folder":"tf","game":"Team Fortress","app_id":440,"player_count":6,"max_players":24,"Bots":0,"server_type":"Dedicated","server_os":"Linux","password":true,"vac":true,"version":"7961495","steam_id":85568392924964315,"keywords":["cp","nocrits","nodmgspread","uncletopia"],"game_id":440,"stv_port":27086,"stv_name":"Uncletopia | London | 8 | Community | STV","players":[{"user_id":16,"name":"DJ_Not_Guilty","steam_id":76561198074369317,"connected_time":2640000000000,"state":"active","ping":55},{"user_id":35,"name":"Lessoz","steam_id":76561199211572036,"connected_time":227000000000,"state":"active","ping":85},{"user_id":21,"name":"Mono","steam_id":76561198114569493,"connected_time":980000000000,"state":"active","ping":45},{"user_id":22,"name":"Shinru","steam_id":76561198285951918,"connected_time":954000000000,"state":"active","ping":92},{"user_id":33,"name":"SPANISH LIGMA","steam_id":76561198846916016,"connected_time":404000000000,"state":"active","ping":88},{"user_id":29,"name":"competitive sex","steam_id":76561198060530483,"connected_time":505000000000,"state":"active","ping":75}]},{"server_id":300,"name":"Uncletopia | Montr√©al | 1 | All Maps","name_short":"mtl-1","host":"mtl-1.ca.uncletopia.com","port":27015,"enabled":true,"region":"us-east","cc":"ca","latitude":45.50889,"longitude":-73.56167,"reserved":0,"last_update":"0001-01-01T00:00:00Z","name_a2s":"","protocol":0,"map":"","folder":"","game":"","app_id":0,"player_count":0,"max_players":0,"Bots":0,"server_type":"","server_os":"","password":false,"vac":false,"version":"","steam_id":0,"keywords":null,"game_id":0,"stv_port":0,"stv_name":"","players":null},{"server_id":301,"name":"Uncletopia | Montr√©al | 2 | All Maps","name_short":"mtl-2","host":"mtl-1.ca.uncletopia.com","port":27025,"enabled":true,"region":"us-east","cc":"ca","latitude":45.50889,"longitude":-73.56167,"reserved":0,"last_update":"0001-01-01T00:00:00Z","name_a2s":"","protocol":0,"map":"","folder":"","game":"","app_id":0,"player_count":0,"max_players":0,"Bots":0,"server_type":"","server_os":"","password":false,"vac":false,"version":"","steam_id":0,"keywords":null,"game_id":0,"stv_port":0,"stv_name":"","players":null},{"server_id":302,"name":"Uncletopia | Montr√©al | 3 | All Maps","name_short":"mtl-3","host":"mtl-1.ca.uncletopia.com","port":27035,"enabled":true,"region":"us-east","cc":"ca","latitude":45.50889,"longitude":-73.56167,"reserved":0,"last_update":"0001-01-01T00:00:00Z","name_a2s":"","protocol":0,"map":"","folder":"","game":"","app_id":0,"player_count":0,"max_players":0,"Bots":0,"server_type":"","server_os":"","password":false,"vac":false,"version":"","steam_id":0,"keywords":null,"game_id":0,"stv_port":0,"stv_name":"","players":null},{"server_id":303,"name":"Uncletopia | Montr√©al | 4 | No Payload","name_short":"mtl-4","host":"mtl-1.ca.uncletopia.com","port":27045,"enabled":true,"region":"us-east","cc":"ca","latitude":45.50889,"longitude":-73.56167,"reserved":0,"last_update":"0001-01-01T00:00:00Z","name_a2s":"","protocol":0,"map":"","folder":"","game":"","app_id":0,"player_count":0,"max_players":0,"Bots":0,"server_type":"","server_os":"","password":false,"vac":false,"version":"","steam_id":0,"keywords":null,"game_id":0,"stv_port":0,"stv_name":"","players":null},{"server_id":13,"name":"Uncletopia | New York City | 1 | All Maps","name_short":"nyc-1","host":"nyc-1.us.uncletopia.com","port":27015,"enabled":true,"region":"us-east","cc":"us","latitude":40.73061,"longitude":-73.93524,"reserved":0,"last_update":"0001-01-01T00:00:00Z","name_a2s":"Uncletopia | New York City | 1 | All Maps","protocol":17,"map":"pl_frontier_final","folder":"tf","game":"Team Fortress","app_id":440,"player_count":24,"max_players":24,"Bots":0,"server_type":"Dedicated","server_os":"Linux","password":true,"vac":true,"version":"7961495","steam_id":85568392924469993,"keywords":["nocrits","nodmgspread","payload","uncletopia"],"game_id":440,"stv_port":27016,"stv_name":"Uncletopia | New York City | 1 | All Maps | STV","players":[{"user_id":49,"name":"5mech","steam_id":76561198979167520,"connected_time":510000000000,"state":"active","ping":60},{"user_id":17,"name":"Bee_Pirate","steam_id":76561199000599111,"connected_time":2718000000000,"state":"active","ping":64},{"user_id":20,"name":"BoyKisser","steam_id":76561199200969139,"connected_time":1638000000000,"state":"active","ping":123},{"user_id":21,"name":"tasty","steam_id":76561198083839061,"connected_time":1588000000000,"state":"active","ping":60},{"user_id":22,"name":"male_07","steam_id":76561198272675825,"connected_time":1496000000000,"state":"active","ping":75},{"user_id":28,"name":"....","steam_id":76561199482943969,"connected_time":1072000000000,"state":"active","ping":47},{"user_id":29,"name":"T12a55","steam_id":76561199228993903,"connected_time":1054000000000,"state":"active","ping":165},{"user_id":50,"name":"walrus","steam_id":76561198057853319,"connected_time":478000000000,"state":"active","ping":56},{"user_id":27,"name":"gaelaspuru","steam_id":76561198838235696,"connected_time":1107000000000,"state":"active","ping":70},{"user_id":30,"name":"homsar","steam_id":76561199031742838,"connected_time":1030000000000,"state":"active","ping":52},{"user_id":31,"name":"Xrath","steam_id":76561198220741860,"connected_time":1024000000000,"state":"active","ping":54},{"user_id":55,"name":"Si1entSn1pa","steam_id":76561198170095479,"connected_time":16000000000,"state":"active","ping":97},{"user_id":33,"name":"Serene Salamander","steam_id":76561198001094770,"connected_time":997000000000,"state":"active","ping":124},{"user_id":34,"name":"The Undertaker","steam_id":76561198186304318,"connected_time":993000000000,"state":"active","ping":73},{"user_id":35,"name":"Mr. Call You Back","steam_id":76561198025172811,"connected_time":991000000000,"state":"active","ping":41},{"user_id":36,"name":"GoldtoothFour","steam_id":76561198055529332,"connected_time":978000000000,"state":"active","ping":71},{"user_id":37,"name":"Thrasher","steam_id":76561197977801547,"connected_time":970000000000,"state":"active","ping":84},{"user_id":38,"name":"lu","steam_id":76561198080731872,"connected_time":921000000000,"state":"active","ping":71},{"user_id":44,"name":"LightBulbGlue #SaveTF2","steam_id":76561198329573529,"connected_time":825000000000,"state":"active","ping":86},{"user_id":54,"name":"Big Bill Hells","steam_id":76561198109323006,"connected_time":196000000000,"state":"active","ping":58},{"user_id":42,"name":"SaintNick_06","steam_id":76561198257402665,"connected_time":843000000000,"state":"active","ping":103},{"user_id":43,"name":"XD","steam_id":76561198069347028,"connected_time":835000000000,"state":"active","ping":55},{"user_id":53,"name":"Gotta Move That Gear Up","steam_id":76561197993467034,"connected_time":448000000000,"state":"active","ping":65},{"user_id":46,"name":"coffee bagel","steam_id":76561198141198352,"connected_time":815000000000,"state":"active","ping":65}]},{"server_id":14,"name":"Uncletopia | New York City | 2 | All Maps","name_short":"nyc-2","host":"nyc-1.us.uncletopia.com","port":27025,"enabled":true,"region":"us-east","cc":"us","latitude":40.73061,"longitude":-73.93524,"reserved":0,"last_update":"0001-01-01T00:00:00Z","name_a2s":"Uncletopia | New York City | 2 | All Maps","protocol":17,"map":"pl_pier","folder":"tf","game":"Team Fortress","app_id":440,"player_count":24,"max_players":24,"Bots":0,"server_type":"Dedicated","server_os":"Linux","password":true,"vac":true,"version":"7961495","steam_id":85568392924469994,"keywords":["nocrits","nodmgspread","payload","uncletopia"],"game_id":440,"stv_port":27026,"stv_name":"Uncletopia | New York City | 2 | All Maps | STV","players":[{"user_id":184,"name":"turd ferguson","steam_id":76561198071620782,"connected_time":1884000000000,"state":"active","ping":67},{"user_id":186,"name":"roman","steam_id":76561198170066797,"connected_time":1742000000000,"state":"active","ping":58},{"user_id":187,"name":"John F. Kennedy, 35th president","steam_id":76561198301021031,"connected_time":1724000000000,"state":"active","ping":85},{"user_id":205,"name":"Willy","steam_id":76561198046508940,"connected_time":131000000000,"state":"active","ping":48},{"user_id":12,"name":"uhooter","steam_id":76561198007829078,"connected_time":14946000000000,"state":"active","ping":60},{"user_id":166,"name":"Connection","steam_id":76561199230740231,"connected_time":2991000000000,"state":"active","ping":57},{"user_id":194,"name":"suns","steam_id":76561198079583278,"connected_time":1409000000000,"state":"active","ping":71},{"user_id":169,"name":"[NAME-REDACTED]","steam_id":76561198035682975,"connected_time":2921000000000,"state":"active","ping":55},{"user_id":185,"name":"rattlin' bog","steam_id":76561198224551028,"connected_time":1869000000000,"state":"active","ping":57},{"user_id":174,"name":"Bippums","steam_id":76561198366406729,"connected_time":2625000000000,"state":"active","ping":98},{"user_id":59,"name":"De","steam_id":76561198206728044,"connected_time":11252000000000,"state":"active","ping":76},{"user_id":204,"name":"orlando","steam_id":76561198128347876,"connected_time":245000000000,"state":"active","ping":56},{"user_id":201,"name":"genius of love","steam_id":76561198282764599,"connected_time":410000000000,"state":"active","ping":68},{"user_id":199,"name":"Fart Huffer","steam_id":76561198094125834,"connected_time":431000000000,"state":"active","ping":74},{"user_id":153,"name":"bagel cream cheese","steam_id":76561198017954785,"connected_time":5036000000000,"state":"active","ping":85},{"user_id":202,"name":"A_Malebolgia","steam_id":76561198097722818,"connected_time":400000000000,"state":"active","ping":84},{"user_id":128,"name":"SpaceSanctum","steam_id":76561198805242305,"connected_time":6525000000000,"state":"active","ping":46},{"user_id":178,"name":"cactail","steam_id":76561198238898732,"connected_time":2367000000000,"state":"active","ping":63},{"user_id":104,"name":"Maet","steam_id":76561198030208485,"connected_time":8158000000000,"state":"active","ping":97},{"user_id":154,"name":"googa","steam_id":76561198133130452,"connected_time":4943000000000,"state":"active","ping":46},{"user_id":203,"name":"Renota","steam_id":76561198058224488,"connected_time":293000000000,"state":"active","ping":76},{"user_id":206,"name":"Hiser","steam_id":76561198308193624,"connected_time":62000000000,"state":"active","ping":91},{"user_id":197,"name":"Machine Girl - SAD CLAPS","steam_id":76561198294013916,"connected_time":535000000000,"state":"active","ping":45},{"user_id":200,"name":"acid","steam_id":76561198055855408,"connected_time":430000000000,"state":"active","ping":59}]},{"server_id":15,"name":"Uncletopia | New York City | 3 | Stopwatch","name_short":"nyc-3","host":"nyc-1.us.uncletopia.com","port":27035,"enabled":true,"region":"us-east","cc":"us","latitude":40.73061,"longitude":-73.93524,"reserved":0,"last_update":"0001-01-01T00:00:00Z","name_a2s":"Uncletopia | New York City | 3 | Stopwatch","protocol":17,"map":"pl_snowycoast","folder":"tf","game":"Team Fortress","app_id":440,"player_count":0,"max_players":24,"Bots":0,"server_type":"Dedicated","server_os":"Linux","password":true,"vac":true,"version":"7961495","steam_id":85568392924742820,"keywords":["nocrits","nodmgspread","payload","uncletopia"],"game_id":440,"stv_port":27036,"stv_name":"Uncletopia | New York City | 3 | Stopwatch | STV","players":null},{"server_id":16,"name":"Uncletopia | New York City | 4 | Community","name_short":"nyc-4","host":"nyc-1.us.uncletopia.com","port":27045,"enabled":true,"region":"us-east","cc":"us","latitude":40.73061,"longitude":-73.93524,"reserved":0,"last_update":"0001-01-01T00:00:00Z","name_a2s":"Uncletopia | New York City | 4 | Community","protocol":17,"map":"cp_altitude","folder":"tf","game":"Team Fortress","app_id":440,"player_count":0,"max_players":24,"Bots":0,"server_type":"Dedicated","server_os":"Linux","password":true,"vac":true,"version":"7961495","steam_id":85568392924742821,"keywords":["cp","nocrits","nodmgspread","uncletopia"],"game_id":440,"stv_port":27046,"stv_name":"Uncletopia | New York City | 4 | Community | STV","players":null},{"server_id":142,"name":"Uncletopia | S√£o Paulo | 1 | All Maps","name_short":"sao-1","host":"sao-1.br.uncletopia.com","port":27015,"enabled":true,"region":"sa","cc":"br","latitude":-23.533773,"longitude":-46.62529,"reserved":0,"last_update":"0001-01-01T00:00:00Z","name_a2s":"Uncletopia | S√£o Paulo | 1 | All Maps","protocol":17,"map":"cp_dustbowl","folder":"tf","game":"Team Fortress","app_id":440,"player_count":0,"max_players":24,"Bots":0,"server_type":"Dedicated","server_os":"Linux","password":true,"vac":true,"version":"7961495","steam_id":85568392924469996,"keywords":["cp","nocrits","nodmgspread","uncletopia"],"game_id":440,"stv_port":27016,"stv_name":"Uncletopia | S√£o Paulo | 1 | All Maps | STV","players":null},{"server_id":143,"name":"Uncletopia | S√£o Paulo | 2 | Community","name_short":"sao-2","host":"sao-2.br.uncletopia.com","port":27015,"enabled":true,"region":"sa","cc":"br","latitude":-23.533773,"longitude":-46.62529,"reserved":0,"last_update":"0001-01-01T00:00:00Z","name_a2s":"Uncletopia | S√£o Paulo | 2 | Community","protocol":17,"map":"workshop/cp_croissant_final.ugc458840209","folder":"tf","game":"Team Fortress","app_id":440,"player_count":0,"max_players":24,"Bots":0,"server_type":"Dedicated","server_os":"Linux","password":true,"vac":true,"version":"7961495","steam_id":85568392924485349,"keywords":["cp","nocrits","nodmgspread","uncletopia"],"game_id":440,"stv_port":27016,"stv_name":"Uncletopia | S√£o Paulo | 2 | Community | STV","players":null},{"server_id":7,"name":"Uncletopia | Seattle | 1 | All Maps","name_short":"sea-1","host":"sea-1.us.uncletopia.com","port":27015,"enabled":true,"region":"us-west","cc":"us","latitude":47.608013,"longitude":-122.33517,"reserved":0,"last_update":"0001-01-01T00:00:00Z","name_a2s":"Uncletopia | Seattle | 1 | All Maps","protocol":17,"map":"cp_sunshine","folder":"tf","game":"Team Fortress","app_id":440,"player_count":0,"max_players":24,"Bots":0,"server_type":"Dedicated","server_os":"Linux","password":true,"vac":true,"version":"7961495","steam_id":85568392924469997,"keywords":["cp","nocrits","nodmgspread","uncletopia"],"game_id":440,"stv_port":27016,"stv_name":"Uncletopia | Seattle | 1 | All Maps | STV","players":null},{"server_id":119,"name":"Uncletopia | Seattle | 2 | All Maps","name_short":"sea-2","host":"sea-1.us.uncletopia.com","port":27025,"enabled":true,"region":"us-west","cc":"us","latitude":47.608013,"longitude":-122.33517,"reserved":0,"last_update":"0001-01-01T00:00:00Z","name_a2s":"Uncletopia | Seattle | 2 | All Maps","protocol":17,"map":"pl_snowycoast","folder":"tf","game":"Team Fortress","app_id":440,"player_count":0,"max_players":24,"Bots":0,"server_type":"Dedicated","server_os":"Linux","password":true,"vac":true,"version":"7961495","steam_id":85568392924469998,"keywords":["nocrits","nodmgspread","payload","uncletopia"],"game_id":440,"stv_port":27026,"stv_name":"Uncletopia | Seattle | 2 | All Maps | STV","players":null},{"server_id":406,"name":"Uncletopia | Seattle | 3 | Stopwatch","name_short":"sea-3","host":"sea-1.us.uncletopia.com","port":27035,"enabled":true,"region":"us-west","cc":"us","latitude":47.608013,"longitude":-122.33517,"reserved":0,"last_update":"0001-01-01T00:00:00Z","name_a2s":"Uncletopia | Seattle | 3 | Stopwatch","protocol":17,"map":"koth_lakeside_final","folder":"tf","game":"Team Fortress","app_id":440,"player_count":0,"max_players":24,"Bots":0,"server_type":"Dedicated","server_os":"Linux","password":true,"vac":true,"version":"7961495","steam_id":85568392924515217,"keywords":["cp","nocrits","nodmgspread","uncletopia"],"game_id":440,"stv_port":27036,"stv_name":"Uncletopia | Seattle | 3 | Stopwatch | STV","players":null},{"server_id":17,"name":"Uncletopia | San Francisco | 1 | All Maps","name_short":"sfo-1","host":"sfo-1.us.uncletopia.com","port":27015,"enabled":true,"region":"us-west","cc":"us","latitude":37.77397,"longitude":-122.4313,"reserved":0,"last_update":"0001-01-01T00:00:00Z","name_a2s":"Uncletopia | San Francisco | 1 | All Maps","protocol":17,"map":"koth_cascade","folder":"tf","game":"Team Fortress","app_id":440,"player_count":0,"max_players":24,"Bots":0,"server_type":"Dedicated","server_os":"Linux","password":true,"vac":true,"version":"7961495","steam_id":85568392924469999,"keywords":["cp","nocrits","nodmgspread","uncletopia"],"game_id":440,"stv_port":27016,"stv_name":"Uncletopia | San Francisco | 1 | All Maps | STV","players":null},{"server_id":18,"name":"Uncletopia | San Francisco | 2 | All Maps","name_short":"sfo-2","host":"sfo-1.us.uncletopia.com","port":27025,"enabled":true,"region":"us-west","cc":"us","latitude":37.77397,"longitude":-122.4313,"reserved":0,"last_update":"0001-01-01T00:00:00Z","name_a2s":"Uncletopia | San Francisco | 2 | All Maps","protocol":17,"map":"cp_snakewater_final1","folder":"tf","game":"Team Fortress","app_id":440,"player_count":24,"max_players":24,"Bots":0,"server_type":"Dedicated","server_os":"Linux","password":true,"vac":true,"version":"7961495","steam_id":85568392924470000,"keywords":["cp","nocrits","nodmgspread","uncletopia"],"game_id":440,"stv_port":27026,"stv_name":"Uncletopia | San Francisco | 2 | All Maps | STV","players":[{"user_id":97,"name":"Caspian","steam_id":76561199041466962,"connected_time":2757000000000,"state":"active","ping":40},{"user_id":134,"name":"Pride_","steam_id":76561198046446797,"connected_time":405000000000,"state":"active","ping":103},{"user_id":140,"name":"Sergeant Snowflake","steam_id":76561198041474489,"connected_time":32000000000,"state":"active","ping":114},{"user_id":108,"name":"mountainkug","steam_id":76561199491802535,"connected_time":2385000000000,"state":"active","ping":149},{"user_id":132,"name":"Goblin (Real)","steam_id":76561199160926985,"connected_time":479000000000,"state":"active","ping":109},{"user_id":133,"name":"I AM A DINOSAUR","steam_id":76561198039814201,"connected_time":447000000000,"state":"active","ping":64},{"user_id":135,"name":"SLEEPY-Class NHP","steam_id":76561198064583865,"connected_time":392000000000,"state":"active","ping":111},{"user_id":80,"name":"jello_hey","steam_id":76561199176327650,"connected_time":3756000000000,"state":"active","ping":113},{"user_id":123,"name":"Hindmost","steam_id":76561199081837220,"connected_time":1814000000000,"state":"active","ping":115},{"user_id":138,"name":"Els","steam_id":76561198354718934,"connected_time":259000000000,"state":"active","ping":88},{"user_id":118,"name":"BlazedBunny","steam_id":76561198243610560,"connected_time":2170000000000,"state":"active","ping":98},{"user_id":136,"name":"FizzleWizard","steam_id":76561198045990868,"connected_time":381000000000,"state":"active","ping":121},{"user_id":125,"name":"no vc no c","steam_id":76561197989503095,"connected_time":1188000000000,"state":"active","ping":148},{"user_id":113,"name":"The Headhunter","steam_id":76561198389722871,"connected_time":2308000000000,"state":"active","ping":69},{"user_id":64,"name":"Meekz","steam_id":76561198012562373,"connected_time":4901000000000,"state":"active","ping":69},{"user_id":85,"name":"UÃÅntermensch","steam_id":76561198149634242,"connected_time":3578000000000,"state":"active","ping":85},{"user_id":126,"name":"Encore","steam_id":76561198029433812,"connected_time":1109000000000,"state":"active","ping":84},{"user_id":137,"name":"Big Tony","steam_id":76561198341885311,"connected_time":317000000000,"state":"active","ping":113},{"user_id":83,"name":"A Chair Gaming","steam_id":76561198304314991,"connected_time":3737000000000,"state":"active","ping":114},{"user_id":101,"name":"Captain Olimar Balancer of team","steam_id":76561198141737300,"connected_time":2599000000000,"state":"active","ping":68},{"user_id":93,"name":"chanoc","steam_id":76561198026734746,"connected_time":3226000000000,"state":"active","ping":48},{"user_id":121,"name":"Grassman (Cc)","steam_id":76561198026488532,"connected_time":1975000000000,"state":"active","ping":49},{"user_id":139,"name":"Yummy Kabobz","steam_id":76561198067661705,"connected_time":159000000000,"state":"active","ping":112},{"user_id":131,"name":"Vincent Van Bro","steam_id":76561197966919802,"connected_time":536000000000,"state":"active","ping":73}]},{"server_id":19,"name":"Uncletopia | San Francisco | 3 | Stopwatch","name_short":"sfo-3","host":"sfo-1.us.uncletopia.com","port":27035,"enabled":true,"region":"us-west","cc":"us","latitude":37.77397,"longitude":-122.4313,"reserved":0,"last_update":"0001-01-01T00:00:00Z","name_a2s":"Uncletopia | San Francisco | 3 | Stopwatch","protocol":17,"map":"workshop/cp_reckoner_rc6.ugc674719999","folder":"tf","game":"Team Fortress","app_id":440,"player_count":0,"max_players":24,"Bots":0,"server_type":"Dedicated","server_os":"Linux","password":true,"vac":true,"version":"7961495","steam_id":85568392924742824,"keywords":["cp","nocrits","nodmgspread","uncletopia"],"game_id":440,"stv_port":27036,"stv_name":"Uncletopia | San Francisco | 3 | Stopwatch | STV","players":null},{"server_id":20,"name":"Uncletopia | San Francisco | 4 | Community","name_short":"sfo-4","host":"sfo-1.us.uncletopia.com","port":27045,"enabled":true,"region":"us-west","cc":"us","latitude":37.77397,"longitude":-122.4313,"reserved":0,"last_update":"0001-01-01T00:00:00Z","name_a2s":"Uncletopia | San Francisco | 4 | Community","protocol":17,"map":"pl_pier","folder":"tf","game":"Team Fortress","app_id":440,"player_count":0,"max_players":24,"Bots":0,"server_type":"Dedicated","server_os":"Linux","password":true,"vac":true,"version":"7961495","steam_id":85568392924742826,"keywords":["nocrits","nodmgspread","payload","uncletopia"],"game_id":440,"stv_port":27046,"stv_name":"Uncletopia | San Francisco | 4 | Community | STV","players":null},{"server_id":141,"name":"Uncletopia | Sydney | 1 | All Maps","name_short":"syd-1","host":"syd-1.au.uncletopia.com","port":27015,"enabled":true,"region":"au","cc":"au","latitude":-33.865143,"longitude":151.2099,"reserved":0,"last_update":"0001-01-01T00:00:00Z","name_a2s":"Uncletopia | Sydney | 1 | All Maps","protocol":17,"map":"koth_cascade","folder":"tf","game":"Team Fortress","app_id":440,"player_count":0,"max_players":24,"Bots":0,"server_type":"Dedicated","server_os":"Linux","password":true,"vac":true,"version":"7961495","steam_id":85568392924470001,"keywords":["cp","nocrits","nodmgspread","uncletopia"],"game_id":440,"stv_port":27016,"stv_name":"Uncletopia | Sydney | 1 | All Maps | STV","players":null},{"server_id":123,"name":"Uncletopia | Sydney | 2 | All Maps","name_short":"syd-2","host":"syd-1.au.uncletopia.com","port":27025,"enabled":true,"region":"au","cc":"au","latitude":-33.865143,"longitude":151.2099,"reserved":0,"last_update":"0001-01-01T00:00:00Z","name_a2s":"Uncletopia | Sydney | 2 | All Maps","protocol":17,"map":"pl_frontier_final","folder":"tf","game":"Team Fortress","app_id":440,"player_count":0,"max_players":24,"Bots":0,"server_type":"Dedicated","server_os":"Linux","password":true,"vac":true,"version":"7961495","steam_id":85568392924470002,"keywords":["nocrits","nodmgspread","payload","uncletopia"],"game_id":440,"stv_port":27026,"stv_name":"Uncletopia | Sydney | 2 | All Maps | STV","players":null},{"server_id":395,"name":"Uncletopia | Sydney | 3 | All Maps","name_short":"syd-3","host":"syd-1.au.uncletopia.com","port":27035,"enabled":true,"region":"au","cc":"au","latitude":-33.865143,"longitude":151.2099,"reserved":0,"last_update":"0001-01-01T00:00:00Z","name_a2s":"Uncletopia | Sydney | 3 | All Maps","protocol":17,"map":"cp_sunshine","folder":"tf","game":"Team Fortress","app_id":440,"player_count":0,"max_players":24,"Bots":0,"server_type":"Dedicated","server_os":"Linux","password":true,"vac":true,"version":"7961495","steam_id":85568392925194467,"keywords":["cp","nocrits","nodmgspread","uncletopia"],"game_id":440,"stv_port":27036,"stv_name":"Uncletopia | Sydney | 3 | All Maps | STV","players":null},{"server_id":396,"name":"Uncletopia | Sydney | 4 | All Maps","name_short":"syd-4","host":"syd-1.au.uncletopia.com","port":27045,"enabled":true,"region":"au","cc":"au","latitude":-33.865143,"longitude":151.2099,"reserved":0,"last_update":"0001-01-01T00:00:00Z","name_a2s":"Uncletopia | Sydney | 4 | All Maps","protocol":17,"map":"cp_process_final","folder":"tf","game":"Team Fortress","app_id":440,"player_count":0,"max_players":24,"Bots":0,"server_type":"Dedicated","server_os":"Linux","password":true,"vac":true,"version":"7961495","steam_id":85568392925397958,"keywords":["cp","nocrits","nodmgspread","uncletopia"],"game_id":440,"stv_port":27046,"stv_name":"Uncletopia | Sydney | 4 | All Maps | STV","players":null},{"server_id":58,"name":"Uncletopia | Sydney | 5 | Stopwatch","name_short":"syd-5","host":"syd-1.au.uncletopia.com","port":27055,"enabled":true,"region":"au","cc":"au","latitude":-33.865143,"longitude":151.2099,"reserved":0,"last_update":"0001-01-01T00:00:00Z","name_a2s":"Uncletopia | Sydney | 5 | Stopwatch","protocol":17,"map":"pl_frontier_final","folder":"tf","game":"Team Fortress","app_id":440,"player_count":0,"max_players":24,"Bots":0,"server_type":"Dedicated","server_os":"Linux","password":true,"vac":true,"version":"7961495","steam_id":85568392925397959,"keywords":["nocrits","nodmgspread","payload","uncletopia"],"game_id":440,"stv_port":27056,"stv_name":"Uncletopia | Sydney | 5 | Stopwatch | STV","players":null},{"server_id":59,"name":"Uncletopia | Sydney | 6 | Community","name_short":"syd-6","host":"syd-1.au.uncletopia.com","port":27065,"enabled":true,"region":"au","cc":"au","latitude":-33.865143,"longitude":151.2099,"reserved":0,"last_update":"0001-01-01T00:00:00Z","name_a2s":"Uncletopia | Sydney | 6 | Community","protocol":17,"map":"cp_sunshine","folder":"tf","game":"Team Fortress","app_id":440,"player_count":0,"max_players":24,"Bots":0,"server_type":"Dedicated","server_os":"Linux","password":true,"vac":true,"version":"7961495","steam_id":85568392925397960,"keywords":["cp","nocrits","nodmgspread","uncletopia"],"game_id":440,"stv_port":27066,"stv_name":"Uncletopia | Sydney | 6 | Community | STV","players":null},{"server_id":49,"name":"Uncletopia | Warsaw | 1 | All Maps","name_short":"waw-1","host":"waw-1.pl.uncletopia.com","port":27015,"enabled":true,"region":"eu","cc":"pl","latitude":52.2297,"longitude":21.017532,"reserved":0,"last_update":"0001-01-01T00:00:00Z","name_a2s":"Uncletopia | Warsaw | 1 | All Maps","protocol":17,"map":"pl_badwater","folder":"tf","game":"Team Fortress","app_id":440,"player_count":10,"max_players":24,"Bots":0,"server_type":"Dedicated","server_os":"Linux","password":true,"vac":true,"version":"7961495","steam_id":85568392925397850,"keywords":["nocrits","nodmgspread","payload","uncletopia"],"game_id":440,"stv_port":27016,"stv_name":"Uncletopia | Warsaw | 1 | All Maps | STV","players":[{"user_id":62,"name":"autistic","steam_id":76561198897732673,"connected_time":217000000000,"state":"active","ping":118},{"user_id":61,"name":"Raine","steam_id":76561198098860903,"connected_time":263000000000,"state":"active","ping":73},{"user_id":63,"name":"hello Love","steam_id":76561198348567663,"connected_time":215000000000,"state":"active","ping":47},{"user_id":47,"name":"SMALLDARK","steam_id":76561199212291403,"connected_time":736000000000,"state":"active","ping":115},{"user_id":48,"name":"Vitalya","steam_id":76561198856853621,"connected_time":607000000000,"state":"active","ping":45},{"user_id":64,"name":"PheonixHeart8501","steam_id":76561198426232049,"connected_time":204000000000,"state":"active","ping":162},{"user_id":57,"name":"Worm","steam_id":76561198296497176,"connected_time":362000000000,"state":"active","ping":75},{"user_id":51,"name":"Cimbasso","steam_id":76561198968050004,"connected_time":587000000000,"state":"active","ping":169},{"user_id":54,"name":"froge","steam_id":76561198304959766,"connected_time":517000000000,"state":"active","ping":96},{"user_id":60,"name":"Spectre","steam_id":76561198163819482,"connected_time":285000000000,"state":"active","ping":73}]},{"server_id":50,"name":"Uncletopia | Warsaw | 2 | All Maps","name_short":"waw-2","host":"waw-1.pl.uncletopia.com","port":27025,"enabled":true,"region":"eu","cc":"pl","latitude":52.2297,"longitude":21.017532,"reserved":0,"last_update":"0001-01-01T00:00:00Z","name_a2s":"Uncletopia | Warsaw | 2 | All Maps","protocol":17,"map":"koth_highpass","folder":"tf","game":"Team Fortress","app_id":440,"player_count":1,"max_players":24,"Bots":0,"server_type":"Dedicated","server_os":"Linux","password":true,"vac":true,"version":"7961495","steam_id":85568392925397851,"keywords":["cp","nocrits","nodmgspread","uncletopia"],"game_id":440,"stv_port":27026,"stv_name":"Uncletopia | Warsaw | 2 | All Maps | STV","players":[{"user_id":8,"name":"guzol","steam_id":76561198323704633,"connected_time":1415000000000,"state":"active","ping":39}]},{"server_id":51,"name":"Uncletopia | Warsaw | 3 | All Maps","name_short":"waw-3","host":"waw-1.pl.uncletopia.com","port":27035,"enabled":true,"region":"eu","cc":"pl","latitude":52.2297,"longitude":21.017532,"reserved":0,"last_update":"0001-01-01T00:00:00Z","name_a2s":"Uncletopia | Warsaw | 3 | All Maps","protocol":17,"map":"pl_borneo","folder":"tf","game":"Team Fortress","app_id":440,"player_count":6,"max_players":24,"Bots":0,"server_type":"Dedicated","server_os":"Linux","password":true,"vac":true,"version":"7961495","steam_id":85568392925397852,"keywords":["nocrits","nodmgspread","payload","uncletopia"],"game_id":440,"stv_port":27036,"stv_name":"Uncletopia | Warsaw | 3 | All Maps | STV","players":[{"user_id":6,"name":"Gardvord","steam_id":76561198120715753,"connected_time":2030000000000,"state":"active","ping":86},{"user_id":7,"name":"Bortas","steam_id":76561197972282153,"connected_time":1971000000000,"state":"active","ping":92},{"user_id":8,"name":"Beep","steam_id":76561198151248575,"connected_time":1947000000000,"state":"active","ping":85},{"user_id":9,"name":"TheFox.tf","steam_id":76561197996851702,"connected_time":862000000000,"state":"active","ping":77},{"user_id":10,"name":"Godjan","steam_id":76561198077554447,"connected_time":589000000000,"state":"spawning","ping":124},{"user_id":11,"name":"Salad's Warband","steam_id":76561198214089583,"connected_time":298000000000,"state":"active","ping":84}]},{"server_id":52,"name":"Uncletopia | Warsaw | 4 | All Maps","name_short":"waw-4","host":"waw-1.pl.uncletopia.com","port":27045,"enabled":true,"region":"eu","cc":"pl","latitude":52.2297,"longitude":21.017532,"reserved":0,"last_update":"0001-01-01T00:00:00Z","name_a2s":"Uncletopia | Warsaw | 4 | All Maps","protocol":17,"map":"pl_borneo","folder":"tf","game":"Team Fortress","app_id":440,"player_count":0,"max_players":24,"Bots":0,"server_type":"Dedicated","server_os":"Linux","password":true,"vac":true,"version":"7961495","steam_id":85568392925397853,"keywords":["nocrits","nodmgspread","payload","uncletopia"],"game_id":440,"stv_port":27046,"stv_name":"Uncletopia | Warsaw | 4 | All Maps | STV","players":null},{"server_id":53,"name":"Uncletopia | Warsaw | 5 | Stopwatch","name_short":"waw-5","host":"waw-1.pl.uncletopia.com","port":27055,"enabled":true,"region":"eu","cc":"pl","latitude":52.2297,"longitude":21.017532,"reserved":0,"last_update":"0001-01-01T00:00:00Z","name_a2s":"Uncletopia | Warsaw | 5 | Stopwatch","protocol":17,"map":"cp_granary","folder":"tf","game":"Team Fortress","app_id":440,"player_count":0,"max_players":24,"Bots":0,"server_type":"Dedicated","server_os":"Linux","password":true,"vac":true,"version":"7961495","steam_id":85568392925397854,"keywords":["cp","nocrits","nodmgspread","uncletopia"],"game_id":440,"stv_port":27056,"stv_name":"Uncletopia | Warsaw | 5 | Stopwatch | STV","players":null},{"server_id":54,"name":"Uncletopia | Warsaw | 6 | Community","name_short":"waw-6","host":"waw-1.pl.uncletopia.com","port":27065,"enabled":true,"region":"eu","cc":"pl","latitude":52.2297,"longitude":21.017532,"reserved":0,"last_update":"0001-01-01T00:00:00Z","name_a2s":"Uncletopia | Warsaw | 6 | Community","protocol":17,"map":"workshop/cp_hazyfort_rc6.ugc1365963729","folder":"tf","game":"Team Fortress","app_id":440,"player_count":0,"max_players":24,"Bots":0,"server_type":"Dedicated","server_os":"Linux","password":true,"vac":true,"version":"7961495","steam_id":85568392925397856,"keywords":["cp","nocrits","nodmgspread","uncletopia"],"game_id":440,"stv_port":27066,"stv_name":"Uncletopia | Warsaw | 6 | Community | STV","players":null}]}