{"status":true,"message":"","result":[{"server_id":9,"name":"Uncletopia | Atlanta | 1 | All Maps","name_short":"atl-1","host":"atl-1.us.uncletopia.com","port":27015,"enabled":true,"region":"us-east","cc":"us","latitude":33.753746,"longitude":-84.38633,"reserved":0,"last_update":"0001-01-01T00:00:00Z","name_a2s":"Uncletopia | Atlanta | 1 | All Maps","protocol":17,"map":"pl_goldrush","folder":"tf","game":"Team Fortress","app_id":440,"player_count":24,"max_players":24,"Bots":0,"server_type":"Dedicated","server_os":"Linux","password":true,"vac":true,"version":"7757534","steam_id":85568392924469982,"keywords":["nocrits","nodmgspread","payload","uncletopia"],"game_id":440,"stv_port":27016,"stv_name":"Uncletopia | Atlanta | 1 | All Maps | STV","players":[{"user_id":243,"name":"namisimp102","steam_id":76561198166710027,"connected_time":1016000000000,"state":"active","ping":48},{"user_id":228,"name":"jack","steam_id":76561198397804555,"connected_time":1834000000000,"state":"active","ping":112},{"user_id":238,"name":"BIG HOG","steam_id":76561198079923652,"connected_time":1501000000000,"state":"active","ping":68},{"user_id":250,"name":"yeeye","steam_id":76561198094306054,"connected_time":515000000000,"state":"active","ping":75},{"user_id":224,"name":"troll","steam_id":76561198040890252,"connected_time":1867000000000,"state":"active","ping":55},{"user_id":211,"name":"Brown_Dream","steam_id":76561198975766145,"connected_time":3314000000000,"state":"active","ping":64},{"user_id":245,"name":"Scrumlet","steam_id":76561198339806643,"connected_time":840000000000,"state":"active","ping":78},{"user_id":209,"name":"⇌ | ϟtriKeR | ⇋","steam_id":76561199389089862,"connected_time":3348000000000,"state":"active","ping":137},{"user_id":251,"name":"Duckywinner","steam_id":76561198254828139,"connected_time":451000000000,"state":"active","ping":61},{"user_id":154,"name":"Ashes!","steam_id":76561197998475441,"connected_time":7748000000000,"state":"active","ping":76},{"user_id":239,"name":"The Law","steam_id":76561198080974454,"connected_time":1490000000000,"state":"active","ping":78},{"user_id":248,"name":"Coffee with a Stranger","steam_id":76561198307422313,"connected_time":574000000000,"state":"active","ping":61},{"user_id":241,"name":"Type Three Dabeetus","steam_id":76561198062710038,"connected_time":1419000000000,"state":"active","ping":120},{"user_id":246,"name":"cheeks","steam_id":76561197993371179,"connected_time":838000000000,"state":"active","ping":48},{"user_id":232,"name":"̝̬̩͓̯̠̪ͦ͒̀ͫ̚ ͦ͒̚","steam_id":76561199161322235,"connected_time":1760000000000,"state":"active","ping":100},{"user_id":231,"name":"Leviathan","steam_id":76561197997528907,"connected_time":1774000000000,"state":"active","ping":54},{"user_id":225,"name":"Broadsword","steam_id":76561198011160411,"connected_time":1861000000000,"state":"active","ping":64},{"user_id":254,"name":"Jitters","steam_id":76561198078898336,"connected_time":284000000000,"state":"active","ping":64},{"user_id":253,"name":"ATL1 | Le4n!!!","steam_id":76561198045522596,"connected_time":386000000000,"state":"active","ping":73},{"user_id":213,"name":"\u003c blank \u003e","steam_id":76561199383789041,"connected_time":3266000000000,"state":"active","ping":174},{"user_id":215,"name":"Cooki","steam_id":76561198051705314,"connected_time":3250000000000,"state":"active","ping":96},{"user_id":222,"name":"Rockguy21","steam_id":76561198121303359,"connected_time":2662000000000,"state":"active","ping":63},{"user_id":255,"name":"Mythical","steam_id":76561198362275997,"connected_time":149000000000,"state":"active","ping":98},{"user_id":237,"name":"Birdbern","steam_id":76561198122383177,"connected_time":1611000000000,"state":"active","ping":64}]},{"server_id":400,"name":"Uncletopia | Atlanta | 3 | Community","name_short":"atl-3","host":"atl-1.us.uncletopia.com","port":27035,"enabled":true,"region":"us-east","cc":"us","latitude":33.753746,"longitude":-84.38633,"reserved":0,"last_update":"0001-01-01T00:00:00Z","name_a2s":"Uncletopia | Atlanta | 3 | Community","protocol":17,"map":"workshop/pl_corrode_rc2.ugc546577989","folder":"tf","game":"Team Fortress","app_id":440,"player_count":0,"max_players":24,"Bots":0,"server_type":"Dedicated","server_os":"Linux","password":true,"vac":true,"version":"7757534","steam_id":85568392924515187,"keywords":["nocrits","nodmgspread","payload","uncletopia"],"game_id":440,"stv_port":27036,"stv_name":"Uncletopia | Atlanta | 3 | Community | STV","players":null},{"server_id":401,"name":"Uncletopia | Atlanta | 4 | No Payload","name_short":"atl-4","host":"atl-1.us.uncletopia.com","port":27045,"enabled":true,"region":"us-east","cc":"us","latitude":33.753746,"longitude":-84.38633,"reserved":0,"last_update":"0001-01-01T00:00:00Z","name_a2s":"","protocol":0,"map":"","folder":"","game":"","app_id":0,"player_count":0,"max_players":0,"Bots":0,"server_type":"","server_os":"","password":false,"vac":false,"version":"","steam_id":0,"keywords":null,"game_id":0,"stv_port":0,"stv_name":"","players":null},{"server_id":2,"name":"Uncletopia | Chicago | 1 | All Maps","name_short":"chi-1","host":"chi-1.us.uncletopia.com","port":27015,"enabled":true,"region":"us-central","cc":"us","latitude":41.881832,"longitude":-87.62318,"reserved":0,"last_update":"0001-01-01T00:00:00Z","name_a2s":"Uncletopia | Chicago | 1 | All Maps","protocol":17,"map":"pl_frontier_final","folder":"tf","game":"Team Fortress","app_id":440,"player_count":18,"max_players":24,"Bots":0,"server_type":"Dedicated","server_os":"Linux","password":true,"vac":true,"version":"7757534","steam_id":85568392924469984,"keywords":["nocrits","nodmgspread","payload","uncletopia"],"game_id":440,"stv_port":27016,"stv_name":"Uncletopia | Chicago | 1 | All Maps | STV","players":[{"user_id":430,"name":"Cousin Corn on the Cob","steam_id":76561198049837377,"connected_time":728000000000,"state":"active","ping":54},{"user_id":433,"name":"Crazy__Biscuit","steam_id":76561198399851872,"connected_time":47000000000,"state":"active","ping":139},{"user_id":368,"name":"tyg","steam_id":76561198056246867,"connected_time":5747000000000,"state":"active","ping":60},{"user_id":413,"name":"TallBit","steam_id":76561199059748976,"connected_time":2380000000000,"state":"active","ping":76},{"user_id":435,"name":"OrionKid","steam_id":76561198359094901,"connected_time":23000000000,"state":"spawning","ping":55},{"user_id":432,"name":"chloe","steam_id":76561198369849908,"connected_time":49000000000,"state":"active","ping":67},{"user_id":391,"name":"Valerie","steam_id":76561198243188782,"connected_time":3997000000000,"state":"active","ping":251},{"user_id":434,"name":"twin","steam_id":76561198055626638,"connected_time":47000000000,"state":"active","ping":79},{"user_id":431,"name":"TeeTree","steam_id":76561198862307874,"connected_time":191000000000,"state":"active","ping":52},{"user_id":414,"name":"FiddyFoMike","steam_id":76561198057072581,"connected_time":2372000000000,"state":"active","ping":93},{"user_id":425,"name":"wiiblob","steam_id":76561198109106242,"connected_time":1285000000000,"state":"active","ping":142},{"user_id":417,"name":"John Darksoul","steam_id":76561198999712284,"connected_time":2351000000000,"state":"active","ping":66},{"user_id":389,"name":"totally not a pile of beans","steam_id":76561198119851931,"connected_time":4375000000000,"state":"active","ping":78},{"user_id":427,"name":"Garfield","steam_id":76561198037803087,"connected_time":1131000000000,"state":"active","ping":68},{"user_id":422,"name":"Dispenser (Twan)","steam_id":76561197991064908,"connected_time":2036000000000,"state":"active","ping":55},{"user_id":397,"name":"Chaos","steam_id":76561199068325065,"connected_time":3511000000000,"state":"active","ping":89},{"user_id":383,"name":"Prowox","steam_id":76561198032606089,"connected_time":4928000000000,"state":"spawning","ping":162},{"user_id":376,"name":"98","steam_id":76561198134813102,"connected_time":5164000000000,"state":"active","ping":116}]},{"server_id":106,"name":"Uncletopia | Chicago | 2 | All Maps","name_short":"chi-2","host":"chi-1.us.uncletopia.com","port":27025,"enabled":true,"region":"us-central","cc":"us","latitude":41.881832,"longitude":-87.62318,"reserved":0,"last_update":"0001-01-01T00:00:00Z","name_a2s":"Uncletopia | Chicago | 2 | All Maps","protocol":17,"map":"pl_frontier_final","folder":"tf","game":"Team Fortress","app_id":440,"player_count":17,"max_players":24,"Bots":0,"server_type":"Dedicated","server_os":"Linux","password":true,"vac":true,"version":"7757534","steam_id":85568392924469985,"keywords":["nocrits","nodmgspread","payload","uncletopia"],"game_id":440,"stv_port":27026,"stv_name":"Uncletopia | Chicago | 2 | All Maps | STV","players":[{"user_id":460,"name":"Iron","steam_id":76561198247918478,"connected_time":45000000000,"state":"active","ping":60},{"user_id":459,"name":"gulch","steam_id":76561199227946025,"connected_time":90000000000,"state":"active","ping":69},{"user_id":435,"name":"Vracstan Renem","steam_id":76561198271627851,"connected_time":2882000000000,"state":"active","ping":133},{"user_id":446,"name":"Ta5K","steam_id":76561198939558155,"connected_time":1213000000000,"state":"active","ping":37},{"user_id":455,"name":"Prison Sal","steam_id":76561198355553673,"connected_time":214000000000,"state":"active","ping":49},{"user_id":449,"name":"Gato","steam_id":76561198063521721,"connected_time":1173000000000,"state":"active","ping":74},{"user_id":443,"name":"pest","steam_id":76561198052571208,"connected_time":1490000000000,"state":"active","ping":58},{"user_id":370,"name":"work it harder make it better","steam_id":76561198328109873,"connected_time":7872000000000,"state":"active","ping":65},{"user_id":433,"name":"LoonaLover@gmail.com","steam_id":76561198085815757,"connected_time":2911000000000,"state":"active","ping":61},{"user_id":427,"name":"creeeeeee","steam_id":76561198392539722,"connected_time":3205000000000,"state":"active","ping":75},{"user_id":439,"name":"sweppy","steam_id":76561198035457667,"connected_time":2717000000000,"state":"active","ping":65},{"user_id":441,"name":"BigBubble42","steam_id":76561198136286123,"connected_time":2556000000000,"state":"active","ping":58},{"user_id":413,"name":"worst tf2 player ever","steam_id":76561198103496593,"connected_time":4745000000000,"state":"active","ping":60},{"user_id":453,"name":"onion","steam_id":76561198242311084,"connected_time":323000000000,"state":"active","ping":60},{"user_id":414,"name":"Eden","steam_id":76561198075587475,"connected_time":4722000000000,"state":"active","ping":39},{"user_id":431,"name":"The Drunk Clown","steam_id":76561197986850426,"connected_time":2922000000000,"state":"active","ping":74},{"user_id":432,"name":"SpaceOfHate | HM |","steam_id":76561199029944244,"connected_time":2920000000000,"state":"active","ping":68}]},{"server_id":402,"name":"Uncletopia | Chicago | 3 | All Maps","name_short":"chi-3","host":"chi-1.us.uncletopia.com","port":27035,"enabled":true,"region":"us-central","cc":"us","latitude":41.881832,"longitude":-87.62318,"reserved":0,"last_update":"0001-01-01T00:00:00Z","name_a2s":"Uncletopia | Chicago | 3 | All Maps","protocol":17,"map":"koth_cascade","folder":"tf","game":"Team Fortress","app_id":440,"player_count":0,"max_players":24,"Bots":0,"server_type":"Dedicated","server_os":"Linux","password":true,"vac":true,"version":"7757534","steam_id":85568392924515191,"keywords":["cp","nocrits","nodmgspread","uncletopia"],"game_id":440,"stv_port":27036,"stv_name":"Uncletopia | Chicago | 3 | All Maps | STV","players":null},{"server_id":403,"name":"Uncletopia | Chicago | 4 | All Maps","name_short":"chi-4","host":"chi-1.us.uncletopia.com","port":27045,"enabled":true,"region":"us-central","cc":"us","latitude":41.881832,"longitude":-87.62318,"reserved":0,"last_update":"0001-01-01T00:00:00Z","name_a2s":"Uncletopia | Chicago | 4 | All Maps","protocol":17,"map":"pl_swiftwater_final1","folder":"tf","game":"Team Fortress","app_id":440,"player_count":24,"max_players":24,"Bots":0,"server_type":"Dedicated","server_os":"Linux","password":true,"vac":true,"version":"7757534","steam_id":85568392924515193,"keywords":["nocrits","nodmgspread","payload","uncletopia"],"game_id":440,"stv_port":27046,"stv_name":"Uncletopia | Chicago | 4 | All Maps | STV","players":[{"user_id":319,"name":"merge without looking","steam_id":76561198056702628,"connected_time":585000000000,"state":"active","ping":62},{"user_id":270,"name":"Try Gardening","steam_id":76561198120311340,"connected_time":4116000000000,"state":"active","ping":47},{"user_id":235,"name":"shadow wizard","steam_id":76561198165212575,"connected_time":5673000000000,"state":"active","ping":64},{"user_id":310,"name":"kitsu ♥","steam_id":76561198091741658,"connected_time":1565000000000,"state":"active","ping":68},{"user_id":307,"name":"Ejaculation Zach","steam_id":76561198203765200,"connected_time":1851000000000,"state":"active","ping":56},{"user_id":294,"name":"int","steam_id":76561198155720118,"connected_time":2240000000000,"state":"active","ping":48},{"user_id":311,"name":"my palisman would be a polarbea","steam_id":76561199060224916,"connected_time":1505000000000,"state":"active","ping":112},{"user_id":295,"name":"Eric","steam_id":76561198057717934,"connected_time":2238000000000,"state":"active","ping":43},{"user_id":314,"name":"Admiral Crumbs","steam_id":76561198108791583,"connected_time":821000000000,"state":"active","ping":65},{"user_id":320,"name":"jorjor wells","steam_id":76561199073429082,"connected_time":569000000000,"state":"active","ping":60},{"user_id":298,"name":"Cheeeeeeeen","steam_id":76561198986388085,"connected_time":2220000000000,"state":"active","ping":106},{"user_id":292,"name":"tlm","steam_id":76561198178457461,"connected_time":2475000000000,"state":"active","ping":62},{"user_id":324,"name":"Bee","steam_id":76561198074681324,"connected_time":1000000000,"state":"spawning","ping":48},{"user_id":301,"name":"Warriorbuilds3","steam_id":76561199214713674,"connected_time":2120000000000,"state":"active","ping":99},{"user_id":285,"name":"The Rambler","steam_id":76561198109648603,"connected_time":2907000000000,"state":"active","ping":84},{"user_id":282,"name":"THRILLHO","steam_id":76561198371663047,"connected_time":2982000000000,"state":"active","ping":61},{"user_id":308,"name":"クケイ","steam_id":76561198215122444,"connected_time":1831000000000,"state":"active","ping":73},{"user_id":293,"name":"i have rabies","steam_id":76561198028612613,"connected_time":2380000000000,"state":"active","ping":92},{"user_id":299,"name":"Stumblin' in","steam_id":76561198119826352,"connected_time":2185000000000,"state":"active","ping":71},{"user_id":283,"name":"wack","steam_id":76561198095697330,"connected_time":2976000000000,"state":"active","ping":76},{"user_id":313,"name":"SSBM Pelican","steam_id":76561198040697907,"connected_time":1259000000000,"state":"active","ping":81},{"user_id":321,"name":"Fake Uncle","steam_id":76561198880227689,"connected_time":387000000000,"state":"active","ping":65},{"user_id":323,"name":"Yarn","steam_id":76561199227148369,"connected_time":246000000000,"state":"active","ping":89},{"user_id":318,"name":"when the oob hits","steam_id":76561198277163301,"connected_time":603000000000,"state":"active","ping":62}]},{"server_id":36,"name":"Uncletopia | Chicago | 5 | All Maps","name_short":"chi-5","host":"chi-2.us.uncletopia.com","port":27015,"enabled":true,"region":"us-central","cc":"us","latitude":41.881832,"longitude":-87.62318,"reserved":0,"last_update":"0001-01-01T00:00:00Z","name_a2s":"Uncletopia | Chicago | 5 | All Maps","protocol":17,"map":"koth_lakeside_final","folder":"tf","game":"Team Fortress","app_id":440,"player_count":0,"max_players":24,"Bots":0,"server_type":"Dedicated","server_os":"Linux","password":true,"vac":true,"version":"7757534","steam_id":85568392924866362,"keywords":["cp","nocrits","nodmgspread","uncletopia"],"game_id":440,"stv_port":27016,"stv_name":"Uncletopia | Chicago | 5 | All Maps | STV","players":null},{"server_id":37,"name":"Uncletopia | Chicago | 6 | All Maps","name_short":"chi-6","host":"chi-2.us.uncletopia.com","port":27025,"enabled":true,"region":"us-central","cc":"us","latitude":41.881832,"longitude":-87.62318,"reserved":0,"last_update":"0001-01-01T00:00:00Z","name_a2s":"Uncletopia | Chicago | 6 | All Maps","protocol":17,"map":"cp_dustbowl","folder":"tf","game":"Team Fortress","app_id":440,"player_count":0,"max_players":24,"Bots":0,"server_type":"Dedicated","server_os":"Linux","password":true,"vac":true,"version":"7757534","steam_id":85568392924866363,"keywords":["cp","nocrits","nodmgspread","uncletopia"],"game_id":440,"stv_port":27026,"stv_name":"Uncletopia | Chicago | 6 | All Maps | STV","players":null},{"server_id":38,"name":"Uncletopia | Chicago | 7 | Stopwatch Beta","name_short":"chi-7","host":"chi-2.us.uncletopia.com","port":27035,"enabled":true,"region":"us-central","cc":"us","latitude":41.881832,"longitude":-87.62318,"reserved":0,"last_update":"0001-01-01T00:00:00Z","name_a2s":"Uncletopia | Chicago | 7 | Stopwatch Beta","protocol":17,"map":"workshop/koth_bagel_rc6.ugc2514036946","folder":"tf","game":"Team Fortress","app_id":440,"player_count":0,"max_players":24,"Bots":0,"server_type":"Dedicated","server_os":"Linux","password":true,"vac":true,"version":"7757534","steam_id":85568392924866364,"keywords":["cp","nocrits","nodmgspread","uncletopia"],"game_id":440,"stv_port":27036,"stv_name":"Uncletopia | Chicago | 7 | Stopwatch Beta | STV","players":null},{"server_id":39,"name":"Uncletopia | Chicago | 8 | Community","name_short":"chi-8","host":"chi-2.us.uncletopia.com","port":27045,"enabled":true,"region":"us-central","cc":"us","latitude":41.881832,"longitude":-87.62318,"reserved":0,"last_update":"0001-01-01T00:00:00Z","name_a2s":"Uncletopia | Chicago | 8 | Community","protocol":17,"map":"koth_lakeside_final","folder":"tf","game":"Team Fortress","app_id":440,"player_count":0,"max_players":24,"Bots":0,"server_type":"Dedicated","server_os":"Linux","password":true,"vac":true,"version":"7757534","steam_id":85568392924866365,"keywords":["cp","nocrits","nodmgspread","uncletopia"],"game_id":440,"stv_port":27046,"stv_name":"Uncletopia | Chicago | 8 | Community | STV","players":null},{"server_id":8,"name":"Uncletopia | Dallas | 1 | All Maps","name_short":"dal-1","host":"dal-1.us.uncletopia.com","port":27015,"enabled":true,"region":"us-central","cc":"us","latitude":32.779167,"longitude":-96.80889,"reserved":0,"last_update":"0001-01-01T00:00:00Z","name_a2s":"Uncletopia | Dallas | 1 | All Maps","protocol":17,"map":"pl_badwater","folder":"tf","game":"Team Fortress","app_id":440,"player_count":24,"max_players":24,"Bots":0,"server_type":"Dedicated","server_os":"Linux","password":true,"vac":true,"version":"7757534","steam_id":85568392924469986,"keywords":["nocrits","nodmgspread","payload","uncletopia"],"game_id":440,"stv_port":27016,"stv_name":"Uncletopia | Dallas | 1 | All Maps | STV","players":[{"user_id":260,"name":"Trash Medic","steam_id":76561199042228163,"connected_time":275000000000,"state":"active","ping":65},{"user_id":264,"name":"NANO","steam_id":76561199009634635,"connected_time":169000000000,"state":"active","ping":70},{"user_id":254,"name":"Captain MLG","steam_id":76561199183321645,"connected_time":772000000000,"state":"active","ping":55},{"user_id":261,"name":"armpit fetishist","steam_id":76561199008452637,"connected_time":229000000000,"state":"active","ping":87},{"user_id":212,"name":"terrorism? boy howdy","steam_id":76561198844003641,"connected_time":1910000000000,"state":"active","ping":86},{"user_id":251,"name":"SirArza","steam_id":76561198196214655,"connected_time":837000000000,"state":"active","ping":74},{"user_id":246,"name":"footoftheday","steam_id":76561198052712449,"connected_time":884000000000,"state":"active","ping":82},{"user_id":263,"name":"Focus On God","steam_id":76561198047136927,"connected_time":218000000000,"state":"active","ping":78},{"user_id":209,"name":"nika","steam_id":76561198308290211,"connected_time":2420000000000,"state":"active","ping":96},{"user_id":247,"name":"Triforce141","steam_id":76561198063896776,"connected_time":879000000000,"state":"active","ping":43},{"user_id":162,"name":"mkl","steam_id":76561197986401685,"connected_time":5902000000000,"state":"active","ping":58},{"user_id":182,"name":"samsoeder","steam_id":76561198293741183,"connected_time":4583000000000,"state":"active","ping":74},{"user_id":265,"name":"DannyD","steam_id":76561198070308226,"connected_time":140000000000,"state":"active","ping":118},{"user_id":202,"name":"Kenku","steam_id":76561199086762926,"connected_time":2954000000000,"state":"active","ping":85},{"user_id":248,"name":"Mangry","steam_id":76561198015741357,"connected_time":862000000000,"state":"active","ping":98},{"user_id":249,"name":"^5HCDefies","steam_id":76561198068749260,"connected_time":854000000000,"state":"active","ping":91},{"user_id":215,"name":"Ingo","steam_id":76561198053932416,"connected_time":1873000000000,"state":"active","ping":73},{"user_id":259,"name":"Wolverine Fingerblaster","steam_id":76561198095394582,"connected_time":335000000000,"state":"active","ping":58},{"user_id":253,"name":"leumas","steam_id":76561198240408540,"connected_time":794000000000,"state":"active","ping":69},{"user_id":255,"name":"alcovenant","steam_id":76561198066247487,"connected_time":763000000000,"state":"active","ping":101},{"user_id":257,"name":"Malevo","steam_id":76561198148606522,"connected_time":735000000000,"state":"active","ping":67},{"user_id":185,"name":"Johnny Lawrence #JohnnyMaxxing","steam_id":76561199367141671,"connected_time":4480000000000,"state":"active","ping":88},{"user_id":192,"name":"amazing","steam_id":76561198386233160,"connected_time":3104000000000,"state":"active","ping":60},{"user_id":258,"name":"✧Ⓒⓘⓒⓘ✧","steam_id":76561198090077268,"connected_time":730000000000,"state":"active","ping":56}]},{"server_id":108,"name":"Uncletopia | Dallas | 2 | All Maps","name_short":"dal-2","host":"dal-1.us.uncletopia.com","port":27025,"enabled":true,"region":"us-central","cc":"us","latitude":32.779167,"longitude":-96.80889,"reserved":0,"last_update":"0001-01-01T00:00:00Z","name_a2s":"Uncletopia | Dallas | 2 | All Maps","protocol":17,"map":"pl_barnblitz","folder":"tf","game":"Team Fortress","app_id":440,"player_count":24,"max_players":24,"Bots":0,"server_type":"Dedicated","server_os":"Linux","password":true,"vac":true,"version":"7757534","steam_id":85568392924469988,"keywords":["nocrits","nodmgspread","payload","uncletopia"],"game_id":440,"stv_port":27026,"stv_name":"Uncletopia | Dallas | 2 | All Maps | STV","players":[{"user_id":88,"name":"Resident Thrussy Lender","steam_id":76561198071790583,"connected_time":1001000000000,"state":"active","ping":58},{"user_id":57,"name":"Single Gun Tommy","steam_id":76561198272906289,"connected_time":3544000000000,"state":"active","ping":71},{"user_id":54,"name":"Pika","steam_id":76561198068063436,"connected_time":3691000000000,"state":"active","ping":60},{"user_id":98,"name":"Lock'd","steam_id":76561198170108230,"connected_time":274000000000,"state":"active","ping":60},{"user_id":99,"name":"Cloud Nein","steam_id":76561198966656717,"connected_time":187000000000,"state":"active","ping":88},{"user_id":61,"name":"qiulongtao","steam_id":76561198977558717,"connected_time":3227000000000,"state":"active","ping":86},{"user_id":97,"name":"Ultraform","steam_id":76561198093511517,"connected_time":353000000000,"state":"active","ping":49},{"user_id":100,"name":"ejdodgers","steam_id":76561199379595575,"connected_time":185000000000,"state":"active","ping":88},{"user_id":82,"name":"school bully","steam_id":76561199005805984,"connected_time":1289000000000,"state":"active","ping":40},{"user_id":101,"name":"waffholes","steam_id":76561199207790295,"connected_time":181000000000,"state":"active","ping":88},{"user_id":70,"name":"HELIUM VAN!","steam_id":76561198083463877,"connected_time":2608000000000,"state":"active","ping":69},{"user_id":29,"name":"Superman123389","steam_id":76561198267472539,"connected_time":4851000000000,"state":"active","ping":84},{"user_id":91,"name":"Mr. Bixby","steam_id":76561198868839264,"connected_time":931000000000,"state":"active","ping":55},{"user_id":87,"name":"robertJMP","steam_id":76561199066260919,"connected_time":1090000000000,"state":"active","ping":68},{"user_id":102,"name":"Doom","steam_id":76561197982099794,"connected_time":126000000000,"state":"active","ping":64},{"user_id":72,"name":"Polygunner","steam_id":76561199165741650,"connected_time":2586000000000,"state":"active","ping":94},{"user_id":103,"name":"walterhwhite","steam_id":76561199433675789,"connected_time":101000000000,"state":"active","ping":94},{"user_id":75,"name":"Dengar","steam_id":76561198144992228,"connected_time":1978000000000,"state":"active","ping":43},{"user_id":80,"name":"PingableUsername","steam_id":76561198138760165,"connected_time":1307000000000,"state":"active","ping":62},{"user_id":44,"name":"StarLy","steam_id":76561198174428289,"connected_time":4290000000000,"state":"active","ping":86},{"user_id":48,"name":"faxxy","steam_id":76561198079621240,"connected_time":4162000000000,"state":"active","ping":98},{"user_id":73,"name":"mikey | I'm Burning Bright!","steam_id":76561198985847893,"connected_time":2390000000000,"state":"active","ping":51},{"user_id":68,"name":"Unofficial","steam_id":76561198370071152,"connected_time":2777000000000,"state":"active","ping":108},{"user_id":104,"name":"gogc10","steam_id":76561198969665614,"connected_time":57000000000,"state":"active","ping":90}]},{"server_id":5,"name":"Uncletopia | Frankfurt | 1 | All Maps","name_short":"frk-1","host":"frk-1.de.uncletopia.com","port":27015,"enabled":true,"region":"eu","cc":"de","latitude":50.110924,"longitude":8.682127,"reserved":0,"last_update":"0001-01-01T00:00:00Z","name_a2s":"Uncletopia | Frankfurt | 1 | All Maps","protocol":17,"map":"pl_pier","folder":"tf","game":"Team Fortress","app_id":440,"player_count":14,"max_players":24,"Bots":0,"server_type":"Dedicated","server_os":"Linux","password":true,"vac":true,"version":"7757534","steam_id":85568392924469989,"keywords":["nocrits","nodmgspread","payload","uncletopia"],"game_id":440,"stv_port":27016,"stv_name":"Uncletopia | Frankfurt | 1 | All Maps | STV","players":[{"user_id":652,"name":"MASTERMARTIAL","steam_id":76561198083582589,"connected_time":358000000000,"state":"active","ping":190},{"user_id":642,"name":"Nightmare","steam_id":76561198260470304,"connected_time":1523000000000,"state":"active","ping":59},{"user_id":653,"name":"last journey","steam_id":76561198072293646,"connected_time":336000000000,"state":"active","ping":197},{"user_id":649,"name":"minespweper","steam_id":76561199096919345,"connected_time":659000000000,"state":"active","ping":89},{"user_id":643,"name":"Atticted","steam_id":76561198819677845,"connected_time":1513000000000,"state":"active","ping":103},{"user_id":650,"name":"TryTane","steam_id":76561198133293111,"connected_time":602000000000,"state":"active","ping":44},{"user_id":595,"name":"R","steam_id":76561199379233899,"connected_time":4749000000000,"state":"active","ping":90},{"user_id":640,"name":"Silverowl","steam_id":76561198045773877,"connected_time":1710000000000,"state":"active","ping":50},{"user_id":654,"name":"I AM THE GOD OF WAR","steam_id":76561199072919985,"connected_time":323000000000,"state":"active","ping":90},{"user_id":655,"name":"Aeiptz101","steam_id":76561198272033909,"connected_time":293000000000,"state":"active","ping":224},{"user_id":656,"name":"Allereinan","steam_id":76561198342239906,"connected_time":226000000000,"state":"active","ping":112},{"user_id":658,"name":"Daikon","steam_id":76561198044017083,"connected_time":144000000000,"state":"active","ping":61},{"user_id":659,"name":"I AM THE STORM THAT IS APPROACH","steam_id":76561199142563418,"connected_time":106000000000,"state":"active","ping":103},{"user_id":660,"name":"MaximusTheFish","steam_id":76561199025652089,"connected_time":25000000000,"state":"spawning","ping":100}]},{"server_id":110,"name":"Uncletopia | Frankfurt | 2 | All Maps","name_short":"frk-2","host":"frk-1.de.uncletopia.com","port":27025,"enabled":true,"region":"eu","cc":"de","latitude":50.110924,"longitude":8.682127,"reserved":0,"last_update":"0001-01-01T00:00:00Z","name_a2s":"Uncletopia | Frankfurt | 2 | All Maps","protocol":17,"map":"cp_snakewater_final1","folder":"tf","game":"Team Fortress","app_id":440,"player_count":0,"max_players":24,"Bots":0,"server_type":"Dedicated","server_os":"Linux","password":true,"vac":true,"version":"7757534","steam_id":85568392924469990,"keywords":["cp","nocrits","nodmgspread","uncletopia"],"game_id":440,"stv_port":27026,"stv_name":"Uncletopia | Frankfurt | 2 | All Maps | STV","players":null},{"server_id":308,"name":"Uncletopia | Frankfurt | 3 | All Maps","name_short":"frk-3","host":"frk-1.de.uncletopia.com","port":27035,"enabled":true,"region":"eu","cc":"de","latitude":50.110924,"longitude":8.682127,"reserved":0,"last_update":"0001-01-01T00:00:00Z","name_a2s":"Uncletopia | Frankfurt | 3 | All Maps","protocol":17,"map":"pl_barnblitz","folder":"tf","game":"Team Fortress","app_id":440,"player_count":20,"max_players":24,"Bots":0,"server_type":"Dedicated","server_os":"Linux","password":true,"vac":true,"version":"7757534","steam_id":85568392924504274,"keywords":["nocrits","nodmgspread","payload","uncletopia"],"game_id":440,"stv_port":27036,"stv_name":"Uncletopia | Frankfurt | 3 | All Maps | STV","players":[{"user_id":287,"name":"Hegyi tahó F2P","steam_id":76561199219150356,"connected_time":924000000000,"state":"active","ping":63},{"user_id":304,"name":"Yony","steam_id":76561199070569941,"connected_time":37000000000,"state":"active","ping":50},{"user_id":286,"name":"Clark","steam_id":76561197998520785,"connected_time":1003000000000,"state":"active","ping":75},{"user_id":266,"name":"Signor_UpB","steam_id":76561199145637231,"connected_time":1873000000000,"state":"active","ping":199},{"user_id":270,"name":"'M'","steam_id":76561197985151052,"connected_time":1648000000000,"state":"active","ping":65},{"user_id":291,"name":"two z b","steam_id":76561199149307190,"connected_time":666000000000,"state":"active","ping":75},{"user_id":252,"name":"KillerQueen (he/they/she)","steam_id":76561199019399725,"connected_time":2801000000000,"state":"active","ping":61},{"user_id":268,"name":"roblan11","steam_id":76561198066839258,"connected_time":1797000000000,"state":"active","ping":46},{"user_id":292,"name":"Baki ඞ","steam_id":76561198193615529,"connected_time":621000000000,"state":"active","ping":59},{"user_id":296,"name":"Drekadóttir","steam_id":76561198119979169,"connected_time":493000000000,"state":"active","ping":68},{"user_id":297,"name":"Aneťák","steam_id":76561198159294906,"connected_time":476000000000,"state":"active","ping":57},{"user_id":303,"name":"Gandhi the Grater","steam_id":76561198051198555,"connected_time":236000000000,"state":"active","ping":71},{"user_id":271,"name":"scarf","steam_id":76561198118873912,"connected_time":1625000000000,"state":"active","ping":76},{"user_id":298,"name":"joebot","steam_id":76561197975606100,"connected_time":469000000000,"state":"active","ping":141},{"user_id":278,"name":"Jahusi!*","steam_id":76561197992445165,"connected_time":1418000000000,"state":"active","ping":56},{"user_id":299,"name":"Regan","steam_id":76561198100631086,"connected_time":466000000000,"state":"active","ping":66},{"user_id":280,"name":"misky","steam_id":76561198179070173,"connected_time":1406000000000,"state":"active","ping":48},{"user_id":281,"name":"VolcanicArts","steam_id":76561198063453246,"connected_time":1395000000000,"state":"active","ping":70},{"user_id":301,"name":"Нікітрон","steam_id":76561198044401080,"connected_time":446000000000,"state":"active","ping":61},{"user_id":283,"name":"luma","steam_id":76561198081649669,"connected_time":1380000000000,"state":"active","ping":63}]},{"server_id":309,"name":"Uncletopia | Frankfurt | 4 | All Maps","name_short":"frk-4","host":"frk-1.de.uncletopia.com","port":27045,"enabled":true,"region":"eu","cc":"de","latitude":50.110924,"longitude":8.682127,"reserved":0,"last_update":"0001-01-01T00:00:00Z","name_a2s":"Uncletopia | Frankfurt | 4 | All Maps","protocol":17,"map":"plr_bananabay","folder":"tf","game":"Team Fortress","app_id":440,"player_count":17,"max_players":24,"Bots":0,"server_type":"Dedicated","server_os":"Linux","password":true,"vac":true,"version":"7757534","steam_id":85568392924504275,"keywords":["nocrits","nodmgspread","payload","uncletopia"],"game_id":440,"stv_port":27046,"stv_name":"Uncletopia | Frankfurt | 4 | All Maps | STV","players":[{"user_id":151,"name":"Szymekc","steam_id":76561198009541119,"connected_time":1827000000000,"state":"active","ping":73},{"user_id":158,"name":"Utkunator","steam_id":76561198967463151,"connected_time":1754000000000,"state":"active","ping":90},{"user_id":180,"name":"Ates164","steam_id":76561199123074978,"connected_time":502000000000,"state":"active","ping":49},{"user_id":135,"name":"[HOL] Solringen","steam_id":76561198003584681,"connected_time":2646000000000,"state":"active","ping":72},{"user_id":183,"name":"Osmo","steam_id":76561199286764992,"connected_time":246000000000,"state":"active","ping":74},{"user_id":184,"name":"move like a human","steam_id":76561198043810656,"connected_time":199000000000,"state":"active","ping":78},{"user_id":163,"name":"arim","steam_id":76561197994600818,"connected_time":1460000000000,"state":"active","ping":45},{"user_id":120,"name":"123","steam_id":76561198113733477,"connected_time":3334000000000,"state":"active","ping":56},{"user_id":154,"name":"nynon","steam_id":76561197998432126,"connected_time":1806000000000,"state":"active","ping":87},{"user_id":155,"name":"The Perpetrator","steam_id":76561198825651550,"connected_time":1796000000000,"state":"active","ping":88},{"user_id":168,"name":"Roni Pepperoni","steam_id":76561198074979740,"connected_time":1317000000000,"state":"active","ping":51},{"user_id":177,"name":"Bond","steam_id":76561198070654906,"connected_time":858000000000,"state":"active","ping":58},{"user_id":179,"name":"Spetse","steam_id":76561197990649972,"connected_time":560000000000,"state":"active","ping":83},{"user_id":167,"name":"federal agent","steam_id":76561198136278172,"connected_time":1365000000000,"state":"active","ping":171},{"user_id":169,"name":"Videogamer","steam_id":76561198106012909,"connected_time":1311000000000,"state":"active","ping":69},{"user_id":110,"name":"yoursbzt","steam_id":76561198201866574,"connected_time":4126000000000,"state":"active","ping":81},{"user_id":160,"name":"Cheers Mate!","steam_id":76561198265192382,"connected_time":1717000000000,"state":"active","ping":55}]},{"server_id":310,"name":"Uncletopia | Frankfurt | 5 | All Maps","name_short":"frk-5","host":"frk-1.de.uncletopia.com","port":27055,"enabled":true,"region":"eu","cc":"de","latitude":50.110924,"longitude":8.682127,"reserved":0,"last_update":"0001-01-01T00:00:00Z","name_a2s":"Uncletopia | Frankfurt | 5 | All Maps","protocol":17,"map":"pl_upward","folder":"tf","game":"Team Fortress","app_id":440,"player_count":23,"max_players":24,"Bots":0,"server_type":"Dedicated","server_os":"Linux","password":true,"vac":true,"version":"7757534","steam_id":85568392924504277,"keywords":["nocrits","nodmgspread","payload","uncletopia"],"game_id":440,"stv_port":27056,"stv_name":"Uncletopia | Frankfurt | 5 | All Maps | STV","players":[{"user_id":235,"name":"alvinulv","steam_id":76561198024487177,"connected_time":2673000000000,"state":"active","ping":60},{"user_id":249,"name":"DM_Tiz","steam_id":76561198061478257,"connected_time":938000000000,"state":"active","ping":53},{"user_id":258,"name":"Deacon Dracul","steam_id":76561198046880663,"connected_time":484000000000,"state":"active","ping":92},{"user_id":237,"name":"Klinmir","steam_id":76561198352339376,"connected_time":2641000000000,"state":"active","ping":90},{"user_id":238,"name":"Mr Manager","steam_id":76561198021775885,"connected_time":2604000000000,"state":"active","ping":54},{"user_id":261,"name":"Paul Penix","steam_id":76561197996941396,"connected_time":350000000000,"state":"active","ping":58},{"user_id":239,"name":"Zatusrex","steam_id":76561198104147805,"connected_time":2601000000000,"state":"active","ping":75},{"user_id":250,"name":"Carry Krypl","steam_id":76561198136938121,"connected_time":848000000000,"state":"active","ping":60},{"user_id":243,"name":"Hasamnas","steam_id":76561199125038537,"connected_time":2516000000000,"state":"active","ping":56},{"user_id":251,"name":"Grim the lemon","steam_id":76561199083433988,"connected_time":832000000000,"state":"active","ping":67},{"user_id":248,"name":"The Mage","steam_id":76561198019147244,"connected_time":1030000000000,"state":"active","ping":61},{"user_id":252,"name":"Dauym i love pootis!!!","steam_id":76561198448050535,"connected_time":801000000000,"state":"active","ping":61},{"user_id":203,"name":"Vershal Smershal","steam_id":76561198116223995,"connected_time":4811000000000,"state":"active","ping":61},{"user_id":262,"name":"Charrky","steam_id":76561198054398642,"connected_time":235000000000,"state":"active","ping":54},{"user_id":230,"name":"profreshional cactus","steam_id":76561198837919828,"connected_time":3122000000000,"state":"active","ping":113},{"user_id":244,"name":"mcdonaldburger54@yahoo.com","steam_id":76561198846982793,"connected_time":2307000000000,"state":"active","ping":58},{"user_id":254,"name":"Whore","steam_id":76561198382749493,"connected_time":722000000000,"state":"active","ping":90},{"user_id":255,"name":"Chill Spirit","steam_id":76561198845001725,"connected_time":689000000000,"state":"active","ping":52},{"user_id":259,"name":"o_o","steam_id":76561198113045011,"connected_time":475000000000,"state":"active","ping":90},{"user_id":257,"name":"Datenegassie","steam_id":76561198089417032,"connected_time":604000000000,"state":"active","ping":71},{"user_id":207,"name":"Mi Manchi","steam_id":76561198171573129,"connected_time":4537000000000,"state":"active","ping":54},{"user_id":260,"name":"LOBZIK","steam_id":76561198114830120,"connected_time":448000000000,"state":"active","ping":79},{"user_id":221,"name":"Kvicha Kvaratskhelia","steam_id":76561198179339326,"connected_time":3823000000000,"state":"active","ping":76}]},{"server_id":311,"name":"Uncletopia | Frankfurt | 6 | All Maps","name_short":"frk-6","host":"frk-1.de.uncletopia.com","port":27065,"enabled":true,"region":"eu","cc":"de","latitude":50.110924,"longitude":8.682127,"reserved":0,"last_update":"0001-01-01T00:00:00Z","name_a2s":"Uncletopia | Frankfurt | 6 | All Maps","protocol":17,"map":"pl_upward","folder":"tf","game":"Team Fortress","app_id":440,"player_count":24,"max_players":24,"Bots":0,"server_type":"Dedicated","server_os":"Linux","password":true,"vac":true,"version":"7757534","steam_id":85568392924504278,"keywords":["nocrits","nodmgspread","payload","uncletopia"],"game_id":440,"stv_port":27066,"stv_name":"Uncletopia | Frankfurt | 6 | All Maps | STV","players":[{"user_id":76,"name":"Silva_mlon","steam_id":76561199310242047,"connected_time":1661000000000,"state":"active","ping":75},{"user_id":68,"name":"Mr Lidl","steam_id":76561198426522902,"connected_time":2072000000000,"state":"active","ping":64},{"user_id":17,"name":"The voice in your head","steam_id":76561198848650365,"connected_time":7001000000000,"state":"active","ping":85},{"user_id":86,"name":"Rashid Besythe","steam_id":76561198081477129,"connected_time":1191000000000,"state":"active","ping":69},{"user_id":82,"name":"bear in the big blue house enjo","steam_id":76561198133532980,"connected_time":1468000000000,"state":"active","ping":59},{"user_id":89,"name":"Eddy Merckx 2","steam_id":76561198150009727,"connected_time":461000000000,"state":"active","ping":69},{"user_id":103,"name":"bottle bush","steam_id":76561198102871434,"connected_time":19000000000,"state":"active","ping":63},{"user_id":74,"name":"FoOzTV","steam_id":76561197998636728,"connected_time":1699000000000,"state":"active","ping":74},{"user_id":98,"name":"Michael","steam_id":76561198003146906,"connected_time":131000000000,"state":"active","ping":60},{"user_id":99,"name":"Kvikk","steam_id":76561198063104117,"connected_time":116000000000,"state":"active","ping":88},{"user_id":70,"name":"addicted","steam_id":76561199129801006,"connected_time":1923000000000,"state":"active","ping":52},{"user_id":97,"name":"paranoia","steam_id":76561198274105878,"connected_time":197000000000,"state":"active","ping":80},{"user_id":88,"name":"SMELLY UNFORTUNATE","steam_id":76561198256755222,"connected_time":608000000000,"state":"active","ping":56},{"user_id":81,"name":"๖ۣۜSir Robbiewolf","steam_id":76561198001357988,"connected_time":1538000000000,"state":"active","ping":72},{"user_id":92,"name":".Fourbee","steam_id":76561198249832770,"connected_time":383000000000,"state":"active","ping":69},{"user_id":46,"name":"benifis163","steam_id":76561198420973492,"connected_time":3090000000000,"state":"active","ping":103},{"user_id":79,"name":"the joy of recycling","steam_id":76561198415564349,"connected_time":1601000000000,"state":"active","ping":62},{"user_id":80,"name":"edgar","steam_id":76561198212862423,"connected_time":1586000000000,"state":"active","ping":49},{"user_id":100,"name":"wr[2]","steam_id":76561198085260269,"connected_time":103000000000,"state":"active","ping":55},{"user_id":96,"name":"The Bushman","steam_id":76561198152576682,"connected_time":249000000000,"state":"active","ping":83},{"user_id":63,"name":"AwterSix","steam_id":76561198042561678,"connected_time":2343000000000,"state":"active","ping":59},{"user_id":66,"name":"Kendo-6","steam_id":76561198318748304,"connected_time":2285000000000,"state":"active","ping":122},{"user_id":56,"name":"EastmoreRandoms.","steam_id":76561198048921203,"connected_time":2958000000000,"state":"active","ping":67},{"user_id":101,"name":"VORTEX(COMMS OPEN)","steam_id":76561199074746528,"connected_time":96000000000,"state":"active","ping":62}]},{"server_id":23,"name":"Uncletopia | Frankfurt | 7 | Stopwatch Beta","name_short":"frk-7","host":"frk-1.de.uncletopia.com","port":27075,"enabled":true,"region":"eu","cc":"de","latitude":50.110924,"longitude":8.682127,"reserved":0,"last_update":"0001-01-01T00:00:00Z","name_a2s":"Uncletopia | Frankfurt | 7 | Stopwatch Beta","protocol":17,"map":"pl_swiftwater_final1","folder":"tf","game":"Team Fortress","app_id":440,"player_count":0,"max_players":24,"Bots":0,"server_type":"Dedicated","server_os":"Linux","password":true,"vac":true,"version":"7757534","steam_id":85568392924742827,"keywords":["nocrits","nodmgspread","payload","uncletopia"],"game_id":440,"stv_port":27076,"stv_name":"Uncletopia | Frankfurt | 7 | Stopwatch Beta | STV","players":null},{"server_id":24,"name":"Uncletopia | Frankfurt | 8 | Community","name_short":"frk-8","host":"frk-1.de.uncletopia.com","port":27085,"enabled":true,"region":"eu","cc":"de","latitude":50.110924,"longitude":8.682127,"reserved":0,"last_update":"0001-01-01T00:00:00Z","name_a2s":"Uncletopia | Frankfurt | 8 | Community","protocol":17,"map":"koth_viaduct","folder":"tf","game":"Team Fortress","app_id":440,"player_count":0,"max_players":24,"Bots":0,"server_type":"Dedicated","server_os":"Linux","password":true,"vac":true,"version":"7757534","steam_id":85568392924742828,"keywords":["cp","nocrits","nodmgspread","uncletopia"],"game_id":440,"stv_port":27086,"stv_name":"Uncletopia | Frankfurt | 8 | Community | STV","players":null},{"server_id":202,"name":"Uncletopia | Hong Kong | 1 | All Maps","name_short":"hgk-1","host":"hgk-1.hk.uncletopia.com","port":27015,"enabled":true,"region":"asia","cc":"hk","latitude":22.302711,"longitude":114.177216,"reserved":0,"last_update":"0001-01-01T00:00:00Z","name_a2s":"Uncletopia | Hong Kong | 1 | All Maps","protocol":17,"map":"cp_process_final","folder":"tf","game":"Team Fortress","app_id":440,"player_count":0,"max_players":24,"Bots":0,"server_type":"Dedicated","server_os":"Linux","password":true,"vac":true,"version":"7757534","steam_id":85568392924494504,"keywords":["cp","nocrits","nodmgspread","uncletopia"],"game_id":440,"stv_port":27016,"stv_name":"Uncletopia | Hong Kong | 1 | All Maps | STV","players":null},{"server_id":1,"name":"Uncletopia | Los Angeles | 1 | All Maps","name_short":"lax-1","host":"lax-1.us.uncletopia.com","port":27015,"enabled":true,"region":"us-west","cc":"us","latitude":33.94279,"longitude":-118.41004,"reserved":0,"last_update":"0001-01-01T00:00:00Z","name_a2s":"Uncletopia | Los Angeles | 1 | All Maps","protocol":17,"map":"koth_lakeside_final","folder":"tf","game":"Team Fortress","app_id":440,"player_count":4,"max_players":24,"Bots":0,"server_type":"Dedicated","server_os":"Linux","password":true,"vac":true,"version":"7757534","steam_id":85568392924469991,"keywords":["cp","nocrits","nodmgspread","uncletopia"],"game_id":440,"stv_port":27016,"stv_name":"Uncletopia | Los Angeles | 1 | All Maps | STV","players":[{"user_id":7,"name":"Golden.mp3","steam_id":76561199062764883,"connected_time":3624000000000,"state":"active","ping":47},{"user_id":12,"name":"paolobuts","steam_id":76561199047108638,"connected_time":397000000000,"state":"active","ping":53},{"user_id":9,"name":"Jhon Xina","steam_id":76561198411174051,"connected_time":2501000000000,"state":"active","ping":75},{"user_id":13,"name":"BoX_hEaD101","steam_id":76561198200875467,"connected_time":114000000000,"state":"active","ping":60}]},{"server_id":112,"name":"Uncletopia | Los Angeles | 2 | All Maps","name_short":"lax-2","host":"lax-1.us.uncletopia.com","port":27025,"enabled":true,"region":"us-west","cc":"us","latitude":33.94279,"longitude":-118.41004,"reserved":0,"last_update":"0001-01-01T00:00:00Z","name_a2s":"Uncletopia | Los Angeles | 2 | All Maps","protocol":17,"map":"koth_viaduct","folder":"tf","game":"Team Fortress","app_id":440,"player_count":0,"max_players":24,"Bots":0,"server_type":"Dedicated","server_os":"Linux","password":true,"vac":true,"version":"7757534","steam_id":85568392924469992,"keywords":["cp","nocrits","nodmgspread","uncletopia"],"game_id":440,"stv_port":27026,"stv_name":"Uncletopia | Los Angeles | 2 | All Maps | STV","players":null},{"server_id":324,"name":"Uncletopia | Los Angeles | 3 | All Maps","name_short":"lax-3","host":"lax-1.us.uncletopia.com","port":27035,"enabled":true,"region":"us-west","cc":"us","latitude":33.94279,"longitude":-118.41004,"reserved":0,"last_update":"0001-01-01T00:00:00Z","name_a2s":"Uncletopia | Los Angeles | 3 | All Maps","protocol":17,"map":"cp_altitude","folder":"tf","game":"Team Fortress","app_id":440,"player_count":0,"max_players":24,"Bots":0,"server_type":"Dedicated","server_os":"Linux","password":true,"vac":true,"version":"7757534","steam_id":85568392924510198,"keywords":["cp","nocrits","nodmgspread","uncletopia"],"game_id":440,"stv_port":27036,"stv_name":"Uncletopia | Los Angeles | 3 | All Maps | STV","players":null},{"server_id":25,"name":"Uncletopia | Los Angeles | 4 | Stopwatch Beta","name_short":"lax-4","host":"lax-1.us.uncletopia.com","port":27045,"enabled":true,"region":"us-west","cc":"us","latitude":33.94279,"longitude":-118.41004,"reserved":0,"last_update":"0001-01-01T00:00:00Z","name_a2s":"Uncletopia | Los Angeles | 4 | Stopwatch Beta","protocol":17,"map":"cp_dustbowl","folder":"tf","game":"Team Fortress","app_id":440,"player_count":0,"max_players":24,"Bots":0,"server_type":"Dedicated","server_os":"Linux","password":true,"vac":true,"version":"7757534","steam_id":85568392924510199,"keywords":["cp","nocrits","nodmgspread","uncletopia"],"game_id":440,"stv_port":27046,"stv_name":"Uncletopia | Los Angeles | 4 | Stopwatch Beta | STV","players":null},{"server_id":11,"name":"Uncletopia | London | 1 | All Maps","name_short":"lon-1","host":"lon-1.uk.uncletopia.com","port":27015,"enabled":true,"region":"eu","cc":"gb","latitude":51.509865,"longitude":-0.118092,"reserved":0,"last_update":"0001-01-01T00:00:00Z","name_a2s":"Uncletopia | London | 1 | All Maps","protocol":17,"map":"pl_upward","folder":"tf","game":"Team Fortress","app_id":440,"player_count":22,"max_players":24,"Bots":0,"server_type":"Dedicated","server_os":"Linux","password":true,"vac":true,"version":"7757534","steam_id":85568392924367362,"keywords":["nocrits","nodmgspread","payload","uncletopia"],"game_id":440,"stv_port":27016,"stv_name":"Uncletopia | London | 1 | All Maps | STV","players":[{"user_id":531,"name":"DeadpoolDealsDamage","steam_id":76561198399472908,"connected_time":1520000000000,"state":"active","ping":52},{"user_id":561,"name":"lanzer","steam_id":76561198049983016,"connected_time":0,"state":"spawning","ping":128},{"user_id":549,"name":"wasto-/-™","steam_id":76561198102888038,"connected_time":925000000000,"state":"active","ping":59},{"user_id":553,"name":"Jaydyn","steam_id":76561198140326797,"connected_time":531000000000,"state":"active","ping":134},{"user_id":551,"name":"Rustyy","steam_id":76561198973687664,"connected_time":753000000000,"state":"active","ping":56},{"user_id":534,"name":"Thalgorock","steam_id":76561198195315022,"connected_time":1359000000000,"state":"active","ping":67},{"user_id":536,"name":"Subterranean","steam_id":76561198106684566,"connected_time":1204000000000,"state":"active","ping":83},{"user_id":537,"name":"The one True Mads","steam_id":76561197999204692,"connected_time":1201000000000,"state":"active","ping":70},{"user_id":559,"name":"aslloc((sizeof(U64) \u003c\u003c 0xff));","steam_id":76561198365870439,"connected_time":61000000000,"state":"active","ping":103},{"user_id":495,"name":"dec","steam_id":76561198009660168,"connected_time":4207000000000,"state":"active","ping":54},{"user_id":539,"name":"true","steam_id":76561198031145243,"connected_time":1188000000000,"state":"active","ping":82},{"user_id":511,"name":"Aaron","steam_id":76561197990046953,"connected_time":3005000000000,"state":"active","ping":74},{"user_id":554,"name":"Roe Jogan","steam_id":76561198871991529,"connected_time":514000000000,"state":"active","ping":64},{"user_id":529,"name":"sassy the sasquatch","steam_id":76561198844060342,"connected_time":1931000000000,"state":"active","ping":45},{"user_id":544,"name":"DN77","steam_id":76561199121396324,"connected_time":1132000000000,"state":"active","ping":84},{"user_id":557,"name":"FADe","steam_id":76561197960400908,"connected_time":237000000000,"state":"active","ping":49},{"user_id":514,"name":"ciliorkun18","steam_id":76561198228942500,"connected_time":2758000000000,"state":"active","ping":95},{"user_id":550,"name":"nudjura","steam_id":76561198281986139,"connected_time":890000000000,"state":"active","ping":45},{"user_id":560,"name":"Guwop","steam_id":76561197970425737,"connected_time":60000000000,"state":"active","ping":139},{"user_id":523,"name":"quake 2 hater","steam_id":76561198101451654,"connected_time":2497000000000,"state":"active","ping":50},{"user_id":555,"name":"Floris","steam_id":76561198001717422,"connected_time":513000000000,"state":"active","ping":57}]},{"server_id":114,"name":"Uncletopia | London | 2 | All Maps","name_short":"lon-2","host":"lon-1.uk.uncletopia.com","port":27025,"enabled":true,"region":"eu","cc":"gb","latitude":51.509865,"longitude":-0.118092,"reserved":0,"last_update":"0001-01-01T00:00:00Z","name_a2s":"Uncletopia | London | 2 | All Maps","protocol":17,"map":"cp_process_final","folder":"tf","game":"Team Fortress","app_id":440,"player_count":21,"max_players":24,"Bots":0,"server_type":"Dedicated","server_os":"Linux","password":true,"vac":true,"version":"7757534","steam_id":85568392924470941,"keywords":["cp","nocrits","nodmgspread","uncletopia"],"game_id":440,"stv_port":27026,"stv_name":"Uncletopia | London | 2 | All Maps | STV","players":[{"user_id":327,"name":"Mito","steam_id":76561199302407433,"connected_time":129000000000,"state":"active","ping":68},{"user_id":319,"name":"kektuse","steam_id":76561198088426580,"connected_time":412000000000,"state":"active","ping":74},{"user_id":272,"name":"Purps","steam_id":76561198053886680,"connected_time":2443000000000,"state":"active","ping":47},{"user_id":315,"name":"RudiPrico4","steam_id":76561199014381495,"connected_time":561000000000,"state":"active","ping":60},{"user_id":301,"name":"Fat Pigeon","steam_id":76561198817940142,"connected_time":1063000000000,"state":"active","ping":59},{"user_id":321,"name":"BisaGone!","steam_id":76561199002624709,"connected_time":398000000000,"state":"active","ping":48},{"user_id":322,"name":"Captain HandicappedCock","steam_id":76561198109850402,"connected_time":388000000000,"state":"active","ping":68},{"user_id":278,"name":"Princess Fuzz","steam_id":76561198025783000,"connected_time":2129000000000,"state":"active","ping":39},{"user_id":328,"name":"Leszy","steam_id":76561198372172135,"connected_time":109000000000,"state":"active","ping":67},{"user_id":318,"name":"Kurage","steam_id":76561198021221288,"connected_time":449000000000,"state":"active","ping":75},{"user_id":253,"name":"Tomau5","steam_id":76561198027409468,"connected_time":5232000000000,"state":"active","ping":52},{"user_id":317,"name":"Bronze Age GRINDSET","steam_id":76561198859118263,"connected_time":463000000000,"state":"active","ping":136},{"user_id":320,"name":"Dwevy","steam_id":76561198090379437,"connected_time":411000000000,"state":"active","ping":54},{"user_id":302,"name":"Egor Pomidor","steam_id":76561199175688390,"connected_time":1039000000000,"state":"active","ping":83},{"user_id":329,"name":"day","steam_id":76561198260265302,"connected_time":56000000000,"state":"active","ping":40},{"user_id":267,"name":"Meddler","steam_id":76561198033001402,"connected_time":3707000000000,"state":"active","ping":35},{"user_id":242,"name":"Grillem Dafoe","steam_id":76561198306874574,"connected_time":6757000000000,"state":"active","ping":60},{"user_id":324,"name":"Ash 💛","steam_id":76561198260495385,"connected_time":362000000000,"state":"active","ping":62},{"user_id":283,"name":"0","steam_id":76561198267909207,"connected_time":2081000000000,"state":"active","ping":89},{"user_id":237,"name":"goblin","steam_id":76561198151122921,"connected_time":6998000000000,"state":"active","ping":75},{"user_id":305,"name":"player","steam_id":76561198054474684,"connected_time":1026000000000,"state":"active","ping":75}]},{"server_id":320,"name":"Uncletopia | London | 3 | All Maps","name_short":"lon-3","host":"lon-1.uk.uncletopia.com","port":27035,"enabled":true,"region":"eu","cc":"gb","latitude":51.509865,"longitude":-0.118092,"reserved":0,"last_update":"0001-01-01T00:00:00Z","name_a2s":"Uncletopia | London | 3 | All Maps","protocol":17,"map":"pl_frontier_final","folder":"tf","game":"Team Fortress","app_id":440,"player_count":24,"max_players":24,"Bots":0,"server_type":"Dedicated","server_os":"Linux","password":true,"vac":true,"version":"7757534","steam_id":85568392924510192,"keywords":["nocrits","nodmgspread","payload","uncletopia"],"game_id":440,"stv_port":27036,"stv_name":"Uncletopia | London | 3 | All Maps | STV","players":[{"user_id":139,"name":"♥ TRANS RIGHTS ♥","steam_id":76561198066258544,"connected_time":5083000000000,"state":"active","ping":62},{"user_id":191,"name":"Traveandre","steam_id":76561198372637536,"connected_time":174000000000,"state":"active","ping":60},{"user_id":188,"name":"!Trying to have fun!","steam_id":76561198151370212,"connected_time":776000000000,"state":"active","ping":72},{"user_id":192,"name":"makarov","steam_id":76561198363892870,"connected_time":117000000000,"state":"active","ping":70},{"user_id":149,"name":"Relix18144","steam_id":76561199202454318,"connected_time":4452000000000,"state":"active","ping":93},{"user_id":169,"name":"Zonts","steam_id":76561198850176432,"connected_time":2640000000000,"state":"active","ping":87},{"user_id":182,"name":"JohkupohkuXD","steam_id":76561198391108762,"connected_time":1116000000000,"state":"active","ping":93},{"user_id":173,"name":"zvekan","steam_id":76561198381101196,"connected_time":2288000000000,"state":"active","ping":72},{"user_id":152,"name":"zaleek69","steam_id":76561198058877595,"connected_time":3771000000000,"state":"active","ping":78},{"user_id":168,"name":"Salih","steam_id":76561198287934839,"connected_time":2832000000000,"state":"active","ping":59},{"user_id":120,"name":"V","steam_id":76561199006462039,"connected_time":6114000000000,"state":"active","ping":68},{"user_id":138,"name":"bussy overload","steam_id":76561198413545609,"connected_time":5176000000000,"state":"active","ping":48},{"user_id":123,"name":"Forgetful","steam_id":76561198147445965,"connected_time":5823000000000,"state":"active","ping":53},{"user_id":161,"name":"Minimi","steam_id":76561198873850443,"connected_time":3189000000000,"state":"active","ping":45},{"user_id":128,"name":"darktheif54","steam_id":76561198043650119,"connected_time":5650000000000,"state":"active","ping":52},{"user_id":125,"name":"rob","steam_id":76561198122211848,"connected_time":5789000000000,"state":"active","ping":86},{"user_id":179,"name":"Gorgeous George","steam_id":76561198144256544,"connected_time":1673000000000,"state":"active","ping":46},{"user_id":162,"name":"koca kolahan","steam_id":76561199033153779,"connected_time":3169000000000,"state":"active","ping":88},{"user_id":154,"name":"steakman10","steam_id":76561198152584691,"connected_time":3727000000000,"state":"active","ping":68},{"user_id":132,"name":"Pinkchup","steam_id":76561198106802803,"connected_time":5513000000000,"state":"active","ping":77},{"user_id":189,"name":"CuteButDeadInside(f2p)","steam_id":76561199170424238,"connected_time":696000000000,"state":"active","ping":57},{"user_id":187,"name":"Boneless Ham","steam_id":76561198359038813,"connected_time":939000000000,"state":"active","ping":85},{"user_id":155,"name":"pezza","steam_id":76561197995173247,"connected_time":3717000000000,"state":"active","ping":56},{"user_id":178,"name":"Gnarville","steam_id":76561198006373329,"connected_time":1964000000000,"state":"active","ping":49}]},{"server_id":321,"name":"Uncletopia | London | 4 | All Maps","name_short":"lon-4","host":"lon-1.uk.uncletopia.com","port":27045,"enabled":true,"region":"eu","cc":"gb","latitude":51.509865,"longitude":-0.118092,"reserved":0,"last_update":"0001-01-01T00:00:00Z","name_a2s":"Uncletopia | London | 4 | All Maps","protocol":17,"map":"pl_barnblitz","folder":"tf","game":"Team Fortress","app_id":440,"player_count":22,"max_players":24,"Bots":0,"server_type":"Dedicated","server_os":"Linux","password":true,"vac":true,"version":"7757534","steam_id":85568392924510193,"keywords":["nocrits","nodmgspread","payload","uncletopia"],"game_id":440,"stv_port":27046,"stv_name":"Uncletopia | London | 4 | All Maps | STV","players":[{"user_id":213,"name":"Adopted?","steam_id":76561198118667043,"connected_time":114000000000,"state":"active","ping":51},{"user_id":214,"name":"jovi_","steam_id":76561198449280552,"connected_time":108000000000,"state":"active","ping":49},{"user_id":193,"name":"Lempii","steam_id":76561198433507634,"connected_time":1152000000000,"state":"active","ping":110},{"user_id":199,"name":"Turtlestronaut","steam_id":76561198111821632,"connected_time":984000000000,"state":"active","ping":53},{"user_id":190,"name":"etc","steam_id":76561197998394797,"connected_time":1505000000000,"state":"active","ping":49},{"user_id":215,"name":"Evil weed wizard","steam_id":76561198076137526,"connected_time":19000000000,"state":"spawning","ping":47},{"user_id":170,"name":"Boil em mash em","steam_id":76561198026508026,"connected_time":3377000000000,"state":"active","ping":64},{"user_id":205,"name":"bANji","steam_id":76561198108898161,"connected_time":819000000000,"state":"active","ping":54},{"user_id":188,"name":"Elliot","steam_id":76561197997418037,"connected_time":1802000000000,"state":"active","ping":66},{"user_id":200,"name":"Clitorina","steam_id":76561198077570815,"connected_time":945000000000,"state":"active","ping":44},{"user_id":177,"name":"Egap","steam_id":76561199070653454,"connected_time":2623000000000,"state":"active","ping":98},{"user_id":210,"name":"AmadStatistician","steam_id":76561198163654770,"connected_time":534000000000,"state":"active","ping":65},{"user_id":195,"name":"skilltissues","steam_id":76561198025828664,"connected_time":1100000000000,"state":"active","ping":58},{"user_id":209,"name":"limbicsystem","steam_id":76561198025612680,"connected_time":563000000000,"state":"active","ping":54},{"user_id":202,"name":"owlsie","steam_id":76561198094883280,"connected_time":909000000000,"state":"active","ping":65},{"user_id":192,"name":"sudo","steam_id":76561198045575797,"connected_time":1161000000000,"state":"active","ping":63},{"user_id":211,"name":"Bafien Tharbèze","steam_id":76561197976407849,"connected_time":382000000000,"state":"active","ping":54},{"user_id":203,"name":"Nope","steam_id":76561198069066522,"connected_time":905000000000,"state":"active","ping":75},{"user_id":206,"name":"gabs","steam_id":76561198068510720,"connected_time":819000000000,"state":"active","ping":59},{"user_id":149,"name":"Sunchouse","steam_id":76561198453479806,"connected_time":4876000000000,"state":"active","ping":84},{"user_id":204,"name":"GuSkand","steam_id":76561198043775605,"connected_time":895000000000,"state":"active","ping":95},{"user_id":208,"name":"Aimrow","steam_id":76561198023275245,"connected_time":729000000000,"state":"active","ping":90}]},{"server_id":21,"name":"Uncletopia | London | 5 | All Maps","name_short":"lon-5","host":"lon-1.uk.uncletopia.com","port":27055,"enabled":true,"region":"eu","cc":"gb","latitude":51.509865,"longitude":-0.118092,"reserved":0,"last_update":"0001-01-01T00:00:00Z","name_a2s":"Uncletopia | London | 5 | All Maps","protocol":17,"map":"pl_pier","folder":"tf","game":"Team Fortress","app_id":440,"player_count":0,"max_players":24,"Bots":0,"server_type":"Dedicated","server_os":"Linux","password":true,"vac":true,"version":"7757534","steam_id":85568392924742829,"keywords":["nocrits","nodmgspread","payload","uncletopia"],"game_id":440,"stv_port":27056,"stv_name":"Uncletopia | London | 5 | All Maps | STV","players":null},{"server_id":22,"name":"Uncletopia | London | 6 | All Maps","name_short":"lon-6","host":"lon-1.uk.uncletopia.com","port":27065,"enabled":true,"region":"eu","cc":"gb","latitude":51.509865,"longitude":-0.118092,"reserved":0,"last_update":"0001-01-01T00:00:00Z","name_a2s":"Uncletopia | London | 6 | All Maps","protocol":17,"map":"pl_upward","folder":"tf","game":"Team Fortress","app_id":440,"player_count":24,"max_players":24,"Bots":0,"server_type":"Dedicated","server_os":"Linux","password":true,"vac":true,"version":"7757534","steam_id":85568392924742830,"keywords":["nocrits","nodmgspread","payload","uncletopia"],"game_id":440,"stv_port":27066,"stv_name":"Uncletopia | London | 6 | All Maps | STV","players":[{"user_id":182,"name":"Vezage","steam_id":76561198064916164,"connected_time":693000000000,"state":"active","ping":72},{"user_id":89,"name":"Mr. Mundy","steam_id":76561198132008918,"connected_time":6673000000000,"state":"active","ping":82},{"user_id":190,"name":"Whirlwind","steam_id":76561198942024930,"connected_time":262000000000,"state":"active","ping":103},{"user_id":178,"name":"Umbro","steam_id":76561198087930438,"connected_time":1358000000000,"state":"active","ping":83},{"user_id":173,"name":"eeeeee","steam_id":76561198017786875,"connected_time":1484000000000,"state":"active","ping":59},{"user_id":114,"name":"Sigma","steam_id":76561199088506542,"connected_time":5182000000000,"state":"active","ping":60},{"user_id":163,"name":"Farao Ramses II","steam_id":76561198078722712,"connected_time":1995000000000,"state":"active","ping":44},{"user_id":189,"name":"rummy","steam_id":76561197997573379,"connected_time":292000000000,"state":"active","ping":49},{"user_id":187,"name":"MAKENTAKEN","steam_id":76561199127359587,"connected_time":386000000000,"state":"active","ping":100},{"user_id":179,"name":"One Shiny Boi™","steam_id":76561198199193627,"connected_time":1244000000000,"state":"active","ping":75},{"user_id":161,"name":"sex haver","steam_id":76561198798892497,"connected_time":2175000000000,"state":"active","ping":50},{"user_id":140,"name":"hatsune miku","steam_id":76561198069649097,"connected_time":3806000000000,"state":"active","ping":50},{"user_id":148,"name":"Government Hooker","steam_id":76561198005361358,"connected_time":3230000000000,"state":"active","ping":49},{"user_id":192,"name":"Medieval Doktor","steam_id":76561198075373362,"connected_time":192000000000,"state":"active","ping":38},{"user_id":191,"name":"egirls are ruining my life","steam_id":76561198152368271,"connected_time":253000000000,"state":"active","ping":75},{"user_id":158,"name":"balanced diet","steam_id":76561198240320806,"connected_time":2441000000000,"state":"active","ping":74},{"user_id":180,"name":"Kodutah","steam_id":76561198203405574,"connected_time":1182000000000,"state":"active","ping":66},{"user_id":55,"name":"Hexagon","steam_id":76561198151205758,"connected_time":8473000000000,"state":"active","ping":60},{"user_id":175,"name":"Carrotcracker","steam_id":76561198034862396,"connected_time":1468000000000,"state":"active","ping":73},{"user_id":144,"name":"Welder","steam_id":76561198355300561,"connected_time":3407000000000,"state":"active","ping":70},{"user_id":167,"name":"Spajro","steam_id":76561198257383813,"connected_time":1846000000000,"state":"active","ping":52},{"user_id":176,"name":"generic alias","steam_id":76561198271607226,"connected_time":1468000000000,"state":"active","ping":90},{"user_id":160,"name":"FLYING DWARF","steam_id":76561199048614286,"connected_time":2303000000000,"state":"active","ping":109},{"user_id":186,"name":"diogenes","steam_id":76561198080387138,"connected_time":620000000000,"state":"active","ping":53}]},{"server_id":40,"name":"Uncletopia | London | 7 | No Payload","name_short":"lon-7","host":"lon-1.uk.uncletopia.com","port":27075,"enabled":true,"region":"eu","cc":"gb","latitude":51.509865,"longitude":-0.118092,"reserved":0,"last_update":"0001-01-01T00:00:00Z","name_a2s":"Uncletopia | London | 7 | No Payload","protocol":17,"map":"koth_highpass","folder":"tf","game":"Team Fortress","app_id":440,"player_count":0,"max_players":24,"Bots":0,"server_type":"Dedicated","server_os":"Linux","password":true,"vac":true,"version":"7757534","steam_id":85568392924964314,"keywords":["cp","nocrits","nodmgspread","uncletopia"],"game_id":440,"stv_port":27076,"stv_name":"Uncletopia | London | 7 | No Payload | STV","players":null},{"server_id":41,"name":"Uncletopia | London | 8 | Community","name_short":"lon-8","host":"lon-1.uk.uncletopia.com","port":27085,"enabled":true,"region":"eu","cc":"gb","latitude":51.509865,"longitude":-0.118092,"reserved":0,"last_update":"0001-01-01T00:00:00Z","name_a2s":"Uncletopia | London | 8 | Community","protocol":17,"map":"cp_altitude","folder":"tf","game":"Team Fortress","app_id":440,"player_count":0,"max_players":24,"Bots":0,"server_type":"Dedicated","server_os":"Linux","password":true,"vac":true,"version":"7757534","steam_id":85568392924964315,"keywords":["cp","nocrits","nodmgspread","uncletopia"],"game_id":440,"stv_port":27086,"stv_name":"Uncletopia | London | 8 | Community | STV","players":null},{"server_id":300,"name":"Uncletopia | Montréal | 1 | All Maps","name_short":"mtl-1","host":"mtl-1.ca.uncletopia.com","port":27015,"enabled":true,"region":"us-east","cc":"ca","latitude":45.50889,"longitude":-73.56167,"reserved":0,"last_update":"0001-01-01T00:00:00Z","name_a2s":"Uncletopia | Montréal | 1 | All Maps","protocol":17,"map":"pl_pier","folder":"tf","game":"Team Fortress","app_id":440,"player_count":0,"max_players":24,"Bots":0,"server_type":"Dedicated","server_os":"Linux","password":true,"vac":true,"version":"7757534","steam_id":85568392924500087,"keywords":["nocrits","nodmgspread","payload","uncletopia"],"game_id":440,"stv_port":27016,"stv_name":"Uncletopia | Montréal | 1 | All Maps | STV","players":null},{"server_id":301,"name":"Uncletopia | Montréal | 2 | All Maps","name_short":"mtl-2","host":"mtl-1.ca.uncletopia.com","port":27025,"enabled":true,"region":"us-east","cc":"ca","latitude":45.50889,"longitude":-73.56167,"reserved":0,"last_update":"0001-01-01T00:00:00Z","name_a2s":"Uncletopia | Montréal | 2 | All Maps","protocol":17,"map":"koth_viaduct","folder":"tf","game":"Team Fortress","app_id":440,"player_count":6,"max_players":24,"Bots":0,"server_type":"Dedicated","server_os":"Linux","password":true,"vac":true,"version":"7757534","steam_id":85568392924500088,"keywords":["cp","nocrits","nodmgspread","uncletopia"],"game_id":440,"stv_port":27026,"stv_name":"Uncletopia | Montréal | 2 | All Maps | STV","players":[{"user_id":95,"name":"i'm telling reddit","steam_id":76561198190323610,"connected_time":535000000000,"state":"active","ping":62},{"user_id":58,"name":"a mass hallucination","steam_id":76561198259092181,"connected_time":4062000000000,"state":"active","ping":57},{"user_id":91,"name":"HOI","steam_id":76561198061182117,"connected_time":907000000000,"state":"active","ping":121},{"user_id":94,"name":"Ace","steam_id":76561199235346655,"connected_time":717000000000,"state":"active","ping":54},{"user_id":78,"name":"nat","steam_id":76561198865090309,"connected_time":1841000000000,"state":"active","ping":70},{"user_id":92,"name":"What day is it?","steam_id":76561199056736682,"connected_time":889000000000,"state":"active","ping":73}]},{"server_id":302,"name":"Uncletopia | Montréal | 3 | All Maps","name_short":"mtl-3","host":"mtl-1.ca.uncletopia.com","port":27035,"enabled":true,"region":"us-east","cc":"ca","latitude":45.50889,"longitude":-73.56167,"reserved":0,"last_update":"0001-01-01T00:00:00Z","name_a2s":"Uncletopia | Montréal | 3 | All Maps","protocol":17,"map":"pl_frontier_final","folder":"tf","game":"Team Fortress","app_id":440,"player_count":0,"max_players":24,"Bots":0,"server_type":"Dedicated","server_os":"Linux","password":true,"vac":true,"version":"7757534","steam_id":85568392924500089,"keywords":["nocrits","nodmgspread","payload","uncletopia"],"game_id":440,"stv_port":27036,"stv_name":"Uncletopia | Montréal | 3 | All Maps | STV","players":null},{"server_id":303,"name":"Uncletopia | Montréal | 4 | No Payload","name_short":"mtl-4","host":"mtl-1.ca.uncletopia.com","port":27045,"enabled":true,"region":"us-east","cc":"ca","latitude":45.50889,"longitude":-73.56167,"reserved":0,"last_update":"0001-01-01T00:00:00Z","name_a2s":"Uncletopia | Montréal | 4 | No Payload","protocol":17,"map":"pl_pier","folder":"tf","game":"Team Fortress","app_id":440,"player_count":0,"max_players":24,"Bots":0,"server_type":"Dedicated","server_os":"Linux","password":true,"vac":true,"version":"7757534","steam_id":85568392924500090,"keywords":["nocrits","nodmgspread","payload","uncletopia"],"game_id":440,"stv_port":27046,"stv_name":"Uncletopia | Montréal | 4 | No Payload | STV","players":null},{"server_id":13,"name":"Uncletopia | New York City | 1 | All Maps","name_short":"nyc-1","host":"nyc-1.us.uncletopia.com","port":27015,"enabled":true,"region":"us-east","cc":"us","latitude":40.73061,"longitude":-73.93524,"reserved":0,"last_update":"0001-01-01T00:00:00Z","name_a2s":"Uncletopia | New York City | 1 | All Maps","protocol":17,"map":"plr_hightower","folder":"tf","game":"Team Fortress","app_id":440,"player_count":22,"max_players":24,"Bots":0,"server_type":"Dedicated","server_os":"Linux","password":true,"vac":true,"version":"7757534","steam_id":85568392924469993,"keywords":["nocrits","nodmgspread","payload","uncletopia"],"game_id":440,"stv_port":27016,"stv_name":"Uncletopia | New York City | 1 | All Maps | STV","players":[{"user_id":29,"name":"Average Engineer Main","steam_id":76561197999657118,"connected_time":2604000000000,"state":"active","ping":303},{"user_id":30,"name":"Professional Brohamad","steam_id":76561198824025210,"connected_time":2227000000000,"state":"active","ping":61},{"user_id":45,"name":"Big Boy B-Franks","steam_id":76561198050292373,"connected_time":908000000000,"state":"active","ping":84},{"user_id":32,"name":"Maple!","steam_id":76561199315167502,"connected_time":1591000000000,"state":"active","ping":61},{"user_id":64,"name":"Cecil","steam_id":76561199309028776,"connected_time":306000000000,"state":"active","ping":44},{"user_id":34,"name":"rip muhammad ali","steam_id":76561198072640720,"connected_time":1465000000000,"state":"active","ping":47},{"user_id":38,"name":"Shuu","steam_id":76561199199180558,"connected_time":1133000000000,"state":"active","ping":55},{"user_id":36,"name":"Bilgecrank","steam_id":76561197967191751,"connected_time":1382000000000,"state":"active","ping":102},{"user_id":47,"name":"chiswola","steam_id":76561198046920142,"connected_time":884000000000,"state":"active","ping":91},{"user_id":65,"name":"James","steam_id":76561198055687973,"connected_time":292000000000,"state":"active","ping":64},{"user_id":40,"name":"tulpa","steam_id":76561198013253513,"connected_time":1060000000000,"state":"active","ping":65},{"user_id":46,"name":"20 miles for a Quaalude","steam_id":76561198042579477,"connected_time":902000000000,"state":"active","ping":56},{"user_id":48,"name":"ttv/Muenstier","steam_id":76561198312153623,"connected_time":881000000000,"state":"active","ping":45},{"user_id":49,"name":"Fudgely","steam_id":76561198039425862,"connected_time":875000000000,"state":"active","ping":63},{"user_id":61,"name":"Just Luke","steam_id":76561198072134257,"connected_time":428000000000,"state":"active","ping":46},{"user_id":51,"name":"Humble Leader","steam_id":76561198169966346,"connected_time":871000000000,"state":"active","ping":66},{"user_id":52,"name":"StarKillerX7","steam_id":76561198400952294,"connected_time":822000000000,"state":"active","ping":44},{"user_id":54,"name":"Wahooka","steam_id":76561197962240925,"connected_time":701000000000,"state":"active","ping":48},{"user_id":56,"name":"BingoBingus","steam_id":76561198113401215,"connected_time":669000000000,"state":"active","ping":70},{"user_id":57,"name":"breesey","steam_id":76561198341658826,"connected_time":651000000000,"state":"active","ping":42},{"user_id":58,"name":"Bingus Floppa","steam_id":76561198318970846,"connected_time":630000000000,"state":"active","ping":58},{"user_id":59,"name":"azr","steam_id":76561198271979034,"connected_time":621000000000,"state":"active","ping":46}]},{"server_id":14,"name":"Uncletopia | New York City | 2 | All Maps","name_short":"nyc-2","host":"nyc-1.us.uncletopia.com","port":27025,"enabled":true,"region":"us-east","cc":"us","latitude":40.73061,"longitude":-73.93524,"reserved":0,"last_update":"0001-01-01T00:00:00Z","name_a2s":"Uncletopia | New York City | 2 | All Maps","protocol":17,"map":"plr_hightower","folder":"tf","game":"Team Fortress","app_id":440,"player_count":0,"max_players":24,"Bots":0,"server_type":"Dedicated","server_os":"Linux","password":true,"vac":true,"version":"7757534","steam_id":85568392924469994,"keywords":["nocrits","nodmgspread","payload","uncletopia"],"game_id":440,"stv_port":27026,"stv_name":"Uncletopia | New York City | 2 | All Maps | STV","players":null},{"server_id":15,"name":"Uncletopia | New York City | 3 | Stopwatch Beta","name_short":"nyc-3","host":"nyc-1.us.uncletopia.com","port":27035,"enabled":true,"region":"us-east","cc":"us","latitude":40.73061,"longitude":-73.93524,"reserved":0,"last_update":"0001-01-01T00:00:00Z","name_a2s":"Uncletopia | New York City | 3 | Stopwatch Beta","protocol":17,"map":"koth_cascade","folder":"tf","game":"Team Fortress","app_id":440,"player_count":0,"max_players":24,"Bots":0,"server_type":"Dedicated","server_os":"Linux","password":true,"vac":true,"version":"7757534","steam_id":85568392924742820,"keywords":["cp","nocrits","nodmgspread","uncletopia"],"game_id":440,"stv_port":27036,"stv_name":"Uncletopia | New York City | 3 | Stopwatch Beta | STV","players":null},{"server_id":16,"name":"Uncletopia | New York City | 4 | Community","name_short":"nyc-4","host":"nyc-1.us.uncletopia.com","port":27045,"enabled":true,"region":"us-east","cc":"us","latitude":40.73061,"longitude":-73.93524,"reserved":0,"last_update":"0001-01-01T00:00:00Z","name_a2s":"Uncletopia | New York City | 4 | Community","protocol":17,"map":"pl_frontier_final","folder":"tf","game":"Team Fortress","app_id":440,"player_count":0,"max_players":24,"Bots":0,"server_type":"Dedicated","server_os":"Linux","password":true,"vac":true,"version":"7757534","steam_id":85568392924742821,"keywords":["nocrits","nodmgspread","payload","uncletopia"],"game_id":440,"stv_port":27046,"stv_name":"Uncletopia | New York City | 4 | Community | STV","players":null},{"server_id":142,"name":"Uncletopia | São Paulo | 1 | All Maps","name_short":"sao-1","host":"sao-1.br.uncletopia.com","port":27015,"enabled":true,"region":"sa","cc":"br","latitude":-23.533773,"longitude":-46.62529,"reserved":0,"last_update":"0001-01-01T00:00:00Z","name_a2s":"Uncletopia | São Paulo | 1 | All Maps","protocol":17,"map":"koth_viaduct","folder":"tf","game":"Team Fortress","app_id":440,"player_count":0,"max_players":24,"Bots":0,"server_type":"Dedicated","server_os":"Linux","password":true,"vac":true,"version":"7757534","steam_id":85568392924469996,"keywords":["cp","nocrits","nodmgspread","uncletopia"],"game_id":440,"stv_port":27016,"stv_name":"Uncletopia | São Paulo | 1 | All Maps | STV","players":null},{"server_id":143,"name":"Uncletopia | São Paulo | 2 | All Maps","name_short":"sao-2","host":"sao-2.br.uncletopia.com","port":27015,"enabled":true,"region":"sa","cc":"br","latitude":-23.533773,"longitude":-46.62529,"reserved":0,"last_update":"0001-01-01T00:00:00Z","name_a2s":"Uncletopia | São Paulo | 2 | All Maps","protocol":17,"map":"koth_viaduct","folder":"tf","game":"Team Fortress","app_id":440,"player_count":0,"max_players":24,"Bots":0,"server_type":"Dedicated","server_os":"Linux","password":true,"vac":true,"version":"7757534","steam_id":85568392924485349,"keywords":["cp","nocrits","nodmgspread","uncletopia"],"game_id":440,"stv_port":27016,"stv_name":"Uncletopia | São Paulo | 2 | All Maps | STV","players":null},{"server_id":7,"name":"Uncletopia | Seattle | 1 | All Maps","name_short":"sea-1","host":"sea-1.us.uncletopia.com","port":27015,"enabled":true,"region":"us-west","cc":"us","latitude":47.608013,"longitude":-122.33517,"reserved":0,"last_update":"0001-01-01T00:00:00Z","name_a2s":"Uncletopia | Seattle | 1 | All Maps","protocol":17,"map":"pl_upward","folder":"tf","game":"Team Fortress","app_id":440,"player_count":24,"max_players":24,"Bots":0,"server_type":"Dedicated","server_os":"Linux","password":true,"vac":true,"version":"7757534","steam_id":85568392924469997,"keywords":["nocrits","nodmgspread","payload","uncletopia"],"game_id":440,"stv_port":27016,"stv_name":"Uncletopia | Seattle | 1 | All Maps | STV","players":[{"user_id":356,"name":"Speedy","steam_id":76561198080761661,"connected_time":1022000000000,"state":"active","ping":124},{"user_id":201,"name":"crumblejon","steam_id":76561198111273302,"connected_time":12294000000000,"state":"active","ping":72},{"user_id":360,"name":"Flooder","steam_id":76561198043792818,"connected_time":602000000000,"state":"active","ping":61},{"user_id":349,"name":"EatSomeBEES","steam_id":76561198047334307,"connected_time":1092000000000,"state":"active","ping":82},{"user_id":325,"name":"〣dust〣 -she/it-","steam_id":76561198045218909,"connected_time":3798000000000,"state":"active","ping":36},{"user_id":309,"name":"DatFluffyPancake","steam_id":76561198271958697,"connected_time":4927000000000,"state":"active","ping":64},{"user_id":310,"name":"Dad 2","steam_id":76561198138546187,"connected_time":4855000000000,"state":"active","ping":113},{"user_id":308,"name":"bottom pride burger","steam_id":76561198322247602,"connected_time":5128000000000,"state":"active","ping":77},{"user_id":352,"name":"VampWolfDoll (She/Her)","steam_id":76561198102301491,"connected_time":1075000000000,"state":"active","ping":123},{"user_id":339,"name":"SpinetinglingToast","steam_id":76561198099470670,"connected_time":2454000000000,"state":"active","ping":119},{"user_id":343,"name":"Thequirka","steam_id":76561198968058652,"connected_time":1762000000000,"state":"active","ping":49},{"user_id":341,"name":"Dr. Karl, the AUS Science Guy","steam_id":76561198031278747,"connected_time":2169000000000,"state":"active","ping":46},{"user_id":333,"name":"Flea103","steam_id":76561198085863864,"connected_time":3035000000000,"state":"active","ping":90},{"user_id":298,"name":"Luca","steam_id":76561198125087140,"connected_time":6003000000000,"state":"active","ping":46},{"user_id":115,"name":"worker","steam_id":76561198039608940,"connected_time":18299000000000,"state":"active","ping":58},{"user_id":350,"name":"Lil Urge","steam_id":76561198162207470,"connected_time":1087000000000,"state":"active","ping":64},{"user_id":361,"name":"Skabbety","steam_id":76561198168044257,"connected_time":340000000000,"state":"active","ping":36},{"user_id":358,"name":"Nekomata","steam_id":76561198191536489,"connected_time":795000000000,"state":"active","ping":90},{"user_id":181,"name":"LProduct","steam_id":76561199442139670,"connected_time":14068000000000,"state":"active","ping":76},{"user_id":353,"name":"mynameisweenis","steam_id":76561198990223681,"connected_time":1075000000000,"state":"active","ping":65},{"user_id":348,"name":"berserker_tf2 yt","steam_id":76561198303464488,"connected_time":1563000000000,"state":"active","ping":81},{"user_id":355,"name":"Korey","steam_id":76561198210734407,"connected_time":1064000000000,"state":"active","ping":110},{"user_id":359,"name":"Toad :)","steam_id":76561198163008022,"connected_time":787000000000,"state":"active","ping":45},{"user_id":340,"name":"egyptiangodcard","steam_id":76561198855935442,"connected_time":2442000000000,"state":"active","ping":66}]},{"server_id":119,"name":"Uncletopia | Seattle | 2 | All Maps","name_short":"sea-2","host":"sea-1.us.uncletopia.com","port":27025,"enabled":true,"region":"us-west","cc":"us","latitude":47.608013,"longitude":-122.33517,"reserved":0,"last_update":"0001-01-01T00:00:00Z","name_a2s":"Uncletopia | Seattle | 2 | All Maps","protocol":17,"map":"cp_egypt_final","folder":"tf","game":"Team Fortress","app_id":440,"player_count":24,"max_players":24,"Bots":0,"server_type":"Dedicated","server_os":"Linux","password":true,"vac":true,"version":"7757534","steam_id":85568392924469998,"keywords":["cp","nocrits","nodmgspread","uncletopia"],"game_id":440,"stv_port":27026,"stv_name":"Uncletopia | Seattle | 2 | All Maps | STV","players":[{"user_id":11,"name":"WaffleWithNoToppings","steam_id":76561199088280111,"connected_time":9893000000000,"state":"active","ping":56},{"user_id":96,"name":"Decimus","steam_id":76561198341781527,"connected_time":3098000000000,"state":"active","ping":142},{"user_id":109,"name":"DesolateCabbage","steam_id":76561198064467423,"connected_time":2640000000000,"state":"active","ping":106},{"user_id":129,"name":"shy guy","steam_id":76561198151246059,"connected_time":89000000000,"state":"active","ping":69},{"user_id":114,"name":"silly jester","steam_id":76561198079609974,"connected_time":2121000000000,"state":"active","ping":89},{"user_id":119,"name":"dicksnip","steam_id":76561198356515396,"connected_time":670000000000,"state":"active","ping":103},{"user_id":125,"name":"UWBW","steam_id":76561198007524241,"connected_time":301000000000,"state":"active","ping":112},{"user_id":121,"name":"【 caden / karma 】","steam_id":76561198072276429,"connected_time":638000000000,"state":"active","ping":130},{"user_id":63,"name":"Kontray","steam_id":76561198294948653,"connected_time":5577000000000,"state":"active","ping":85},{"user_id":92,"name":"Icy","steam_id":76561198125015366,"connected_time":3415000000000,"state":"active","ping":114},{"user_id":65,"name":"soda","steam_id":76561198105924953,"connected_time":5541000000000,"state":"active","ping":66},{"user_id":94,"name":"❄ ǝlddɐǝuᴉd ❄","steam_id":76561198041108726,"connected_time":3329000000000,"state":"active","ping":53},{"user_id":107,"name":"Novaside","steam_id":76561198079461961,"connected_time":2664000000000,"state":"active","ping":118},{"user_id":86,"name":"ShiftShock01","steam_id":76561199049488870,"connected_time":4085000000000,"state":"active","ping":56},{"user_id":127,"name":"NWABA","steam_id":76561198073699764,"connected_time":241000000000,"state":"active","ping":98},{"user_id":100,"name":":^1 hekken","steam_id":76561198109933577,"connected_time":2952000000000,"state":"active","ping":55},{"user_id":102,"name":"mari_","steam_id":76561198137855741,"connected_time":2912000000000,"state":"active","ping":90},{"user_id":117,"name":"Notsomanyclouds","steam_id":76561198077591803,"connected_time":1003000000000,"state":"active","ping":59},{"user_id":81,"name":"A Duck With Socks","steam_id":76561198018844227,"connected_time":4739000000000,"state":"active","ping":60},{"user_id":101,"name":"William","steam_id":76561199471434875,"connected_time":2952000000000,"state":"active","ping":38},{"user_id":112,"name":"Kit Carson","steam_id":76561198115691546,"connected_time":2400000000000,"state":"active","ping":88},{"user_id":60,"name":"aqua","steam_id":76561199407709552,"connected_time":5714000000000,"state":"active","ping":99},{"user_id":73,"name":"The Pepsi® Superbowl®!","steam_id":76561198080828981,"connected_time":5287000000000,"state":"active","ping":83},{"user_id":124,"name":"slap cheeks","steam_id":76561198128285450,"connected_time":615000000000,"state":"active","ping":96}]},{"server_id":406,"name":"Uncletopia | Seattle | 3 | Stopwatch Beta","name_short":"sea-3","host":"sea-1.us.uncletopia.com","port":27035,"enabled":true,"region":"us-west","cc":"us","latitude":47.608013,"longitude":-122.33517,"reserved":0,"last_update":"0001-01-01T00:00:00Z","name_a2s":"Uncletopia | Seattle | 3 | Stopwatch Beta","protocol":17,"map":"cp_process_final","folder":"tf","game":"Team Fortress","app_id":440,"player_count":0,"max_players":24,"Bots":0,"server_type":"Dedicated","server_os":"Linux","password":true,"vac":true,"version":"7757534","steam_id":85568392924515217,"keywords":["cp","nocrits","nodmgspread","uncletopia"],"game_id":440,"stv_port":27036,"stv_name":"Uncletopia | Seattle | 3 | Stopwatch Beta | STV","players":null},{"server_id":17,"name":"Uncletopia | San Francisco | 1 | All Maps","name_short":"sfo-1","host":"sfo-1.us.uncletopia.com","port":27015,"enabled":true,"region":"us-west","cc":"us","latitude":37.77397,"longitude":-122.4313,"reserved":0,"last_update":"0001-01-01T00:00:00Z","name_a2s":"Uncletopia | San Francisco | 1 | All Maps","protocol":17,"map":"koth_highpass","folder":"tf","game":"Team Fortress","app_id":440,"player_count":0,"max_players":24,"Bots":0,"server_type":"Dedicated","server_os":"Linux","password":true,"vac":true,"version":"7757534","steam_id":85568392924469999,"keywords":["cp","nocrits","nodmgspread","uncletopia"],"game_id":440,"stv_port":27016,"stv_name":"Uncletopia | San Francisco | 1 | All Maps | STV","players":null},{"server_id":18,"name":"Uncletopia | San Francisco | 2 | All Maps","name_short":"sfo-2","host":"sfo-1.us.uncletopia.com","port":27025,"enabled":true,"region":"us-west","cc":"us","latitude":37.77397,"longitude":-122.4313,"reserved":0,"last_update":"0001-01-01T00:00:00Z","name_a2s":"Uncletopia | San Francisco | 2 | All Maps","protocol":17,"map":"koth_viaduct","folder":"tf","game":"Team Fortress","app_id":440,"player_count":0,"max_players":24,"Bots":0,"server_type":"Dedicated","server_os":"Linux","password":true,"vac":true,"version":"7757534","steam_id":85568392924470000,"keywords":["cp","nocrits","nodmgspread","uncletopia"],"game_id":440,"stv_port":27026,"stv_name":"Uncletopia | San Francisco | 2 | All Maps | STV","players":null},{"server_id":19,"name":"Uncletopia | San Francisco | 3 | Stopwatch Beta","name_short":"sfo-3","host":"sfo-1.us.uncletopia.com","port":27035,"enabled":true,"region":"us-west","cc":"us","latitude":37.77397,"longitude":-122.4313,"reserved":0,"last_update":"0001-01-01T00:00:00Z","name_a2s":"Uncletopia | San Francisco | 3 | Stopwatch Beta","protocol":17,"map":"cp_snakewater_final1","folder":"tf","game":"Team Fortress","app_id":440,"player_count":0,"max_players":24,"Bots":0,"server_type":"Dedicated","server_os":"Linux","password":true,"vac":true,"version":"7757534","steam_id":85568392924742824,"keywords":["cp","nocrits","nodmgspread","uncletopia"],"game_id":440,"stv_port":27036,"stv_name":"Uncletopia | San Francisco | 3 | Stopwatch Beta | STV","players":null},{"server_id":20,"name":"Uncletopia | San Francisco | 4 | Community","name_short":"sfo-4","host":"sfo-1.us.uncletopia.com","port":27045,"enabled":true,"region":"us-west","cc":"us","latitude":37.77397,"longitude":-122.4313,"reserved":0,"last_update":"0001-01-01T00:00:00Z","name_a2s":"Uncletopia | San Francisco | 4 | Community","protocol":17,"map":"pl_frontier_final","folder":"tf","game":"Team Fortress","app_id":440,"player_count":0,"max_players":24,"Bots":0,"server_type":"Dedicated","server_os":"Linux","password":true,"vac":true,"version":"7757534","steam_id":85568392924742826,"keywords":["nocrits","nodmgspread","payload","uncletopia"],"game_id":440,"stv_port":27046,"stv_name":"Uncletopia | San Francisco | 4 | Community | STV","players":null},{"server_id":141,"name":"Uncletopia | Sydney | 1 | All Maps","name_short":"syd-1","host":"syd-1.au.uncletopia.com","port":27015,"enabled":true,"region":"au","cc":"au","latitude":-33.865143,"longitude":151.2099,"reserved":0,"last_update":"0001-01-01T00:00:00Z","name_a2s":"Uncletopia | Sydney | 1 | All Maps","protocol":17,"map":"pl_borneo","folder":"tf","game":"Team Fortress","app_id":440,"player_count":0,"max_players":24,"Bots":0,"server_type":"Dedicated","server_os":"Linux","password":true,"vac":true,"version":"7757534","steam_id":85568392924470001,"keywords":["nocrits","nodmgspread","payload","uncletopia"],"game_id":440,"stv_port":27016,"stv_name":"Uncletopia | Sydney | 1 | All Maps | STV","players":null},{"server_id":123,"name":"Uncletopia | Sydney | 2 | All Maps","name_short":"syd-2","host":"syd-1.au.uncletopia.com","port":27025,"enabled":true,"region":"au","cc":"au","latitude":-33.865143,"longitude":151.2099,"reserved":0,"last_update":"0001-01-01T00:00:00Z","name_a2s":"Uncletopia | Sydney | 2 | All Maps","protocol":17,"map":"pl_upward","folder":"tf","game":"Team Fortress","app_id":440,"player_count":0,"max_players":24,"Bots":0,"server_type":"Dedicated","server_os":"Linux","password":true,"vac":true,"version":"7757534","steam_id":85568392924470002,"keywords":["nocrits","nodmgspread","payload","uncletopia"],"game_id":440,"stv_port":27026,"stv_name":"Uncletopia | Sydney | 2 | All Maps | STV","players":null},{"server_id":395,"name":"Uncletopia | Sydney | 3 | All Maps","name_short":"syd-3","host":"syd-1.au.uncletopia.com","port":27035,"enabled":true,"region":"au","cc":"au","latitude":-33.865143,"longitude":151.2099,"reserved":0,"last_update":"0001-01-01T00:00:00Z","name_a2s":"Uncletopia | Sydney | 3 | All Maps","protocol":17,"map":"pl_borneo","folder":"tf","game":"Team Fortress","app_id":440,"player_count":0,"max_players":24,"Bots":0,"server_type":"Dedicated","server_os":"Linux","password":true,"vac":true,"version":"7757534","steam_id":85568392925194467,"keywords":["nocrits","nodmgspread","payload","uncletopia"],"game_id":440,"stv_port":27036,"stv_name":"Uncletopia | Sydney | 3 | All Maps | STV","players":null},{"server_id":396,"name":"Uncletopia | Sydney | 4 | All Maps","name_short":"syd-4","host":"syd-1.au.uncletopia.com","port":27045,"enabled":true,"region":"au","cc":"au","latitude":-33.865143,"longitude":151.2099,"reserved":0,"last_update":"0001-01-01T00:00:00Z","name_a2s":"Uncletopia | Sydney | 4 | All Maps","protocol":17,"map":"cp_process_final","folder":"tf","game":"Team Fortress","app_id":440,"player_count":0,"max_players":24,"Bots":0,"server_type":"Dedicated","server_os":"Linux","password":true,"vac":true,"version":"7757534","steam_id":85568392925397958,"keywords":["cp","nocrits","nodmgspread","uncletopia"],"game_id":440,"stv_port":27046,"stv_name":"Uncletopia | Sydney | 4 | All Maps | STV","players":null},{"server_id":58,"name":"Uncletopia | Sydney | 5 | Stopwatch Beta","name_short":"syd-5","host":"syd-1.au.uncletopia.com","port":27055,"enabled":true,"region":"au","cc":"au","latitude":-33.865143,"longitude":151.2099,"reserved":0,"last_update":"0001-01-01T00:00:00Z","name_a2s":"Uncletopia | Sydney | 5 | Stopwatch Beta","protocol":17,"map":"koth_cascade","folder":"tf","game":"Team Fortress","app_id":440,"player_count":0,"max_players":24,"Bots":0,"server_type":"Dedicated","server_os":"Linux","password":true,"vac":true,"version":"7757534","steam_id":85568392925397959,"keywords":["cp","nocrits","nodmgspread","uncletopia"],"game_id":440,"stv_port":27056,"stv_name":"Uncletopia | Sydney | 5 | Stopwatch Beta | STV","players":null},{"server_id":59,"name":"Uncletopia | Sydney | 6 | Community","name_short":"syd-6","host":"syd-1.au.uncletopia.com","port":27065,"enabled":true,"region":"au","cc":"au","latitude":-33.865143,"longitude":151.2099,"reserved":0,"last_update":"0001-01-01T00:00:00Z","name_a2s":"Uncletopia | Sydney | 6 | Community","protocol":17,"map":"pl_badwater","folder":"tf","game":"Team Fortress","app_id":440,"player_count":0,"max_players":24,"Bots":0,"server_type":"Dedicated","server_os":"Linux","password":true,"vac":true,"version":"7757534","steam_id":85568392925397960,"keywords":["nocrits","nodmgspread","payload","uncletopia"],"game_id":440,"stv_port":27066,"stv_name":"Uncletopia | Sydney | 6 | Community | STV","players":null},{"server_id":49,"name":"Uncletopia | Warsaw | 1 | All Maps","name_short":"waw-1","host":"waw-1.pl.uncletopia.com","port":27015,"enabled":true,"region":"eu","cc":"pl","latitude":52.2297,"longitude":21.017532,"reserved":0,"last_update":"0001-01-01T00:00:00Z","name_a2s":"","protocol":0,"map":"","folder":"","game":"","app_id":0,"player_count":0,"max_players":0,"Bots":0,"server_type":"","server_os":"","password":false,"vac":false,"version":"","steam_id":0,"keywords":null,"game_id":0,"stv_port":0,"stv_name":"","players":null},{"server_id":50,"name":"Uncletopia | Warsaw | 2 | All Maps","name_short":"waw-2","host":"waw-1.pl.uncletopia.com","port":27025,"enabled":true,"region":"eu","cc":"pl","latitude":52.2297,"longitude":21.017532,"reserved":0,"last_update":"0001-01-01T00:00:00Z","name_a2s":"Uncletopia | Warsaw | 2 | All Maps","protocol":17,"map":"koth_highpass","folder":"tf","game":"Team Fortress","app_id":440,"player_count":0,"max_players":24,"Bots":0,"server_type":"Dedicated","server_os":"Linux","password":true,"vac":true,"version":"7757534","steam_id":85568392925397851,"keywords":["cp","nocrits","nodmgspread","uncletopia"],"game_id":440,"stv_port":27026,"stv_name":"Uncletopia | Warsaw | 2 | All Maps | STV","players":null},{"server_id":51,"name":"Uncletopia | Warsaw | 3 | All Maps","name_short":"waw-3","host":"waw-1.pl.uncletopia.com","port":27035,"enabled":true,"region":"eu","cc":"pl","latitude":52.2297,"longitude":21.017532,"reserved":0,"last_update":"0001-01-01T00:00:00Z","name_a2s":"Uncletopia | Warsaw | 3 | All Maps","protocol":17,"map":"pl_pier","folder":"tf","game":"Team Fortress","app_id":440,"player_count":0,"max_players":24,"Bots":0,"server_type":"Dedicated","server_os":"Linux","password":true,"vac":true,"version":"7757534","steam_id":85568392925397852,"keywords":["nocrits","nodmgspread","payload","uncletopia"],"game_id":440,"stv_port":27036,"stv_name":"Uncletopia | Warsaw | 3 | All Maps | STV","players":null},{"server_id":52,"name":"Uncletopia | Warsaw | 4 | All Maps","name_short":"waw-4","host":"waw-1.pl.uncletopia.com","port":27045,"enabled":true,"region":"eu","cc":"pl","latitude":52.2297,"longitude":21.017532,"reserved":0,"last_update":"0001-01-01T00:00:00Z","name_a2s":"Uncletopia | Warsaw | 4 | All Maps","protocol":17,"map":"koth_highpass","folder":"tf","game":"Team Fortress","app_id":440,"player_count":0,"max_players":24,"Bots":0,"server_type":"Dedicated","server_os":"Linux","password":true,"vac":true,"version":"7757534","steam_id":85568392925397853,"keywords":["cp","nocrits","nodmgspread","uncletopia"],"game_id":440,"stv_port":27046,"stv_name":"Uncletopia | Warsaw | 4 | All Maps | STV","players":null},{"server_id":53,"name":"Uncletopia | Warsaw | 5 | Stopwatch Beta","name_short":"waw-5","host":"waw-1.pl.uncletopia.com","port":27055,"enabled":true,"region":"eu","cc":"pl","latitude":52.2297,"longitude":21.017532,"reserved":0,"last_update":"0001-01-01T00:00:00Z","name_a2s":"Uncletopia | Warsaw | 5 | Stopwatch Beta","protocol":17,"map":"pl_pier","folder":"tf","game":"Team Fortress","app_id":440,"player_count":0,"max_players":24,"Bots":0,"server_type":"Dedicated","server_os":"Linux","password":true,"vac":true,"version":"7757534","steam_id":85568392925397854,"keywords":["nocrits","nodmgspread","payload","uncletopia"],"game_id":440,"stv_port":27056,"stv_name":"Uncletopia | Warsaw | 5 | Stopwatch Beta | STV","players":null},{"server_id":54,"name":"Uncletopia | Warsaw | 6 | Community","name_short":"waw-6","host":"waw-1.pl.uncletopia.com","port":27065,"enabled":true,"region":"eu","cc":"pl","latitude":52.2297,"longitude":21.017532,"reserved":0,"last_update":"0001-01-01T00:00:00Z","name_a2s":"Uncletopia | Warsaw | 6 | Community","protocol":17,"map":"koth_highpass","folder":"tf","game":"Team Fortress","app_id":440,"player_count":0,"max_players":24,"Bots":0,"server_type":"Dedicated","server_os":"Linux","password":true,"vac":true,"version":"7757534","steam_id":85568392925397856,"keywords":["cp","nocrits","nodmgspread","uncletopia"],"game_id":440,"stv_port":27066,"stv_name":"Uncletopia | Warsaw | 6 | Community | STV","players":null}]}