{"status":true,"message":"","result":[{"server_id":9,"name":"Uncletopia | Atlanta | 1 | All Maps","name_short":"atl-1","host":"atl-1.us.uncletopia.com","port":27015,"enabled":true,"region":"us-east","cc":"us","latitude":33.753746,"longitude":-84.38633,"reserved":0,"last_update":"0001-01-01T00:00:00Z","name_a2s":"Uncletopia | Atlanta | 1 | All Maps","protocol":17,"map":"pl_swiftwater_final1","folder":"tf","game":"Team Fortress","app_id":440,"player_count":22,"max_players":24,"Bots":0,"server_type":"Dedicated","server_os":"Linux","password":true,"vac":true,"version":"7961495","steam_id":85568392924469982,"keywords":["nocrits","nodmgspread","payload","uncletopia"],"game_id":440,"stv_port":27016,"stv_name":"Uncletopia | Atlanta | 1 | All Maps | STV","players":null},{"server_id":104,"name":"Uncletopia | Atlanta | 2 | All Maps","name_short":"atl-2","host":"atl-1.us.uncletopia.com","port":27025,"enabled":true,"region":"us-east","cc":"us","latitude":33.753746,"longitude":-84.38633,"reserved":0,"last_update":"0001-01-01T00:00:00Z","name_a2s":"Uncletopia | Atlanta | 2 | All Maps","protocol":17,"map":"koth_viaduct","folder":"tf","game":"Team Fortress","app_id":440,"player_count":17,"max_players":24,"Bots":0,"server_type":"Dedicated","server_os":"Linux","password":true,"vac":true,"version":"7961495","steam_id":85568392924469983,"keywords":["cp","nocrits","nodmgspread","uncletopia"],"game_id":440,"stv_port":27026,"stv_name":"Uncletopia | Atlanta | 2 | All Maps | STV","players":null},{"server_id":400,"name":"Uncletopia | Atlanta | 3 | Stopwatch","name_short":"atl-3","host":"atl-1.us.uncletopia.com","port":27035,"enabled":true,"region":"us-east","cc":"us","latitude":33.753746,"longitude":-84.38633,"reserved":0,"last_update":"0001-01-01T00:00:00Z","name_a2s":"Uncletopia | Atlanta | 3 | Stopwatch","protocol":17,"map":"cp_gullywash_final1","folder":"tf","game":"Team Fortress","app_id":440,"player_count":0,"max_players":24,"Bots":0,"server_type":"Dedicated","server_os":"Linux","password":true,"vac":true,"version":"7961495","steam_id":85568392924515187,"keywords":["cp","nocrits","nodmgspread","uncletopia"],"game_id":440,"stv_port":27036,"stv_name":"Uncletopia | Atlanta | 3 | Stopwatch | STV","players":null},{"server_id":401,"name":"Uncletopia | Atlanta | 4 | Community","name_short":"atl-4","host":"atl-1.us.uncletopia.com","port":27045,"enabled":true,"region":"us-east","cc":"us","latitude":33.753746,"longitude":-84.38633,"reserved":0,"last_update":"0001-01-01T00:00:00Z","name_a2s":"Uncletopia | Atlanta | 4 | Community","protocol":17,"map":"koth_ramjam_rc1","folder":"tf","game":"Team Fortress","app_id":440,"player_count":0,"max_players":24,"Bots":0,"server_type":"Dedicated","server_os":"Linux","password":true,"vac":true,"version":"7961495","steam_id":85568392924515188,"keywords":["cp","nocrits","nodmgspread","uncletopia"],"game_id":440,"stv_port":27046,"stv_name":"Uncletopia | Atlanta | 4 | Community | STV","players":null},{"server_id":2,"name":"Uncletopia | Chicago | 1 | All Maps","name_short":"chi-1","host":"chi-1.us.uncletopia.com","port":27015,"enabled":true,"region":"us-central","cc":"us","latitude":41.881832,"longitude":-87.62318,"reserved":0,"last_update":"0001-01-01T00:00:00Z","name_a2s":"Uncletopia | Chicago | 1 | All Maps","protocol":17,"map":"plr_hightower","folder":"tf","game":"Team Fortress","app_id":440,"player_count":19,"max_players":24,"Bots":0,"server_type":"Dedicated","server_os":"Linux","password":true,"vac":true,"version":"7961495","steam_id":85568392924469984,"keywords":["nocrits","nodmgspread","payload","uncletopia"],"game_id":440,"stv_port":27016,"stv_name":"Uncletopia | Chicago | 1 | All Maps | STV","players":[{"user_id":320,"name":"roman","steam_id":76561198170066797,"connected_time":1419000000000,"state":"active","ping":64},{"user_id":324,"name":"Carson","steam_id":76561198076771071,"connected_time":1252000000000,"state":"active","ping":44},{"user_id":337,"name":"richard clock","steam_id":76561198048455671,"connected_time":105000000000,"state":"active","ping":47},{"user_id":292,"name":"Dr. BloatedRatMann","steam_id":76561198328829278,"connected_time":3139000000000,"state":"active","ping":53},{"user_id":322,"name":"Lyathan","steam_id":76561198062773218,"connected_time":1317000000000,"state":"active","ping":69},{"user_id":244,"name":"Park","steam_id":76561198057222814,"connected_time":6585000000000,"state":"active","ping":62},{"user_id":318,"name":"Mellow Yellow","steam_id":76561198406276981,"connected_time":1527000000000,"state":"active","ping":48},{"user_id":301,"name":"Digit","steam_id":76561198156589157,"connected_time":2445000000000,"state":"active","ping":77},{"user_id":287,"name":"Rex","steam_id":76561198138365053,"connected_time":3453000000000,"state":"active","ping":148},{"user_id":338,"name":"epsilene","steam_id":76561198027468624,"connected_time":25000000000,"state":"active","ping":60},{"user_id":312,"name":"Pablo.Gonzalez.2007","steam_id":76561199083115222,"connected_time":2120000000000,"state":"active","ping":101},{"user_id":339,"name":"Cdesmondd","steam_id":76561198072774462,"connected_time":9000000000,"state":"spawning","ping":44},{"user_id":336,"name":"The Notorious RBG","steam_id":76561198014275148,"connected_time":199000000000,"state":"active","ping":72},{"user_id":330,"name":"Giggles™","steam_id":76561198058708019,"connected_time":578000000000,"state":"active","ping":53},{"user_id":332,"name":"IanFishooks","steam_id":76561199403427527,"connected_time":497000000000,"state":"active","ping":81},{"user_id":214,"name":"HOMIE","steam_id":76561198057325155,"connected_time":9877000000000,"state":"active","ping":59},{"user_id":277,"name":"ralph","steam_id":76561198984121915,"connected_time":4298000000000,"state":"active","ping":68},{"user_id":224,"name":"Happ","steam_id":76561198043741679,"connected_time":8768000000000,"state":"active","ping":49},{"user_id":325,"name":"orangeboi","steam_id":76561198871657171,"connected_time":859000000000,"state":"active","ping":116}]},{"server_id":106,"name":"Uncletopia | Chicago | 2 | All Maps","name_short":"chi-2","host":"chi-1.us.uncletopia.com","port":27025,"enabled":true,"region":"us-central","cc":"us","latitude":41.881832,"longitude":-87.62318,"reserved":0,"last_update":"0001-01-01T00:00:00Z","name_a2s":"Uncletopia | Chicago | 2 | All Maps","protocol":17,"map":"pl_borneo","folder":"tf","game":"Team Fortress","app_id":440,"player_count":18,"max_players":24,"Bots":0,"server_type":"Dedicated","server_os":"Linux","password":true,"vac":true,"version":"7961495","steam_id":85568392924469985,"keywords":["nocrits","nodmgspread","payload","uncletopia"],"game_id":440,"stv_port":27026,"stv_name":"Uncletopia | Chicago | 2 | All Maps | STV","players":[{"user_id":86,"name":"rat 2","steam_id":76561198197297414,"connected_time":1876000000000,"state":"active","ping":35},{"user_id":101,"name":"Rappy \u003c3","steam_id":76561198105613110,"connected_time":252000000000,"state":"active","ping":48},{"user_id":58,"name":"roythecyclops","steam_id":76561198055295759,"connected_time":3862000000000,"state":"active","ping":77},{"user_id":90,"name":"wish you were here","steam_id":76561198282764599,"connected_time":1708000000000,"state":"active","ping":47},{"user_id":110,"name":"majorbobfunction","steam_id":76561198042464632,"connected_time":65000000000,"state":"active","ping":57},{"user_id":95,"name":"chunk","steam_id":76561198134775401,"connected_time":876000000000,"state":"active","ping":54},{"user_id":74,"name":"Migute","steam_id":76561198332012726,"connected_time":2211000000000,"state":"active","ping":83},{"user_id":23,"name":"American Gamer","steam_id":76561198142292188,"connected_time":5267000000000,"state":"active","ping":72},{"user_id":24,"name":"Meat Cannon","steam_id":76561198082761157,"connected_time":5262000000000,"state":"active","ping":71},{"user_id":87,"name":"♥Gothie♥","steam_id":76561198166814648,"connected_time":1865000000000,"state":"active","ping":117},{"user_id":93,"name":"moosein","steam_id":76561198354272434,"connected_time":1374000000000,"state":"active","ping":93},{"user_id":53,"name":"Six Piece Chicken McNobody","steam_id":76561198129848222,"connected_time":4229000000000,"state":"active","ping":71},{"user_id":55,"name":"Vin","steam_id":76561198043601929,"connected_time":4121000000000,"state":"active","ping":132},{"user_id":84,"name":"uzi murder drones (evil)","steam_id":76561198156799627,"connected_time":2060000000000,"state":"active","ping":74},{"user_id":103,"name":"berserker_tf2","steam_id":76561198303464488,"connected_time":222000000000,"state":"active","ping":62},{"user_id":104,"name":"rapscallion","steam_id":76561198188722751,"connected_time":217000000000,"state":"active","ping":90},{"user_id":107,"name":"The Honorable Sir Knish IV","steam_id":76561198427047948,"connected_time":193000000000,"state":"active","ping":75},{"user_id":109,"name":"loser","steam_id":76561198259380127,"connected_time":177000000000,"state":"active","ping":58}]},{"server_id":402,"name":"Uncletopia | Chicago | 3 | All Maps","name_short":"chi-3","host":"chi-1.us.uncletopia.com","port":27035,"enabled":true,"region":"us-central","cc":"us","latitude":41.881832,"longitude":-87.62318,"reserved":0,"last_update":"0001-01-01T00:00:00Z","name_a2s":"Uncletopia | Chicago | 3 | All Maps","protocol":17,"map":"pl_badwater","folder":"tf","game":"Team Fortress","app_id":440,"player_count":24,"max_players":24,"Bots":0,"server_type":"Dedicated","server_os":"Linux","password":true,"vac":true,"version":"7961495","steam_id":85568392924515191,"keywords":["nocrits","nodmgspread","payload","uncletopia"],"game_id":440,"stv_port":27036,"stv_name":"Uncletopia | Chicago | 3 | All Maps | STV","players":[{"user_id":85,"name":"flwrgrl","steam_id":76561198815644949,"connected_time":2632000000000,"state":"active","ping":59},{"user_id":76,"name":"AstronautPug","steam_id":76561198162372709,"connected_time":2996000000000,"state":"active","ping":65},{"user_id":57,"name":"JuanPonchoGringo™","steam_id":76561198038046899,"connected_time":4035000000000,"state":"active","ping":73},{"user_id":127,"name":"chiswola","steam_id":76561198046920142,"connected_time":548000000000,"state":"active","ping":71},{"user_id":109,"name":"Zetta","steam_id":76561198045710113,"connected_time":1735000000000,"state":"active","ping":102},{"user_id":96,"name":"Shooter of Walls","steam_id":76561197988105207,"connected_time":2088000000000,"state":"active","ping":61},{"user_id":128,"name":"PTR","steam_id":76561198237253772,"connected_time":457000000000,"state":"active","ping":71},{"user_id":101,"name":"Imagine being trash at Medic","steam_id":76561197986530028,"connected_time":1881000000000,"state":"active","ping":108},{"user_id":132,"name":"4 life","steam_id":76561198175961598,"connected_time":96000000000,"state":"active","ping":108},{"user_id":119,"name":"Dzhoshua","steam_id":76561198071915251,"connected_time":1022000000000,"state":"active","ping":65},{"user_id":133,"name":"Xatheys","steam_id":76561198082458255,"connected_time":89000000000,"state":"active","ping":49},{"user_id":135,"name":"nile","steam_id":76561197980035714,"connected_time":31000000000,"state":"active","ping":75},{"user_id":104,"name":"doubleit\u0026giveit.tothenextperson","steam_id":76561198115458307,"connected_time":1843000000000,"state":"active","ping":103},{"user_id":134,"name":"spy has a gun?","steam_id":76561199241619967,"connected_time":51000000000,"state":"active","ping":72},{"user_id":82,"name":"Fluffeline","steam_id":76561198352909489,"connected_time":2764000000000,"state":"active","ping":150},{"user_id":115,"name":"SlawBunny","steam_id":76561198094913841,"connected_time":1177000000000,"state":"active","ping":84},{"user_id":106,"name":"BunkerSauce5","steam_id":76561198380688967,"connected_time":1833000000000,"state":"active","ping":45},{"user_id":136,"name":"Weej","steam_id":76561198137349533,"connected_time":29000000000,"state":"spawning","ping":48},{"user_id":92,"name":"Ceige LFT","steam_id":76561198068538473,"connected_time":2402000000000,"state":"active","ping":76},{"user_id":131,"name":"feudal","steam_id":76561198057374871,"connected_time":229000000000,"state":"active","ping":60},{"user_id":89,"name":"Nic0","steam_id":76561198305690218,"connected_time":2575000000000,"state":"active","ping":61},{"user_id":87,"name":"AMU","steam_id":76561198092346231,"connected_time":2610000000000,"state":"active","ping":59},{"user_id":86,"name":"Jatt","steam_id":76561198822011219,"connected_time":2630000000000,"state":"active","ping":73},{"user_id":108,"name":"oppenheimer style","steam_id":76561198026664629,"connected_time":1794000000000,"state":"active","ping":53}]},{"server_id":403,"name":"Uncletopia | Chicago | 4 | All Maps","name_short":"chi-4","host":"chi-1.us.uncletopia.com","port":27045,"enabled":true,"region":"us-central","cc":"us","latitude":41.881832,"longitude":-87.62318,"reserved":0,"last_update":"0001-01-01T00:00:00Z","name_a2s":"Uncletopia | Chicago | 4 | All Maps","protocol":17,"map":"pl_swiftwater_final1","folder":"tf","game":"Team Fortress","app_id":440,"player_count":17,"max_players":24,"Bots":0,"server_type":"Dedicated","server_os":"Linux","password":true,"vac":true,"version":"7961495","steam_id":85568392924515193,"keywords":["nocrits","nodmgspread","payload","uncletopia"],"game_id":440,"stv_port":27046,"stv_name":"Uncletopia | Chicago | 4 | All Maps | STV","players":[{"user_id":482,"name":"Echoes","steam_id":76561198082136398,"connected_time":469000000000,"state":"active","ping":58},{"user_id":485,"name":"pim","steam_id":76561198095163441,"connected_time":350000000000,"state":"active","ping":60},{"user_id":432,"name":"adankmix","steam_id":76561198106945614,"connected_time":3216000000000,"state":"active","ping":62},{"user_id":441,"name":"Portizz","steam_id":76561198095732366,"connected_time":2268000000000,"state":"active","ping":81},{"user_id":454,"name":"ネコ Harpako","steam_id":76561198163587660,"connected_time":1697000000000,"state":"active","ping":110},{"user_id":486,"name":"４０ ＦＰＳ","steam_id":76561198272394965,"connected_time":129000000000,"state":"active","ping":125},{"user_id":418,"name":"CDBeans","steam_id":76561198046990367,"connected_time":4660000000000,"state":"active","ping":96},{"user_id":452,"name":"Ebro","steam_id":76561198282515057,"connected_time":1783000000000,"state":"active","ping":83},{"user_id":465,"name":"Space","steam_id":76561198350489754,"connected_time":1513000000000,"state":"active","ping":48},{"user_id":477,"name":"pop7585","steam_id":76561198149021193,"connected_time":680000000000,"state":"active","ping":71},{"user_id":478,"name":"FunGi","steam_id":76561198881418662,"connected_time":647000000000,"state":"active","ping":92},{"user_id":480,"name":"nhbiker","steam_id":76561198081277675,"connected_time":537000000000,"state":"active","ping":60},{"user_id":457,"name":"MeatShield 2000","steam_id":76561199375192850,"connected_time":1673000000000,"state":"active","ping":98},{"user_id":462,"name":"dat boii","steam_id":76561198034860608,"connected_time":1550000000000,"state":"active","ping":60},{"user_id":466,"name":"Baguette","steam_id":76561198047888426,"connected_time":1509000000000,"state":"active","ping":47},{"user_id":483,"name":"Sunflower","steam_id":76561198081223793,"connected_time":449000000000,"state":"active","ping":56},{"user_id":460,"name":"Turtlin'","steam_id":76561198885096042,"connected_time":1630000000000,"state":"active","ping":62}]},{"server_id":36,"name":"Uncletopia | Chicago | 5 | All Maps","name_short":"chi-5","host":"chi-2.us.uncletopia.com","port":27015,"enabled":true,"region":"us-central","cc":"us","latitude":41.881832,"longitude":-87.62318,"reserved":0,"last_update":"0001-01-01T00:00:00Z","name_a2s":"Uncletopia | Chicago | 5 | All Maps","protocol":17,"map":"koth_highpass","folder":"tf","game":"Team Fortress","app_id":440,"player_count":0,"max_players":24,"Bots":0,"server_type":"Dedicated","server_os":"Linux","password":true,"vac":false,"version":"7961495","steam_id":85568392924866362,"keywords":["cp","nocrits","nodmgspread","uncletopia"],"game_id":440,"stv_port":27016,"stv_name":"Uncletopia | Chicago | 5 | All Maps | STV","players":null},{"server_id":37,"name":"Uncletopia | Chicago | 6 | All Maps","name_short":"chi-6","host":"chi-2.us.uncletopia.com","port":27025,"enabled":true,"region":"us-central","cc":"us","latitude":41.881832,"longitude":-87.62318,"reserved":0,"last_update":"0001-01-01T00:00:00Z","name_a2s":"Uncletopia | Chicago | 6 | All Maps","protocol":17,"map":"pl_badwater","folder":"tf","game":"Team Fortress","app_id":440,"player_count":17,"max_players":24,"Bots":0,"server_type":"Dedicated","server_os":"Linux","password":true,"vac":true,"version":"7961495","steam_id":85568392924866363,"keywords":["nocrits","nodmgspread","payload","uncletopia"],"game_id":440,"stv_port":27026,"stv_name":"Uncletopia | Chicago | 6 | All Maps | STV","players":[{"user_id":142,"name":"Candy Sparkles","steam_id":76561198126871264,"connected_time":1158000000000,"state":"active","ping":84},{"user_id":82,"name":"Luca!","steam_id":76561198137880777,"connected_time":3879000000000,"state":"active","ping":70},{"user_id":154,"name":"gaming elliptical","steam_id":76561198013456569,"connected_time":492000000000,"state":"active","ping":45},{"user_id":151,"name":"vanta","steam_id":76561198084317504,"connected_time":746000000000,"state":"active","ping":45},{"user_id":150,"name":"lexapro nightmares","steam_id":76561197987193828,"connected_time":897000000000,"state":"active","ping":46},{"user_id":148,"name":"goggyrina","steam_id":76561198428033086,"connected_time":1026000000000,"state":"active","ping":35},{"user_id":139,"name":"_4ce","steam_id":76561198109077451,"connected_time":1185000000000,"state":"active","ping":58},{"user_id":141,"name":"Owl Pacino","steam_id":76561197979970666,"connected_time":1171000000000,"state":"active","ping":53},{"user_id":119,"name":"Jasper™","steam_id":76561198260018463,"connected_time":2025000000000,"state":"active","ping":81},{"user_id":143,"name":"esoobac","steam_id":76561198010370396,"connected_time":1145000000000,"state":"active","ping":49},{"user_id":144,"name":"TransPuppygirlUp4Adoption","steam_id":76561198085813708,"connected_time":1145000000000,"state":"active","ping":69},{"user_id":81,"name":"gale","steam_id":76561198250068972,"connected_time":3914000000000,"state":"active","ping":98},{"user_id":137,"name":"flare","steam_id":76561198048623485,"connected_time":1365000000000,"state":"active","ping":71},{"user_id":135,"name":"-","steam_id":76561198057717934,"connected_time":1556000000000,"state":"active","ping":61},{"user_id":149,"name":"Sicko Mode (Chris Pratt Cover)","steam_id":76561198315786174,"connected_time":943000000000,"state":"active","ping":75},{"user_id":128,"name":"anonpain","steam_id":76561198081317092,"connected_time":1735000000000,"state":"active","ping":57},{"user_id":109,"name":"TheChoclateDogThatCould","steam_id":76561198142126470,"connected_time":2702000000000,"state":"active","ping":44}]},{"server_id":38,"name":"Uncletopia | Chicago | 7 | Stopwatch","name_short":"chi-7","host":"chi-2.us.uncletopia.com","port":27035,"enabled":true,"region":"us-central","cc":"us","latitude":41.881832,"longitude":-87.62318,"reserved":0,"last_update":"0001-01-01T00:00:00Z","name_a2s":"Uncletopia | Chicago | 7 | Stopwatch","protocol":17,"map":"koth_highpass","folder":"tf","game":"Team Fortress","app_id":440,"player_count":0,"max_players":24,"Bots":0,"server_type":"Dedicated","server_os":"Linux","password":true,"vac":true,"version":"7961495","steam_id":85568392924866364,"keywords":["cp","nocrits","nodmgspread","uncletopia"],"game_id":440,"stv_port":27036,"stv_name":"Uncletopia | Chicago | 7 | Stopwatch | STV","players":null},{"server_id":39,"name":"Uncletopia | Chicago | 8 | Community","name_short":"chi-8","host":"chi-2.us.uncletopia.com","port":27045,"enabled":true,"region":"us-central","cc":"us","latitude":41.881832,"longitude":-87.62318,"reserved":0,"last_update":"0001-01-01T00:00:00Z","name_a2s":"Uncletopia | Chicago | 8 | Community","protocol":17,"map":"workshop/pl_emerge_rc2.ugc888027758","folder":"tf","game":"Team Fortress","app_id":440,"player_count":0,"max_players":24,"Bots":0,"server_type":"Dedicated","server_os":"Linux","password":true,"vac":true,"version":"7961495","steam_id":85568392924866365,"keywords":["nocrits","nodmgspread","payload","uncletopia"],"game_id":440,"stv_port":27046,"stv_name":"Uncletopia | Chicago | 8 | Community | STV","players":null},{"server_id":8,"name":"Uncletopia | Dallas | 1 | All Maps","name_short":"dal-1","host":"dal-1.us.uncletopia.com","port":27015,"enabled":true,"region":"us-central","cc":"us","latitude":32.779167,"longitude":-96.80889,"reserved":0,"last_update":"0001-01-01T00:00:00Z","name_a2s":"Uncletopia | Dallas | 1 | All Maps","protocol":17,"map":"cp_dustbowl","folder":"tf","game":"Team Fortress","app_id":440,"player_count":11,"max_players":24,"Bots":0,"server_type":"Dedicated","server_os":"Linux","password":true,"vac":true,"version":"7961495","steam_id":85568392924469986,"keywords":["cp","nocrits","nodmgspread","uncletopia"],"game_id":440,"stv_port":27016,"stv_name":"Uncletopia | Dallas | 1 | All Maps | STV","players":[{"user_id":251,"name":"CowardicePrevails","steam_id":76561198145199545,"connected_time":1517000000000,"state":"active","ping":92},{"user_id":265,"name":"BackwardsEagle","steam_id":76561199013712612,"connected_time":534000000000,"state":"active","ping":94},{"user_id":263,"name":"cas.sierrafamilia","steam_id":76561199230945873,"connected_time":680000000000,"state":"active","ping":85},{"user_id":266,"name":"Kolibri","steam_id":76561198889402285,"connected_time":506000000000,"state":"active","ping":89},{"user_id":235,"name":"LewdestLoli","steam_id":76561197967842240,"connected_time":2921000000000,"state":"active","ping":55},{"user_id":249,"name":"kinetic","steam_id":76561198061346578,"connected_time":1797000000000,"state":"active","ping":62},{"user_id":250,"name":"cuddles","steam_id":76561199471390987,"connected_time":1584000000000,"state":"active","ping":80},{"user_id":191,"name":"FI LO","steam_id":76561198976530881,"connected_time":6457000000000,"state":"active","ping":59},{"user_id":257,"name":"qool guy","steam_id":76561198064758306,"connected_time":1331000000000,"state":"active","ping":101},{"user_id":248,"name":"Da Policia","steam_id":76561198012762789,"connected_time":1933000000000,"state":"active","ping":42},{"user_id":245,"name":"tsz","steam_id":76561199246231090,"connected_time":2420000000000,"state":"active","ping":80}]},{"server_id":108,"name":"Uncletopia | Dallas | 2 | All Maps","name_short":"dal-2","host":"dal-1.us.uncletopia.com","port":27025,"enabled":true,"region":"us-central","cc":"us","latitude":32.779167,"longitude":-96.80889,"reserved":0,"last_update":"0001-01-01T00:00:00Z","name_a2s":"Uncletopia | Dallas | 2 | All Maps","protocol":17,"map":"pl_borneo","folder":"tf","game":"Team Fortress","app_id":440,"player_count":22,"max_players":24,"Bots":0,"server_type":"Dedicated","server_os":"Linux","password":true,"vac":true,"version":"7961495","steam_id":85568392924469988,"keywords":["nocrits","nodmgspread","payload","uncletopia"],"game_id":440,"stv_port":27026,"stv_name":"Uncletopia | Dallas | 2 | All Maps | STV","players":[{"user_id":658,"name":"bart world","steam_id":76561198070741436,"connected_time":332000000000,"state":"active","ping":62},{"user_id":664,"name":"spacetoven","steam_id":76561198115821131,"connected_time":16000000000,"state":"active","ping":92},{"user_id":630,"name":"Arc","steam_id":76561198057246982,"connected_time":2358000000000,"state":"active","ping":57},{"user_id":609,"name":"Rob","steam_id":76561199187786660,"connected_time":3491000000000,"state":"active","ping":49},{"user_id":634,"name":"Cheesecake","steam_id":76561197978508626,"connected_time":2067000000000,"state":"active","ping":66},{"user_id":580,"name":"ADRIEN BRODY","steam_id":76561198009299473,"connected_time":5123000000000,"state":"active","ping":87},{"user_id":640,"name":"Lex","steam_id":76561198069948353,"connected_time":1766000000000,"state":"active","ping":66},{"user_id":612,"name":"12345","steam_id":76561198046948758,"connected_time":3378000000000,"state":"active","ping":102},{"user_id":631,"name":"Your Dad™","steam_id":76561198254739340,"connected_time":2347000000000,"state":"active","ping":94},{"user_id":661,"name":"Trolley","steam_id":76561198106695948,"connected_time":183000000000,"state":"active","ping":66},{"user_id":628,"name":"Drained","steam_id":76561198081974528,"connected_time":2551000000000,"state":"active","ping":62},{"user_id":653,"name":"The Pencil Cunts","steam_id":76561198272606252,"connected_time":674000000000,"state":"active","ping":43},{"user_id":656,"name":"McSlic","steam_id":76561198169220364,"connected_time":503000000000,"state":"active","ping":85},{"user_id":649,"name":"deimos","steam_id":76561198148357768,"connected_time":1416000000000,"state":"active","ping":78},{"user_id":646,"name":"5yt LFB","steam_id":76561198041643833,"connected_time":1533000000000,"state":"active","ping":64},{"user_id":625,"name":"HollyBlocky","steam_id":76561198030156100,"connected_time":2838000000000,"state":"active","ping":90},{"user_id":632,"name":"dailydiamond","steam_id":76561199123582502,"connected_time":2222000000000,"state":"active","ping":101},{"user_id":641,"name":"Specter the Unchained","steam_id":76561198348354629,"connected_time":1673000000000,"state":"active","ping":76},{"user_id":605,"name":"Hindmost","steam_id":76561199081837220,"connected_time":3747000000000,"state":"active","ping":75},{"user_id":660,"name":"3-13","steam_id":76561198063929021,"connected_time":230000000000,"state":"active","ping":54},{"user_id":587,"name":"corviraptor (bison sweep)","steam_id":76561198058284392,"connected_time":4862000000000,"state":"active","ping":58},{"user_id":657,"name":"Garfelf","steam_id":76561198419850129,"connected_time":496000000000,"state":"active","ping":113}]},{"server_id":404,"name":"Uncletopia | Dallas | 3 | All Maps","name_short":"dal-3","host":"dal-1.us.uncletopia.com","port":27035,"enabled":true,"region":"us-central","cc":"us","latitude":32.779167,"longitude":-96.80889,"reserved":0,"last_update":"0001-01-01T00:00:00Z","name_a2s":"Uncletopia | Dallas | 3 | All Maps","protocol":17,"map":"pl_pier","folder":"tf","game":"Team Fortress","app_id":440,"player_count":0,"max_players":24,"Bots":0,"server_type":"Dedicated","server_os":"Linux","password":true,"vac":false,"version":"7961495","steam_id":85568392924515219,"keywords":["nocrits","nodmgspread","payload","uncletopia"],"game_id":440,"stv_port":27036,"stv_name":"Uncletopia | Dallas | 3 | All Maps | STV","players":null},{"server_id":405,"name":"Uncletopia | Dallas | 4 | Community","name_short":"dal-4","host":"dal-1.us.uncletopia.com","port":27045,"enabled":true,"region":"us-central","cc":"us","latitude":32.779167,"longitude":-96.80889,"reserved":0,"last_update":"0001-01-01T00:00:00Z","name_a2s":"Uncletopia | Dallas | 4 | Community","protocol":17,"map":"workshop/pl_cashworks_final1.ugc2904065412","folder":"tf","game":"Team Fortress","app_id":440,"player_count":0,"max_players":24,"Bots":0,"server_type":"Dedicated","server_os":"Linux","password":true,"vac":true,"version":"7961495","steam_id":85568392924515220,"keywords":["nocrits","nodmgspread","payload","uncletopia"],"game_id":440,"stv_port":27046,"stv_name":"Uncletopia | Dallas | 4 | Community | STV","players":null},{"server_id":5,"name":"Uncletopia | Frankfurt | 1 | All Maps","name_short":"frk-1","host":"frk-1.de.uncletopia.com","port":27015,"enabled":true,"region":"eu","cc":"de","latitude":50.110924,"longitude":8.682127,"reserved":0,"last_update":"0001-01-01T00:00:00Z","name_a2s":"Uncletopia | Frankfurt | 1 | All Maps","protocol":17,"map":"pl_pier","folder":"tf","game":"Team Fortress","app_id":440,"player_count":17,"max_players":24,"Bots":0,"server_type":"Dedicated","server_os":"Linux","password":true,"vac":true,"version":"7961495","steam_id":85568392924469989,"keywords":["nocrits","nodmgspread","payload","uncletopia"],"game_id":440,"stv_port":27016,"stv_name":"Uncletopia | Frankfurt | 1 | All Maps | STV","players":[{"user_id":479,"name":"anderGL7","steam_id":76561198042529664,"connected_time":2437000000000,"state":"active","ping":81},{"user_id":466,"name":"Minimi","steam_id":76561198873850443,"connected_time":4170000000000,"state":"active","ping":60},{"user_id":504,"name":"Dedu","steam_id":76561198132191324,"connected_time":304000000000,"state":"active","ping":53},{"user_id":477,"name":"corralled","steam_id":76561198028648627,"connected_time":2804000000000,"state":"active","ping":66},{"user_id":506,"name":"greg","steam_id":76561198047388059,"connected_time":98000000000,"state":"active","ping":60},{"user_id":501,"name":"Commander Pasta","steam_id":76561198045773077,"connected_time":790000000000,"state":"active","ping":43},{"user_id":480,"name":"Hitotsume","steam_id":76561198129157178,"connected_time":2388000000000,"state":"active","ping":84},{"user_id":505,"name":"Sphynx Cat","steam_id":76561198367800260,"connected_time":289000000000,"state":"active","ping":68},{"user_id":459,"name":"Pinkchup","steam_id":76561198106802803,"connected_time":4387000000000,"state":"active","ping":76},{"user_id":508,"name":"Killbasa","steam_id":76561198064868400,"connected_time":35000000000,"state":"active","ping":125},{"user_id":485,"name":"avatarvic","steam_id":76561198305931255,"connected_time":2052000000000,"state":"active","ping":67},{"user_id":497,"name":"randem_","steam_id":76561198338793755,"connected_time":1544000000000,"state":"active","ping":52},{"user_id":503,"name":"noseb","steam_id":76561199480942903,"connected_time":569000000000,"state":"active","ping":72},{"user_id":509,"name":"虾扯蛋.Lonely","steam_id":76561198022989560,"connected_time":21000000000,"state":"spawning","ping":57},{"user_id":473,"name":"obi","steam_id":76561198040154461,"connected_time":3544000000000,"state":"active","ping":58},{"user_id":491,"name":"sad monkey hands on his head","steam_id":76561198116530769,"connected_time":1897000000000,"state":"active","ping":86},{"user_id":472,"name":"Dozer","steam_id":76561197998742338,"connected_time":3578000000000,"state":"active","ping":82}]},{"server_id":110,"name":"Uncletopia | Frankfurt | 2 | All Maps","name_short":"frk-2","host":"frk-1.de.uncletopia.com","port":27025,"enabled":true,"region":"eu","cc":"de","latitude":50.110924,"longitude":8.682127,"reserved":0,"last_update":"0001-01-01T00:00:00Z","name_a2s":"Uncletopia | Frankfurt | 2 | All Maps","protocol":17,"map":"cp_process_final","folder":"tf","game":"Team Fortress","app_id":440,"player_count":0,"max_players":24,"Bots":0,"server_type":"Dedicated","server_os":"Linux","password":true,"vac":true,"version":"7961495","steam_id":85568392924469990,"keywords":["cp","nocrits","nodmgspread","uncletopia"],"game_id":440,"stv_port":27026,"stv_name":"Uncletopia | Frankfurt | 2 | All Maps | STV","players":null},{"server_id":308,"name":"Uncletopia | Frankfurt | 3 | All Maps","name_short":"frk-3","host":"frk-1.de.uncletopia.com","port":27035,"enabled":true,"region":"eu","cc":"de","latitude":50.110924,"longitude":8.682127,"reserved":0,"last_update":"0001-01-01T00:00:00Z","name_a2s":"Uncletopia | Frankfurt | 3 | All Maps","protocol":17,"map":"cp_snakewater_final1","folder":"tf","game":"Team Fortress","app_id":440,"player_count":0,"max_players":24,"Bots":0,"server_type":"Dedicated","server_os":"Linux","password":true,"vac":true,"version":"7961495","steam_id":85568392924504274,"keywords":["cp","nocrits","nodmgspread","uncletopia"],"game_id":440,"stv_port":27036,"stv_name":"Uncletopia | Frankfurt | 3 | All Maps | STV","players":null},{"server_id":309,"name":"Uncletopia | Frankfurt | 4 | All Maps","name_short":"frk-4","host":"frk-1.de.uncletopia.com","port":27045,"enabled":true,"region":"eu","cc":"de","latitude":50.110924,"longitude":8.682127,"reserved":0,"last_update":"0001-01-01T00:00:00Z","name_a2s":"Uncletopia | Frankfurt | 4 | All Maps","protocol":17,"map":"pl_snowycoast","folder":"tf","game":"Team Fortress","app_id":440,"player_count":21,"max_players":24,"Bots":0,"server_type":"Dedicated","server_os":"Linux","password":true,"vac":true,"version":"7961495","steam_id":85568392924504275,"keywords":["nocrits","nodmgspread","payload","uncletopia"],"game_id":440,"stv_port":27046,"stv_name":"Uncletopia | Frankfurt | 4 | All Maps | STV","players":[{"user_id":315,"name":"harrison.avenue","steam_id":76561198037288988,"connected_time":1706000000000,"state":"active","ping":178},{"user_id":314,"name":"tired","steam_id":76561198046838168,"connected_time":1806000000000,"state":"active","ping":45},{"user_id":318,"name":"JayWalker[DK]","steam_id":76561198028353350,"connected_time":578000000000,"state":"active","ping":58},{"user_id":320,"name":". . .","steam_id":76561198184360615,"connected_time":492000000000,"state":"active","ping":90},{"user_id":317,"name":"asko","steam_id":76561198081966620,"connected_time":908000000000,"state":"active","ping":80},{"user_id":288,"name":"Majestic","steam_id":76561198039384692,"connected_time":4133000000000,"state":"active","ping":63},{"user_id":313,"name":"Arty","steam_id":76561198160100181,"connected_time":1875000000000,"state":"active","ping":74},{"user_id":322,"name":"Neeeiks","steam_id":76561198009156801,"connected_time":277000000000,"state":"active","ping":68},{"user_id":256,"name":"The Lady","steam_id":76561198029895809,"connected_time":5693000000000,"state":"active","ping":75},{"user_id":305,"name":"bilgobaggings","steam_id":76561198041520751,"connected_time":2051000000000,"state":"active","ping":58},{"user_id":323,"name":"ml0301","steam_id":76561198017216360,"connected_time":228000000000,"state":"active","ping":161},{"user_id":308,"name":"Finn","steam_id":76561198179960193,"connected_time":1991000000000,"state":"active","ping":52},{"user_id":311,"name":"Kestrel","steam_id":76561198144033005,"connected_time":1944000000000,"state":"active","ping":64},{"user_id":324,"name":"akela","steam_id":76561198122010232,"connected_time":110000000000,"state":"active","ping":66},{"user_id":295,"name":"CiVillain","steam_id":76561198059617732,"connected_time":3750000000000,"state":"active","ping":58},{"user_id":325,"name":"Zedifo","steam_id":76561198044032070,"connected_time":58000000000,"state":"spawning","ping":55},{"user_id":309,"name":"[ Louinskii ]","steam_id":76561198060509154,"connected_time":1964000000000,"state":"active","ping":71},{"user_id":310,"name":"TunaaFsh","steam_id":76561198127194010,"connected_time":1956000000000,"state":"active","ping":75},{"user_id":312,"name":"sarii ☆","steam_id":76561199155102111,"connected_time":1928000000000,"state":"active","ping":81},{"user_id":202,"name":"LordTrap.exe","steam_id":76561198318089716,"connected_time":8816000000000,"state":"active","ping":59},{"user_id":298,"name":"♂ Dungeon Master ♂","steam_id":76561198106441033,"connected_time":3684000000000,"state":"active","ping":88}]},{"server_id":310,"name":"Uncletopia | Frankfurt | 5 | All Maps","name_short":"frk-5","host":"frk-1.de.uncletopia.com","port":27055,"enabled":true,"region":"eu","cc":"de","latitude":50.110924,"longitude":8.682127,"reserved":0,"last_update":"0001-01-01T00:00:00Z","name_a2s":"Uncletopia | Frankfurt | 5 | All Maps","protocol":17,"map":"pl_frontier_final","folder":"tf","game":"Team Fortress","app_id":440,"player_count":23,"max_players":24,"Bots":0,"server_type":"Dedicated","server_os":"Linux","password":true,"vac":true,"version":"7961495","steam_id":85568392924504277,"keywords":["nocrits","nodmgspread","payload","uncletopia"],"game_id":440,"stv_port":27056,"stv_name":"Uncletopia | Frankfurt | 5 | All Maps | STV","players":[{"user_id":520,"name":"BenteBent","steam_id":76561198297920637,"connected_time":2520000000000,"state":"active","ping":40},{"user_id":564,"name":"Maximilian1359","steam_id":76561198152439608,"connected_time":30000000000,"state":"active","ping":55},{"user_id":542,"name":"Cocsam","steam_id":76561198050827179,"connected_time":966000000000,"state":"active","ping":61},{"user_id":555,"name":"Alex","steam_id":76561198061182324,"connected_time":415000000000,"state":"active","ping":73},{"user_id":558,"name":"nacho","steam_id":76561198043178581,"connected_time":345000000000,"state":"active","ping":99},{"user_id":543,"name":"Fidacha","steam_id":76561198003060881,"connected_time":959000000000,"state":"active","ping":59},{"user_id":524,"name":"jovi_","steam_id":76561198449280552,"connected_time":1962000000000,"state":"active","ping":61},{"user_id":495,"name":"Ted","steam_id":76561198143229880,"connected_time":5020000000000,"state":"active","ping":42},{"user_id":536,"name":"CL! Hallowasniet","steam_id":76561198168485956,"connected_time":1343000000000,"state":"active","ping":59},{"user_id":556,"name":"Vic","steam_id":76561198071162624,"connected_time":392000000000,"state":"active","ping":65},{"user_id":546,"name":"rummy","steam_id":76561197997573379,"connected_time":884000000000,"state":"active","ping":51},{"user_id":541,"name":"Wessle T","steam_id":76561198295353875,"connected_time":1106000000000,"state":"active","ping":171},{"user_id":560,"name":"[ \u003e . \u003c ]7","steam_id":76561198095560087,"connected_time":217000000000,"state":"active","ping":60},{"user_id":527,"name":"hbivnm#freeforsen","steam_id":76561197996468677,"connected_time":1898000000000,"state":"active","ping":49},{"user_id":561,"name":"please do not the cat","steam_id":76561198089003514,"connected_time":188000000000,"state":"active","ping":45},{"user_id":540,"name":"Calamant","steam_id":76561198054650483,"connected_time":1129000000000,"state":"active","ping":143},{"user_id":533,"name":"Lavir","steam_id":76561198008619442,"connected_time":1396000000000,"state":"active","ping":123},{"user_id":492,"name":"Schmack","steam_id":76561198026535437,"connected_time":5726000000000,"state":"active","ping":60},{"user_id":534,"name":"chestnutflea","steam_id":76561198144268690,"connected_time":1391000000000,"state":"active","ping":77},{"user_id":52,"name":"else1","steam_id":76561197996558319,"connected_time":37561000000000,"state":"active","ping":75},{"user_id":562,"name":"dog2","steam_id":76561198030119065,"connected_time":154000000000,"state":"active","ping":75},{"user_id":563,"name":"Noodle","steam_id":76561198156055894,"connected_time":148000000000,"state":"active","ping":60},{"user_id":518,"name":"Senator Palpaprotein","steam_id":76561198081980254,"connected_time":2856000000000,"state":"active","ping":55}]},{"server_id":311,"name":"Uncletopia | Frankfurt | 6 | All Maps","name_short":"frk-6","host":"frk-1.de.uncletopia.com","port":27065,"enabled":true,"region":"eu","cc":"de","latitude":50.110924,"longitude":8.682127,"reserved":0,"last_update":"0001-01-01T00:00:00Z","name_a2s":"Uncletopia | Frankfurt | 6 | All Maps","protocol":17,"map":"pl_barnblitz","folder":"tf","game":"Team Fortress","app_id":440,"player_count":4,"max_players":24,"Bots":0,"server_type":"Dedicated","server_os":"Linux","password":true,"vac":true,"version":"7961495","steam_id":85568392924504278,"keywords":["nocrits","nodmgspread","payload","uncletopia"],"game_id":440,"stv_port":27066,"stv_name":"Uncletopia | Frankfurt | 6 | All Maps | STV","players":[{"user_id":542,"name":"DALIX","steam_id":76561198137361645,"connected_time":1820000000000,"state":"active","ping":68},{"user_id":558,"name":"Ozzie","steam_id":76561197992915315,"connected_time":758000000000,"state":"active","ping":62},{"user_id":556,"name":"Poggito","steam_id":76561198838001276,"connected_time":987000000000,"state":"active","ping":54},{"user_id":551,"name":"CarbonPan","steam_id":76561198072169983,"connected_time":1309000000000,"state":"active","ping":89}]},{"server_id":23,"name":"Uncletopia | Frankfurt | 7 | Stopwatch","name_short":"frk-7","host":"frk-1.de.uncletopia.com","port":27075,"enabled":true,"region":"eu","cc":"de","latitude":50.110924,"longitude":8.682127,"reserved":0,"last_update":"0001-01-01T00:00:00Z","name_a2s":"Uncletopia | Frankfurt | 7 | Stopwatch","protocol":17,"map":"workshop/koth_product_final.ugc454272353","folder":"tf","game":"Team Fortress","app_id":440,"player_count":0,"max_players":24,"Bots":0,"server_type":"Dedicated","server_os":"Linux","password":true,"vac":true,"version":"7961495","steam_id":85568392924742827,"keywords":["cp","nocrits","nodmgspread","uncletopia"],"game_id":440,"stv_port":27076,"stv_name":"Uncletopia | Frankfurt | 7 | Stopwatch | STV","players":null},{"server_id":24,"name":"Uncletopia | Frankfurt | 8 | Community","name_short":"frk-8","host":"frk-1.de.uncletopia.com","port":27085,"enabled":true,"region":"eu","cc":"de","latitude":50.110924,"longitude":8.682127,"reserved":0,"last_update":"0001-01-01T00:00:00Z","name_a2s":"Uncletopia | Frankfurt | 8 | Community","protocol":17,"map":"workshop/pl_corrode_rc2.ugc546577989","folder":"tf","game":"Team Fortress","app_id":440,"player_count":0,"max_players":24,"Bots":0,"server_type":"Dedicated","server_os":"Linux","password":true,"vac":true,"version":"7961495","steam_id":85568392924742828,"keywords":["nocrits","nodmgspread","payload","uncletopia"],"game_id":440,"stv_port":27086,"stv_name":"Uncletopia | Frankfurt | 8 | Community | STV","players":null},{"server_id":202,"name":"Uncletopia | Hong Kong | 1 | All Maps","name_short":"hgk-1","host":"hgk-1.hk.uncletopia.com","port":27015,"enabled":true,"region":"asia","cc":"hk","latitude":22.302711,"longitude":114.177216,"reserved":0,"last_update":"0001-01-01T00:00:00Z","name_a2s":"Uncletopia | Hong Kong | 1 | All Maps","protocol":17,"map":"pl_frontier_final","folder":"tf","game":"Team Fortress","app_id":440,"player_count":0,"max_players":24,"Bots":0,"server_type":"Dedicated","server_os":"Linux","password":true,"vac":true,"version":"7961495","steam_id":85568392924494504,"keywords":["nocrits","nodmgspread","payload","uncletopia"],"game_id":440,"stv_port":27016,"stv_name":"Uncletopia | Hong Kong | 1 | All Maps | STV","players":null},{"server_id":1,"name":"Uncletopia | Los Angeles | 1 | All Maps","name_short":"lax-1","host":"lax-1.us.uncletopia.com","port":27015,"enabled":true,"region":"us-west","cc":"us","latitude":33.94279,"longitude":-118.41004,"reserved":0,"last_update":"0001-01-01T00:00:00Z","name_a2s":"Uncletopia | Los Angeles | 1 | All Maps","protocol":17,"map":"cp_altitude","folder":"tf","game":"Team Fortress","app_id":440,"player_count":0,"max_players":24,"Bots":0,"server_type":"Dedicated","server_os":"Linux","password":true,"vac":true,"version":"7961495","steam_id":85568392924469991,"keywords":["cp","nocrits","nodmgspread","uncletopia"],"game_id":440,"stv_port":27016,"stv_name":"Uncletopia | Los Angeles | 1 | All Maps | STV","players":null},{"server_id":112,"name":"Uncletopia | Los Angeles | 2 | All Maps","name_short":"lax-2","host":"lax-1.us.uncletopia.com","port":27025,"enabled":true,"region":"us-west","cc":"us","latitude":33.94279,"longitude":-118.41004,"reserved":0,"last_update":"0001-01-01T00:00:00Z","name_a2s":"Uncletopia | Los Angeles | 2 | All Maps","protocol":17,"map":"cp_dustbowl","folder":"tf","game":"Team Fortress","app_id":440,"player_count":6,"max_players":24,"Bots":0,"server_type":"Dedicated","server_os":"Linux","password":true,"vac":true,"version":"7961495","steam_id":85568392924469992,"keywords":["cp","nocrits","nodmgspread","uncletopia"],"game_id":440,"stv_port":27026,"stv_name":"Uncletopia | Los Angeles | 2 | All Maps | STV","players":[{"user_id":85,"name":"reko","steam_id":76561198278020887,"connected_time":6249000000000,"state":"active","ping":74},{"user_id":130,"name":"vvitch","steam_id":76561198279661941,"connected_time":1833000000000,"state":"active","ping":44},{"user_id":135,"name":"jairo","steam_id":76561199006124613,"connected_time":1728000000000,"state":"active","ping":143},{"user_id":102,"name":"rice","steam_id":76561198119326733,"connected_time":4829000000000,"state":"active","ping":106},{"user_id":83,"name":"SanitysEdge","steam_id":76561198130732813,"connected_time":6489000000000,"state":"active","ping":43},{"user_id":137,"name":"mentos14","steam_id":76561198097993629,"connected_time":1307000000000,"state":"active","ping":45}]},{"server_id":324,"name":"Uncletopia | Los Angeles | 3 | All Maps","name_short":"lax-3","host":"lax-1.us.uncletopia.com","port":27035,"enabled":true,"region":"us-west","cc":"us","latitude":33.94279,"longitude":-118.41004,"reserved":0,"last_update":"0001-01-01T00:00:00Z","name_a2s":"Uncletopia | Los Angeles | 3 | All Maps","protocol":17,"map":"pl_frontier_final","folder":"tf","game":"Team Fortress","app_id":440,"player_count":0,"max_players":24,"Bots":0,"server_type":"Dedicated","server_os":"Linux","password":true,"vac":true,"version":"7961495","steam_id":85568392924510198,"keywords":["nocrits","nodmgspread","payload","uncletopia"],"game_id":440,"stv_port":27036,"stv_name":"Uncletopia | Los Angeles | 3 | All Maps | STV","players":null},{"server_id":25,"name":"Uncletopia | Los Angeles | 4 | Stopwatch","name_short":"lax-4","host":"lax-1.us.uncletopia.com","port":27045,"enabled":true,"region":"us-west","cc":"us","latitude":33.94279,"longitude":-118.41004,"reserved":0,"last_update":"0001-01-01T00:00:00Z","name_a2s":"Uncletopia | Los Angeles | 4 | Stopwatch","protocol":17,"map":"pl_barnblitz","folder":"tf","game":"Team Fortress","app_id":440,"player_count":0,"max_players":24,"Bots":0,"server_type":"Dedicated","server_os":"Linux","password":true,"vac":true,"version":"7961495","steam_id":85568392924510199,"keywords":["nocrits","nodmgspread","payload","uncletopia"],"game_id":440,"stv_port":27046,"stv_name":"Uncletopia | Los Angeles | 4 | Stopwatch | STV","players":null},{"server_id":11,"name":"Uncletopia | London | 1 | All Maps","name_short":"lon-1","host":"lon-1.uk.uncletopia.com","port":27015,"enabled":true,"region":"eu","cc":"gb","latitude":51.509865,"longitude":-0.118092,"reserved":0,"last_update":"0001-01-01T00:00:00Z","name_a2s":"Uncletopia | London | 1 | All Maps","protocol":17,"map":"pl_upward","folder":"tf","game":"Team Fortress","app_id":440,"player_count":23,"max_players":24,"Bots":0,"server_type":"Dedicated","server_os":"Linux","password":true,"vac":true,"version":"7961495","steam_id":85568392924367362,"keywords":["nocrits","nodmgspread","payload","uncletopia"],"game_id":440,"stv_port":27016,"stv_name":"Uncletopia | London | 1 | All Maps | STV","players":[{"user_id":520,"name":"helps me helps me why7 yuo no h","steam_id":76561198190583242,"connected_time":935000000000,"state":"active","ping":75},{"user_id":530,"name":"Curlew","steam_id":76561198075884540,"connected_time":278000000000,"state":"active","ping":72},{"user_id":524,"name":"psyko lunatic","steam_id":76561198213759580,"connected_time":437000000000,"state":"active","ping":44},{"user_id":428,"name":"{UA} tom shelbey","steam_id":76561198080912087,"connected_time":11782000000000,"state":"active","ping":71},{"user_id":531,"name":"aja","steam_id":76561198972253395,"connected_time":197000000000,"state":"active","ping":55},{"user_id":527,"name":"breakfast burrito","steam_id":76561198148606969,"connected_time":333000000000,"state":"active","ping":81},{"user_id":512,"name":"Bobirulez","steam_id":76561198009125458,"connected_time":1857000000000,"state":"active","ping":75},{"user_id":521,"name":"⸸aura⸸","steam_id":76561198066258544,"connected_time":921000000000,"state":"active","ping":60},{"user_id":443,"name":"the coom slayer (2016)","steam_id":76561198890193313,"connected_time":10349000000000,"state":"active","ping":58},{"user_id":509,"name":"shooer!","steam_id":76561198110531281,"connected_time":1953000000000,"state":"active","ping":73},{"user_id":363,"name":"GoblinGaming","steam_id":76561198360395476,"connected_time":17428000000000,"state":"active","ping":47},{"user_id":456,"name":"Lyra","steam_id":76561198043601838,"connected_time":8637000000000,"state":"active","ping":75},{"user_id":528,"name":"was/were","steam_id":76561198868614426,"connected_time":330000000000,"state":"active","ping":146},{"user_id":504,"name":"KnugenIV","steam_id":76561198127091993,"connected_time":3179000000000,"state":"active","ping":60},{"user_id":532,"name":"SuperSkrull","steam_id":76561198035695823,"connected_time":176000000000,"state":"active","ping":62},{"user_id":516,"name":"gibb (official)","steam_id":76561198074097655,"connected_time":1287000000000,"state":"active","ping":77},{"user_id":506,"name":"rez777ka","steam_id":76561198107605938,"connected_time":3059000000000,"state":"active","ping":92},{"user_id":533,"name":"røverhul","steam_id":76561198150474100,"connected_time":106000000000,"state":"active","ping":74},{"user_id":511,"name":"SKY_","steam_id":76561198080980508,"connected_time":1902000000000,"state":"active","ping":67},{"user_id":534,"name":"Phalcon","steam_id":76561197987051394,"connected_time":95000000000,"state":"active","ping":85},{"user_id":494,"name":"Pantroglodytestherapy","steam_id":76561198236015392,"connected_time":4639000000000,"state":"active","ping":120},{"user_id":434,"name":"reddit fortress","steam_id":76561198074917015,"connected_time":11697000000000,"state":"active","ping":76},{"user_id":495,"name":"Son Goku","steam_id":76561199383437138,"connected_time":4638000000000,"state":"active","ping":121}]},{"server_id":114,"name":"Uncletopia | London | 2 | All Maps","name_short":"lon-2","host":"lon-1.uk.uncletopia.com","port":27025,"enabled":true,"region":"eu","cc":"gb","latitude":51.509865,"longitude":-0.118092,"reserved":0,"last_update":"0001-01-01T00:00:00Z","name_a2s":"Uncletopia | London | 2 | All Maps","protocol":17,"map":"pl_swiftwater_final1","folder":"tf","game":"Team Fortress","app_id":440,"player_count":0,"max_players":24,"Bots":0,"server_type":"Dedicated","server_os":"Linux","password":true,"vac":true,"version":"7961495","steam_id":85568392924470941,"keywords":["nocrits","nodmgspread","payload","uncletopia"],"game_id":440,"stv_port":27026,"stv_name":"Uncletopia | London | 2 | All Maps | STV","players":null},{"server_id":320,"name":"Uncletopia | London | 3 | All Maps","name_short":"lon-3","host":"lon-1.uk.uncletopia.com","port":27035,"enabled":true,"region":"eu","cc":"gb","latitude":51.509865,"longitude":-0.118092,"reserved":0,"last_update":"0001-01-01T00:00:00Z","name_a2s":"Uncletopia | London | 3 | All Maps","protocol":17,"map":"pl_barnblitz","folder":"tf","game":"Team Fortress","app_id":440,"player_count":25,"max_players":24,"Bots":0,"server_type":"Dedicated","server_os":"Linux","password":true,"vac":true,"version":"7961495","steam_id":85568392924510192,"keywords":["nocrits","nodmgspread","payload","uncletopia"],"game_id":440,"stv_port":27036,"stv_name":"Uncletopia | London | 3 | All Maps | STV","players":[{"user_id":125,"name":"Bob Vance, Vance Refrigeration","steam_id":76561198004799788,"connected_time":1864000000000,"state":"active","ping":142},{"user_id":150,"name":"flick","steam_id":76561198083505031,"connected_time":429000000000,"state":"active","ping":42},{"user_id":90,"name":"whatsapp man","steam_id":76561198802028634,"connected_time":5403000000000,"state":"active","ping":55},{"user_id":102,"name":"Gnarville","steam_id":76561198006373329,"connected_time":3628000000000,"state":"active","ping":65},{"user_id":146,"name":"Golden Boy","steam_id":76561198049072159,"connected_time":707000000000,"state":"active","ping":58},{"user_id":141,"name":"blank scrabble tile","steam_id":76561198844612042,"connected_time":1091000000000,"state":"active","ping":74},{"user_id":127,"name":"Logern","steam_id":76561198085243794,"connected_time":1679000000000,"state":"active","ping":56},{"user_id":119,"name":"MuchoBroke","steam_id":76561199389474207,"connected_time":2559000000000,"state":"active","ping":40},{"user_id":147,"name":"Cataleptic","steam_id":76561197997966949,"connected_time":608000000000,"state":"active","ping":58},{"user_id":101,"name":"lillunya ♡","steam_id":76561198330418866,"connected_time":4509000000000,"state":"active","ping":72},{"user_id":135,"name":"Hans","steam_id":76561198030061999,"connected_time":1425000000000,"state":"active","ping":73},{"user_id":138,"name":"git bash -er","steam_id":76561198072586494,"connected_time":1213000000000,"state":"active","ping":43},{"user_id":80,"name":"that fat croc from donkey kong","steam_id":76561198159172495,"connected_time":6153000000000,"state":"active","ping":114},{"user_id":94,"name":"icymelon","steam_id":76561198072239175,"connected_time":5135000000000,"state":"active","ping":39},{"user_id":87,"name":"MiLLje9ia☭","steam_id":76561198353537034,"connected_time":5552000000000,"state":"active","ping":42},{"user_id":152,"name":"Vince","steam_id":76561199103000131,"connected_time":342000000000,"state":"active","ping":36},{"user_id":153,"name":"Level 1 Noob","steam_id":76561198088586340,"connected_time":331000000000,"state":"active","ping":63},{"user_id":61,"name":"that shit got me middle handed","steam_id":76561198010239925,"connected_time":7213000000000,"state":"active","ping":46},{"user_id":151,"name":"elijah","steam_id":76561198093936708,"connected_time":422000000000,"state":"active","ping":45},{"user_id":115,"name":"big","steam_id":76561198073870893,"connected_time":2832000000000,"state":"active","ping":45},{"user_id":149,"name":"Sputnik","steam_id":76561198138660241,"connected_time":512000000000,"state":"active","ping":65},{"user_id":154,"name":"Space Viking","steam_id":76561199013736960,"connected_time":291000000000,"state":"active","ping":136},{"user_id":144,"name":"The Dragon's Furry","steam_id":76561198323581294,"connected_time":924000000000,"state":"active","ping":36},{"user_id":155,"name":"HealthHazard","steam_id":76561198212549753,"connected_time":285000000000,"state":"active","ping":46},{"user_id":156,"name":"Fiching","steam_id":76561197996781468,"connected_time":72000000000,"state":"active","ping":131}]},{"server_id":321,"name":"Uncletopia | London | 4 | All Maps","name_short":"lon-4","host":"lon-1.uk.uncletopia.com","port":27045,"enabled":true,"region":"eu","cc":"gb","latitude":51.509865,"longitude":-0.118092,"reserved":0,"last_update":"0001-01-01T00:00:00Z","name_a2s":"Uncletopia | London | 4 | All Maps","protocol":17,"map":"koth_cascade","folder":"tf","game":"Team Fortress","app_id":440,"player_count":0,"max_players":24,"Bots":0,"server_type":"Dedicated","server_os":"Linux","password":true,"vac":true,"version":"7961495","steam_id":85568392924510193,"keywords":["cp","nocrits","nodmgspread","uncletopia"],"game_id":440,"stv_port":27046,"stv_name":"Uncletopia | London | 4 | All Maps | STV","players":null},{"server_id":21,"name":"Uncletopia | London | 5 | All Maps","name_short":"lon-5","host":"lon-1.uk.uncletopia.com","port":27055,"enabled":true,"region":"eu","cc":"gb","latitude":51.509865,"longitude":-0.118092,"reserved":0,"last_update":"0001-01-01T00:00:00Z","name_a2s":"Uncletopia | London | 5 | All Maps","protocol":17,"map":"pl_borneo","folder":"tf","game":"Team Fortress","app_id":440,"player_count":21,"max_players":24,"Bots":0,"server_type":"Dedicated","server_os":"Linux","password":true,"vac":true,"version":"7961495","steam_id":85568392924742829,"keywords":["nocrits","nodmgspread","payload","uncletopia"],"game_id":440,"stv_port":27056,"stv_name":"Uncletopia | London | 5 | All Maps | STV","players":[{"user_id":925,"name":"Mawnster","steam_id":76561198023392404,"connected_time":992000000000,"state":"active","ping":54},{"user_id":933,"name":"DEATH-ETANOL","steam_id":76561198010184206,"connected_time":346000000000,"state":"active","ping":84},{"user_id":923,"name":"casual","steam_id":76561198196031775,"connected_time":1122000000000,"state":"active","ping":43},{"user_id":929,"name":"Asset","steam_id":76561199163521175,"connected_time":636000000000,"state":"active","ping":49},{"user_id":934,"name":"max:)))","steam_id":76561198027033926,"connected_time":55000000000,"state":"active","ping":47},{"user_id":928,"name":"Mr. Fox","steam_id":76561198803610709,"connected_time":779000000000,"state":"active","ping":106},{"user_id":899,"name":"Jude!","steam_id":76561197983597798,"connected_time":2400000000000,"state":"active","ping":37},{"user_id":908,"name":"Vic Rattlehead","steam_id":76561199036837091,"connected_time":1918000000000,"state":"active","ping":87},{"user_id":910,"name":"Moon","steam_id":76561198808108594,"connected_time":1896000000000,"state":"active","ping":93},{"user_id":903,"name":"Conan","steam_id":76561198158321202,"connected_time":2121000000000,"state":"active","ping":55},{"user_id":930,"name":"mama's lil pride and joy","steam_id":76561198051852765,"connected_time":620000000000,"state":"active","ping":75},{"user_id":915,"name":"Spaguetti","steam_id":76561198002913092,"connected_time":1718000000000,"state":"active","ping":82},{"user_id":841,"name":"azzy","steam_id":76561198061293740,"connected_time":6075000000000,"state":"active","ping":76},{"user_id":913,"name":"Feelsbadman","steam_id":76561198002461001,"connected_time":1780000000000,"state":"active","ping":84},{"user_id":914,"name":"Hohz RustStake #rustmoment","steam_id":76561198257850715,"connected_time":1734000000000,"state":"active","ping":92},{"user_id":917,"name":"nokia #rustmoment banditcamp.co","steam_id":76561198976411995,"connected_time":1665000000000,"state":"active","ping":100},{"user_id":931,"name":"xTheDarkLight","steam_id":76561198239128298,"connected_time":616000000000,"state":"active","ping":61},{"user_id":922,"name":"ɘɿɘʜT o||ɘH","steam_id":76561198106275890,"connected_time":1267000000000,"state":"active","ping":56},{"user_id":921,"name":"『the_STINK』","steam_id":76561198145140572,"connected_time":1328000000000,"state":"active","ping":154},{"user_id":881,"name":"Tomboy Mold","steam_id":76561198106455841,"connected_time":3318000000000,"state":"active","ping":71},{"user_id":723,"name":"Ullr","steam_id":76561198140547483,"connected_time":13361000000000,"state":"active","ping":42}]},{"server_id":22,"name":"Uncletopia | London | 6 | All Maps","name_short":"lon-6","host":"lon-1.uk.uncletopia.com","port":27065,"enabled":true,"region":"eu","cc":"gb","latitude":51.509865,"longitude":-0.118092,"reserved":0,"last_update":"0001-01-01T00:00:00Z","name_a2s":"Uncletopia | London | 6 | All Maps","protocol":17,"map":"pl_borneo","folder":"tf","game":"Team Fortress","app_id":440,"player_count":17,"max_players":24,"Bots":0,"server_type":"Dedicated","server_os":"Linux","password":true,"vac":true,"version":"7961495","steam_id":85568392924742830,"keywords":["nocrits","nodmgspread","payload","uncletopia"],"game_id":440,"stv_port":27066,"stv_name":"Uncletopia | London | 6 | All Maps | STV","players":[{"user_id":505,"name":"Cimbasso","steam_id":76561198968050004,"connected_time":62000000000,"state":"active","ping":150},{"user_id":492,"name":"Cosmo","steam_id":76561198042147273,"connected_time":1328000000000,"state":"active","ping":149},{"user_id":466,"name":"Ketz","steam_id":76561198285441006,"connected_time":3149000000000,"state":"active","ping":55},{"user_id":504,"name":"adchwa","steam_id":76561198038122870,"connected_time":198000000000,"state":"active","ping":39},{"user_id":444,"name":"Zm4j","steam_id":76561198259465946,"connected_time":4404000000000,"state":"active","ping":75},{"user_id":484,"name":"its look who it is","steam_id":76561198116981188,"connected_time":1508000000000,"state":"active","ping":60},{"user_id":506,"name":"froge","steam_id":76561198304959766,"connected_time":48000000000,"state":"active","ping":79},{"user_id":507,"name":"Sandi","steam_id":76561198073173304,"connected_time":10000000000,"state":"spawning","ping":65},{"user_id":485,"name":"STARRI","steam_id":76561198245784188,"connected_time":1467000000000,"state":"active","ping":53},{"user_id":486,"name":"EnragementGame","steam_id":76561198280376215,"connected_time":1438000000000,"state":"active","ping":128},{"user_id":472,"name":"BP oil spill","steam_id":76561198274631806,"connected_time":2742000000000,"state":"active","ping":49},{"user_id":450,"name":"Sabour","steam_id":76561197963965445,"connected_time":4158000000000,"state":"active","ping":68},{"user_id":493,"name":"nyx","steam_id":76561198096016781,"connected_time":1165000000000,"state":"active","ping":71},{"user_id":489,"name":"Donni Donno","steam_id":76561198095400254,"connected_time":1412000000000,"state":"active","ping":45},{"user_id":490,"name":"Little Pissboy","steam_id":76561198104248887,"connected_time":1404000000000,"state":"active","ping":55},{"user_id":476,"name":"dirty rascal","steam_id":76561198000871038,"connected_time":2646000000000,"state":"active","ping":45},{"user_id":491,"name":"ThatFezGuy","steam_id":76561198205537964,"connected_time":1400000000000,"state":"active","ping":51}]},{"server_id":40,"name":"Uncletopia | London | 7 | Stopwatch","name_short":"lon-7","host":"lon-1.uk.uncletopia.com","port":27075,"enabled":true,"region":"eu","cc":"gb","latitude":51.509865,"longitude":-0.118092,"reserved":0,"last_update":"0001-01-01T00:00:00Z","name_a2s":"Uncletopia | London | 7 | Stopwatch","protocol":17,"map":"workshop/koth_clearcut_b15.ugc2107050255","folder":"tf","game":"Team Fortress","app_id":440,"player_count":0,"max_players":24,"Bots":0,"server_type":"Dedicated","server_os":"Linux","password":true,"vac":false,"version":"7961495","steam_id":85568392924964314,"keywords":["cp","nocrits","nodmgspread","uncletopia"],"game_id":440,"stv_port":27076,"stv_name":"Uncletopia | London | 7 | Stopwatch | STV","players":null},{"server_id":41,"name":"Uncletopia | London | 8 | Community","name_short":"lon-8","host":"lon-1.uk.uncletopia.com","port":27085,"enabled":true,"region":"eu","cc":"gb","latitude":51.509865,"longitude":-0.118092,"reserved":0,"last_update":"0001-01-01T00:00:00Z","name_a2s":"Uncletopia | London | 8 | Community","protocol":17,"map":"workshop/koth_slaughter_rc1.ugc1712845210","folder":"tf","game":"Team Fortress","app_id":440,"player_count":0,"max_players":24,"Bots":0,"server_type":"Dedicated","server_os":"Linux","password":true,"vac":true,"version":"7961495","steam_id":85568392924964315,"keywords":["cp","nocrits","nodmgspread","uncletopia"],"game_id":440,"stv_port":27086,"stv_name":"Uncletopia | London | 8 | Community | STV","players":null},{"server_id":300,"name":"Uncletopia | Montréal | 1 | One Thousand Uncles","name_short":"mtl-1","host":"mtl-1.ca.uncletopia.com","port":27015,"enabled":true,"region":"us-east","cc":"ca","latitude":45.50889,"longitude":-73.56167,"reserved":0,"last_update":"0001-01-01T00:00:00Z","name_a2s":"","protocol":0,"map":"","folder":"","game":"","app_id":0,"player_count":0,"max_players":0,"Bots":0,"server_type":"","server_os":"","password":false,"vac":false,"version":"","steam_id":0,"keywords":null,"game_id":0,"stv_port":0,"stv_name":"","players":null},{"server_id":301,"name":"Uncletopia | Montréal | 2 | One Thousand Uncles","name_short":"mtl-2","host":"mtl-1.ca.uncletopia.com","port":27025,"enabled":true,"region":"us-east","cc":"ca","latitude":45.50889,"longitude":-73.56167,"reserved":0,"last_update":"0001-01-01T00:00:00Z","name_a2s":"","protocol":0,"map":"","folder":"","game":"","app_id":0,"player_count":0,"max_players":0,"Bots":0,"server_type":"","server_os":"","password":false,"vac":false,"version":"","steam_id":0,"keywords":null,"game_id":0,"stv_port":0,"stv_name":"","players":null},{"server_id":302,"name":"Uncletopia | Montréal | 3 | One Thousand Uncles","name_short":"mtl-3","host":"mtl-1.ca.uncletopia.com","port":27035,"enabled":true,"region":"us-east","cc":"ca","latitude":45.50889,"longitude":-73.56167,"reserved":0,"last_update":"0001-01-01T00:00:00Z","name_a2s":"","protocol":0,"map":"","folder":"","game":"","app_id":0,"player_count":11,"max_players":0,"Bots":0,"server_type":"","server_os":"","password":false,"vac":false,"version":"","steam_id":0,"keywords":null,"game_id":0,"stv_port":0,"stv_name":"","players":[{"user_id":55,"name":"The Fragrance of Dark Coffee","steam_id":76561198013111370,"connected_time":7283000000000,"state":"active","ping":55},{"user_id":179,"name":"drone","steam_id":76561199202039197,"connected_time":849000000000,"state":"active","ping":64},{"user_id":56,"name":"Yorozuya with Odd Jobs","steam_id":76561198219473128,"connected_time":7270000000000,"state":"active","ping":57},{"user_id":159,"name":"Chaos","steam_id":76561197967401532,"connected_time":1606000000000,"state":"active","ping":137},{"user_id":78,"name":"PhoenixVirus™","steam_id":76561198028064823,"connected_time":4959000000000,"state":"active","ping":64},{"user_id":79,"name":"Zilla ✿","steam_id":76561198014549040,"connected_time":4941000000000,"state":"active","ping":61},{"user_id":135,"name":"Jimmy Pubetron","steam_id":76561198077634776,"connected_time":2215000000000,"state":"active","ping":48},{"user_id":87,"name":"BinaryBitGamer[They/Them]","steam_id":76561198140761006,"connected_time":3905000000000,"state":"active","ping":61},{"user_id":162,"name":"Stardust Icarus★彡","steam_id":76561198145533630,"connected_time":1088000000000,"state":"active","ping":66},{"user_id":139,"name":"concrete_car","steam_id":76561198388207363,"connected_time":1701000000000,"state":"active","ping":65},{"user_id":117,"name":"JustNeo","steam_id":76561199086288085,"connected_time":2762000000000,"state":"active","ping":77}]},{"server_id":13,"name":"Uncletopia | New York City | 1 | All Maps","name_short":"nyc-1","host":"nyc-1.us.uncletopia.com","port":27015,"enabled":true,"region":"us-east","cc":"us","latitude":40.73061,"longitude":-73.93524,"reserved":0,"last_update":"0001-01-01T00:00:00Z","name_a2s":"Uncletopia | New York City | 1 | All Maps","protocol":17,"map":"koth_harvest_final","folder":"tf","game":"Team Fortress","app_id":440,"player_count":4,"max_players":24,"Bots":0,"server_type":"Dedicated","server_os":"Linux","password":true,"vac":true,"version":"7961495","steam_id":85568392924469993,"keywords":["cp","nocrits","nodmgspread","uncletopia"],"game_id":440,"stv_port":27016,"stv_name":"Uncletopia | New York City | 1 | All Maps | STV","players":[{"user_id":217,"name":"Xavi","steam_id":76561198337783795,"connected_time":1899000000000,"state":"active","ping":52},{"user_id":226,"name":"ottergauze","steam_id":76561198050523315,"connected_time":1423000000000,"state":"active","ping":126},{"user_id":203,"name":"NYC APPA YIP YIP","steam_id":76561198112929942,"connected_time":2622000000000,"state":"active","ping":54},{"user_id":171,"name":"Gentoo Linux Gaming","steam_id":76561197999657118,"connected_time":5477000000000,"state":"active","ping":66}]},{"server_id":14,"name":"Uncletopia | New York City | 2 | All Maps","name_short":"nyc-2","host":"nyc-1.us.uncletopia.com","port":27025,"enabled":true,"region":"us-east","cc":"us","latitude":40.73061,"longitude":-73.93524,"reserved":0,"last_update":"0001-01-01T00:00:00Z","name_a2s":"Uncletopia | New York City | 2 | All Maps","protocol":17,"map":"ctf_turbine","folder":"tf","game":"Team Fortress","app_id":440,"player_count":0,"max_players":24,"Bots":0,"server_type":"Dedicated","server_os":"Linux","password":true,"vac":true,"version":"7961495","steam_id":85568392924469994,"keywords":["ctf","nocrits","nodmgspread","uncletopia"],"game_id":440,"stv_port":27026,"stv_name":"Uncletopia | New York City | 2 | All Maps | STV","players":null},{"server_id":15,"name":"Uncletopia | New York City | 3 | Stopwatch","name_short":"nyc-3","host":"nyc-1.us.uncletopia.com","port":27035,"enabled":true,"region":"us-east","cc":"us","latitude":40.73061,"longitude":-73.93524,"reserved":0,"last_update":"0001-01-01T00:00:00Z","name_a2s":"Uncletopia | New York City | 3 | Stopwatch","protocol":17,"map":"koth_lakeside_final","folder":"tf","game":"Team Fortress","app_id":440,"player_count":0,"max_players":24,"Bots":0,"server_type":"Dedicated","server_os":"Linux","password":true,"vac":true,"version":"7961495","steam_id":85568392924742820,"keywords":["cp","nocrits","nodmgspread","uncletopia"],"game_id":440,"stv_port":27036,"stv_name":"Uncletopia | New York City | 3 | Stopwatch | STV","players":null},{"server_id":16,"name":"Uncletopia | New York City | 4 | Community","name_short":"nyc-4","host":"nyc-1.us.uncletopia.com","port":27045,"enabled":true,"region":"us-east","cc":"us","latitude":40.73061,"longitude":-73.93524,"reserved":0,"last_update":"0001-01-01T00:00:00Z","name_a2s":"Uncletopia | New York City | 4 | Community","protocol":17,"map":"cp_altitude","folder":"tf","game":"Team Fortress","app_id":440,"player_count":0,"max_players":24,"Bots":0,"server_type":"Dedicated","server_os":"Linux","password":true,"vac":true,"version":"7961495","steam_id":85568392924742821,"keywords":["cp","nocrits","nodmgspread","uncletopia"],"game_id":440,"stv_port":27046,"stv_name":"Uncletopia | New York City | 4 | Community | STV","players":null},{"server_id":142,"name":"Uncletopia | São Paulo | 1 | All Maps","name_short":"sao-1","host":"sao-1.br.uncletopia.com","port":27015,"enabled":true,"region":"sa","cc":"br","latitude":-23.533773,"longitude":-46.62529,"reserved":0,"last_update":"0001-01-01T00:00:00Z","name_a2s":"Uncletopia | São Paulo | 1 | All Maps","protocol":17,"map":"koth_highpass","folder":"tf","game":"Team Fortress","app_id":440,"player_count":0,"max_players":24,"Bots":0,"server_type":"Dedicated","server_os":"Linux","password":true,"vac":true,"version":"7961495","steam_id":85568392924469996,"keywords":["cp","nocrits","nodmgspread","uncletopia"],"game_id":440,"stv_port":27016,"stv_name":"Uncletopia | São Paulo | 1 | All Maps | STV","players":null},{"server_id":143,"name":"Uncletopia | São Paulo | 2 | Community","name_short":"sao-2","host":"sao-2.br.uncletopia.com","port":27015,"enabled":true,"region":"sa","cc":"br","latitude":-23.533773,"longitude":-46.62529,"reserved":0,"last_update":"0001-01-01T00:00:00Z","name_a2s":"Uncletopia | São Paulo | 2 | Community","protocol":17,"map":"workshop/cp_hazyfort_rc6.ugc1365963729","folder":"tf","game":"Team Fortress","app_id":440,"player_count":0,"max_players":24,"Bots":0,"server_type":"Dedicated","server_os":"Linux","password":true,"vac":true,"version":"7961495","steam_id":85568392924485349,"keywords":["cp","nocrits","nodmgspread","uncletopia"],"game_id":440,"stv_port":27016,"stv_name":"Uncletopia | São Paulo | 2 | Community | STV","players":null},{"server_id":7,"name":"Uncletopia | Seattle | 1 | All Maps","name_short":"sea-1","host":"sea-1.us.uncletopia.com","port":27015,"enabled":true,"region":"us-west","cc":"us","latitude":47.608013,"longitude":-122.33517,"reserved":0,"last_update":"0001-01-01T00:00:00Z","name_a2s":"Uncletopia | Seattle | 1 | All Maps","protocol":17,"map":"pl_frontier_final","folder":"tf","game":"Team Fortress","app_id":440,"player_count":18,"max_players":24,"Bots":0,"server_type":"Dedicated","server_os":"Linux","password":true,"vac":true,"version":"7961495","steam_id":85568392924469997,"keywords":["nocrits","nodmgspread","payload","uncletopia"],"game_id":440,"stv_port":27016,"stv_name":"Uncletopia | Seattle | 1 | All Maps | STV","players":[{"user_id":323,"name":"Greskrendtregk","steam_id":76561197969553142,"connected_time":85000000000,"state":"active","ping":47},{"user_id":320,"name":"zuma deluxe","steam_id":76561198059041027,"connected_time":491000000000,"state":"active","ping":45},{"user_id":313,"name":"Karg","steam_id":76561198091387866,"connected_time":1641000000000,"state":"active","ping":61},{"user_id":315,"name":"The Assistant Regional Manager","steam_id":76561199221484936,"connected_time":1604000000000,"state":"active","ping":78},{"user_id":314,"name":"dust | it/she","steam_id":76561198045218909,"connected_time":1637000000000,"state":"active","ping":30},{"user_id":324,"name":"mega","steam_id":76561198089520959,"connected_time":54000000000,"state":"active","ping":91},{"user_id":282,"name":"Conseq","steam_id":76561198335652179,"connected_time":4059000000000,"state":"active","ping":40},{"user_id":292,"name":"vash the stampy","steam_id":76561198083024293,"connected_time":3170000000000,"state":"active","ping":110},{"user_id":319,"name":"małię","steam_id":76561198337705174,"connected_time":998000000000,"state":"active","ping":74},{"user_id":322,"name":"Serene Salamander","steam_id":76561198001094770,"connected_time":190000000000,"state":"active","ping":71},{"user_id":311,"name":"nolove","steam_id":76561198274550638,"connected_time":1685000000000,"state":"active","ping":104},{"user_id":233,"name":"Lili","steam_id":76561199488457138,"connected_time":9993000000000,"state":"active","ping":46},{"user_id":302,"name":"ed","steam_id":76561198080475712,"connected_time":2640000000000,"state":"active","ping":65},{"user_id":257,"name":"Spicy Chicken","steam_id":76561198074209737,"connected_time":6576000000000,"state":"active","ping":89},{"user_id":268,"name":"Bus!","steam_id":76561199082304859,"connected_time":6000000000000,"state":"active","ping":45},{"user_id":317,"name":"Fh","steam_id":76561198000903511,"connected_time":1215000000000,"state":"active","ping":54},{"user_id":304,"name":"Pneumo.","steam_id":76561197987911883,"connected_time":2435000000000,"state":"active","ping":60},{"user_id":306,"name":"Bocchi the Rock Johnson","steam_id":76561198216017952,"connected_time":2019000000000,"state":"active","ping":57}]},{"server_id":119,"name":"Uncletopia | Seattle | 2 | All Maps","name_short":"sea-2","host":"sea-1.us.uncletopia.com","port":27025,"enabled":true,"region":"us-west","cc":"us","latitude":47.608013,"longitude":-122.33517,"reserved":0,"last_update":"0001-01-01T00:00:00Z","name_a2s":"Uncletopia | Seattle | 2 | All Maps","protocol":17,"map":"pl_rumford_event","folder":"tf","game":"Team Fortress","app_id":440,"player_count":16,"max_players":24,"Bots":0,"server_type":"Dedicated","server_os":"Linux","password":true,"vac":true,"version":"7961495","steam_id":85568392924469998,"keywords":["nocrits","nodmgspread","payload","uncletopia"],"game_id":440,"stv_port":27026,"stv_name":"Uncletopia | Seattle | 2 | All Maps | STV","players":[{"user_id":71,"name":"Demoknight Gaming","steam_id":76561199035619815,"connected_time":365000000000,"state":"active","ping":217},{"user_id":45,"name":"RockMuncher","steam_id":76561198269218386,"connected_time":1552000000000,"state":"active","ping":51},{"user_id":56,"name":"vfa","steam_id":76561198055729118,"connected_time":1177000000000,"state":"active","ping":54},{"user_id":74,"name":"GgDionne","steam_id":76561198079684772,"connected_time":29000000000,"state":"active","ping":50},{"user_id":48,"name":"Eleen","steam_id":76561198063800293,"connected_time":1422000000000,"state":"active","ping":91},{"user_id":75,"name":"WaveSmash","steam_id":76561198208785485,"connected_time":6000000000,"state":"spawning","ping":87},{"user_id":42,"name":"Chara C. Name","steam_id":76561198003087205,"connected_time":2123000000000,"state":"active","ping":59},{"user_id":50,"name":"you just got dyked on","steam_id":76561198018977723,"connected_time":1343000000000,"state":"active","ping":45},{"user_id":51,"name":"VoldyTheMoldy","steam_id":76561198845502915,"connected_time":1298000000000,"state":"active","ping":122},{"user_id":52,"name":"Fermenting Kiwi","steam_id":76561198253303497,"connected_time":1257000000000,"state":"active","ping":81},{"user_id":53,"name":"Aqzwdrc","steam_id":76561198318727043,"connected_time":1239000000000,"state":"active","ping":120},{"user_id":54,"name":"really hot pocket","steam_id":76561198239297686,"connected_time":1236000000000,"state":"active","ping":135},{"user_id":68,"name":"itBeABruhMoment","steam_id":76561199152720501,"connected_time":616000000000,"state":"active","ping":41},{"user_id":62,"name":"ReallyRandomBoi","steam_id":76561199041021221,"connected_time":1030000000000,"state":"active","ping":45},{"user_id":69,"name":"Vanished","steam_id":76561198055365288,"connected_time":464000000000,"state":"active","ping":62},{"user_id":67,"name":"yeenor","steam_id":76561198105359319,"connected_time":779000000000,"state":"active","ping":74}]},{"server_id":406,"name":"Uncletopia | Seattle | 3 | Stopwatch","name_short":"sea-3","host":"sea-1.us.uncletopia.com","port":27035,"enabled":true,"region":"us-west","cc":"us","latitude":47.608013,"longitude":-122.33517,"reserved":0,"last_update":"0001-01-01T00:00:00Z","name_a2s":"Uncletopia | Seattle | 3 | Stopwatch","protocol":17,"map":"workshop/koth_product_final.ugc454272353","folder":"tf","game":"Team Fortress","app_id":440,"player_count":0,"max_players":24,"Bots":0,"server_type":"Dedicated","server_os":"Linux","password":true,"vac":true,"version":"7961495","steam_id":85568392924515217,"keywords":["cp","nocrits","nodmgspread","uncletopia"],"game_id":440,"stv_port":27036,"stv_name":"Uncletopia | Seattle | 3 | Stopwatch | STV","players":null},{"server_id":17,"name":"Uncletopia | San Francisco | 1 | All Maps","name_short":"sfo-1","host":"sfo-1.us.uncletopia.com","port":27015,"enabled":true,"region":"us-west","cc":"us","latitude":37.77397,"longitude":-122.4313,"reserved":0,"last_update":"0001-01-01T00:00:00Z","name_a2s":"Uncletopia | San Francisco | 1 | All Maps","protocol":17,"map":"koth_highpass","folder":"tf","game":"Team Fortress","app_id":440,"player_count":0,"max_players":24,"Bots":0,"server_type":"Dedicated","server_os":"Linux","password":true,"vac":true,"version":"7961495","steam_id":85568392924469999,"keywords":["cp","nocrits","nodmgspread","uncletopia"],"game_id":440,"stv_port":27016,"stv_name":"Uncletopia | San Francisco | 1 | All Maps | STV","players":null},{"server_id":18,"name":"Uncletopia | San Francisco | 2 | All Maps","name_short":"sfo-2","host":"sfo-1.us.uncletopia.com","port":27025,"enabled":true,"region":"us-west","cc":"us","latitude":37.77397,"longitude":-122.4313,"reserved":0,"last_update":"0001-01-01T00:00:00Z","name_a2s":"Uncletopia | San Francisco | 2 | All Maps","protocol":17,"map":"pl_frontier_final","folder":"tf","game":"Team Fortress","app_id":440,"player_count":0,"max_players":24,"Bots":0,"server_type":"Dedicated","server_os":"Linux","password":true,"vac":true,"version":"7961495","steam_id":85568392924470000,"keywords":["nocrits","nodmgspread","payload","uncletopia"],"game_id":440,"stv_port":27026,"stv_name":"Uncletopia | San Francisco | 2 | All Maps | STV","players":null},{"server_id":19,"name":"Uncletopia | San Francisco | 3 | Stopwatch","name_short":"sfo-3","host":"sfo-1.us.uncletopia.com","port":27035,"enabled":true,"region":"us-west","cc":"us","latitude":37.77397,"longitude":-122.4313,"reserved":0,"last_update":"0001-01-01T00:00:00Z","name_a2s":"Uncletopia | San Francisco | 3 | Stopwatch","protocol":17,"map":"workshop/pl_vigil_rc10.ugc1266210012","folder":"tf","game":"Team Fortress","app_id":440,"player_count":0,"max_players":24,"Bots":0,"server_type":"Dedicated","server_os":"Linux","password":true,"vac":true,"version":"7961495","steam_id":85568392924742824,"keywords":["nocrits","nodmgspread","payload","uncletopia"],"game_id":440,"stv_port":27036,"stv_name":"Uncletopia | San Francisco | 3 | Stopwatch | STV","players":null},{"server_id":20,"name":"Uncletopia | San Francisco | 4 | Community","name_short":"sfo-4","host":"sfo-1.us.uncletopia.com","port":27045,"enabled":true,"region":"us-west","cc":"us","latitude":37.77397,"longitude":-122.4313,"reserved":0,"last_update":"0001-01-01T00:00:00Z","name_a2s":"Uncletopia | San Francisco | 4 | Community","protocol":17,"map":"pl_pier","folder":"tf","game":"Team Fortress","app_id":440,"player_count":0,"max_players":24,"Bots":0,"server_type":"Dedicated","server_os":"Linux","password":true,"vac":true,"version":"7961495","steam_id":85568392924742826,"keywords":["nocrits","nodmgspread","payload","uncletopia"],"game_id":440,"stv_port":27046,"stv_name":"Uncletopia | San Francisco | 4 | Community | STV","players":null},{"server_id":141,"name":"Uncletopia | Sydney | 1 | All Maps","name_short":"syd-1","host":"syd-1.au.uncletopia.com","port":27015,"enabled":true,"region":"au","cc":"au","latitude":-33.865143,"longitude":151.2099,"reserved":0,"last_update":"0001-01-01T00:00:00Z","name_a2s":"Uncletopia | Sydney | 1 | All Maps","protocol":17,"map":"koth_viaduct","folder":"tf","game":"Team Fortress","app_id":440,"player_count":0,"max_players":24,"Bots":0,"server_type":"Dedicated","server_os":"Linux","password":true,"vac":true,"version":"7961495","steam_id":85568392924470001,"keywords":["cp","nocrits","nodmgspread","uncletopia"],"game_id":440,"stv_port":27016,"stv_name":"Uncletopia | Sydney | 1 | All Maps | STV","players":null},{"server_id":123,"name":"Uncletopia | Sydney | 2 | All Maps","name_short":"syd-2","host":"syd-1.au.uncletopia.com","port":27025,"enabled":true,"region":"au","cc":"au","latitude":-33.865143,"longitude":151.2099,"reserved":0,"last_update":"0001-01-01T00:00:00Z","name_a2s":"Uncletopia | Sydney | 2 | All Maps","protocol":17,"map":"koth_lakeside_final","folder":"tf","game":"Team Fortress","app_id":440,"player_count":0,"max_players":24,"Bots":0,"server_type":"Dedicated","server_os":"Linux","password":true,"vac":true,"version":"7961495","steam_id":85568392924470002,"keywords":["cp","nocrits","nodmgspread","uncletopia"],"game_id":440,"stv_port":27026,"stv_name":"Uncletopia | Sydney | 2 | All Maps | STV","players":null},{"server_id":395,"name":"Uncletopia | Sydney | 3 | All Maps","name_short":"syd-3","host":"syd-1.au.uncletopia.com","port":27035,"enabled":true,"region":"au","cc":"au","latitude":-33.865143,"longitude":151.2099,"reserved":0,"last_update":"0001-01-01T00:00:00Z","name_a2s":"Uncletopia | Sydney | 3 | All Maps","protocol":17,"map":"pl_frontier_final","folder":"tf","game":"Team Fortress","app_id":440,"player_count":0,"max_players":24,"Bots":0,"server_type":"Dedicated","server_os":"Linux","password":true,"vac":true,"version":"7961495","steam_id":85568392925194467,"keywords":["nocrits","nodmgspread","payload","uncletopia"],"game_id":440,"stv_port":27036,"stv_name":"Uncletopia | Sydney | 3 | All Maps | STV","players":null},{"server_id":396,"name":"Uncletopia | Sydney | 4 | All Maps","name_short":"syd-4","host":"syd-1.au.uncletopia.com","port":27045,"enabled":true,"region":"au","cc":"au","latitude":-33.865143,"longitude":151.2099,"reserved":0,"last_update":"0001-01-01T00:00:00Z","name_a2s":"Uncletopia | Sydney | 4 | All Maps","protocol":17,"map":"cp_process_final","folder":"tf","game":"Team Fortress","app_id":440,"player_count":0,"max_players":24,"Bots":0,"server_type":"Dedicated","server_os":"Linux","password":true,"vac":true,"version":"7961495","steam_id":85568392925397958,"keywords":["cp","nocrits","nodmgspread","uncletopia"],"game_id":440,"stv_port":27046,"stv_name":"Uncletopia | Sydney | 4 | All Maps | STV","players":null},{"server_id":58,"name":"Uncletopia | Sydney | 5 | Stopwatch","name_short":"syd-5","host":"syd-1.au.uncletopia.com","port":27055,"enabled":true,"region":"au","cc":"au","latitude":-33.865143,"longitude":151.2099,"reserved":0,"last_update":"0001-01-01T00:00:00Z","name_a2s":"Uncletopia | Sydney | 5 | Stopwatch","protocol":17,"map":"pl_frontier_final","folder":"tf","game":"Team Fortress","app_id":440,"player_count":0,"max_players":24,"Bots":0,"server_type":"Dedicated","server_os":"Linux","password":true,"vac":true,"version":"7961495","steam_id":85568392925397959,"keywords":["nocrits","nodmgspread","payload","uncletopia"],"game_id":440,"stv_port":27056,"stv_name":"Uncletopia | Sydney | 5 | Stopwatch | STV","players":null},{"server_id":59,"name":"Uncletopia | Sydney | 6 | Community","name_short":"syd-6","host":"syd-1.au.uncletopia.com","port":27065,"enabled":true,"region":"au","cc":"au","latitude":-33.865143,"longitude":151.2099,"reserved":0,"last_update":"0001-01-01T00:00:00Z","name_a2s":"Uncletopia | Sydney | 6 | Community","protocol":17,"map":"cp_sunshine","folder":"tf","game":"Team Fortress","app_id":440,"player_count":0,"max_players":24,"Bots":0,"server_type":"Dedicated","server_os":"Linux","password":true,"vac":true,"version":"7961495","steam_id":85568392925397960,"keywords":["cp","nocrits","nodmgspread","uncletopia"],"game_id":440,"stv_port":27066,"stv_name":"Uncletopia | Sydney | 6 | Community | STV","players":null},{"server_id":49,"name":"Uncletopia | Warsaw | 1 | One Thousand Uncles","name_short":"waw-1","host":"waw-1.pl.uncletopia.com","port":27015,"enabled":true,"region":"eu","cc":"pl","latitude":52.2297,"longitude":21.017532,"reserved":0,"last_update":"0001-01-01T00:00:00Z","name_a2s":"Uncletopia | Warsaw | 1 | One Thousand Uncles","protocol":17,"map":"cp_egypt_final","folder":"tf","game":"Team Fortress","app_id":440,"player_count":0,"max_players":32,"Bots":0,"server_type":"Dedicated","server_os":"Linux","password":true,"vac":true,"version":"7961495","steam_id":85568392925397850,"keywords":["alltalk","cp","danepve","increased_maxplayers","nocrits","norespawntime","uncletopia"],"game_id":440,"stv_port":0,"stv_name":"","players":null},{"server_id":50,"name":"Uncletopia | Warsaw | 2 | One Thousand Uncles","name_short":"waw-2","host":"waw-1.pl.uncletopia.com","port":27025,"enabled":true,"region":"eu","cc":"pl","latitude":52.2297,"longitude":21.017532,"reserved":0,"last_update":"0001-01-01T00:00:00Z","name_a2s":"Uncletopia | Warsaw | 2 | One Thousand Uncles","protocol":17,"map":"cp_dustbowl","folder":"tf","game":"Team Fortress","app_id":440,"player_count":19,"max_players":32,"Bots":16,"server_type":"Dedicated","server_os":"Linux","password":true,"vac":true,"version":"7961495","steam_id":85568392925397851,"keywords":["alltalk","bots","cp","danepve","increased_maxplayers","nocrits","norespawntime","uncletopia"],"game_id":440,"stv_port":0,"stv_name":"","players":[{"user_id":673,"name":"Samuel L. Jackson","steam_id":76561198130427881,"connected_time":3696000000000,"state":"active","ping":178},{"user_id":690,"name":"Voks_","steam_id":76561198159687785,"connected_time":3383000000000,"state":"active","ping":63},{"user_id":693,"name":"bp","steam_id":76561197988192258,"connected_time":794000000000,"state":"active","ping":60}]},{"server_id":51,"name":"Uncletopia | Warsaw | 3 | All Maps","name_short":"waw-3","host":"waw-1.pl.uncletopia.com","port":27035,"enabled":true,"region":"eu","cc":"pl","latitude":52.2297,"longitude":21.017532,"reserved":0,"last_update":"0001-01-01T00:00:00Z","name_a2s":"Uncletopia | Warsaw | 3 | All Maps","protocol":17,"map":"cp_altitude","folder":"tf","game":"Team Fortress","app_id":440,"player_count":0,"max_players":24,"Bots":0,"server_type":"Dedicated","server_os":"Linux","password":true,"vac":true,"version":"7961495","steam_id":85568392925397852,"keywords":["cp","nocrits","nodmgspread","uncletopia"],"game_id":440,"stv_port":27036,"stv_name":"Uncletopia | Warsaw | 3 | All Maps | STV","players":null},{"server_id":52,"name":"Uncletopia | Warsaw | 4 | All Maps","name_short":"waw-4","host":"waw-1.pl.uncletopia.com","port":27045,"enabled":true,"region":"eu","cc":"pl","latitude":52.2297,"longitude":21.017532,"reserved":0,"last_update":"0001-01-01T00:00:00Z","name_a2s":"Uncletopia | Warsaw | 4 | All Maps","protocol":17,"map":"pl_badwater","folder":"tf","game":"Team Fortress","app_id":440,"player_count":0,"max_players":24,"Bots":0,"server_type":"Dedicated","server_os":"Linux","password":true,"vac":true,"version":"7961495","steam_id":85568392925397853,"keywords":["nocrits","nodmgspread","payload","uncletopia"],"game_id":440,"stv_port":27046,"stv_name":"Uncletopia | Warsaw | 4 | All Maps | STV","players":null},{"server_id":53,"name":"Uncletopia | Warsaw | 5 | Stopwatch","name_short":"waw-5","host":"waw-1.pl.uncletopia.com","port":27055,"enabled":true,"region":"eu","cc":"pl","latitude":52.2297,"longitude":21.017532,"reserved":0,"last_update":"0001-01-01T00:00:00Z","name_a2s":"Uncletopia | Warsaw | 5 | Stopwatch","protocol":17,"map":"workshop/koth_product_final.ugc454272353","folder":"tf","game":"Team Fortress","app_id":440,"player_count":0,"max_players":24,"Bots":0,"server_type":"Dedicated","server_os":"Linux","password":true,"vac":true,"version":"7961495","steam_id":85568392925397854,"keywords":["cp","nocrits","nodmgspread","uncletopia"],"game_id":440,"stv_port":27056,"stv_name":"Uncletopia | Warsaw | 5 | Stopwatch | STV","players":null},{"server_id":54,"name":"Uncletopia | Warsaw | 6 | Community","name_short":"waw-6","host":"waw-1.pl.uncletopia.com","port":27065,"enabled":true,"region":"eu","cc":"pl","latitude":52.2297,"longitude":21.017532,"reserved":0,"last_update":"0001-01-01T00:00:00Z","name_a2s":"Uncletopia | Warsaw | 6 | Community","protocol":17,"map":"workshop/koth_ramjam_rc1.ugc459778887","folder":"tf","game":"Team Fortress","app_id":440,"player_count":0,"max_players":24,"Bots":0,"server_type":"Dedicated","server_os":"Linux","password":true,"vac":true,"version":"7961495","steam_id":85568392925397856,"keywords":["cp","nocrits","nodmgspread","uncletopia"],"game_id":440,"stv_port":27066,"stv_name":"Uncletopia | Warsaw | 6 | Community | STV","players":null}]}