{"status":true,"message":"","result":[{"server_id":9,"name":"Uncletopia | Atlanta | 1 | All Maps","name_short":"atl-1","host":"atl-1.us.uncletopia.com","port":27015,"enabled":true,"region":"us-east","cc":"us","latitude":33.753746,"longitude":-84.38633,"reserved":0,"last_update":"0001-01-01T00:00:00Z","name_a2s":"Uncletopia | Atlanta | 1 | All Maps","protocol":17,"map":"cp_sunshine","folder":"tf","game":"Team Fortress","app_id":440,"player_count":24,"max_players":24,"Bots":0,"server_type":"Dedicated","server_os":"Linux","password":true,"vac":true,"version":"7961495","steam_id":85568392924469982,"keywords":["cp","nocrits","nodmgspread","uncletopia"],"game_id":440,"stv_port":27016,"stv_name":"Uncletopia | Atlanta | 1 | All Maps | STV","players":[{"user_id":118,"name":"Bearbot5","steam_id":76561198883262617,"connected_time":2431000000000,"state":"active","ping":87},{"user_id":141,"name":"Toonice","steam_id":76561198402994885,"connected_time":265000000000,"state":"active","ping":70},{"user_id":134,"name":"Dr.Inkmix(femboy)","steam_id":76561198854070384,"connected_time":875000000000,"state":"active","ping":104},{"user_id":99,"name":"DualiTea","steam_id":76561198081733870,"connected_time":3936000000000,"state":"active","ping":66},{"user_id":87,"name":"sansa musa","steam_id":76561198163723555,"connected_time":4792000000000,"state":"active","ping":60},{"user_id":116,"name":"lil hog","steam_id":76561199230929836,"connected_time":2471000000000,"state":"active","ping":86},{"user_id":133,"name":"HALF","steam_id":76561199032347375,"connected_time":1071000000000,"state":"active","ping":59},{"user_id":119,"name":"nrvvs","steam_id":76561199134714492,"connected_time":2402000000000,"state":"active","ping":90},{"user_id":120,"name":"dog","steam_id":76561198263873491,"connected_time":2373000000000,"state":"active","ping":58},{"user_id":100,"name":"Window Licker #pride","steam_id":76561198386717007,"connected_time":3933000000000,"state":"active","ping":75},{"user_id":129,"name":"hat","steam_id":76561199041462058,"connected_time":1954000000000,"state":"active","ping":63},{"user_id":142,"name":"Sappho of Lesbos","steam_id":76561198115931381,"connected_time":235000000000,"state":"active","ping":47},{"user_id":131,"name":"NotoriousThicc","steam_id":76561198244650474,"connected_time":1247000000000,"state":"active","ping":96},{"user_id":132,"name":"Stacks63bs","steam_id":76561198067797130,"connected_time":1143000000000,"state":"active","ping":58},{"user_id":136,"name":"Sprrw","steam_id":76561198060380419,"connected_time":664000000000,"state":"active","ping":69},{"user_id":85,"name":"Skit","steam_id":76561198032675272,"connected_time":4874000000000,"state":"active","ping":75},{"user_id":122,"name":"Lavendeer","steam_id":76561198142770666,"connected_time":2360000000000,"state":"active","ping":64},{"user_id":105,"name":"Voodo133","steam_id":76561198042670351,"connected_time":3707000000000,"state":"active","ping":71},{"user_id":140,"name":"lu","steam_id":76561198080731872,"connected_time":276000000000,"state":"active","ping":76},{"user_id":114,"name":"Sleepy","steam_id":76561198978688451,"connected_time":2920000000000,"state":"active","ping":104},{"user_id":143,"name":"eish","steam_id":76561198089463603,"connected_time":215000000000,"state":"active","ping":127},{"user_id":130,"name":"BIG HOG","steam_id":76561198079923652,"connected_time":1286000000000,"state":"active","ping":68},{"user_id":113,"name":"otwtomarsoffdabars(spacecore)","steam_id":76561199085974120,"connected_time":3007000000000,"state":"active","ping":66},{"user_id":127,"name":"Jin Gulilo","steam_id":76561198065151242,"connected_time":2129000000000,"state":"active","ping":61}]},{"server_id":104,"name":"Uncletopia | Atlanta | 2 | All Maps","name_short":"atl-2","host":"atl-1.us.uncletopia.com","port":27025,"enabled":true,"region":"us-east","cc":"us","latitude":33.753746,"longitude":-84.38633,"reserved":0,"last_update":"0001-01-01T00:00:00Z","name_a2s":"Uncletopia | Atlanta | 2 | All Maps","protocol":17,"map":"koth_lakeside_final","folder":"tf","game":"Team Fortress","app_id":440,"player_count":0,"max_players":24,"Bots":0,"server_type":"Dedicated","server_os":"Linux","password":true,"vac":true,"version":"7961495","steam_id":85568392924469983,"keywords":["cp","nocrits","nodmgspread","uncletopia"],"game_id":440,"stv_port":27026,"stv_name":"Uncletopia | Atlanta | 2 | All Maps | STV","players":null},{"server_id":400,"name":"Uncletopia | Atlanta | 3 | Stopwatch","name_short":"atl-3","host":"atl-1.us.uncletopia.com","port":27035,"enabled":true,"region":"us-east","cc":"us","latitude":33.753746,"longitude":-84.38633,"reserved":0,"last_update":"0001-01-01T00:00:00Z","name_a2s":"Uncletopia | Atlanta | 3 | Stopwatch","protocol":17,"map":"workshop/pl_badwater_pro_v12.ugc2142942074","folder":"tf","game":"Team Fortress","app_id":440,"player_count":17,"max_players":24,"Bots":0,"server_type":"Dedicated","server_os":"Linux","password":true,"vac":true,"version":"7961495","steam_id":85568392924515187,"keywords":["nocrits","nodmgspread","payload","uncletopia"],"game_id":440,"stv_port":27036,"stv_name":"Uncletopia | Atlanta | 3 | Stopwatch | STV","players":[{"user_id":176,"name":"BigButternater","steam_id":76561199046684880,"connected_time":120000000000,"state":"active","ping":104},{"user_id":163,"name":"DaMultiversalist","steam_id":76561198239552412,"connected_time":532000000000,"state":"active","ping":71},{"user_id":164,"name":"Avarage tf2 enjoyer","steam_id":76561199115677468,"connected_time":507000000000,"state":"active","ping":163},{"user_id":178,"name":"Raven","steam_id":76561198112988615,"connected_time":49000000000,"state":"spawning","ping":226},{"user_id":180,"name":"freggy2024","steam_id":76561199012231884,"connected_time":16000000000,"state":"spawning","ping":248},{"user_id":167,"name":"KUNA","steam_id":76561198078547621,"connected_time":358000000000,"state":"active","ping":66},{"user_id":157,"name":"DemoPan","steam_id":76561198313267119,"connected_time":1228000000000,"state":"active","ping":69},{"user_id":168,"name":"snoodles","steam_id":76561198313113513,"connected_time":350000000000,"state":"active","ping":59},{"user_id":169,"name":"PoisonNatascha","steam_id":76561198101353460,"connected_time":344000000000,"state":"active","ping":104},{"user_id":105,"name":"Helmet Hands","steam_id":76561197961141994,"connected_time":4232000000000,"state":"active","ping":105},{"user_id":170,"name":"WaffleDog","steam_id":76561198107064568,"connected_time":331000000000,"state":"active","ping":67},{"user_id":171,"name":"Ruthkanda Forever","steam_id":76561198132162854,"connected_time":284000000000,"state":"active","ping":62},{"user_id":135,"name":"gaming?!","steam_id":76561198148059714,"connected_time":2230000000000,"state":"active","ping":67},{"user_id":172,"name":"teeceetu","steam_id":76561198278990898,"connected_time":279000000000,"state":"active","ping":79},{"user_id":91,"name":"Ginger Jesus","steam_id":76561198052386458,"connected_time":4698000000000,"state":"active","ping":60},{"user_id":174,"name":"Anomet","steam_id":76561198060246255,"connected_time":254000000000,"state":"active","ping":54},{"user_id":175,"name":"Malarkey","steam_id":76561198844473584,"connected_time":252000000000,"state":"active","ping":46}]},{"server_id":401,"name":"Uncletopia | Atlanta | 4 | Community","name_short":"atl-4","host":"atl-1.us.uncletopia.com","port":27045,"enabled":true,"region":"us-east","cc":"us","latitude":33.753746,"longitude":-84.38633,"reserved":0,"last_update":"0001-01-01T00:00:00Z","name_a2s":"Uncletopia | Atlanta | 4 | Community","protocol":17,"map":"workshop/pl_vigil_rc10.ugc1266210012","folder":"tf","game":"Team Fortress","app_id":440,"player_count":0,"max_players":24,"Bots":0,"server_type":"Dedicated","server_os":"Linux","password":true,"vac":true,"version":"7961495","steam_id":85568392924515188,"keywords":["nocrits","nodmgspread","payload","uncletopia"],"game_id":440,"stv_port":27046,"stv_name":"Uncletopia | Atlanta | 4 | Community | STV","players":null},{"server_id":2,"name":"Uncletopia | Chicago | 1 | All Maps","name_short":"chi-1","host":"chi-1.us.uncletopia.com","port":27015,"enabled":true,"region":"us-central","cc":"us","latitude":41.881832,"longitude":-87.62318,"reserved":0,"last_update":"0001-01-01T00:00:00Z","name_a2s":"Uncletopia | Chicago | 1 | All Maps","protocol":17,"map":"plr_bananabay","folder":"tf","game":"Team Fortress","app_id":440,"player_count":25,"max_players":24,"Bots":0,"server_type":"Dedicated","server_os":"Linux","password":true,"vac":true,"version":"7961495","steam_id":85568392924469984,"keywords":["nocrits","nodmgspread","payload","uncletopia"],"game_id":440,"stv_port":27016,"stv_name":"Uncletopia | Chicago | 1 | All Maps | STV","players":[{"user_id":283,"name":"mkl","steam_id":76561197986401685,"connected_time":2791000000000,"state":"active","ping":81},{"user_id":298,"name":"Danger Dwarf","steam_id":76561198059490571,"connected_time":2467000000000,"state":"active","ping":71},{"user_id":388,"name":"CCTV Camera","steam_id":76561198373692962,"connected_time":489000000000,"state":"active","ping":51},{"user_id":389,"name":"Shack","steam_id":76561198035503322,"connected_time":471000000000,"state":"active","ping":74},{"user_id":282,"name":"friends forever","steam_id":76561198282764599,"connected_time":2800000000000,"state":"active","ping":45},{"user_id":390,"name":"19 INCH TGIRL SCHLONG","steam_id":76561198122059018,"connected_time":419000000000,"state":"active","ping":46},{"user_id":240,"name":"Pierre Bourne","steam_id":76561199500265332,"connected_time":3995000000000,"state":"active","ping":69},{"user_id":408,"name":"‚ù§Luna Bee‚ù§","steam_id":76561199230209215,"connected_time":231000000000,"state":"active","ping":150},{"user_id":252,"name":"sock","steam_id":76561199117597830,"connected_time":3468000000000,"state":"active","ping":61},{"user_id":392,"name":"Mf Zoom","steam_id":76561198844434119,"connected_time":406000000000,"state":"active","ping":119},{"user_id":385,"name":"Duncan Idaho","steam_id":76561197988963861,"connected_time":578000000000,"state":"active","ping":76},{"user_id":393,"name":"Fracix","steam_id":76561198207794075,"connected_time":404000000000,"state":"active","ping":172},{"user_id":394,"name":"pim","steam_id":76561198095163441,"connected_time":400000000000,"state":"active","ping":76},{"user_id":395,"name":"Wang of Wall St","steam_id":76561198047460598,"connected_time":394000000000,"state":"active","ping":66},{"user_id":361,"name":"mister slippery","steam_id":76561198057076267,"connected_time":1141000000000,"state":"active","ping":83},{"user_id":362,"name":"WM1 PYRO","steam_id":76561198045893896,"connected_time":1111000000000,"state":"active","ping":82},{"user_id":213,"name":"Imposter","steam_id":76561199043966809,"connected_time":5756000000000,"state":"active","ping":73},{"user_id":198,"name":"Ranger","steam_id":76561198064096654,"connected_time":7241000000000,"state":"active","ping":52},{"user_id":308,"name":"dormio","steam_id":76561198400723170,"connected_time":2225000000000,"state":"active","ping":59},{"user_id":367,"name":"Alphatass","steam_id":76561197992442602,"connected_time":880000000000,"state":"active","ping":67},{"user_id":396,"name":"incredirocks","steam_id":76561198061079993,"connected_time":390000000000,"state":"active","ping":52},{"user_id":417,"name":"Dr. Han","steam_id":76561198811130843,"connected_time":2000000000,"state":"spawning","ping":70},{"user_id":405,"name":"Lennu","steam_id":76561198060730154,"connected_time":281000000000,"state":"active","ping":70},{"user_id":312,"name":"mrpineapple070","steam_id":76561199088278757,"connected_time":2163000000000,"state":"active","ping":97},{"user_id":398,"name":"epic cheeseburger","steam_id":76561198041995180,"connected_time":381000000000,"state":"active","ping":79}]},{"server_id":106,"name":"Uncletopia | Chicago | 2 | All Maps","name_short":"chi-2","host":"chi-1.us.uncletopia.com","port":27025,"enabled":true,"region":"us-central","cc":"us","latitude":41.881832,"longitude":-87.62318,"reserved":0,"last_update":"0001-01-01T00:00:00Z","name_a2s":"Uncletopia | Chicago | 2 | All Maps","protocol":17,"map":"pl_badwater","folder":"tf","game":"Team Fortress","app_id":440,"player_count":24,"max_players":24,"Bots":0,"server_type":"Dedicated","server_os":"Linux","password":true,"vac":true,"version":"7961495","steam_id":85568392924469985,"keywords":["nocrits","nodmgspread","payload","uncletopia"],"game_id":440,"stv_port":27026,"stv_name":"Uncletopia | Chicago | 2 | All Maps | STV","players":[{"user_id":337,"name":"haileywestbrook123@gmail.com","steam_id":76561199169445769,"connected_time":2290000000000,"state":"active","ping":75},{"user_id":352,"name":"Gingoguy","steam_id":76561198088931297,"connected_time":1190000000000,"state":"active","ping":51},{"user_id":360,"name":"loscemo","steam_id":76561197994884609,"connected_time":443000000000,"state":"active","ping":56},{"user_id":259,"name":"Nathan","steam_id":76561198127924646,"connected_time":8103000000000,"state":"active","ping":80},{"user_id":361,"name":"jordanfer111","steam_id":76561198044993097,"connected_time":255000000000,"state":"active","ping":103},{"user_id":345,"name":"Sick Skeleton","steam_id":76561198097707557,"connected_time":1784000000000,"state":"active","ping":111},{"user_id":342,"name":"Rufous","steam_id":76561198018954668,"connected_time":1936000000000,"state":"active","ping":71},{"user_id":332,"name":"james_bondage","steam_id":76561199476062624,"connected_time":2644000000000,"state":"active","ping":58},{"user_id":362,"name":"playguy carter","steam_id":76561198080679337,"connected_time":236000000000,"state":"active","ping":64},{"user_id":343,"name":"Snaky","steam_id":76561199389427774,"connected_time":1919000000000,"state":"active","ping":92},{"user_id":363,"name":"Ursus Ludius","steam_id":76561198025470722,"connected_time":180000000000,"state":"active","ping":61},{"user_id":356,"name":"When In Rome","steam_id":76561198084941305,"connected_time":992000000000,"state":"active","ping":86},{"user_id":364,"name":"get scrongled, idiot","steam_id":76561198115874625,"connected_time":171000000000,"state":"active","ping":72},{"user_id":350,"name":"ameritech","steam_id":76561198064769089,"connected_time":1365000000000,"state":"active","ping":53},{"user_id":319,"name":"ADRIEN BRODY","steam_id":76561198009299473,"connected_time":3854000000000,"state":"active","ping":64},{"user_id":334,"name":"Frontal Lobe","steam_id":76561198115937355,"connected_time":2429000000000,"state":"active","ping":60},{"user_id":351,"name":"celestia ludenberg","steam_id":76561199196437823,"connected_time":1340000000000,"state":"active","ping":117},{"user_id":353,"name":"financial regret","steam_id":76561198448523433,"connected_time":1051000000000,"state":"active","ping":138},{"user_id":204,"name":"Chromatic Bliss","steam_id":76561198252604816,"connected_time":12450000000000,"state":"active","ping":71},{"user_id":365,"name":"castro","steam_id":76561198834358497,"connected_time":160000000000,"state":"active","ping":72},{"user_id":366,"name":"twitch.tv/rustyorion","steam_id":76561198439186347,"connected_time":21000000000,"state":"spawning","ping":110},{"user_id":355,"name":"ndvr (femboy (REAL))","steam_id":76561199379200102,"connected_time":1016000000000,"state":"active","ping":52},{"user_id":348,"name":"zzzz","steam_id":76561198310495200,"connected_time":1738000000000,"state":"active","ping":58},{"user_id":359,"name":"YOU WHAT?!","steam_id":76561198418679471,"connected_time":490000000000,"state":"active","ping":65}]},{"server_id":402,"name":"Uncletopia | Chicago | 3 | All Maps","name_short":"chi-3","host":"chi-1.us.uncletopia.com","port":27035,"enabled":true,"region":"us-central","cc":"us","latitude":41.881832,"longitude":-87.62318,"reserved":0,"last_update":"0001-01-01T00:00:00Z","name_a2s":"Uncletopia | Chicago | 3 | All Maps","protocol":17,"map":"plr_pipeline","folder":"tf","game":"Team Fortress","app_id":440,"player_count":0,"max_players":24,"Bots":0,"server_type":"Dedicated","server_os":"Linux","password":true,"vac":true,"version":"7961495","steam_id":85568392924515191,"keywords":["nocrits","nodmgspread","payload","uncletopia"],"game_id":440,"stv_port":27036,"stv_name":"Uncletopia | Chicago | 3 | All Maps | STV","players":null},{"server_id":403,"name":"Uncletopia | Chicago | 4 | All Maps","name_short":"chi-4","host":"chi-1.us.uncletopia.com","port":27045,"enabled":true,"region":"us-central","cc":"us","latitude":41.881832,"longitude":-87.62318,"reserved":0,"last_update":"0001-01-01T00:00:00Z","name_a2s":"Uncletopia | Chicago | 4 | All Maps","protocol":17,"map":"cp_process_final","folder":"tf","game":"Team Fortress","app_id":440,"player_count":24,"max_players":24,"Bots":0,"server_type":"Dedicated","server_os":"Linux","password":true,"vac":true,"version":"7961495","steam_id":85568392924515193,"keywords":["cp","nocrits","nodmgspread","uncletopia"],"game_id":440,"stv_port":27046,"stv_name":"Uncletopia | Chicago | 4 | All Maps | STV","players":[{"user_id":232,"name":"Winter the Witchie","steam_id":76561198151971178,"connected_time":905000000000,"state":"active","ping":49},{"user_id":212,"name":"ThatGamingKiwi","steam_id":76561199170522237,"connected_time":1724000000000,"state":"active","ping":66},{"user_id":245,"name":"checkswing","steam_id":76561198999816132,"connected_time":360000000000,"state":"active","ping":65},{"user_id":239,"name":"Little-Half^Dead","steam_id":76561197988784214,"connected_time":861000000000,"state":"active","ping":87},{"user_id":205,"name":"Chadmander","steam_id":76561197974136337,"connected_time":2500000000000,"state":"active","ping":44},{"user_id":243,"name":"DemonicAlpaca","steam_id":76561198049493678,"connected_time":781000000000,"state":"active","ping":65},{"user_id":233,"name":"ItsAChadKing","steam_id":76561199499464350,"connected_time":904000000000,"state":"active","ping":107},{"user_id":206,"name":"‚ô©Karmism‚ô©","steam_id":76561199453410299,"connected_time":2350000000000,"state":"active","ping":77},{"user_id":244,"name":"Very Small Giant","steam_id":76561199187337967,"connected_time":453000000000,"state":"active","ping":64},{"user_id":214,"name":"Jack","steam_id":76561198079575891,"connected_time":1700000000000,"state":"active","ping":149},{"user_id":240,"name":"-_-","steam_id":76561198302976864,"connected_time":857000000000,"state":"active","ping":75},{"user_id":246,"name":"Buffalo Soldier","steam_id":76561198089364545,"connected_time":18000000000,"state":"spawning","ping":78},{"user_id":236,"name":"Renota","steam_id":76561198058224488,"connected_time":883000000000,"state":"active","ping":64},{"user_id":119,"name":"Rornir","steam_id":76561198081829615,"connected_time":9834000000000,"state":"active","ping":44},{"user_id":217,"name":"winrarFanatic","steam_id":76561198026538317,"connected_time":1681000000000,"state":"active","ping":63},{"user_id":224,"name":"The jesus guy (FRNK)","steam_id":76561198237997622,"connected_time":1287000000000,"state":"active","ping":159},{"user_id":230,"name":"the","steam_id":76561198016826181,"connected_time":1003000000000,"state":"active","ping":74},{"user_id":242,"name":"Papa Smoke","steam_id":76561198181348206,"connected_time":795000000000,"state":"active","ping":45},{"user_id":237,"name":"Joshy","steam_id":76561198061405421,"connected_time":873000000000,"state":"active","ping":86},{"user_id":221,"name":"Horrizan","steam_id":76561197965028480,"connected_time":1457000000000,"state":"active","ping":63},{"user_id":234,"name":"goombinus","steam_id":76561198136164826,"connected_time":890000000000,"state":"active","ping":47},{"user_id":238,"name":"Soma Addict","steam_id":76561198951830050,"connected_time":872000000000,"state":"active","ping":74},{"user_id":222,"name":"Little Nipples","steam_id":76561198060502578,"connected_time":1435000000000,"state":"active","ping":87},{"user_id":223,"name":"serialnumber435","steam_id":76561199466187650,"connected_time":1349000000000,"state":"active","ping":143}]},{"server_id":36,"name":"Uncletopia | Chicago | 5 | All Maps","name_short":"chi-5","host":"chi-2.us.uncletopia.com","port":27015,"enabled":true,"region":"us-central","cc":"us","latitude":41.881832,"longitude":-87.62318,"reserved":0,"last_update":"0001-01-01T00:00:00Z","name_a2s":"Uncletopia | Chicago | 5 | All Maps","protocol":17,"map":"pl_borneo","folder":"tf","game":"Team Fortress","app_id":440,"player_count":0,"max_players":24,"Bots":0,"server_type":"Dedicated","server_os":"Linux","password":true,"vac":true,"version":"7961495","steam_id":85568392924866362,"keywords":["nocrits","nodmgspread","payload","uncletopia"],"game_id":440,"stv_port":27016,"stv_name":"Uncletopia | Chicago | 5 | All Maps | STV","players":null},{"server_id":37,"name":"Uncletopia | Chicago | 6 | All Maps","name_short":"chi-6","host":"chi-2.us.uncletopia.com","port":27025,"enabled":true,"region":"us-central","cc":"us","latitude":41.881832,"longitude":-87.62318,"reserved":0,"last_update":"0001-01-01T00:00:00Z","name_a2s":"Uncletopia | Chicago | 6 | All Maps","protocol":17,"map":"pl_frontier_final","folder":"tf","game":"Team Fortress","app_id":440,"player_count":0,"max_players":24,"Bots":0,"server_type":"Dedicated","server_os":"Linux","password":true,"vac":true,"version":"7961495","steam_id":85568392924866363,"keywords":["nocrits","nodmgspread","payload","uncletopia"],"game_id":440,"stv_port":27026,"stv_name":"Uncletopia | Chicago | 6 | All Maps | STV","players":null},{"server_id":38,"name":"Uncletopia | Chicago | 7 | Stopwatch","name_short":"chi-7","host":"chi-2.us.uncletopia.com","port":27035,"enabled":true,"region":"us-central","cc":"us","latitude":41.881832,"longitude":-87.62318,"reserved":0,"last_update":"0001-01-01T00:00:00Z","name_a2s":"Uncletopia | Chicago | 7 | Stopwatch","protocol":17,"map":"cp_snakewater_final1","folder":"tf","game":"Team Fortress","app_id":440,"player_count":0,"max_players":24,"Bots":0,"server_type":"Dedicated","server_os":"Linux","password":true,"vac":true,"version":"7961495","steam_id":85568392924866364,"keywords":["cp","nocrits","nodmgspread","uncletopia"],"game_id":440,"stv_port":27036,"stv_name":"Uncletopia | Chicago | 7 | Stopwatch | STV","players":null},{"server_id":39,"name":"Uncletopia | Chicago | 8 | Community","name_short":"chi-8","host":"chi-2.us.uncletopia.com","port":27045,"enabled":true,"region":"us-central","cc":"us","latitude":41.881832,"longitude":-87.62318,"reserved":0,"last_update":"0001-01-01T00:00:00Z","name_a2s":"Uncletopia | Chicago | 8 | Community","protocol":17,"map":"workshop/koth_slaughter_rc1.ugc1712845210","folder":"tf","game":"Team Fortress","app_id":440,"player_count":0,"max_players":24,"Bots":0,"server_type":"Dedicated","server_os":"Linux","password":true,"vac":true,"version":"7961495","steam_id":85568392924866365,"keywords":["cp","nocrits","nodmgspread","uncletopia"],"game_id":440,"stv_port":27046,"stv_name":"Uncletopia | Chicago | 8 | Community | STV","players":null},{"server_id":8,"name":"Uncletopia | Dallas | 1 | All Maps","name_short":"dal-1","host":"dal-1.us.uncletopia.com","port":27015,"enabled":true,"region":"us-central","cc":"us","latitude":32.779167,"longitude":-96.80889,"reserved":0,"last_update":"0001-01-01T00:00:00Z","name_a2s":"Uncletopia | Dallas | 1 | All Maps","protocol":17,"map":"cp_dustbowl","folder":"tf","game":"Team Fortress","app_id":440,"player_count":24,"max_players":24,"Bots":0,"server_type":"Dedicated","server_os":"Linux","password":true,"vac":true,"version":"7961495","steam_id":85568392924469986,"keywords":["cp","nocrits","nodmgspread","uncletopia"],"game_id":440,"stv_port":27016,"stv_name":"Uncletopia | Dallas | 1 | All Maps | STV","players":[{"user_id":336,"name":"fish","steam_id":76561198111396488,"connected_time":857000000000,"state":"active","ping":43},{"user_id":333,"name":"JustAnotherHuman","steam_id":76561199018122924,"connected_time":923000000000,"state":"active","ping":113},{"user_id":324,"name":"chrisd149","steam_id":76561198018710480,"connected_time":1683000000000,"state":"active","ping":76},{"user_id":335,"name":"You Don't Nomi.","steam_id":76561197969137836,"connected_time":902000000000,"state":"active","ping":75},{"user_id":349,"name":"ez$ airballer","steam_id":76561198165899125,"connected_time":589000000000,"state":"active","ping":86},{"user_id":339,"name":"TurnipTheBee ‚ôÄ","steam_id":76561198867426986,"connected_time":749000000000,"state":"active","ping":87},{"user_id":328,"name":"SubWay #SaveTf2","steam_id":76561198336722096,"connected_time":1240000000000,"state":"active","ping":65},{"user_id":321,"name":"big fish","steam_id":76561198186479818,"connected_time":2017000000000,"state":"active","ping":83},{"user_id":337,"name":"TheFlaming1UP","steam_id":76561198041407391,"connected_time":827000000000,"state":"active","ping":49},{"user_id":330,"name":"elephant thumb","steam_id":76561198118859752,"connected_time":1152000000000,"state":"active","ping":75},{"user_id":338,"name":"Mr. Noodle","steam_id":76561198037803087,"connected_time":774000000000,"state":"active","ping":88},{"user_id":340,"name":"cumgoblin","steam_id":76561198113270138,"connected_time":715000000000,"state":"active","ping":40},{"user_id":355,"name":"Sleepy Brady","steam_id":76561198867378129,"connected_time":373000000000,"state":"active","ping":86},{"user_id":342,"name":"We Are IM READY!","steam_id":76561198401205345,"connected_time":673000000000,"state":"active","ping":88},{"user_id":343,"name":"NotThatGuyPal","steam_id":76561199127607812,"connected_time":671000000000,"state":"active","ping":114},{"user_id":344,"name":"Unlimited_Trees","steam_id":76561198299141443,"connected_time":652000000000,"state":"active","ping":88},{"user_id":345,"name":"DerpFamous","steam_id":76561198046167888,"connected_time":649000000000,"state":"active","ping":57},{"user_id":350,"name":"dreamywolf","steam_id":76561198119409514,"connected_time":487000000000,"state":"active","ping":88},{"user_id":347,"name":"jailbreak","steam_id":76561198802085218,"connected_time":647000000000,"state":"active","ping":53},{"user_id":288,"name":"pablonchas","steam_id":76561198825922892,"connected_time":3896000000000,"state":"active","ping":60},{"user_id":317,"name":"theartistnathan","steam_id":76561198833787452,"connected_time":2052000000000,"state":"active","ping":45},{"user_id":348,"name":"Pussy Slambasket","steam_id":76561198093694322,"connected_time":618000000000,"state":"active","ping":83},{"user_id":354,"name":"BurdBrain","steam_id":76561197962097737,"connected_time":393000000000,"state":"active","ping":84},{"user_id":356,"name":"LORDMARF","steam_id":76561198143122675,"connected_time":249000000000,"state":"active","ping":54}]},{"server_id":108,"name":"Uncletopia | Dallas | 2 | All Maps","name_short":"dal-2","host":"dal-1.us.uncletopia.com","port":27025,"enabled":true,"region":"us-central","cc":"us","latitude":32.779167,"longitude":-96.80889,"reserved":0,"last_update":"0001-01-01T00:00:00Z","name_a2s":"Uncletopia | Dallas | 2 | All Maps","protocol":17,"map":"koth_lakeside_final","folder":"tf","game":"Team Fortress","app_id":440,"player_count":1,"max_players":24,"Bots":0,"server_type":"Dedicated","server_os":"Linux","password":true,"vac":true,"version":"7961495","steam_id":85568392924469988,"keywords":["cp","nocrits","nodmgspread","uncletopia"],"game_id":440,"stv_port":27026,"stv_name":"Uncletopia | Dallas | 2 | All Maps | STV","players":[{"user_id":8,"name":"radicalPolio","steam_id":76561197961561855,"connected_time":22000000000,"state":"active","ping":36}]},{"server_id":404,"name":"Uncletopia | Dallas | 3 | All Maps","name_short":"dal-3","host":"dal-1.us.uncletopia.com","port":27035,"enabled":true,"region":"us-central","cc":"us","latitude":32.779167,"longitude":-96.80889,"reserved":0,"last_update":"0001-01-01T00:00:00Z","name_a2s":"Uncletopia | Dallas | 3 | All Maps","protocol":17,"map":"cp_coldfront","folder":"tf","game":"Team Fortress","app_id":440,"player_count":0,"max_players":24,"Bots":0,"server_type":"Dedicated","server_os":"Linux","password":true,"vac":true,"version":"7961495","steam_id":85568392924515219,"keywords":["cp","nocrits","nodmgspread","uncletopia"],"game_id":440,"stv_port":27036,"stv_name":"Uncletopia | Dallas | 3 | All Maps | STV","players":null},{"server_id":405,"name":"Uncletopia | Dallas | 4 | Community","name_short":"dal-4","host":"dal-1.us.uncletopia.com","port":27045,"enabled":true,"region":"us-central","cc":"us","latitude":32.779167,"longitude":-96.80889,"reserved":0,"last_update":"0001-01-01T00:00:00Z","name_a2s":"Uncletopia | Dallas | 4 | Community","protocol":17,"map":"workshop/koth_synthetic_rc6a.ugc1549817316","folder":"tf","game":"Team Fortress","app_id":440,"player_count":0,"max_players":24,"Bots":0,"server_type":"Dedicated","server_os":"Linux","password":true,"vac":true,"version":"7961495","steam_id":85568392924515220,"keywords":["cp","nocrits","nodmgspread","uncletopia"],"game_id":440,"stv_port":27046,"stv_name":"Uncletopia | Dallas | 4 | Community | STV","players":null},{"server_id":5,"name":"Uncletopia | Frankfurt | 1 | All Maps","name_short":"frk-1","host":"frk-1.de.uncletopia.com","port":27015,"enabled":true,"region":"eu","cc":"de","latitude":50.110924,"longitude":8.682127,"reserved":0,"last_update":"0001-01-01T00:00:00Z","name_a2s":"Uncletopia | Frankfurt | 1 | All Maps","protocol":17,"map":"pl_badwater","folder":"tf","game":"Team Fortress","app_id":440,"player_count":24,"max_players":24,"Bots":0,"server_type":"Dedicated","server_os":"Linux","password":true,"vac":true,"version":"7961495","steam_id":85568392924469989,"keywords":["nocrits","nodmgspread","payload","uncletopia"],"game_id":440,"stv_port":27016,"stv_name":"Uncletopia | Frankfurt | 1 | All Maps | STV","players":[{"user_id":498,"name":"herbal tea","steam_id":76561197980736364,"connected_time":3178000000000,"state":"active","ping":77},{"user_id":483,"name":"Thundergodstonelate","steam_id":76561198040893623,"connected_time":3920000000000,"state":"active","ping":86},{"user_id":499,"name":"Zerfesh","steam_id":76561198117534358,"connected_time":2892000000000,"state":"active","ping":85},{"user_id":516,"name":"DeCypher \u003c3","steam_id":76561198171992619,"connected_time":627000000000,"state":"active","ping":56},{"user_id":490,"name":"hasky","steam_id":76561197986052798,"connected_time":3282000000000,"state":"active","ping":60},{"user_id":491,"name":"Gorgeous George","steam_id":76561198144256544,"connected_time":3281000000000,"state":"active","ping":60},{"user_id":484,"name":"SaintBonkers","steam_id":76561198043219263,"connected_time":3842000000000,"state":"active","ping":66},{"user_id":501,"name":"Sigma Gregory","steam_id":76561199040010283,"connected_time":2630000000000,"state":"active","ping":76},{"user_id":519,"name":"I Cant Aim","steam_id":76561199241354828,"connected_time":95000000000,"state":"spawning","ping":99},{"user_id":512,"name":"LOBZIK","steam_id":76561198114830120,"connected_time":1356000000000,"state":"active","ping":80},{"user_id":513,"name":"Five Finger Discount","steam_id":76561197994556857,"connected_time":1302000000000,"state":"active","ping":59},{"user_id":468,"name":"Yonio","steam_id":76561198408428132,"connected_time":4599000000000,"state":"active","ping":75},{"user_id":517,"name":"kelm","steam_id":76561198027166144,"connected_time":609000000000,"state":"active","ping":87},{"user_id":508,"name":"Squidiot","steam_id":76561198042754907,"connected_time":1937000000000,"state":"active","ping":79},{"user_id":473,"name":"VolcanicArts","steam_id":76561198063453246,"connected_time":4491000000000,"state":"active","ping":72},{"user_id":480,"name":"Nymph","steam_id":76561198042801329,"connected_time":4324000000000,"state":"active","ping":45},{"user_id":510,"name":"Deez nuts","steam_id":76561199429562693,"connected_time":1497000000000,"state":"active","ping":62},{"user_id":506,"name":"G-Man Follower","steam_id":76561199384234822,"connected_time":2274000000000,"state":"active","ping":49},{"user_id":482,"name":"Gay Truck","steam_id":76561198123648967,"connected_time":3988000000000,"state":"active","ping":65},{"user_id":477,"name":"Seven","steam_id":76561199010273376,"connected_time":4404000000000,"state":"active","ping":46},{"user_id":500,"name":"Yassine","steam_id":76561198140565712,"connected_time":2716000000000,"state":"active","ping":54},{"user_id":503,"name":"MR.spoder-man","steam_id":76561198392612294,"connected_time":2441000000000,"state":"active","ping":75},{"user_id":476,"name":"MoistMomMauler","steam_id":76561198069359049,"connected_time":4429000000000,"state":"active","ping":79},{"user_id":518,"name":"‚òÅ Lou1smeister ‚òÅ","steam_id":76561198004032968,"connected_time":576000000000,"state":"active","ping":60}]},{"server_id":110,"name":"Uncletopia | Frankfurt | 2 | All Maps","name_short":"frk-2","host":"frk-1.de.uncletopia.com","port":27025,"enabled":true,"region":"eu","cc":"de","latitude":50.110924,"longitude":8.682127,"reserved":0,"last_update":"0001-01-01T00:00:00Z","name_a2s":"Uncletopia | Frankfurt | 2 | All Maps","protocol":17,"map":"pl_snowycoast","folder":"tf","game":"Team Fortress","app_id":440,"player_count":23,"max_players":24,"Bots":0,"server_type":"Dedicated","server_os":"Linux","password":true,"vac":true,"version":"7961495","steam_id":85568392924469990,"keywords":["nocrits","nodmgspread","payload","uncletopia"],"game_id":440,"stv_port":27026,"stv_name":"Uncletopia | Frankfurt | 2 | All Maps | STV","players":[{"user_id":554,"name":"T.K","steam_id":76561198085233735,"connected_time":1080000000000,"state":"active","ping":63},{"user_id":540,"name":"Uganda Warrior","steam_id":76561198120502313,"connected_time":1796000000000,"state":"active","ping":59},{"user_id":520,"name":"krsta","steam_id":76561198956447943,"connected_time":2484000000000,"state":"active","ping":69},{"user_id":550,"name":"EricToGo","steam_id":76561198068019642,"connected_time":1369000000000,"state":"active","ping":47},{"user_id":563,"name":"SaltyCupcakes","steam_id":76561198256386417,"connected_time":87000000000,"state":"active","ping":55},{"user_id":496,"name":"y0stErCix","steam_id":76561198219698192,"connected_time":4092000000000,"state":"active","ping":77},{"user_id":547,"name":"AwaDeMora","steam_id":76561198283945258,"connected_time":1384000000000,"state":"active","ping":91},{"user_id":514,"name":"Corn Readyx","steam_id":76561198192185825,"connected_time":2913000000000,"state":"active","ping":66},{"user_id":559,"name":"GogsCrunchyNuts","steam_id":76561198150599213,"connected_time":394000000000,"state":"active","ping":98},{"user_id":515,"name":"Blackchantingrows","steam_id":76561198972312498,"connected_time":2902000000000,"state":"active","ping":60},{"user_id":543,"name":"Vel0city","steam_id":76561198049687798,"connected_time":1620000000000,"state":"active","ping":47},{"user_id":517,"name":"Fingortar","steam_id":76561198277143302,"connected_time":2731000000000,"state":"active","ping":70},{"user_id":562,"name":"KEYMASTER","steam_id":76561199053214638,"connected_time":102000000000,"state":"active","ping":67},{"user_id":516,"name":"Maru","steam_id":76561198030931030,"connected_time":2889000000000,"state":"active","ping":763},{"user_id":555,"name":"kluri","steam_id":76561198084518962,"connected_time":1016000000000,"state":"active","ping":64},{"user_id":557,"name":"Petro","steam_id":76561198066199668,"connected_time":788000000000,"state":"active","ping":43},{"user_id":565,"name":"Eidolon","steam_id":76561198043919565,"connected_time":58000000000,"state":"active","ping":72},{"user_id":561,"name":"E¬≤ FTH","steam_id":76561198066287815,"connected_time":104000000000,"state":"active","ping":120},{"user_id":560,"name":"D_for_Dumbass","steam_id":76561198908993740,"connected_time":303000000000,"state":"active","ping":47},{"user_id":505,"name":"yush","steam_id":76561198121688934,"connected_time":3687000000000,"state":"active","ping":74},{"user_id":538,"name":"SoaCrow","steam_id":76561198069420717,"connected_time":1885000000000,"state":"active","ping":48},{"user_id":539,"name":"Windows Vista Cruiser","steam_id":76561198064102233,"connected_time":1884000000000,"state":"active","ping":48},{"user_id":553,"name":"GG riser","steam_id":76561198279621400,"connected_time":1344000000000,"state":"active","ping":87}]},{"server_id":308,"name":"Uncletopia | Frankfurt | 3 | All Maps","name_short":"frk-3","host":"frk-1.de.uncletopia.com","port":27035,"enabled":true,"region":"eu","cc":"de","latitude":50.110924,"longitude":8.682127,"reserved":0,"last_update":"0001-01-01T00:00:00Z","name_a2s":"Uncletopia | Frankfurt | 3 | All Maps","protocol":17,"map":"cp_sunshine","folder":"tf","game":"Team Fortress","app_id":440,"player_count":24,"max_players":24,"Bots":0,"server_type":"Dedicated","server_os":"Linux","password":true,"vac":true,"version":"7961495","steam_id":85568392924504274,"keywords":["cp","nocrits","nodmgspread","uncletopia"],"game_id":440,"stv_port":27036,"stv_name":"Uncletopia | Frankfurt | 3 | All Maps | STV","players":[{"user_id":54,"name":"Michael","steam_id":76561198003146906,"connected_time":381000000000,"state":"active","ping":59},{"user_id":40,"name":"SEXtant","steam_id":76561198981017406,"connected_time":575000000000,"state":"active","ping":90},{"user_id":24,"name":"Arc","steam_id":76561198805049375,"connected_time":1124000000000,"state":"active","ping":84},{"user_id":26,"name":"–†–µ–î–∞–ù–æ–í–µ–¶ ^_^","steam_id":76561199032612973,"connected_time":1086000000000,"state":"active","ping":66},{"user_id":27,"name":"eevee","steam_id":76561198447072392,"connected_time":1053000000000,"state":"active","ping":76},{"user_id":28,"name":"theVad333","steam_id":76561199273469746,"connected_time":1012000000000,"state":"active","ping":58},{"user_id":30,"name":"Vi100 Dol7","steam_id":76561198118137461,"connected_time":908000000000,"state":"active","ping":61},{"user_id":56,"name":"H...","steam_id":76561197984299377,"connected_time":197000000000,"state":"active","ping":50},{"user_id":32,"name":"BigPopol","steam_id":76561198086033091,"connected_time":885000000000,"state":"active","ping":70},{"user_id":41,"name":"BackyardZombie","steam_id":76561198156516038,"connected_time":565000000000,"state":"active","ping":45},{"user_id":37,"name":"Walle","steam_id":76561197995148937,"connected_time":722000000000,"state":"active","ping":68},{"user_id":36,"name":"Mr. Culture","steam_id":76561199073315428,"connected_time":751000000000,"state":"active","ping":88},{"user_id":38,"name":"Stockfoto","steam_id":76561198386581546,"connected_time":676000000000,"state":"active","ping":71},{"user_id":57,"name":"Wild_Xray26","steam_id":76561198059386050,"connected_time":119000000000,"state":"active","ping":77},{"user_id":43,"name":"rockBustaz","steam_id":76561198088290698,"connected_time":537000000000,"state":"active","ping":52},{"user_id":44,"name":"JakeTheSnake2007","steam_id":76561199101642283,"connected_time":535000000000,"state":"active","ping":133},{"user_id":45,"name":"Hundehunde (137)","steam_id":76561198028683991,"connected_time":532000000000,"state":"active","ping":54},{"user_id":46,"name":"bAdmon","steam_id":76561197961785793,"connected_time":524000000000,"state":"active","ping":58},{"user_id":47,"name":"Durin sein Vater","steam_id":76561198021246713,"connected_time":513000000000,"state":"active","ping":41},{"user_id":58,"name":"Tomato","steam_id":76561199124472513,"connected_time":101000000000,"state":"active","ping":116},{"user_id":49,"name":"birchy","steam_id":76561198166697295,"connected_time":472000000000,"state":"active","ping":52},{"user_id":50,"name":"KUPOOOO","steam_id":76561198088963031,"connected_time":466000000000,"state":"active","ping":75},{"user_id":51,"name":"r06u3","steam_id":76561198254099253,"connected_time":450000000000,"state":"active","ping":168},{"user_id":59,"name":"finbar","steam_id":76561198056812396,"connected_time":38000000000,"state":"active","ping":79}]},{"server_id":309,"name":"Uncletopia | Frankfurt | 4 | All Maps","name_short":"frk-4","host":"frk-1.de.uncletopia.com","port":27045,"enabled":true,"region":"eu","cc":"de","latitude":50.110924,"longitude":8.682127,"reserved":0,"last_update":"0001-01-01T00:00:00Z","name_a2s":"Uncletopia | Frankfurt | 4 | All Maps","protocol":17,"map":"pl_pier","folder":"tf","game":"Team Fortress","app_id":440,"player_count":22,"max_players":24,"Bots":0,"server_type":"Dedicated","server_os":"Linux","password":true,"vac":true,"version":"7961495","steam_id":85568392924504275,"keywords":["nocrits","nodmgspread","payload","uncletopia"],"game_id":440,"stv_port":27046,"stv_name":"Uncletopia | Frankfurt | 4 | All Maps | STV","players":[{"user_id":332,"name":"leonardini.w","steam_id":76561199097963071,"connected_time":3123000000000,"state":"active","ping":89},{"user_id":383,"name":"Dr. Sex","steam_id":76561198998186161,"connected_time":85000000000,"state":"active","ping":90},{"user_id":352,"name":"Rez","steam_id":76561198410598772,"connected_time":2257000000000,"state":"active","ping":49},{"user_id":366,"name":"HABUB1337","steam_id":76561199126186448,"connected_time":1179000000000,"state":"active","ping":52},{"user_id":359,"name":"Mr. Mundy","steam_id":76561198132008918,"connected_time":2088000000000,"state":"active","ping":73},{"user_id":334,"name":"DrakeTheDuck","steam_id":76561199182279601,"connected_time":3056000000000,"state":"active","ping":93},{"user_id":258,"name":"john fortress","steam_id":76561198013237629,"connected_time":7237000000000,"state":"active","ping":108},{"user_id":379,"name":"NALA","steam_id":76561198039806469,"connected_time":332000000000,"state":"active","ping":69},{"user_id":313,"name":"Nick","steam_id":76561198036109469,"connected_time":4705000000000,"state":"active","ping":75},{"user_id":373,"name":"DarkFady","steam_id":76561198179099523,"connected_time":809000000000,"state":"active","ping":119},{"user_id":347,"name":"Kiogeki","steam_id":76561197996707843,"connected_time":2544000000000,"state":"active","ping":53},{"user_id":375,"name":"Dr. Cox","steam_id":76561198246629218,"connected_time":763000000000,"state":"active","ping":107},{"user_id":337,"name":"‚ò© Knightz ‚ò©","steam_id":76561198040936414,"connected_time":3023000000000,"state":"active","ping":110},{"user_id":356,"name":"dfcv rftgvb ghtb","steam_id":76561198397764042,"connected_time":2154000000000,"state":"active","ping":81},{"user_id":377,"name":"bigwish | bmod.tf","steam_id":76561197997859723,"connected_time":418000000000,"state":"active","ping":62},{"user_id":363,"name":"Sandvich","steam_id":76561199079493666,"connected_time":1854000000000,"state":"active","ping":87},{"user_id":378,"name":"Borlor","steam_id":76561198206059604,"connected_time":354000000000,"state":"active","ping":36},{"user_id":370,"name":"IS3BITEL","steam_id":76561199178060325,"connected_time":900000000000,"state":"active","ping":54},{"user_id":331,"name":"Carry Krypl","steam_id":76561198136938121,"connected_time":3214000000000,"state":"active","ping":43},{"user_id":371,"name":"BuddhaBrot","steam_id":76561198181885110,"connected_time":849000000000,"state":"active","ping":45},{"user_id":327,"name":"Hexagon","steam_id":76561198151205758,"connected_time":3945000000000,"state":"active","ping":53},{"user_id":351,"name":"ChrisLuckycharm","steam_id":76561199490969322,"connected_time":2374000000000,"state":"active","ping":67}]},{"server_id":310,"name":"Uncletopia | Frankfurt | 5 | All Maps","name_short":"frk-5","host":"frk-1.de.uncletopia.com","port":27055,"enabled":true,"region":"eu","cc":"de","latitude":50.110924,"longitude":8.682127,"reserved":0,"last_update":"0001-01-01T00:00:00Z","name_a2s":"Uncletopia | Frankfurt | 5 | All Maps","protocol":17,"map":"pl_frontier_final","folder":"tf","game":"Team Fortress","app_id":440,"player_count":24,"max_players":24,"Bots":0,"server_type":"Dedicated","server_os":"Linux","password":true,"vac":true,"version":"7961495","steam_id":85568392924504277,"keywords":["nocrits","nodmgspread","payload","uncletopia"],"game_id":440,"stv_port":27056,"stv_name":"Uncletopia | Frankfurt | 5 | All Maps | STV","players":[{"user_id":333,"name":"Xens","steam_id":76561198208839507,"connected_time":2981000000000,"state":"active","ping":106},{"user_id":344,"name":"mokou fumo ·óúÀ¨·óú","steam_id":76561199373956263,"connected_time":1840000000000,"state":"active","ping":43},{"user_id":341,"name":"ggwp","steam_id":76561199141037141,"connected_time":2053000000000,"state":"active","ping":63},{"user_id":365,"name":"The flying Drunksman","steam_id":76561198966358094,"connected_time":369000000000,"state":"active","ping":49},{"user_id":351,"name":"Benito Mussolini","steam_id":76561198362801147,"connected_time":1694000000000,"state":"active","ping":90},{"user_id":346,"name":"Rejdory","steam_id":76561198416604100,"connected_time":1777000000000,"state":"active","ping":53},{"user_id":366,"name":"Lustadinnye (HUN)","steam_id":76561198280206427,"connected_time":316000000000,"state":"active","ping":200},{"user_id":347,"name":"Teddy","steam_id":76561198074888415,"connected_time":1767000000000,"state":"active","ping":53},{"user_id":362,"name":"Bob Sacamano","steam_id":76561198085610701,"connected_time":1035000000000,"state":"active","ping":72},{"user_id":348,"name":"üóªüé¥Hadrian Maloneüé¥üóª","steam_id":76561198036151103,"connected_time":1740000000000,"state":"active","ping":55},{"user_id":369,"name":":|","steam_id":76561198145232617,"connected_time":103000000000,"state":"active","ping":50},{"user_id":355,"name":"please do not the cat","steam_id":76561198089003514,"connected_time":1647000000000,"state":"active","ping":46},{"user_id":361,"name":"m√ºlleimer √ºberhitzene","steam_id":76561198174135981,"connected_time":1178000000000,"state":"active","ping":60},{"user_id":367,"name":"Burgoo_King","steam_id":76561198133572225,"connected_time":170000000000,"state":"active","ping":61},{"user_id":352,"name":"Lucky B.üèÜ","steam_id":76561198077571162,"connected_time":1690000000000,"state":"active","ping":45},{"user_id":368,"name":"hbdie_","steam_id":76561198109996675,"connected_time":160000000000,"state":"active","ping":45},{"user_id":331,"name":"Supercoxylac","steam_id":76561198376300138,"connected_time":3414000000000,"state":"active","ping":59},{"user_id":245,"name":"old man oberon","steam_id":76561198355291251,"connected_time":8561000000000,"state":"active","ping":65},{"user_id":370,"name":"Rakiru","steam_id":76561198334097259,"connected_time":25000000000,"state":"active","ping":116},{"user_id":354,"name":"s a i","steam_id":76561197970379754,"connected_time":1659000000000,"state":"active","ping":51},{"user_id":356,"name":"Oxer","steam_id":76561198055942412,"connected_time":1646000000000,"state":"active","ping":77},{"user_id":302,"name":"Littleyoshifan","steam_id":76561198445491045,"connected_time":5322000000000,"state":"active","ping":55},{"user_id":359,"name":"1couver","steam_id":76561198168553215,"connected_time":1537000000000,"state":"active","ping":92},{"user_id":364,"name":"stepbro","steam_id":76561198119607160,"connected_time":580000000000,"state":"active","ping":70}]},{"server_id":311,"name":"Uncletopia | Frankfurt | 6 | All Maps","name_short":"frk-6","host":"frk-1.de.uncletopia.com","port":27065,"enabled":true,"region":"eu","cc":"de","latitude":50.110924,"longitude":8.682127,"reserved":0,"last_update":"0001-01-01T00:00:00Z","name_a2s":"Uncletopia | Frankfurt | 6 | All Maps","protocol":17,"map":"pl_pier","folder":"tf","game":"Team Fortress","app_id":440,"player_count":24,"max_players":24,"Bots":0,"server_type":"Dedicated","server_os":"Linux","password":true,"vac":true,"version":"7961495","steam_id":85568392924504278,"keywords":["nocrits","nodmgspread","payload","uncletopia"],"game_id":440,"stv_port":27066,"stv_name":"Uncletopia | Frankfurt | 6 | All Maps | STV","players":[{"user_id":421,"name":"Say Goodbye to Your Kneecaps","steam_id":76561198840150558,"connected_time":1602000000000,"state":"active","ping":80},{"user_id":446,"name":"dumo dumo","steam_id":76561198346638308,"connected_time":667000000000,"state":"active","ping":60},{"user_id":420,"name":"MrRaccoonGetDown","steam_id":76561198110227355,"connected_time":1652000000000,"state":"active","ping":56},{"user_id":406,"name":"skeleton_archer_1","steam_id":76561198407636430,"connected_time":2460000000000,"state":"active","ping":100},{"user_id":440,"name":"Rat King","steam_id":76561198256783599,"connected_time":1201000000000,"state":"active","ping":57},{"user_id":441,"name":"MeSeaBass","steam_id":76561198390822393,"connected_time":909000000000,"state":"active","ping":105},{"user_id":422,"name":"Tekor","steam_id":76561198088542862,"connected_time":1585000000000,"state":"active","ping":60},{"user_id":443,"name":"Tyren","steam_id":76561198993747516,"connected_time":714000000000,"state":"active","ping":65},{"user_id":405,"name":"Benzo Fury","steam_id":76561198025259336,"connected_time":2515000000000,"state":"active","ping":60},{"user_id":430,"name":"Kaza","steam_id":76561198033509686,"connected_time":1461000000000,"state":"active","ping":46},{"user_id":424,"name":"selkie","steam_id":76561198329321007,"connected_time":1557000000000,"state":"active","ping":101},{"user_id":425,"name":"gosi","steam_id":76561198084111532,"connected_time":1553000000000,"state":"active","ping":57},{"user_id":444,"name":"Chambersite the Wizard","steam_id":76561198197022399,"connected_time":709000000000,"state":"active","ping":55},{"user_id":439,"name":"Pofl","steam_id":76561197995110333,"connected_time":1220000000000,"state":"active","ping":47},{"user_id":418,"name":"PLSNO (RYAN)","steam_id":76561198086542505,"connected_time":1781000000000,"state":"active","ping":78},{"user_id":445,"name":"Falafel","steam_id":76561198043344845,"connected_time":705000000000,"state":"active","ping":59},{"user_id":398,"name":"tete","steam_id":76561198045222850,"connected_time":3127000000000,"state":"active","ping":68},{"user_id":399,"name":"Slimeby","steam_id":76561198353438688,"connected_time":3108000000000,"state":"active","ping":81},{"user_id":413,"name":"FoOzTV","steam_id":76561197998636728,"connected_time":2276000000000,"state":"active","ping":90},{"user_id":448,"name":"Swiss_Nostalgia","steam_id":76561199159896259,"connected_time":169000000000,"state":"active","ping":88},{"user_id":432,"name":"Keroz1n","steam_id":76561197998681491,"connected_time":1374000000000,"state":"active","ping":69},{"user_id":447,"name":"kanker","steam_id":76561198231470280,"connected_time":271000000000,"state":"active","ping":52},{"user_id":419,"name":"Mega Man Legends 3","steam_id":76561198014110199,"connected_time":1766000000000,"state":"active","ping":59}]},{"server_id":23,"name":"Uncletopia | Frankfurt | 7 | Stopwatch","name_short":"frk-7","host":"frk-1.de.uncletopia.com","port":27075,"enabled":true,"region":"eu","cc":"de","latitude":50.110924,"longitude":8.682127,"reserved":0,"last_update":"0001-01-01T00:00:00Z","name_a2s":"Uncletopia | Frankfurt | 7 | Stopwatch","protocol":17,"map":"cp_sunshine","folder":"tf","game":"Team Fortress","app_id":440,"player_count":22,"max_players":24,"Bots":0,"server_type":"Dedicated","server_os":"Linux","password":true,"vac":true,"version":"7961495","steam_id":85568392924742827,"keywords":["cp","nocrits","nodmgspread","uncletopia"],"game_id":440,"stv_port":27076,"stv_name":"Uncletopia | Frankfurt | 7 | Stopwatch | STV","players":[{"user_id":193,"name":"Violet","steam_id":76561198079388610,"connected_time":1014000000000,"state":"active","ping":53},{"user_id":160,"name":"StatT","steam_id":76561198147801590,"connected_time":2748000000000,"state":"active","ping":120},{"user_id":208,"name":"Jaflampe","steam_id":76561198175827647,"connected_time":288000000000,"state":"active","ping":156},{"user_id":187,"name":"Pvt. Prinny","steam_id":76561198030278562,"connected_time":1243000000000,"state":"active","ping":57},{"user_id":188,"name":"sinistersnowmans","steam_id":76561198987278531,"connected_time":1147000000000,"state":"active","ping":57},{"user_id":190,"name":"Unreliable, funny and dangerous","steam_id":76561198050709790,"connected_time":1065000000000,"state":"active","ping":88},{"user_id":209,"name":"IceWaltz","steam_id":76561198146498522,"connected_time":287000000000,"state":"active","ping":45},{"user_id":136,"name":"Saihtama","steam_id":76561198067497192,"connected_time":4026000000000,"state":"active","ping":88},{"user_id":206,"name":"ALARM","steam_id":76561198120686521,"connected_time":550000000000,"state":"active","ping":57},{"user_id":185,"name":"Finn","steam_id":76561198112456809,"connected_time":1302000000000,"state":"active","ping":57},{"user_id":198,"name":"[fool] tiia","steam_id":76561198046196005,"connected_time":868000000000,"state":"active","ping":37},{"user_id":210,"name":"david zaydullin (Charles McGill","steam_id":76561198965191846,"connected_time":281000000000,"state":"active","ping":82},{"user_id":214,"name":"Aeinzalot","steam_id":76561198195288449,"connected_time":184000000000,"state":"active","ping":60},{"user_id":200,"name":"deadinside‚úìemo‚úìgoth‚úìdrain","steam_id":76561199311738869,"connected_time":790000000000,"state":"active","ping":60},{"user_id":211,"name":"PROFILE NAME","steam_id":76561198180056982,"connected_time":245000000000,"state":"active","ping":70},{"user_id":205,"name":"Mars","steam_id":76561198156073462,"connected_time":608000000000,"state":"active","ping":62},{"user_id":175,"name":"Flying skyhigh","steam_id":76561198372971096,"connected_time":2020000000000,"state":"active","ping":82},{"user_id":176,"name":"krishtanv","steam_id":76561198155492861,"connected_time":1974000000000,"state":"active","ping":93},{"user_id":177,"name":"I-I","steam_id":76561198267969436,"connected_time":1919000000000,"state":"active","ping":54},{"user_id":213,"name":"Marmaduke","steam_id":76561198039788483,"connected_time":207000000000,"state":"active","ping":47},{"user_id":181,"name":"6bIK_0CeMEHuTEJIb","steam_id":76561198992528373,"connected_time":1693000000000,"state":"active","ping":75},{"user_id":216,"name":"unnam3d","steam_id":76561198286257338,"connected_time":114000000000,"state":"active","ping":59}]},{"server_id":24,"name":"Uncletopia | Frankfurt | 8 | Community","name_short":"frk-8","host":"frk-1.de.uncletopia.com","port":27085,"enabled":true,"region":"eu","cc":"de","latitude":50.110924,"longitude":8.682127,"reserved":0,"last_update":"0001-01-01T00:00:00Z","name_a2s":"Uncletopia | Frankfurt | 8 | Community","protocol":17,"map":"workshop/koth_slaughter_rc1.ugc1712845210","folder":"tf","game":"Team Fortress","app_id":440,"player_count":0,"max_players":24,"Bots":0,"server_type":"Dedicated","server_os":"Linux","password":true,"vac":true,"version":"7961495","steam_id":85568392924742828,"keywords":["cp","nocrits","nodmgspread","uncletopia"],"game_id":440,"stv_port":27086,"stv_name":"Uncletopia | Frankfurt | 8 | Community | STV","players":null},{"server_id":202,"name":"Uncletopia | Hong Kong | 1 | All Maps","name_short":"hgk-1","host":"hgk-1.hk.uncletopia.com","port":27015,"enabled":true,"region":"asia","cc":"hk","latitude":22.302711,"longitude":114.177216,"reserved":0,"last_update":"0001-01-01T00:00:00Z","name_a2s":"Uncletopia | Hong Kong | 1 | All Maps","protocol":17,"map":"koth_lakeside_final","folder":"tf","game":"Team Fortress","app_id":440,"player_count":0,"max_players":24,"Bots":0,"server_type":"Dedicated","server_os":"Linux","password":true,"vac":true,"version":"7961495","steam_id":85568392924494504,"keywords":["cp","nocrits","nodmgspread","uncletopia"],"game_id":440,"stv_port":27016,"stv_name":"Uncletopia | Hong Kong | 1 | All Maps | STV","players":null},{"server_id":1,"name":"Uncletopia | Los Angeles | 1 | All Maps","name_short":"lax-1","host":"lax-1.us.uncletopia.com","port":27015,"enabled":true,"region":"us-west","cc":"us","latitude":33.94279,"longitude":-118.41004,"reserved":0,"last_update":"0001-01-01T00:00:00Z","name_a2s":"Uncletopia | Los Angeles | 1 | All Maps","protocol":17,"map":"cp_gorge","folder":"tf","game":"Team Fortress","app_id":440,"player_count":0,"max_players":24,"Bots":0,"server_type":"Dedicated","server_os":"Linux","password":true,"vac":true,"version":"7961495","steam_id":85568392924469991,"keywords":["cp","nocrits","nodmgspread","uncletopia"],"game_id":440,"stv_port":27016,"stv_name":"Uncletopia | Los Angeles | 1 | All Maps | STV","players":null},{"server_id":112,"name":"Uncletopia | Los Angeles | 2 | All Maps","name_short":"lax-2","host":"lax-1.us.uncletopia.com","port":27025,"enabled":true,"region":"us-west","cc":"us","latitude":33.94279,"longitude":-118.41004,"reserved":0,"last_update":"0001-01-01T00:00:00Z","name_a2s":"Uncletopia | Los Angeles | 2 | All Maps","protocol":17,"map":"koth_cascade","folder":"tf","game":"Team Fortress","app_id":440,"player_count":0,"max_players":24,"Bots":0,"server_type":"Dedicated","server_os":"Linux","password":true,"vac":true,"version":"7961495","steam_id":85568392924469992,"keywords":["cp","nocrits","nodmgspread","uncletopia"],"game_id":440,"stv_port":27026,"stv_name":"Uncletopia | Los Angeles | 2 | All Maps | STV","players":null},{"server_id":324,"name":"Uncletopia | Los Angeles | 3 | All Maps","name_short":"lax-3","host":"lax-1.us.uncletopia.com","port":27035,"enabled":true,"region":"us-west","cc":"us","latitude":33.94279,"longitude":-118.41004,"reserved":0,"last_update":"0001-01-01T00:00:00Z","name_a2s":"Uncletopia | Los Angeles | 3 | All Maps","protocol":17,"map":"pl_hoodoo_final","folder":"tf","game":"Team Fortress","app_id":440,"player_count":0,"max_players":24,"Bots":0,"server_type":"Dedicated","server_os":"Linux","password":true,"vac":true,"version":"7961495","steam_id":85568392924510198,"keywords":["nocrits","nodmgspread","payload","uncletopia"],"game_id":440,"stv_port":27036,"stv_name":"Uncletopia | Los Angeles | 3 | All Maps | STV","players":null},{"server_id":25,"name":"Uncletopia | Los Angeles | 4 | Stopwatch","name_short":"lax-4","host":"lax-1.us.uncletopia.com","port":27045,"enabled":true,"region":"us-west","cc":"us","latitude":33.94279,"longitude":-118.41004,"reserved":0,"last_update":"0001-01-01T00:00:00Z","name_a2s":"Uncletopia | Los Angeles | 4 | Stopwatch","protocol":17,"map":"pl_upward","folder":"tf","game":"Team Fortress","app_id":440,"player_count":0,"max_players":24,"Bots":0,"server_type":"Dedicated","server_os":"Linux","password":true,"vac":true,"version":"7961495","steam_id":85568392924510199,"keywords":["nocrits","nodmgspread","payload","uncletopia"],"game_id":440,"stv_port":27046,"stv_name":"Uncletopia | Los Angeles | 4 | Stopwatch | STV","players":null},{"server_id":11,"name":"Uncletopia | London | 1 | All Maps","name_short":"lon-1","host":"lon-1.uk.uncletopia.com","port":27015,"enabled":true,"region":"eu","cc":"gb","latitude":51.509865,"longitude":-0.118092,"reserved":0,"last_update":"0001-01-01T00:00:00Z","name_a2s":"Uncletopia | London | 1 | All Maps","protocol":17,"map":"pl_badwater","folder":"tf","game":"Team Fortress","app_id":440,"player_count":24,"max_players":24,"Bots":0,"server_type":"Dedicated","server_os":"Linux","password":true,"vac":true,"version":"7961495","steam_id":85568392924367362,"keywords":["nocrits","nodmgspread","payload","uncletopia"],"game_id":440,"stv_port":27016,"stv_name":"Uncletopia | London | 1 | All Maps | STV","players":[{"user_id":281,"name":"hoizil","steam_id":76561198800688436,"connected_time":1565000000000,"state":"active","ping":63},{"user_id":291,"name":"Imperial City Guard","steam_id":76561198083355845,"connected_time":763000000000,"state":"active","ping":82},{"user_id":207,"name":"Levis Saltator","steam_id":76561198035945247,"connected_time":5947000000000,"state":"active","ping":52},{"user_id":255,"name":"GMsU | Rebikas","steam_id":76561198077053764,"connected_time":2608000000000,"state":"active","ping":52},{"user_id":293,"name":"Doctor Mobius","steam_id":76561197971281806,"connected_time":525000000000,"state":"active","ping":57},{"user_id":295,"name":"LEGEND FUMO.","steam_id":76561198061033903,"connected_time":121000000000,"state":"active","ping":47},{"user_id":257,"name":"GMsU | Acoul","steam_id":76561198229222992,"connected_time":2593000000000,"state":"active","ping":53},{"user_id":258,"name":"tomydjoh","steam_id":76561198077421906,"connected_time":2591000000000,"state":"active","ping":46},{"user_id":266,"name":"Archer","steam_id":76561197994239444,"connected_time":2260000000000,"state":"active","ping":101},{"user_id":294,"name":"The Boss","steam_id":76561198426522902,"connected_time":504000000000,"state":"active","ping":56},{"user_id":296,"name":"Slifer","steam_id":76561198062255803,"connected_time":83000000000,"state":"active","ping":67},{"user_id":259,"name":"GMsU | AuxiliusM","steam_id":76561198071903356,"connected_time":2591000000000,"state":"active","ping":46},{"user_id":288,"name":"DaLuigi","steam_id":76561198054486188,"connected_time":1139000000000,"state":"active","ping":53},{"user_id":200,"name":"ROX","steam_id":76561198272289320,"connected_time":6873000000000,"state":"active","ping":54},{"user_id":276,"name":"Neonlemurs","steam_id":76561198161147186,"connected_time":1666000000000,"state":"active","ping":47},{"user_id":235,"name":"hitbox criminal","steam_id":76561198079277466,"connected_time":3881000000000,"state":"active","ping":63},{"user_id":250,"name":"doktor spiele","steam_id":76561199057953617,"connected_time":3149000000000,"state":"active","ping":62},{"user_id":286,"name":"Lyra","steam_id":76561198043601838,"connected_time":1309000000000,"state":"active","ping":60},{"user_id":202,"name":"Ullr","steam_id":76561198140547483,"connected_time":6839000000000,"state":"active","ping":45},{"user_id":280,"name":"itransition UKRAINE","steam_id":76561198080912087,"connected_time":1600000000000,"state":"active","ping":61},{"user_id":221,"name":"flappi","steam_id":76561198072892783,"connected_time":4851000000000,"state":"active","ping":64},{"user_id":289,"name":"BreadBubbles","steam_id":76561198174332826,"connected_time":1064000000000,"state":"active","ping":50},{"user_id":290,"name":"GrosFumiste","steam_id":76561198850134909,"connected_time":796000000000,"state":"active","ping":46},{"user_id":246,"name":"[KZ] TenGr1_G4m3r","steam_id":76561198107460765,"connected_time":3639000000000,"state":"active","ping":45}]},{"server_id":114,"name":"Uncletopia | London | 2 | All Maps","name_short":"lon-2","host":"lon-1.uk.uncletopia.com","port":27025,"enabled":true,"region":"eu","cc":"gb","latitude":51.509865,"longitude":-0.118092,"reserved":0,"last_update":"0001-01-01T00:00:00Z","name_a2s":"Uncletopia | London | 2 | All Maps","protocol":17,"map":"pl_badwater","folder":"tf","game":"Team Fortress","app_id":440,"player_count":22,"max_players":24,"Bots":0,"server_type":"Dedicated","server_os":"Linux","password":true,"vac":true,"version":"7961495","steam_id":85568392924470941,"keywords":["nocrits","nodmgspread","payload","uncletopia"],"game_id":440,"stv_port":27026,"stv_name":"Uncletopia | London | 2 | All Maps | STV","players":[{"user_id":334,"name":"ali","steam_id":76561198148359093,"connected_time":3974000000000,"state":"active","ping":43},{"user_id":408,"name":"cisgender clown","steam_id":76561199469909295,"connected_time":159000000000,"state":"active","ping":57},{"user_id":360,"name":"ËìÆ Lotus","steam_id":76561198083141117,"connected_time":2766000000000,"state":"active","ping":62},{"user_id":413,"name":"0x01A4","steam_id":76561199038801888,"connected_time":5000000000,"state":"spawning","ping":76},{"user_id":385,"name":"medick","steam_id":76561199380849468,"connected_time":1924000000000,"state":"active","ping":60},{"user_id":410,"name":"–ê–†–°–ï–ù–¢–ò–ô","steam_id":76561199439805696,"connected_time":64000000000,"state":"active","ping":99},{"user_id":395,"name":"RLCrazyCat3","steam_id":76561197983757878,"connected_time":1402000000000,"state":"active","ping":54},{"user_id":402,"name":"Paulo Doutor","steam_id":76561198168674032,"connected_time":645000000000,"state":"active","ping":68},{"user_id":353,"name":"three rats in a trenchcoat","steam_id":76561197983889333,"connected_time":2827000000000,"state":"active","ping":62},{"user_id":405,"name":"radiation","steam_id":76561198001157602,"connected_time":389000000000,"state":"active","ping":134},{"user_id":386,"name":"Mono","steam_id":76561198114569493,"connected_time":1900000000000,"state":"active","ping":49},{"user_id":387,"name":"Constar","steam_id":76561198112021968,"connected_time":1827000000000,"state":"active","ping":45},{"user_id":352,"name":"You slumber","steam_id":76561198344639692,"connected_time":2890000000000,"state":"active","ping":77},{"user_id":406,"name":"Escobar","steam_id":76561198089785078,"connected_time":388000000000,"state":"active","ping":101},{"user_id":389,"name":"Plep","steam_id":76561198840259819,"connected_time":1679000000000,"state":"active","ping":60},{"user_id":377,"name":"jorts simp","steam_id":76561198399037367,"connected_time":2229000000000,"state":"active","ping":77},{"user_id":398,"name":"moseley519","steam_id":76561198045485374,"connected_time":1126000000000,"state":"active","ping":46},{"user_id":404,"name":"Tavish","steam_id":76561197971486686,"connected_time":531000000000,"state":"active","ping":47},{"user_id":397,"name":"CreepyYellowDuck","steam_id":76561198000479387,"connected_time":1246000000000,"state":"active","ping":37},{"user_id":365,"name":"Jupes","steam_id":76561197989459160,"connected_time":2681000000000,"state":"active","ping":56},{"user_id":366,"name":"Clevetron","steam_id":76561198189743199,"connected_time":2661000000000,"state":"active","ping":47},{"user_id":409,"name":"fffink","steam_id":76561198172239579,"connected_time":159000000000,"state":"active","ping":119}]},{"server_id":320,"name":"Uncletopia | London | 3 | All Maps","name_short":"lon-3","host":"lon-1.uk.uncletopia.com","port":27035,"enabled":true,"region":"eu","cc":"gb","latitude":51.509865,"longitude":-0.118092,"reserved":0,"last_update":"0001-01-01T00:00:00Z","name_a2s":"Uncletopia | London | 3 | All Maps","protocol":17,"map":"cp_metalworks","folder":"tf","game":"Team Fortress","app_id":440,"player_count":22,"max_players":24,"Bots":0,"server_type":"Dedicated","server_os":"Linux","password":true,"vac":true,"version":"7961495","steam_id":85568392924510192,"keywords":["cp","nocrits","nodmgspread","uncletopia"],"game_id":440,"stv_port":27036,"stv_name":"Uncletopia | London | 3 | All Maps | STV","players":[{"user_id":262,"name":"goop","steam_id":76561198190073005,"connected_time":2259000000000,"state":"active","ping":40},{"user_id":260,"name":"Just Navlis","steam_id":76561198090479609,"connected_time":2677000000000,"state":"active","ping":57},{"user_id":281,"name":"tame impala","steam_id":76561199085624224,"connected_time":291000000000,"state":"active","ping":62},{"user_id":248,"name":"sloppy transgirl toppy","steam_id":76561198057092208,"connected_time":3728000000000,"state":"active","ping":71},{"user_id":283,"name":"Laru","steam_id":76561197998838438,"connected_time":41000000000,"state":"active","ping":77},{"user_id":244,"name":"Yrj√∂ Koskinen Yrj√∂-Koskinen","steam_id":76561198368181145,"connected_time":3929000000000,"state":"active","ping":88},{"user_id":276,"name":"xavier","steam_id":76561198076494034,"connected_time":547000000000,"state":"active","ping":53},{"user_id":282,"name":"TheJubo","steam_id":76561198050223306,"connected_time":282000000000,"state":"active","ping":67},{"user_id":277,"name":"Doloro :3","steam_id":76561198309713613,"connected_time":467000000000,"state":"active","ping":43},{"user_id":272,"name":"smiley","steam_id":76561198042245117,"connected_time":1243000000000,"state":"active","ping":54},{"user_id":265,"name":"Clown :o)","steam_id":76561198074657015,"connected_time":1874000000000,"state":"active","ping":56},{"user_id":269,"name":"sniper's kangaroo wife","steam_id":76561198334042273,"connected_time":1752000000000,"state":"active","ping":44},{"user_id":273,"name":"Silver\u003c3 (12k hours and trash)","steam_id":76561198022351828,"connected_time":1088000000000,"state":"active","ping":45},{"user_id":280,"name":"Doctor Medic","steam_id":76561198100957443,"connected_time":319000000000,"state":"active","ping":65},{"user_id":270,"name":"Bobirulez","steam_id":76561198009125458,"connected_time":1660000000000,"state":"active","ping":75},{"user_id":274,"name":"mattu","steam_id":76561198092753767,"connected_time":812000000000,"state":"active","ping":52},{"user_id":242,"name":"Bajas","steam_id":76561198179339326,"connected_time":4052000000000,"state":"active","ping":90},{"user_id":278,"name":"Jack O'Neill","steam_id":76561198024268584,"connected_time":455000000000,"state":"active","ping":62},{"user_id":279,"name":"trololololq","steam_id":76561199205733732,"connected_time":424000000000,"state":"active","ping":35},{"user_id":246,"name":"Nurdbot","steam_id":76561197972640060,"connected_time":3883000000000,"state":"active","ping":45},{"user_id":193,"name":"Bronchius Bonehead","steam_id":76561198133961416,"connected_time":5799000000000,"state":"active","ping":61},{"user_id":255,"name":"DidoSquarepants","steam_id":76561198813776572,"connected_time":3332000000000,"state":"active","ping":71}]},{"server_id":321,"name":"Uncletopia | London | 4 | All Maps","name_short":"lon-4","host":"lon-1.uk.uncletopia.com","port":27045,"enabled":true,"region":"eu","cc":"gb","latitude":51.509865,"longitude":-0.118092,"reserved":0,"last_update":"0001-01-01T00:00:00Z","name_a2s":"Uncletopia | London | 4 | All Maps","protocol":17,"map":"cp_process_final","folder":"tf","game":"Team Fortress","app_id":440,"player_count":24,"max_players":24,"Bots":0,"server_type":"Dedicated","server_os":"Linux","password":true,"vac":true,"version":"7961495","steam_id":85568392924510193,"keywords":["cp","nocrits","nodmgspread","uncletopia"],"game_id":440,"stv_port":27046,"stv_name":"Uncletopia | London | 4 | All Maps | STV","players":[{"user_id":14,"name":"Tankedup_","steam_id":76561198168659251,"connected_time":3381000000000,"state":"active","ping":45},{"user_id":15,"name":"B‚àûp | ‚ù§Hina‚ù§","steam_id":76561198058465921,"connected_time":3346000000000,"state":"active","ping":51},{"user_id":16,"name":"Shapeshifter","steam_id":76561198052898368,"connected_time":3281000000000,"state":"active","ping":74},{"user_id":17,"name":"Wire  Bash","steam_id":76561198033268371,"connected_time":3173000000000,"state":"active","ping":74},{"user_id":19,"name":"Goro Majima","steam_id":76561198003040222,"connected_time":2928000000000,"state":"active","ping":41},{"user_id":51,"name":"Daikon","steam_id":76561198044017083,"connected_time":1932000000000,"state":"active","ping":60},{"user_id":68,"name":"Hot Beverage Enjoyer","steam_id":76561198060638325,"connected_time":790000000000,"state":"active","ping":48},{"user_id":22,"name":":3","steam_id":76561198169471853,"connected_time":2839000000000,"state":"active","ping":39},{"user_id":69,"name":"cockroach","steam_id":76561198841841656,"connected_time":741000000000,"state":"active","ping":72},{"user_id":73,"name":"fernandobmwm355555","steam_id":76561198086609447,"connected_time":15000000000,"state":"spawning","ping":66},{"user_id":64,"name":"Volxium ore","steam_id":76561198872222015,"connected_time":931000000000,"state":"active","ping":71},{"user_id":63,"name":"Morkus","steam_id":76561199134560302,"connected_time":952000000000,"state":"active","ping":64},{"user_id":43,"name":"Cillian","steam_id":76561199046965320,"connected_time":2235000000000,"state":"active","ping":58},{"user_id":61,"name":"Tea Follet","steam_id":76561198852408734,"connected_time":1009000000000,"state":"active","ping":129},{"user_id":71,"name":"Luis prime","steam_id":76561198161402859,"connected_time":385000000000,"state":"active","ping":67},{"user_id":36,"name":"Foreskin Gamer","steam_id":76561198283106341,"connected_time":2306000000000,"state":"active","ping":57},{"user_id":57,"name":"Bgm_","steam_id":76561198056452044,"connected_time":1744000000000,"state":"active","ping":67},{"user_id":65,"name":"worgeral","steam_id":76561198050781898,"connected_time":922000000000,"state":"active","ping":59},{"user_id":66,"name":"Milk","steam_id":76561198125876588,"connected_time":915000000000,"state":"active","ping":47},{"user_id":42,"name":"myrlejon","steam_id":76561198092480015,"connected_time":2257000000000,"state":"active","ping":45},{"user_id":70,"name":"ScapeGoat","steam_id":76561198137868829,"connected_time":734000000000,"state":"active","ping":39},{"user_id":58,"name":"Adam","steam_id":76561198083655265,"connected_time":1463000000000,"state":"active","ping":52},{"user_id":72,"name":"Vytuzas","steam_id":76561198012868436,"connected_time":115000000000,"state":"active","ping":71},{"user_id":59,"name":"woople","steam_id":76561198076625889,"connected_time":1333000000000,"state":"active","ping":82}]},{"server_id":21,"name":"Uncletopia | London | 5 | All Maps","name_short":"lon-5","host":"lon-1.uk.uncletopia.com","port":27055,"enabled":true,"region":"eu","cc":"gb","latitude":51.509865,"longitude":-0.118092,"reserved":0,"last_update":"0001-01-01T00:00:00Z","name_a2s":"Uncletopia | London | 5 | All Maps","protocol":17,"map":"koth_lakeside_final","folder":"tf","game":"Team Fortress","app_id":440,"player_count":0,"max_players":24,"Bots":0,"server_type":"Dedicated","server_os":"Linux","password":true,"vac":true,"version":"7961495","steam_id":85568392924742829,"keywords":["cp","nocrits","nodmgspread","uncletopia"],"game_id":440,"stv_port":27056,"stv_name":"Uncletopia | London | 5 | All Maps | STV","players":null},{"server_id":22,"name":"Uncletopia | London | 6 | All Maps","name_short":"lon-6","host":"lon-1.uk.uncletopia.com","port":27065,"enabled":true,"region":"eu","cc":"gb","latitude":51.509865,"longitude":-0.118092,"reserved":0,"last_update":"0001-01-01T00:00:00Z","name_a2s":"Uncletopia | London | 6 | All Maps","protocol":17,"map":"koth_cascade","folder":"tf","game":"Team Fortress","app_id":440,"player_count":2,"max_players":24,"Bots":0,"server_type":"Dedicated","server_os":"Linux","password":true,"vac":true,"version":"7961495","steam_id":85568392924742830,"keywords":["cp","nocrits","nodmgspread","uncletopia"],"game_id":440,"stv_port":27066,"stv_name":"Uncletopia | London | 6 | All Maps | STV","players":[{"user_id":25,"name":"Nice Shot","steam_id":76561198267313008,"connected_time":813000000000,"state":"active","ping":88},{"user_id":26,"name":"yairshalemm","steam_id":76561199246496166,"connected_time":745000000000,"state":"active","ping":91}]},{"server_id":40,"name":"Uncletopia | London | 7 | Stopwatch","name_short":"lon-7","host":"lon-1.uk.uncletopia.com","port":27075,"enabled":true,"region":"eu","cc":"gb","latitude":51.509865,"longitude":-0.118092,"reserved":0,"last_update":"0001-01-01T00:00:00Z","name_a2s":"Uncletopia | London | 7 | Stopwatch","protocol":17,"map":"koth_highpass","folder":"tf","game":"Team Fortress","app_id":440,"player_count":7,"max_players":24,"Bots":0,"server_type":"Dedicated","server_os":"Linux","password":true,"vac":true,"version":"7961495","steam_id":85568392924964314,"keywords":["cp","nocrits","nodmgspread","uncletopia"],"game_id":440,"stv_port":27076,"stv_name":"Uncletopia | London | 7 | Stopwatch | STV","players":[{"user_id":7,"name":"ran is running","steam_id":76561199443185667,"connected_time":4172000000000,"state":"active","ping":114},{"user_id":8,"name":"piss man (real)","steam_id":76561198839843428,"connected_time":4160000000000,"state":"active","ping":111},{"user_id":15,"name":"Deemask√©","steam_id":76561199225833593,"connected_time":1810000000000,"state":"active","ping":47},{"user_id":16,"name":"Von Leining","steam_id":76561198859983504,"connected_time":1582000000000,"state":"active","ping":49},{"user_id":20,"name":"CNTRL","steam_id":76561199125803827,"connected_time":343000000000,"state":"active","ping":54},{"user_id":21,"name":"dadadubled","steam_id":76561199221386452,"connected_time":255000000000,"state":"active","ping":55},{"user_id":22,"name":"_Chelik_","steam_id":76561199076069284,"connected_time":161000000000,"state":"active","ping":101}]},{"server_id":41,"name":"Uncletopia | London | 8 | Community","name_short":"lon-8","host":"lon-1.uk.uncletopia.com","port":27085,"enabled":true,"region":"eu","cc":"gb","latitude":51.509865,"longitude":-0.118092,"reserved":0,"last_update":"0001-01-01T00:00:00Z","name_a2s":"Uncletopia | London | 8 | Community","protocol":17,"map":"workshop/rd_asteroid_redux_b1.ugc2154902912","folder":"tf","game":"Team Fortress","app_id":440,"player_count":0,"max_players":24,"Bots":0,"server_type":"Dedicated","server_os":"Linux","password":true,"vac":true,"version":"7961495","steam_id":85568392924964315,"keywords":["beta","nocrits","nodmgspread","rd","uncletopia"],"game_id":440,"stv_port":27086,"stv_name":"Uncletopia | London | 8 | Community | STV","players":null},{"server_id":300,"name":"Uncletopia | Montr√©al | 1 | One Thousand Uncles","name_short":"mtl-1","host":"mtl-1.ca.uncletopia.com","port":27015,"enabled":true,"region":"us-east","cc":"ca","latitude":45.50889,"longitude":-73.56167,"reserved":0,"last_update":"0001-01-01T00:00:00Z","name_a2s":"Uncletopia | Montr√©al | 1 | One Thousand Uncles","protocol":17,"map":"pl_swiftwater_final1","folder":"tf","game":"Team Fortress","app_id":440,"player_count":19,"max_players":32,"Bots":16,"server_type":"Dedicated","server_os":"Linux","password":true,"vac":true,"version":"7961495","steam_id":85568392924500087,"keywords":["alltalk","bots","danepve","increased_maxplayers","norespawntime","payload","uncletopia"],"game_id":440,"stv_port":0,"stv_name":"","players":[{"user_id":129,"name":"joe","steam_id":76561198133033006,"connected_time":218000000000,"state":"active","ping":38},{"user_id":126,"name":"Raizen","steam_id":76561199092445367,"connected_time":1746000000000,"state":"active","ping":38},{"user_id":128,"name":"Some Guy","steam_id":76561198447348725,"connected_time":733000000000,"state":"active","ping":134}]},{"server_id":301,"name":"Uncletopia | Montr√©al | 2 | One Thousand Uncles","name_short":"mtl-2","host":"mtl-1.ca.uncletopia.com","port":27025,"enabled":true,"region":"us-east","cc":"ca","latitude":45.50889,"longitude":-73.56167,"reserved":0,"last_update":"0001-01-01T00:00:00Z","name_a2s":"Uncletopia | Montr√©al | 2 | One Thousand Uncles","protocol":17,"map":"pl_chilly","folder":"tf","game":"Team Fortress","app_id":440,"player_count":0,"max_players":32,"Bots":0,"server_type":"Dedicated","server_os":"Linux","password":true,"vac":true,"version":"7961495","steam_id":85568392924500088,"keywords":["alltalk","danepve","increased_maxplayers","norespawntime","payload","uncletopia"],"game_id":440,"stv_port":0,"stv_name":"","players":null},{"server_id":302,"name":"Uncletopia | Montr√©al | 3 | One Thousand Uncles","name_short":"mtl-3","host":"mtl-1.ca.uncletopia.com","port":27035,"enabled":true,"region":"us-east","cc":"ca","latitude":45.50889,"longitude":-73.56167,"reserved":0,"last_update":"0001-01-01T00:00:00Z","name_a2s":"Uncletopia | Montr√©al | 3 | One Thousand Uncles","protocol":17,"map":"pl_upward","folder":"tf","game":"Team Fortress","app_id":440,"player_count":0,"max_players":32,"Bots":0,"server_type":"Dedicated","server_os":"Linux","password":true,"vac":true,"version":"7961495","steam_id":85568392924500089,"keywords":["alltalk","danepve","increased_maxplayers","norespawntime","payload","uncletopia"],"game_id":440,"stv_port":0,"stv_name":"","players":null},{"server_id":13,"name":"Uncletopia | New York City | 1 | All Maps","name_short":"nyc-1","host":"nyc-1.us.uncletopia.com","port":27015,"enabled":true,"region":"us-east","cc":"us","latitude":40.73061,"longitude":-73.93524,"reserved":0,"last_update":"0001-01-01T00:00:00Z","name_a2s":"Uncletopia | New York City | 1 | All Maps","protocol":17,"map":"koth_cascade","folder":"tf","game":"Team Fortress","app_id":440,"player_count":0,"max_players":24,"Bots":0,"server_type":"Dedicated","server_os":"Linux","password":true,"vac":true,"version":"7961495","steam_id":85568392924469993,"keywords":["cp","nocrits","nodmgspread","uncletopia"],"game_id":440,"stv_port":27016,"stv_name":"Uncletopia | New York City | 1 | All Maps | STV","players":null},{"server_id":14,"name":"Uncletopia | New York City | 2 | All Maps","name_short":"nyc-2","host":"nyc-1.us.uncletopia.com","port":27025,"enabled":true,"region":"us-east","cc":"us","latitude":40.73061,"longitude":-73.93524,"reserved":0,"last_update":"0001-01-01T00:00:00Z","name_a2s":"Uncletopia | New York City | 2 | All Maps","protocol":17,"map":"cp_sunshine","folder":"tf","game":"Team Fortress","app_id":440,"player_count":0,"max_players":24,"Bots":0,"server_type":"Dedicated","server_os":"Linux","password":true,"vac":true,"version":"7961495","steam_id":85568392924469994,"keywords":["cp","nocrits","nodmgspread","uncletopia"],"game_id":440,"stv_port":27026,"stv_name":"Uncletopia | New York City | 2 | All Maps | STV","players":null},{"server_id":15,"name":"Uncletopia | New York City | 3 | Stopwatch","name_short":"nyc-3","host":"nyc-1.us.uncletopia.com","port":27035,"enabled":true,"region":"us-east","cc":"us","latitude":40.73061,"longitude":-73.93524,"reserved":0,"last_update":"0001-01-01T00:00:00Z","name_a2s":"Uncletopia | New York City | 3 | Stopwatch","protocol":17,"map":"cp_granary","folder":"tf","game":"Team Fortress","app_id":440,"player_count":0,"max_players":24,"Bots":0,"server_type":"Dedicated","server_os":"Linux","password":true,"vac":true,"version":"7961495","steam_id":85568392924742820,"keywords":["cp","nocrits","nodmgspread","uncletopia"],"game_id":440,"stv_port":27036,"stv_name":"Uncletopia | New York City | 3 | Stopwatch | STV","players":null},{"server_id":16,"name":"Uncletopia | New York City | 4 | Community","name_short":"nyc-4","host":"nyc-1.us.uncletopia.com","port":27045,"enabled":true,"region":"us-east","cc":"us","latitude":40.73061,"longitude":-73.93524,"reserved":0,"last_update":"0001-01-01T00:00:00Z","name_a2s":"Uncletopia | New York City | 4 | Community","protocol":17,"map":"workshop/cp_indulge.ugc528106646","folder":"tf","game":"Team Fortress","app_id":440,"player_count":0,"max_players":24,"Bots":0,"server_type":"Dedicated","server_os":"Linux","password":true,"vac":true,"version":"7961495","steam_id":85568392924742821,"keywords":["cp","nocrits","nodmgspread","uncletopia"],"game_id":440,"stv_port":27046,"stv_name":"Uncletopia | New York City | 4 | Community | STV","players":null},{"server_id":142,"name":"Uncletopia | S√£o Paulo | 1 | All Maps","name_short":"sao-1","host":"sao-1.br.uncletopia.com","port":27015,"enabled":true,"region":"sa","cc":"br","latitude":-23.533773,"longitude":-46.62529,"reserved":0,"last_update":"0001-01-01T00:00:00Z","name_a2s":"Uncletopia | S√£o Paulo | 1 | All Maps","protocol":17,"map":"koth_highpass","folder":"tf","game":"Team Fortress","app_id":440,"player_count":0,"max_players":24,"Bots":0,"server_type":"Dedicated","server_os":"Linux","password":true,"vac":true,"version":"7961495","steam_id":85568392924469996,"keywords":["cp","nocrits","nodmgspread","uncletopia"],"game_id":440,"stv_port":27016,"stv_name":"Uncletopia | S√£o Paulo | 1 | All Maps | STV","players":null},{"server_id":143,"name":"Uncletopia | S√£o Paulo | 2 | Community","name_short":"sao-2","host":"sao-2.br.uncletopia.com","port":27015,"enabled":true,"region":"sa","cc":"br","latitude":-23.533773,"longitude":-46.62529,"reserved":0,"last_update":"0001-01-01T00:00:00Z","name_a2s":"Uncletopia | S√£o Paulo | 2 | Community","protocol":17,"map":"workshop/cp_croissant_final.ugc458840209","folder":"tf","game":"Team Fortress","app_id":440,"player_count":0,"max_players":24,"Bots":0,"server_type":"Dedicated","server_os":"Linux","password":true,"vac":true,"version":"7961495","steam_id":85568392924485349,"keywords":["cp","nocrits","nodmgspread","uncletopia"],"game_id":440,"stv_port":27016,"stv_name":"Uncletopia | S√£o Paulo | 2 | Community | STV","players":null},{"server_id":7,"name":"Uncletopia | Seattle | 1 | All Maps","name_short":"sea-1","host":"sea-1.us.uncletopia.com","port":27015,"enabled":true,"region":"us-west","cc":"us","latitude":47.608013,"longitude":-122.33517,"reserved":0,"last_update":"0001-01-01T00:00:00Z","name_a2s":"Uncletopia | Seattle | 1 | All Maps","protocol":17,"map":"koth_harvest_final","folder":"tf","game":"Team Fortress","app_id":440,"player_count":24,"max_players":24,"Bots":0,"server_type":"Dedicated","server_os":"Linux","password":true,"vac":true,"version":"7961495","steam_id":85568392924469997,"keywords":["cp","nocrits","nodmgspread","uncletopia"],"game_id":440,"stv_port":27016,"stv_name":"Uncletopia | Seattle | 1 | All Maps | STV","players":[{"user_id":110,"name":"Endaro","steam_id":76561197964923081,"connected_time":658000000000,"state":"active","ping":72},{"user_id":104,"name":"Muscle Man","steam_id":76561198248325252,"connected_time":968000000000,"state":"active","ping":70},{"user_id":96,"name":"bobtheninjaman","steam_id":76561198066424544,"connected_time":1700000000000,"state":"active","ping":70},{"user_id":92,"name":"I'mFromSpace","steam_id":76561198808969653,"connected_time":1849000000000,"state":"active","ping":70},{"user_id":108,"name":"es","steam_id":76561198006892337,"connected_time":873000000000,"state":"active","ping":76},{"user_id":105,"name":"mark!","steam_id":76561198184639801,"connected_time":966000000000,"state":"active","ping":47},{"user_id":100,"name":"UltimaA","steam_id":76561198083618022,"connected_time":1442000000000,"state":"active","ping":60},{"user_id":63,"name":"wendigo","steam_id":76561197994528974,"connected_time":4053000000000,"state":"active","ping":69},{"user_id":113,"name":"JohnFMX","steam_id":76561198175608097,"connected_time":347000000000,"state":"active","ping":119},{"user_id":106,"name":"Username","steam_id":76561198198918781,"connected_time":956000000000,"state":"active","ping":75},{"user_id":52,"name":"[TrC] Dackstrus","steam_id":76561197973518509,"connected_time":5291000000000,"state":"active","ping":55},{"user_id":64,"name":"Artgrendadier","steam_id":76561198063305359,"connected_time":3974000000000,"state":"active","ping":119},{"user_id":82,"name":"sleepy","steam_id":76561198288663776,"connected_time":2124000000000,"state":"active","ping":51},{"user_id":112,"name":"gatorbelt","steam_id":76561198145784505,"connected_time":387000000000,"state":"active","ping":76},{"user_id":85,"name":"2 Point Tom","steam_id":76561198087617008,"connected_time":2098000000000,"state":"active","ping":54},{"user_id":86,"name":"oo","steam_id":76561198119626492,"connected_time":2088000000000,"state":"active","ping":71},{"user_id":57,"name":"Imitation Caucasian","steam_id":76561198320536166,"connected_time":4668000000000,"state":"active","ping":89},{"user_id":109,"name":"zee","steam_id":76561198148876424,"connected_time":846000000000,"state":"active","ping":53},{"user_id":99,"name":"Keamy","steam_id":76561199471434875,"connected_time":1560000000000,"state":"active","ping":45},{"user_id":41,"name":"kfc rat","steam_id":76561199055105944,"connected_time":5782000000000,"state":"active","ping":110},{"user_id":93,"name":"da_pig2290","steam_id":76561198974258097,"connected_time":1813000000000,"state":"active","ping":81},{"user_id":115,"name":"YourFriendJessie *REAL*","steam_id":76561198176883097,"connected_time":63000000000,"state":"active","ping":108},{"user_id":89,"name":"BLITZ","steam_id":76561198980779200,"connected_time":2051000000000,"state":"active","ping":78},{"user_id":103,"name":"november","steam_id":76561198042748172,"connected_time":998000000000,"state":"active","ping":92}]},{"server_id":119,"name":"Uncletopia | Seattle | 2 | All Maps","name_short":"sea-2","host":"sea-1.us.uncletopia.com","port":27025,"enabled":true,"region":"us-west","cc":"us","latitude":47.608013,"longitude":-122.33517,"reserved":0,"last_update":"0001-01-01T00:00:00Z","name_a2s":"Uncletopia | Seattle | 2 | All Maps","protocol":17,"map":"koth_lakeside_final","folder":"tf","game":"Team Fortress","app_id":440,"player_count":0,"max_players":24,"Bots":0,"server_type":"Dedicated","server_os":"Linux","password":true,"vac":true,"version":"7961495","steam_id":85568392924469998,"keywords":["cp","nocrits","nodmgspread","uncletopia"],"game_id":440,"stv_port":27026,"stv_name":"Uncletopia | Seattle | 2 | All Maps | STV","players":null},{"server_id":406,"name":"Uncletopia | Seattle | 3 | Stopwatch","name_short":"sea-3","host":"sea-1.us.uncletopia.com","port":27035,"enabled":true,"region":"us-west","cc":"us","latitude":47.608013,"longitude":-122.33517,"reserved":0,"last_update":"0001-01-01T00:00:00Z","name_a2s":"Uncletopia | Seattle | 3 | Stopwatch","protocol":17,"map":"cp_gullywash_final1","folder":"tf","game":"Team Fortress","app_id":440,"player_count":0,"max_players":24,"Bots":0,"server_type":"Dedicated","server_os":"Linux","password":true,"vac":true,"version":"7961495","steam_id":85568392924515217,"keywords":["cp","nocrits","nodmgspread","uncletopia"],"game_id":440,"stv_port":27036,"stv_name":"Uncletopia | Seattle | 3 | Stopwatch | STV","players":null},{"server_id":17,"name":"Uncletopia | San Francisco | 1 | All Maps","name_short":"sfo-1","host":"sfo-1.us.uncletopia.com","port":27015,"enabled":true,"region":"us-west","cc":"us","latitude":37.77397,"longitude":-122.4313,"reserved":0,"last_update":"0001-01-01T00:00:00Z","name_a2s":"Uncletopia | San Francisco | 1 | All Maps","protocol":17,"map":"cp_altitude","folder":"tf","game":"Team Fortress","app_id":440,"player_count":0,"max_players":24,"Bots":0,"server_type":"Dedicated","server_os":"Linux","password":true,"vac":true,"version":"7961495","steam_id":85568392924469999,"keywords":["cp","nocrits","nodmgspread","uncletopia"],"game_id":440,"stv_port":27016,"stv_name":"Uncletopia | San Francisco | 1 | All Maps | STV","players":null},{"server_id":18,"name":"Uncletopia | San Francisco | 2 | All Maps","name_short":"sfo-2","host":"sfo-1.us.uncletopia.com","port":27025,"enabled":true,"region":"us-west","cc":"us","latitude":37.77397,"longitude":-122.4313,"reserved":0,"last_update":"0001-01-01T00:00:00Z","name_a2s":"Uncletopia | San Francisco | 2 | All Maps","protocol":17,"map":"cp_freight_final1","folder":"tf","game":"Team Fortress","app_id":440,"player_count":0,"max_players":24,"Bots":0,"server_type":"Dedicated","server_os":"Linux","password":true,"vac":true,"version":"7961495","steam_id":85568392924470000,"keywords":["cp","nocrits","nodmgspread","uncletopia"],"game_id":440,"stv_port":27026,"stv_name":"Uncletopia | San Francisco | 2 | All Maps | STV","players":null},{"server_id":19,"name":"Uncletopia | San Francisco | 3 | Stopwatch","name_short":"sfo-3","host":"sfo-1.us.uncletopia.com","port":27035,"enabled":true,"region":"us-west","cc":"us","latitude":37.77397,"longitude":-122.4313,"reserved":0,"last_update":"0001-01-01T00:00:00Z","name_a2s":"Uncletopia | San Francisco | 3 | Stopwatch","protocol":17,"map":"pl_upward","folder":"tf","game":"Team Fortress","app_id":440,"player_count":3,"max_players":24,"Bots":0,"server_type":"Dedicated","server_os":"Linux","password":true,"vac":true,"version":"7961495","steam_id":85568392924742824,"keywords":["nocrits","nodmgspread","payload","uncletopia"],"game_id":440,"stv_port":27036,"stv_name":"Uncletopia | San Francisco | 3 | Stopwatch | STV","players":[{"user_id":7,"name":"Varie","steam_id":76561199454930210,"connected_time":4062000000000,"state":"active","ping":124},{"user_id":11,"name":"thezranger","steam_id":76561198454086460,"connected_time":2606000000000,"state":"active","ping":54},{"user_id":10,"name":"Perfume Department","steam_id":76561198128299594,"connected_time":2669000000000,"state":"active","ping":50}]},{"server_id":20,"name":"Uncletopia | San Francisco | 4 | Community","name_short":"sfo-4","host":"sfo-1.us.uncletopia.com","port":27045,"enabled":true,"region":"us-west","cc":"us","latitude":37.77397,"longitude":-122.4313,"reserved":0,"last_update":"0001-01-01T00:00:00Z","name_a2s":"Uncletopia | San Francisco | 4 | Community","protocol":17,"map":"workshop/koth_slaughter_rc1.ugc1712845210","folder":"tf","game":"Team Fortress","app_id":440,"player_count":0,"max_players":24,"Bots":0,"server_type":"Dedicated","server_os":"Linux","password":true,"vac":true,"version":"7961495","steam_id":85568392924742826,"keywords":["cp","nocrits","nodmgspread","uncletopia"],"game_id":440,"stv_port":27046,"stv_name":"Uncletopia | San Francisco | 4 | Community | STV","players":null},{"server_id":141,"name":"Uncletopia | Sydney | 1 | All Maps","name_short":"syd-1","host":"syd-1.au.uncletopia.com","port":27015,"enabled":true,"region":"au","cc":"au","latitude":-33.865143,"longitude":151.2099,"reserved":0,"last_update":"0001-01-01T00:00:00Z","name_a2s":"Uncletopia | Sydney | 1 | All Maps","protocol":17,"map":"koth_lakeside_final","folder":"tf","game":"Team Fortress","app_id":440,"player_count":0,"max_players":24,"Bots":0,"server_type":"Dedicated","server_os":"Linux","password":true,"vac":true,"version":"7961495","steam_id":85568392924470001,"keywords":["cp","nocrits","nodmgspread","uncletopia"],"game_id":440,"stv_port":27016,"stv_name":"Uncletopia | Sydney | 1 | All Maps | STV","players":null},{"server_id":123,"name":"Uncletopia | Sydney | 2 | All Maps","name_short":"syd-2","host":"syd-1.au.uncletopia.com","port":27025,"enabled":true,"region":"au","cc":"au","latitude":-33.865143,"longitude":151.2099,"reserved":0,"last_update":"0001-01-01T00:00:00Z","name_a2s":"Uncletopia | Sydney | 2 | All Maps","protocol":17,"map":"pl_pier","folder":"tf","game":"Team Fortress","app_id":440,"player_count":0,"max_players":24,"Bots":0,"server_type":"Dedicated","server_os":"Linux","password":true,"vac":true,"version":"7961495","steam_id":85568392924470002,"keywords":["nocrits","nodmgspread","payload","uncletopia"],"game_id":440,"stv_port":27026,"stv_name":"Uncletopia | Sydney | 2 | All Maps | STV","players":null},{"server_id":395,"name":"Uncletopia | Sydney | 3 | All Maps","name_short":"syd-3","host":"syd-1.au.uncletopia.com","port":27035,"enabled":true,"region":"au","cc":"au","latitude":-33.865143,"longitude":151.2099,"reserved":0,"last_update":"0001-01-01T00:00:00Z","name_a2s":"Uncletopia | Sydney | 3 | All Maps","protocol":17,"map":"pl_frontier_final","folder":"tf","game":"Team Fortress","app_id":440,"player_count":0,"max_players":24,"Bots":0,"server_type":"Dedicated","server_os":"Linux","password":true,"vac":true,"version":"7961495","steam_id":85568392925194467,"keywords":["nocrits","nodmgspread","payload","uncletopia"],"game_id":440,"stv_port":27036,"stv_name":"Uncletopia | Sydney | 3 | All Maps | STV","players":null},{"server_id":396,"name":"Uncletopia | Sydney | 4 | All Maps","name_short":"syd-4","host":"syd-1.au.uncletopia.com","port":27045,"enabled":true,"region":"au","cc":"au","latitude":-33.865143,"longitude":151.2099,"reserved":0,"last_update":"0001-01-01T00:00:00Z","name_a2s":"Uncletopia | Sydney | 4 | All Maps","protocol":17,"map":"cp_dustbowl","folder":"tf","game":"Team Fortress","app_id":440,"player_count":0,"max_players":24,"Bots":0,"server_type":"Dedicated","server_os":"Linux","password":true,"vac":true,"version":"7961495","steam_id":85568392925397958,"keywords":["cp","nocrits","nodmgspread","uncletopia"],"game_id":440,"stv_port":27046,"stv_name":"Uncletopia | Sydney | 4 | All Maps | STV","players":null},{"server_id":58,"name":"Uncletopia | Sydney | 5 | Stopwatch","name_short":"syd-5","host":"syd-1.au.uncletopia.com","port":27055,"enabled":true,"region":"au","cc":"au","latitude":-33.865143,"longitude":151.2099,"reserved":0,"last_update":"0001-01-01T00:00:00Z","name_a2s":"Uncletopia | Sydney | 5 | Stopwatch","protocol":17,"map":"workshop/pl_badwater_pro_v12.ugc2142942074","folder":"tf","game":"Team Fortress","app_id":440,"player_count":0,"max_players":24,"Bots":0,"server_type":"Dedicated","server_os":"Linux","password":true,"vac":true,"version":"7961495","steam_id":85568392925397959,"keywords":["nocrits","nodmgspread","payload","uncletopia"],"game_id":440,"stv_port":27056,"stv_name":"Uncletopia | Sydney | 5 | Stopwatch | STV","players":null},{"server_id":59,"name":"Uncletopia | Sydney | 6 | Community","name_short":"syd-6","host":"syd-1.au.uncletopia.com","port":27065,"enabled":true,"region":"au","cc":"au","latitude":-33.865143,"longitude":151.2099,"reserved":0,"last_update":"0001-01-01T00:00:00Z","name_a2s":"Uncletopia | Sydney | 6 | Community","protocol":17,"map":"workshop/pl_shoreleave_rc2.ugc1238849347","folder":"tf","game":"Team Fortress","app_id":440,"player_count":0,"max_players":24,"Bots":0,"server_type":"Dedicated","server_os":"Linux","password":true,"vac":true,"version":"7961495","steam_id":85568392925397960,"keywords":["nocrits","nodmgspread","payload","uncletopia"],"game_id":440,"stv_port":27066,"stv_name":"Uncletopia | Sydney | 6 | Community | STV","players":null},{"server_id":49,"name":"Uncletopia | Warsaw | 1 | One Thousand Uncles","name_short":"waw-1","host":"waw-1.pl.uncletopia.com","port":27015,"enabled":true,"region":"eu","cc":"pl","latitude":52.2297,"longitude":21.017532,"reserved":0,"last_update":"0001-01-01T00:00:00Z","name_a2s":"Uncletopia | Warsaw | 1 | One Thousand Uncles","protocol":17,"map":"pl_goldrush","folder":"tf","game":"Team Fortress","app_id":440,"player_count":29,"max_players":32,"Bots":16,"server_type":"Dedicated","server_os":"Linux","password":true,"vac":true,"version":"7961495","steam_id":85568392925397850,"keywords":["alltalk","bots","danepve","increased_maxplayers","norespawntime","payload","uncletopia"],"game_id":440,"stv_port":0,"stv_name":"","players":[{"user_id":513,"name":"Diamhair","steam_id":76561198109020178,"connected_time":3429000000000,"state":"active","ping":84},{"user_id":576,"name":"Pixar Cars on the PS2","steam_id":76561198079386295,"connected_time":79000000000,"state":"active","ping":75},{"user_id":579,"name":"codeblaze135","steam_id":76561199244588795,"connected_time":9000000000,"state":"spawning","ping":59},{"user_id":550,"name":"EL SHEPARDOOO32","steam_id":76561198121574523,"connected_time":1315000000000,"state":"active","ping":37},{"user_id":577,"name":"Sonjadoggy","steam_id":76561198846273516,"connected_time":48000000000,"state":"active","ping":74},{"user_id":548,"name":"Kretes","steam_id":76561198982786431,"connected_time":1921000000000,"state":"active","ping":38},{"user_id":540,"name":"Valoxi","steam_id":76561197995042938,"connected_time":2671000000000,"state":"active","ping":65},{"user_id":552,"name":"Zodaick","steam_id":76561198083662129,"connected_time":867000000000,"state":"active","ping":60},{"user_id":549,"name":"Darkie","steam_id":76561198000388812,"connected_time":1844000000000,"state":"active","ping":119},{"user_id":553,"name":"Lewylow","steam_id":76561198005425686,"connected_time":843000000000,"state":"active","ping":83},{"user_id":542,"name":"ViPower","steam_id":76561198882928076,"connected_time":2572000000000,"state":"active","ping":72},{"user_id":543,"name":"ByrakGG (f2p)","steam_id":76561199415957361,"connected_time":2551000000000,"state":"active","ping":119},{"user_id":578,"name":"Limner.exe","steam_id":76561199200274345,"connected_time":37000000000,"state":"active","ping":175}]},{"server_id":50,"name":"Uncletopia | Warsaw | 2 | One Thousand Uncles","name_short":"waw-2","host":"waw-1.pl.uncletopia.com","port":27025,"enabled":true,"region":"eu","cc":"pl","latitude":52.2297,"longitude":21.017532,"reserved":0,"last_update":"0001-01-01T00:00:00Z","name_a2s":"Uncletopia | Warsaw | 2 | One Thousand Uncles","protocol":17,"map":"pl_upward","folder":"tf","game":"Team Fortress","app_id":440,"player_count":25,"max_players":32,"Bots":16,"server_type":"Dedicated","server_os":"Linux","password":true,"vac":true,"version":"7961495","steam_id":85568392925397851,"keywords":["alltalk","bots","danepve","increased_maxplayers","norespawntime","payload","uncletopia"],"game_id":440,"stv_port":0,"stv_name":"","players":[{"user_id":143,"name":"mikolajslabiak","steam_id":76561199388598765,"connected_time":144000000000,"state":"active","ping":40},{"user_id":144,"name":"MeBandae","steam_id":76561198910770432,"connected_time":125000000000,"state":"active","ping":93},{"user_id":137,"name":"Shadowwalker","steam_id":76561198344642637,"connected_time":1606000000000,"state":"active","ping":180},{"user_id":145,"name":"AnalBypass1989","steam_id":76561198052356557,"connected_time":123000000000,"state":"active","ping":132},{"user_id":102,"name":"lisivi","steam_id":76561198365503306,"connected_time":3774000000000,"state":"active","ping":74},{"user_id":103,"name":"dank pank","steam_id":76561198995052713,"connected_time":3711000000000,"state":"active","ping":45},{"user_id":108,"name":"silicon based life form","steam_id":76561199127121346,"connected_time":3132000000000,"state":"active","ping":77},{"user_id":141,"name":"tealoverr.190","steam_id":76561199028497703,"connected_time":799000000000,"state":"active","ping":122},{"user_id":119,"name":"Spxndrej","steam_id":76561199426583978,"connected_time":2293000000000,"state":"active","ping":47}]},{"server_id":51,"name":"Uncletopia | Warsaw | 3 | All Maps","name_short":"waw-3","host":"waw-1.pl.uncletopia.com","port":27035,"enabled":true,"region":"eu","cc":"pl","latitude":52.2297,"longitude":21.017532,"reserved":0,"last_update":"0001-01-01T00:00:00Z","name_a2s":"Uncletopia | Warsaw | 3 | All Maps","protocol":17,"map":"koth_viaduct","folder":"tf","game":"Team Fortress","app_id":440,"player_count":4,"max_players":24,"Bots":0,"server_type":"Dedicated","server_os":"Linux","password":true,"vac":true,"version":"7961495","steam_id":85568392925397852,"keywords":["cp","nocrits","nodmgspread","uncletopia"],"game_id":440,"stv_port":27036,"stv_name":"Uncletopia | Warsaw | 3 | All Maps | STV","players":[{"user_id":6,"name":"Nome","steam_id":76561198867982828,"connected_time":1132000000000,"state":"active","ping":119},{"user_id":11,"name":"Fox","steam_id":76561199104675321,"connected_time":789000000000,"state":"active","ping":91},{"user_id":9,"name":"andrei","steam_id":76561199065360343,"connected_time":1022000000000,"state":"active","ping":96},{"user_id":12,"name":"Adamkarz","steam_id":76561198796428403,"connected_time":64000000000,"state":"active","ping":57}]},{"server_id":52,"name":"Uncletopia | Warsaw | 4 | All Maps","name_short":"waw-4","host":"waw-1.pl.uncletopia.com","port":27045,"enabled":true,"region":"eu","cc":"pl","latitude":52.2297,"longitude":21.017532,"reserved":0,"last_update":"0001-01-01T00:00:00Z","name_a2s":"Uncletopia | Warsaw | 4 | All Maps","protocol":17,"map":"cp_snakewater_final1","folder":"tf","game":"Team Fortress","app_id":440,"player_count":0,"max_players":24,"Bots":0,"server_type":"Dedicated","server_os":"Linux","password":true,"vac":true,"version":"7961495","steam_id":85568392925397853,"keywords":["cp","nocrits","nodmgspread","uncletopia"],"game_id":440,"stv_port":27046,"stv_name":"Uncletopia | Warsaw | 4 | All Maps | STV","players":null},{"server_id":53,"name":"Uncletopia | Warsaw | 5 | Stopwatch","name_short":"waw-5","host":"waw-1.pl.uncletopia.com","port":27055,"enabled":true,"region":"eu","cc":"pl","latitude":52.2297,"longitude":21.017532,"reserved":0,"last_update":"0001-01-01T00:00:00Z","name_a2s":"Uncletopia | Warsaw | 5 | Stopwatch","protocol":17,"map":"workshop/pl_vigil_rc10.ugc1266210012","folder":"tf","game":"Team Fortress","app_id":440,"player_count":0,"max_players":24,"Bots":0,"server_type":"Dedicated","server_os":"Linux","password":true,"vac":true,"version":"7961495","steam_id":85568392925397854,"keywords":["nocrits","nodmgspread","payload","uncletopia"],"game_id":440,"stv_port":27056,"stv_name":"Uncletopia | Warsaw | 5 | Stopwatch | STV","players":null},{"server_id":54,"name":"Uncletopia | Warsaw | 6 | Community","name_short":"waw-6","host":"waw-1.pl.uncletopia.com","port":27065,"enabled":true,"region":"eu","cc":"pl","latitude":52.2297,"longitude":21.017532,"reserved":0,"last_update":"0001-01-01T00:00:00Z","name_a2s":"Uncletopia | Warsaw | 6 | Community","protocol":17,"map":"workshop/cp_mannbase_rc2a.ugc1900737467","folder":"tf","game":"Team Fortress","app_id":440,"player_count":0,"max_players":24,"Bots":0,"server_type":"Dedicated","server_os":"Linux","password":true,"vac":true,"version":"7961495","steam_id":85568392925397856,"keywords":["cp","nocrits","nodmgspread","uncletopia"],"game_id":440,"stv_port":27066,"stv_name":"Uncletopia | Warsaw | 6 | Community | STV","players":null}]}