{"status":true,"message":"","result":[{"server_id":9,"name":"Uncletopia | Atlanta | 1 | All Maps","name_short":"atl-1","host":"atl-1.us.uncletopia.com","port":27015,"enabled":true,"region":"us-east","cc":"us","latitude":33.753746,"longitude":-84.38633,"reserved":0,"last_update":"0001-01-01T00:00:00Z","name_a2s":"Uncletopia | Atlanta | 1 | All Maps","protocol":17,"map":"pl_barnblitz","folder":"tf","game":"Team Fortress","app_id":440,"player_count":24,"max_players":24,"Bots":0,"server_type":"Dedicated","server_os":"Linux","password":true,"vac":true,"version":"7723704","steam_id":85568392924469982,"keywords":["nocrits","nodmgspread","payload","uncletopia"],"game_id":440,"stv_port":27016,"stv_name":"Uncletopia | Atlanta | 1 | All Maps | STV","players":[{"user_id":60,"name":"luser","steam_id":76561199186893169,"connected_time":1223000000000,"state":"active","ping":88},{"user_id":41,"name":"Itgel","steam_id":76561198188572226,"connected_time":2640000000000,"state":"active","ping":57},{"user_id":50,"name":"45 Cent","steam_id":76561198048690188,"connected_time":2166000000000,"state":"active","ping":79},{"user_id":61,"name":"ExplosiveGamer21","steam_id":76561198132370955,"connected_time":1194000000000,"state":"active","ping":106},{"user_id":72,"name":"Lemur","steam_id":76561198065300466,"connected_time":260000000000,"state":"active","ping":80},{"user_id":10,"name":"3am Mail-in Ballot Dump","steam_id":76561198008531707,"connected_time":3299000000000,"state":"active","ping":53},{"user_id":66,"name":"superx","steam_id":76561198044976613,"connected_time":1017000000000,"state":"active","ping":66},{"user_id":71,"name":"HarpyHour","steam_id":76561198156045988,"connected_time":274000000000,"state":"active","ping":64},{"user_id":56,"name":"shooty","steam_id":76561198128485603,"connected_time":1419000000000,"state":"active","ping":56},{"user_id":39,"name":"penis man","steam_id":76561198117718425,"connected_time":2784000000000,"state":"active","ping":73},{"user_id":70,"name":"‚Ä¢cC‚Ä¢ HonorableDeath","steam_id":76561198145706619,"connected_time":353000000000,"state":"active","ping":53},{"user_id":55,"name":"Princessie Matifina","steam_id":76561198060498180,"connected_time":1430000000000,"state":"active","ping":61},{"user_id":20,"name":"MOTORTREND TRUCK OF THE YEAR","steam_id":76561198077654131,"connected_time":3184000000000,"state":"active","ping":69},{"user_id":62,"name":"Astro","steam_id":76561198035676106,"connected_time":1190000000000,"state":"active","ping":75},{"user_id":67,"name":"totally not a pile of beans","steam_id":76561198119851931,"connected_time":1017000000000,"state":"active","ping":68},{"user_id":69,"name":"Zhong Xina ÈíüÊñ∞Â®ú","steam_id":76561198044022060,"connected_time":855000000000,"state":"active","ping":60},{"user_id":46,"name":"SamFec","steam_id":76561198414538682,"connected_time":2206000000000,"state":"active","ping":98},{"user_id":65,"name":"Brown_Dream","steam_id":76561198975766145,"connected_time":1037000000000,"state":"active","ping":70},{"user_id":38,"name":"rum","steam_id":76561198465334150,"connected_time":2819000000000,"state":"active","ping":96},{"user_id":68,"name":"Croissant Guy","steam_id":76561198077719901,"connected_time":1010000000000,"state":"active","ping":92},{"user_id":73,"name":"Preston","steam_id":76561198059794321,"connected_time":258000000000,"state":"active","ping":85},{"user_id":32,"name":"Kleine","steam_id":76561198042556857,"connected_time":3067000000000,"state":"active","ping":72},{"user_id":64,"name":"dog-shaped dog","steam_id":76561198286166220,"connected_time":1140000000000,"state":"active","ping":90},{"user_id":48,"name":"BERBBLES","steam_id":76561198815107994,"connected_time":2205000000000,"state":"active","ping":77}]},{"server_id":400,"name":"Uncletopia | Atlanta | 3 | All Maps","name_short":"atl-3","host":"atl-1.us.uncletopia.com","port":27035,"enabled":true,"region":"us-east","cc":"us","latitude":33.753746,"longitude":-84.38633,"reserved":0,"last_update":"0001-01-01T00:00:00Z","name_a2s":"Uncletopia | Atlanta | 3 | All Maps","protocol":17,"map":"pl_badwater","folder":"tf","game":"Team Fortress","app_id":440,"player_count":6,"max_players":24,"Bots":0,"server_type":"Dedicated","server_os":"Linux","password":true,"vac":true,"version":"7723704","steam_id":85568392924515187,"keywords":["nocrits","nodmgspread","payload","uncletopia"],"game_id":440,"stv_port":27036,"stv_name":"Uncletopia | Atlanta | 3 | All Maps | STV","players":[{"user_id":16,"name":"Qwegg","steam_id":76561198205510383,"connected_time":815000000000,"state":"active","ping":69},{"user_id":17,"name":"abomination","steam_id":76561198167974713,"connected_time":755000000000,"state":"active","ping":48},{"user_id":18,"name":"C papi","steam_id":76561198027779564,"connected_time":720000000000,"state":"active","ping":49},{"user_id":21,"name":"squig_","steam_id":76561198043726592,"connected_time":143000000000,"state":"active","ping":62},{"user_id":22,"name":"Ch4rl33","steam_id":76561198037008621,"connected_time":97000000000,"state":"active","ping":67},{"user_id":23,"name":"Deadeye","steam_id":76561198095300533,"connected_time":59000000000,"state":"active","ping":65}]},{"server_id":401,"name":"Uncletopia | Atlanta | 4 | No Payload","name_short":"atl-4","host":"atl-1.us.uncletopia.com","port":27045,"enabled":true,"region":"us-east","cc":"us","latitude":33.753746,"longitude":-84.38633,"reserved":0,"last_update":"0001-01-01T00:00:00Z","name_a2s":"Uncletopia | Atlanta | 4 | No Payload","protocol":17,"map":"pl_pier","folder":"tf","game":"Team Fortress","app_id":440,"player_count":0,"max_players":24,"Bots":0,"server_type":"Dedicated","server_os":"Linux","password":true,"vac":true,"version":"7723704","steam_id":85568392924515188,"keywords":["nocrits","nodmgspread","payload","uncletopia"],"game_id":440,"stv_port":27046,"stv_name":"Uncletopia | Atlanta | 4 | No Payload | STV","players":null},{"server_id":2,"name":"Uncletopia | Chicago | 1 | All Maps","name_short":"chi-1","host":"chi-1.us.uncletopia.com","port":27015,"enabled":true,"region":"us-central","cc":"us","latitude":41.881832,"longitude":-87.62318,"reserved":0,"last_update":"0001-01-01T00:00:00Z","name_a2s":"Uncletopia | Chicago | 1 | All Maps","protocol":17,"map":"pl_frontier_final","folder":"tf","game":"Team Fortress","app_id":440,"player_count":24,"max_players":24,"Bots":0,"server_type":"Dedicated","server_os":"Linux","password":true,"vac":true,"version":"7723704","steam_id":85568392924469984,"keywords":["nocrits","nodmgspread","payload","uncletopia"],"game_id":440,"stv_port":27016,"stv_name":"Uncletopia | Chicago | 1 | All Maps | STV","players":[{"user_id":72,"name":"Abbashea","steam_id":76561199182136969,"connected_time":943000000000,"state":"active","ping":77},{"user_id":11,"name":"m yfrogs","steam_id":76561198371149432,"connected_time":4061000000000,"state":"active","ping":45},{"user_id":80,"name":"LukeCombsfan99","steam_id":76561198124069244,"connected_time":504000000000,"state":"active","ping":68},{"user_id":71,"name":"NUt","steam_id":76561198031007966,"connected_time":945000000000,"state":"active","ping":55},{"user_id":9,"name":"two vegan hot dogs","steam_id":76561198026589960,"connected_time":4068000000000,"state":"active","ping":46},{"user_id":75,"name":"Money Collector","steam_id":76561198046249467,"connected_time":876000000000,"state":"active","ping":69},{"user_id":47,"name":"deepmeta","steam_id":76561199053600691,"connected_time":2834000000000,"state":"active","ping":51},{"user_id":73,"name":"Octobella Enthusiast","steam_id":76561198199266047,"connected_time":936000000000,"state":"active","ping":57},{"user_id":62,"name":"exotic","steam_id":76561198126466112,"connected_time":2014000000000,"state":"active","ping":50},{"user_id":18,"name":"sa¬µ c‚ô£√ü√ú √¶\\bN‚àü √≤ ¬º‚âà","steam_id":76561198069589278,"connected_time":3984000000000,"state":"active","ping":101},{"user_id":67,"name":"Kevin Y.","steam_id":76561198364331423,"connected_time":1443000000000,"state":"active","ping":70},{"user_id":63,"name":"Psych03","steam_id":76561198061753667,"connected_time":2003000000000,"state":"active","ping":105},{"user_id":81,"name":"c a t","steam_id":76561198145531785,"connected_time":251000000000,"state":"active","ping":57},{"user_id":77,"name":"Salty Otter","steam_id":76561199076097396,"connected_time":655000000000,"state":"active","ping":76},{"user_id":65,"name":"Sarbanes-Oxley","steam_id":76561197975898479,"connected_time":1905000000000,"state":"active","ping":75},{"user_id":25,"name":"TexNG","steam_id":76561197976341487,"connected_time":3953000000000,"state":"active","ping":86},{"user_id":69,"name":"neeko","steam_id":76561198354256072,"connected_time":975000000000,"state":"active","ping":38},{"user_id":56,"name":"hue","steam_id":76561198039368798,"connected_time":2505000000000,"state":"active","ping":75},{"user_id":38,"name":"Divine Mountain of Heaven","steam_id":76561198196793754,"connected_time":3823000000000,"state":"active","ping":79},{"user_id":30,"name":"Shew","steam_id":76561198054332468,"connected_time":3913000000000,"state":"active","ping":106},{"user_id":74,"name":"President Ballsack O'Chungus","steam_id":76561198236109724,"connected_time":926000000000,"state":"active","ping":57},{"user_id":78,"name":"pastry","steam_id":76561198063164349,"connected_time":653000000000,"state":"active","ping":61},{"user_id":68,"name":"big ol' buford","steam_id":76561198290675957,"connected_time":1363000000000,"state":"active","ping":65}]},{"server_id":106,"name":"Uncletopia | Chicago | 2 | All Maps","name_short":"chi-2","host":"chi-1.us.uncletopia.com","port":27025,"enabled":true,"region":"us-central","cc":"us","latitude":41.881832,"longitude":-87.62318,"reserved":0,"last_update":"0001-01-01T00:00:00Z","name_a2s":"Uncletopia | Chicago | 2 | All Maps","protocol":17,"map":"pl_upward","folder":"tf","game":"Team Fortress","app_id":440,"player_count":24,"max_players":24,"Bots":0,"server_type":"Dedicated","server_os":"Linux","password":true,"vac":true,"version":"7723704","steam_id":85568392924469985,"keywords":["nocrits","nodmgspread","payload","uncletopia"],"game_id":440,"stv_port":27026,"stv_name":"Uncletopia | Chicago | 2 | All Maps | STV","players":[{"user_id":43,"name":"ShiverJay","steam_id":76561198080679495,"connected_time":2472000000000,"state":"active","ping":61},{"user_id":64,"name":"eWVra2Vy","steam_id":76561198453565942,"connected_time":954000000000,"state":"active","ping":62},{"user_id":77,"name":"stealthy","steam_id":76561198071386492,"connected_time":523000000000,"state":"active","ping":62},{"user_id":80,"name":"Seabornebook","steam_id":76561198120558255,"connected_time":377000000000,"state":"active","ping":54},{"user_id":55,"name":"PAC-MATH","steam_id":76561198327729748,"connected_time":1719000000000,"state":"active","ping":56},{"user_id":68,"name":"ndvr","steam_id":76561199379200102,"connected_time":726000000000,"state":"active","ping":60},{"user_id":11,"name":"Daksuki","steam_id":76561198084127751,"connected_time":4263000000000,"state":"active","ping":68},{"user_id":12,"name":"Amy Roxwell","steam_id":76561198303391830,"connected_time":4243000000000,"state":"active","ping":122},{"user_id":13,"name":"Ben 10's Ben's 10 Bren 10s","steam_id":76561198031667381,"connected_time":4234000000000,"state":"active","ping":63},{"user_id":81,"name":"Skelitor ‚ú™","steam_id":76561198043885634,"connected_time":375000000000,"state":"active","ping":75},{"user_id":15,"name":"scream for heals","steam_id":76561198029162828,"connected_time":4231000000000,"state":"active","ping":96},{"user_id":16,"name":"merry bynxmas everyone","steam_id":76561198230593528,"connected_time":4230000000000,"state":"active","ping":48},{"user_id":17,"name":"BONERPHONE","steam_id":76561198332877441,"connected_time":4229000000000,"state":"active","ping":101},{"user_id":42,"name":"RaddahRaddah","steam_id":76561198194462829,"connected_time":2481000000000,"state":"active","ping":54},{"user_id":60,"name":"DenDa","steam_id":76561198321944154,"connected_time":1403000000000,"state":"active","ping":45},{"user_id":76,"name":"Spleendo","steam_id":76561198069672629,"connected_time":674000000000,"state":"active","ping":48},{"user_id":79,"name":"a shrieking cloud of bats","steam_id":76561198151363063,"connected_time":389000000000,"state":"active","ping":74},{"user_id":61,"name":"Wan Shi Tong","steam_id":76561198076441225,"connected_time":1397000000000,"state":"active","ping":69},{"user_id":26,"name":"Ziath","steam_id":76561198094009164,"connected_time":4184000000000,"state":"active","ping":73},{"user_id":82,"name":"rvalue","steam_id":76561199012426027,"connected_time":272000000000,"state":"active","ping":60},{"user_id":62,"name":"TheSky4lif","steam_id":76561198871331139,"connected_time":1319000000000,"state":"active","ping":63},{"user_id":65,"name":"GibbyGarbo","steam_id":76561198206070907,"connected_time":872000000000,"state":"active","ping":38},{"user_id":41,"name":"Open Mailbox","steam_id":76561198051933580,"connected_time":2491000000000,"state":"active","ping":83},{"user_id":54,"name":"SquirrelAway‚Ñ¢","steam_id":76561197998828619,"connected_time":1751000000000,"state":"active","ping":69}]},{"server_id":402,"name":"Uncletopia | Chicago | 3 | All Maps","name_short":"chi-3","host":"chi-1.us.uncletopia.com","port":27035,"enabled":true,"region":"us-central","cc":"us","latitude":41.881832,"longitude":-87.62318,"reserved":0,"last_update":"0001-01-01T00:00:00Z","name_a2s":"Uncletopia | Chicago | 3 | All Maps","protocol":17,"map":"koth_viaduct","folder":"tf","game":"Team Fortress","app_id":440,"player_count":24,"max_players":24,"Bots":0,"server_type":"Dedicated","server_os":"Linux","password":true,"vac":true,"version":"7723704","steam_id":85568392924515191,"keywords":["cp","nocrits","nodmgspread","uncletopia"],"game_id":440,"stv_port":27036,"stv_name":"Uncletopia | Chicago | 3 | All Maps | STV","players":[{"user_id":7,"name":"scrub","steam_id":76561197969242917,"connected_time":2139000000000,"state":"active","ping":50},{"user_id":8,"name":"MilkyFrenchToast","steam_id":76561198099281433,"connected_time":2084000000000,"state":"active","ping":76},{"user_id":9,"name":"Space‚≠êTaffy","steam_id":76561198002271720,"connected_time":2066000000000,"state":"active","ping":55},{"user_id":61,"name":"Regi","steam_id":76561198271508598,"connected_time":261000000000,"state":"active","ping":48},{"user_id":60,"name":"Kipernicus","steam_id":76561197998180212,"connected_time":276000000000,"state":"active","ping":48},{"user_id":18,"name":"griptape","steam_id":76561198078415931,"connected_time":1613000000000,"state":"active","ping":62},{"user_id":51,"name":"Boost! Bonk! Bam!","steam_id":76561198040978613,"connected_time":877000000000,"state":"active","ping":79},{"user_id":52,"name":"pupy dogy","steam_id":76561198173128765,"connected_time":877000000000,"state":"active","ping":50},{"user_id":20,"name":"ChoccyMiltank","steam_id":76561198981474284,"connected_time":1579000000000,"state":"active","ping":98},{"user_id":38,"name":"CobaltNinja","steam_id":76561198116903731,"connected_time":1327000000000,"state":"active","ping":75},{"user_id":21,"name":"a garbage can","steam_id":76561198403626105,"connected_time":1566000000000,"state":"active","ping":53},{"user_id":22,"name":"Catastrophic","steam_id":76561198441720523,"connected_time":1557000000000,"state":"active","ping":57},{"user_id":48,"name":"Terium","steam_id":76561198331234327,"connected_time":1229000000000,"state":"active","ping":51},{"user_id":53,"name":"Missile Toad","steam_id":76561198300976003,"connected_time":870000000000,"state":"active","ping":55},{"user_id":26,"name":"ClericsRose","steam_id":76561198011013806,"connected_time":1535000000000,"state":"active","ping":77},{"user_id":62,"name":"Ellis","steam_id":76561198993634489,"connected_time":155000000000,"state":"active","ping":103},{"user_id":57,"name":"mmph","steam_id":76561198204213057,"connected_time":688000000000,"state":"active","ping":59},{"user_id":55,"name":"Dagsdaf","steam_id":76561198055317112,"connected_time":697000000000,"state":"active","ping":64},{"user_id":59,"name":"Scorpie Doodle","steam_id":76561198021845763,"connected_time":280000000000,"state":"active","ping":53},{"user_id":37,"name":"Randy \"the Man\" Johnson","steam_id":76561198039124445,"connected_time":1348000000000,"state":"active","ping":88},{"user_id":58,"name":"The Gentlemen","steam_id":76561198828421684,"connected_time":596000000000,"state":"active","ping":97},{"user_id":64,"name":"Bakenbacon","steam_id":76561198165315411,"connected_time":72000000000,"state":"active","ping":136},{"user_id":36,"name":"Flameslicer","steam_id":76561198044785612,"connected_time":1422000000000,"state":"active","ping":63},{"user_id":49,"name":"SomeRandomCat","steam_id":76561199107044061,"connected_time":1207000000000,"state":"active","ping":63}]},{"server_id":403,"name":"Uncletopia | Chicago | 4 | All Maps","name_short":"chi-4","host":"chi-1.us.uncletopia.com","port":27045,"enabled":true,"region":"us-central","cc":"us","latitude":41.881832,"longitude":-87.62318,"reserved":0,"last_update":"0001-01-01T00:00:00Z","name_a2s":"Uncletopia | Chicago | 4 | All Maps","protocol":17,"map":"koth_viaduct","folder":"tf","game":"Team Fortress","app_id":440,"player_count":4,"max_players":24,"Bots":0,"server_type":"Dedicated","server_os":"Linux","password":true,"vac":true,"version":"7723704","steam_id":85568392924515193,"keywords":["cp","nocrits","nodmgspread","uncletopia"],"game_id":440,"stv_port":27046,"stv_name":"Uncletopia | Chicago | 4 | All Maps | STV","players":[{"user_id":8,"name":"CFDv20","steam_id":76561198450073779,"connected_time":701000000000,"state":"active","ping":90},{"user_id":13,"name":"Mediocrity","steam_id":76561198851709004,"connected_time":342000000000,"state":"active","ping":45},{"user_id":15,"name":"Turbocat","steam_id":76561198145431353,"connected_time":313000000000,"state":"active","ping":52},{"user_id":16,"name":"DSM-IVCE","steam_id":76561199438515797,"connected_time":312000000000,"state":"active","ping":121}]},{"server_id":36,"name":"Uncletopia | Chicago | 5 | All Maps","name_short":"chi-5","host":"chi-2.us.uncletopia.com","port":27015,"enabled":true,"region":"us-central","cc":"us","latitude":41.881832,"longitude":-87.62318,"reserved":0,"last_update":"0001-01-01T00:00:00Z","name_a2s":"Uncletopia | Chicago | 5 | All Maps","protocol":17,"map":"koth_cascade","folder":"tf","game":"Team Fortress","app_id":440,"player_count":0,"max_players":24,"Bots":0,"server_type":"Dedicated","server_os":"Linux","password":true,"vac":true,"version":"7723704","steam_id":85568392924866362,"keywords":["cp","nocrits","nodmgspread","uncletopia"],"game_id":440,"stv_port":27016,"stv_name":"Uncletopia | Chicago | 5 | All Maps | STV","players":null},{"server_id":37,"name":"Uncletopia | Chicago | 6 | All Maps","name_short":"chi-6","host":"chi-2.us.uncletopia.com","port":27025,"enabled":true,"region":"us-central","cc":"us","latitude":41.881832,"longitude":-87.62318,"reserved":0,"last_update":"0001-01-01T00:00:00Z","name_a2s":"Uncletopia | Chicago | 6 | All Maps","protocol":17,"map":"koth_lakeside_final","folder":"tf","game":"Team Fortress","app_id":440,"player_count":0,"max_players":24,"Bots":0,"server_type":"Dedicated","server_os":"Linux","password":true,"vac":true,"version":"7723704","steam_id":85568392924866363,"keywords":["cp","nocrits","nodmgspread","uncletopia"],"game_id":440,"stv_port":27026,"stv_name":"Uncletopia | Chicago | 6 | All Maps | STV","players":null},{"server_id":38,"name":"Uncletopia | Chicago | 7 | Stopwatch (test)","name_short":"chi-7","host":"chi-2.us.uncletopia.com","port":27035,"enabled":true,"region":"us-central","cc":"us","latitude":41.881832,"longitude":-87.62318,"reserved":0,"last_update":"0001-01-01T00:00:00Z","name_a2s":"Uncletopia | Chicago | 7 | Stopwatch (test)","protocol":17,"map":"pl_upward","folder":"tf","game":"Team Fortress","app_id":440,"player_count":0,"max_players":24,"Bots":0,"server_type":"Dedicated","server_os":"Linux","password":true,"vac":true,"version":"7723704","steam_id":85568392924866364,"keywords":["nocrits","nodmgspread","payload","uncletopia"],"game_id":440,"stv_port":27036,"stv_name":"Uncletopia | Chicago | 7 | Stopwatch (test) | STV","players":null},{"server_id":39,"name":"Uncletopia | Chicago | 8 | Community","name_short":"chi-8","host":"chi-2.us.uncletopia.com","port":27045,"enabled":true,"region":"us-central","cc":"us","latitude":41.881832,"longitude":-87.62318,"reserved":0,"last_update":"0001-01-01T00:00:00Z","name_a2s":"Uncletopia | Chicago | 8 | Community","protocol":17,"map":"pl_frontier_final","folder":"tf","game":"Team Fortress","app_id":440,"player_count":0,"max_players":24,"Bots":0,"server_type":"Dedicated","server_os":"Linux","password":true,"vac":true,"version":"7723704","steam_id":85568392924866365,"keywords":["nocrits","nodmgspread","payload","uncletopia"],"game_id":440,"stv_port":27046,"stv_name":"Uncletopia | Chicago | 8 | Community | STV","players":null},{"server_id":8,"name":"Uncletopia | Dallas | 1 | All Maps","name_short":"dal-1","host":"dal-1.us.uncletopia.com","port":27015,"enabled":true,"region":"us-central","cc":"us","latitude":32.779167,"longitude":-96.80889,"reserved":0,"last_update":"0001-01-01T00:00:00Z","name_a2s":"Uncletopia | Dallas | 1 | All Maps","protocol":17,"map":"pl_upward","folder":"tf","game":"Team Fortress","app_id":440,"player_count":25,"max_players":24,"Bots":0,"server_type":"Dedicated","server_os":"Linux","password":true,"vac":true,"version":"7723704","steam_id":85568392924469986,"keywords":["nocrits","nodmgspread","payload","uncletopia"],"game_id":440,"stv_port":27016,"stv_name":"Uncletopia | Dallas | 1 | All Maps | STV","players":[{"user_id":3,"name":"Huggernaut","steam_id":76561198043998084,"connected_time":4207000000000,"state":"active","ping":60},{"user_id":79,"name":"Laundry","steam_id":76561198106170346,"connected_time":426000000000,"state":"active","ping":52},{"user_id":82,"name":"SpiderPyro [COMM OPEN]","steam_id":76561198041100592,"connected_time":10000000000,"state":"spawning","ping":56},{"user_id":6,"name":"E4Estrogen","steam_id":76561198085813708,"connected_time":4031000000000,"state":"active","ping":71},{"user_id":75,"name":"happy man!!! :D!!!!","steam_id":76561198128468316,"connected_time":887000000000,"state":"active","ping":61},{"user_id":78,"name":"Jambi","steam_id":76561198846091685,"connected_time":486000000000,"state":"active","ping":34},{"user_id":10,"name":"Ozone-flavored Starburst","steam_id":76561199163688421,"connected_time":3912000000000,"state":"active","ping":71},{"user_id":11,"name":"Mitchacho74","steam_id":76561198087986935,"connected_time":3830000000000,"state":"active","ping":97},{"user_id":12,"name":"kronk","steam_id":76561198054623686,"connected_time":3827000000000,"state":"active","ping":77},{"user_id":77,"name":"plutonium isotope","steam_id":76561198319442494,"connected_time":705000000000,"state":"active","ping":81},{"user_id":39,"name":"Temper","steam_id":76561198044123690,"connected_time":3233000000000,"state":"active","ping":76},{"user_id":72,"name":"Toasterduds","steam_id":76561198163477584,"connected_time":900000000000,"state":"active","ping":79},{"user_id":69,"name":"CrimsonUltra","steam_id":76561198163475615,"connected_time":1138000000000,"state":"active","ping":51},{"user_id":57,"name":"Bubbles","steam_id":76561198812361950,"connected_time":2285000000000,"state":"active","ping":96},{"user_id":73,"name":"Dicky McGee (Plz Duel Me)","steam_id":76561198388426582,"connected_time":899000000000,"state":"active","ping":52},{"user_id":80,"name":"üê∫-Iwky-ü¶ä","steam_id":76561198185616311,"connected_time":306000000000,"state":"active","ping":68},{"user_id":41,"name":"Krow","steam_id":76561198010392099,"connected_time":3106000000000,"state":"active","ping":58},{"user_id":64,"name":"PunishedCrab","steam_id":76561198079650017,"connected_time":1970000000000,"state":"active","ping":92},{"user_id":56,"name":"Hobocop","steam_id":76561198076321907,"connected_time":2295000000000,"state":"active","ping":91},{"user_id":61,"name":"gangstalker","steam_id":76561198363267009,"connected_time":2008000000000,"state":"active","ping":43},{"user_id":71,"name":"MoonWolf","steam_id":76561198095735033,"connected_time":1040000000000,"state":"active","ping":59},{"user_id":74,"name":"BrightOrangeMango","steam_id":76561198023144607,"connected_time":899000000000,"state":"active","ping":72},{"user_id":76,"name":"Frajer","steam_id":76561198059129680,"connected_time":851000000000,"state":"active","ping":98},{"user_id":29,"name":"Fred","steam_id":76561197983870604,"connected_time":3678000000000,"state":"active","ping":73},{"user_id":83,"name":"Azord","steam_id":76561198047508667,"connected_time":10000000000,"state":"spawning","ping":44}]},{"server_id":108,"name":"Uncletopia | Dallas | 2 | All Maps","name_short":"dal-2","host":"dal-1.us.uncletopia.com","port":27025,"enabled":true,"region":"us-central","cc":"us","latitude":32.779167,"longitude":-96.80889,"reserved":0,"last_update":"0001-01-01T00:00:00Z","name_a2s":"Uncletopia | Dallas | 2 | All Maps","protocol":17,"map":"pl_barnblitz","folder":"tf","game":"Team Fortress","app_id":440,"player_count":24,"max_players":24,"Bots":0,"server_type":"Dedicated","server_os":"Linux","password":true,"vac":true,"version":"7723704","steam_id":85568392924469988,"keywords":["nocrits","nodmgspread","payload","uncletopia"],"game_id":440,"stv_port":27026,"stv_name":"Uncletopia | Dallas | 2 | All Maps | STV","players":[{"user_id":42,"name":"An00bissmas","steam_id":76561198044084508,"connected_time":1180000000000,"state":"active","ping":71},{"user_id":48,"name":"aisu","steam_id":76561198043768507,"connected_time":506000000000,"state":"active","ping":84},{"user_id":13,"name":"superboyDJ","steam_id":76561198985347002,"connected_time":2295000000000,"state":"active","ping":139},{"user_id":44,"name":"Chef__7","steam_id":76561199056921540,"connected_time":1031000000000,"state":"active","ping":76},{"user_id":15,"name":"Dunmaglass","steam_id":76561198128928443,"connected_time":2179000000000,"state":"active","ping":90},{"user_id":50,"name":"Tuna","steam_id":76561198197994975,"connected_time":319000000000,"state":"active","ping":43},{"user_id":52,"name":"Boring101","steam_id":76561198300662918,"connected_time":245000000000,"state":"active","ping":59},{"user_id":46,"name":"dandy","steam_id":76561197967362217,"connected_time":713000000000,"state":"active","ping":75},{"user_id":19,"name":"party pooper","steam_id":76561198068760559,"connected_time":2059000000000,"state":"active","ping":87},{"user_id":20,"name":"OMEGA","steam_id":76561199050639351,"connected_time":1999000000000,"state":"active","ping":120},{"user_id":22,"name":"MR. MODE","steam_id":76561198046775352,"connected_time":1930000000000,"state":"active","ping":88},{"user_id":23,"name":"spaced seed","steam_id":76561198025229526,"connected_time":1920000000000,"state":"active","ping":91},{"user_id":41,"name":"peter slideinher","steam_id":76561198000564263,"connected_time":1286000000000,"state":"active","ping":75},{"user_id":47,"name":"slowdance","steam_id":76561198097427947,"connected_time":708000000000,"state":"active","ping":128},{"user_id":27,"name":"TransWomanGaming","steam_id":76561198809645656,"connected_time":1835000000000,"state":"active","ping":72},{"user_id":55,"name":"Kzjytsugn","steam_id":76561198130241974,"connected_time":3000000000,"state":"spawning","ping":88},{"user_id":45,"name":"lanoc","steam_id":76561198055415367,"connected_time":818000000000,"state":"active","ping":60},{"user_id":43,"name":"java","steam_id":76561198030276792,"connected_time":1137000000000,"state":"active","ping":60},{"user_id":31,"name":"King","steam_id":76561198010019214,"connected_time":1815000000000,"state":"active","ping":66},{"user_id":49,"name":"‚ô• bug eater ‚ô•","steam_id":76561198291044316,"connected_time":333000000000,"state":"active","ping":60},{"user_id":33,"name":"Bartleby","steam_id":76561198028522711,"connected_time":1813000000000,"state":"active","ping":75},{"user_id":34,"name":"AlecTheNefarious","steam_id":76561198035291230,"connected_time":1799000000000,"state":"active","ping":49},{"user_id":54,"name":"meat beat mania","steam_id":76561198202273263,"connected_time":34000000000,"state":"active","ping":67},{"user_id":53,"name":"Ko - „Åì - ÏΩî","steam_id":76561198035726982,"connected_time":175000000000,"state":"active","ping":64}]},{"server_id":5,"name":"Uncletopia | Frankfurt | 1 | All Maps","name_short":"frk-1","host":"frk-1.de.uncletopia.com","port":27015,"enabled":true,"region":"eu","cc":"de","latitude":50.110924,"longitude":8.682127,"reserved":0,"last_update":"0001-01-01T00:00:00Z","name_a2s":"Uncletopia | Frankfurt | 1 | All Maps","protocol":17,"map":"cp_mountainlab","folder":"tf","game":"Team Fortress","app_id":440,"player_count":0,"max_players":24,"Bots":0,"server_type":"Dedicated","server_os":"Linux","password":true,"vac":true,"version":"7723704","steam_id":85568392924469989,"keywords":["cp","nocrits","nodmgspread","uncletopia"],"game_id":440,"stv_port":27016,"stv_name":"Uncletopia | Frankfurt | 1 | All Maps | STV","players":null},{"server_id":110,"name":"Uncletopia | Frankfurt | 2 | All Maps","name_short":"frk-2","host":"frk-1.de.uncletopia.com","port":27025,"enabled":true,"region":"eu","cc":"de","latitude":50.110924,"longitude":8.682127,"reserved":0,"last_update":"0001-01-01T00:00:00Z","name_a2s":"Uncletopia | Frankfurt | 2 | All Maps","protocol":17,"map":"pl_pier","folder":"tf","game":"Team Fortress","app_id":440,"player_count":0,"max_players":24,"Bots":0,"server_type":"Dedicated","server_os":"Linux","password":true,"vac":true,"version":"7723704","steam_id":85568392924469990,"keywords":["nocrits","nodmgspread","payload","uncletopia"],"game_id":440,"stv_port":27026,"stv_name":"Uncletopia | Frankfurt | 2 | All Maps | STV","players":null},{"server_id":308,"name":"Uncletopia | Frankfurt | 3 | All Maps","name_short":"frk-3","host":"frk-1.de.uncletopia.com","port":27035,"enabled":true,"region":"eu","cc":"de","latitude":50.110924,"longitude":8.682127,"reserved":0,"last_update":"0001-01-01T00:00:00Z","name_a2s":"Uncletopia | Frankfurt | 3 | All Maps","protocol":17,"map":"pl_swiftwater_final1","folder":"tf","game":"Team Fortress","app_id":440,"player_count":0,"max_players":24,"Bots":0,"server_type":"Dedicated","server_os":"Linux","password":true,"vac":true,"version":"7723704","steam_id":85568392924504274,"keywords":["nocrits","nodmgspread","payload","uncletopia"],"game_id":440,"stv_port":27036,"stv_name":"Uncletopia | Frankfurt | 3 | All Maps | STV","players":null},{"server_id":309,"name":"Uncletopia | Frankfurt | 4 | All Maps","name_short":"frk-4","host":"frk-1.de.uncletopia.com","port":27045,"enabled":true,"region":"eu","cc":"de","latitude":50.110924,"longitude":8.682127,"reserved":0,"last_update":"0001-01-01T00:00:00Z","name_a2s":"Uncletopia | Frankfurt | 4 | All Maps","protocol":17,"map":"cp_altitude","folder":"tf","game":"Team Fortress","app_id":440,"player_count":0,"max_players":24,"Bots":0,"server_type":"Dedicated","server_os":"Linux","password":true,"vac":true,"version":"7723704","steam_id":85568392924504275,"keywords":["cp","nocrits","nodmgspread","uncletopia"],"game_id":440,"stv_port":27046,"stv_name":"Uncletopia | Frankfurt | 4 | All Maps | STV","players":null},{"server_id":310,"name":"Uncletopia | Frankfurt | 5 | All Maps","name_short":"frk-5","host":"frk-1.de.uncletopia.com","port":27055,"enabled":true,"region":"eu","cc":"de","latitude":50.110924,"longitude":8.682127,"reserved":0,"last_update":"0001-01-01T00:00:00Z","name_a2s":"Uncletopia | Frankfurt | 5 | All Maps","protocol":17,"map":"cp_process_final","folder":"tf","game":"Team Fortress","app_id":440,"player_count":0,"max_players":24,"Bots":0,"server_type":"Dedicated","server_os":"Linux","password":true,"vac":true,"version":"7723704","steam_id":85568392924504277,"keywords":["cp","nocrits","nodmgspread","uncletopia"],"game_id":440,"stv_port":27056,"stv_name":"Uncletopia | Frankfurt | 5 | All Maps | STV","players":null},{"server_id":311,"name":"Uncletopia | Frankfurt | 6 | All Maps","name_short":"frk-6","host":"frk-1.de.uncletopia.com","port":27065,"enabled":true,"region":"eu","cc":"de","latitude":50.110924,"longitude":8.682127,"reserved":0,"last_update":"0001-01-01T00:00:00Z","name_a2s":"Uncletopia | Frankfurt | 6 | All Maps","protocol":17,"map":"cp_snakewater_final1","folder":"tf","game":"Team Fortress","app_id":440,"player_count":0,"max_players":24,"Bots":0,"server_type":"Dedicated","server_os":"Linux","password":true,"vac":true,"version":"7723704","steam_id":85568392924504278,"keywords":["cp","nocrits","nodmgspread","uncletopia"],"game_id":440,"stv_port":27066,"stv_name":"Uncletopia | Frankfurt | 6 | All Maps | STV","players":null},{"server_id":23,"name":"Uncletopia | Frankfurt | 7 | No Payload","name_short":"frk-7","host":"frk-1.de.uncletopia.com","port":27075,"enabled":true,"region":"eu","cc":"de","latitude":50.110924,"longitude":8.682127,"reserved":0,"last_update":"0001-01-01T00:00:00Z","name_a2s":"Uncletopia | Frankfurt | 7 | No Payload","protocol":17,"map":"pl_upward","folder":"tf","game":"Team Fortress","app_id":440,"player_count":0,"max_players":24,"Bots":0,"server_type":"Dedicated","server_os":"Linux","password":true,"vac":true,"version":"7723704","steam_id":85568392924742827,"keywords":["nocrits","nodmgspread","payload","uncletopia"],"game_id":440,"stv_port":27076,"stv_name":"Uncletopia | Frankfurt | 7 | No Payload | STV","players":null},{"server_id":24,"name":"Uncletopia | Frankfurt | 8 | Community","name_short":"frk-8","host":"frk-1.de.uncletopia.com","port":27085,"enabled":true,"region":"eu","cc":"de","latitude":50.110924,"longitude":8.682127,"reserved":0,"last_update":"0001-01-01T00:00:00Z","name_a2s":"Uncletopia | Frankfurt | 8 | Community","protocol":17,"map":"cp_altitude","folder":"tf","game":"Team Fortress","app_id":440,"player_count":0,"max_players":24,"Bots":0,"server_type":"Dedicated","server_os":"Linux","password":true,"vac":true,"version":"7723704","steam_id":85568392924742828,"keywords":["cp","nocrits","nodmgspread","uncletopia"],"game_id":440,"stv_port":27086,"stv_name":"Uncletopia | Frankfurt | 8 | Community | STV","players":null},{"server_id":202,"name":"Uncletopia | Hong Kong | 1 | All Maps","name_short":"hgk-1","host":"hgk-1.hk.uncletopia.com","port":27015,"enabled":true,"region":"asia","cc":"hk","latitude":22.302711,"longitude":114.177216,"reserved":0,"last_update":"0001-01-01T00:00:00Z","name_a2s":"Uncletopia | Hong Kong | 1 | All Maps","protocol":17,"map":"plr_hightower","folder":"tf","game":"Team Fortress","app_id":440,"player_count":12,"max_players":24,"Bots":0,"server_type":"Dedicated","server_os":"Linux","password":true,"vac":true,"version":"7723704","steam_id":85568392924494504,"keywords":["nocrits","nodmgspread","payload","uncletopia"],"game_id":440,"stv_port":27016,"stv_name":"Uncletopia | Hong Kong | 1 | All Maps | STV","players":[{"user_id":7,"name":"RandomGuy1085","steam_id":76561199053910995,"connected_time":2331000000000,"state":"active","ping":92},{"user_id":22,"name":"Cool_A","steam_id":76561199177496182,"connected_time":401000000000,"state":"active","ping":91},{"user_id":19,"name":"DG-167","steam_id":76561198338911926,"connected_time":587000000000,"state":"active","ping":61},{"user_id":13,"name":"Lu","steam_id":76561198320532821,"connected_time":1159000000000,"state":"active","ping":56},{"user_id":14,"name":"Nightly","steam_id":76561199380734528,"connected_time":1049000000000,"state":"active","ping":102},{"user_id":15,"name":"LEGS","steam_id":76561199111623890,"connected_time":993000000000,"state":"active","ping":68},{"user_id":25,"name":"godhood","steam_id":76561198412329672,"connected_time":230000000000,"state":"active","ping":81},{"user_id":26,"name":"screaming sniper","steam_id":76561199085568674,"connected_time":125000000000,"state":"active","ping":320},{"user_id":23,"name":"Dr. Piss Rat","steam_id":76561199074809838,"connected_time":390000000000,"state":"active","ping":60},{"user_id":24,"name":". ·¥ó.","steam_id":76561198208632261,"connected_time":376000000000,"state":"active","ping":28},{"user_id":27,"name":"araner","steam_id":76561199012678702,"connected_time":47000000000,"state":"spawning","ping":133},{"user_id":28,"name":"ketsu","steam_id":76561197966171554,"connected_time":32000000000,"state":"active","ping":112}]},{"server_id":1,"name":"Uncletopia | Los Angeles | 1 | All Maps","name_short":"lax-1","host":"lax-1.us.uncletopia.com","port":27015,"enabled":true,"region":"us-west","cc":"us","latitude":33.94279,"longitude":-118.41004,"reserved":0,"last_update":"0001-01-01T00:00:00Z","name_a2s":"Uncletopia | Los Angeles | 1 | All Maps","protocol":17,"map":"cp_granary","folder":"tf","game":"Team Fortress","app_id":440,"player_count":7,"max_players":24,"Bots":0,"server_type":"Dedicated","server_os":"Linux","password":true,"vac":true,"version":"7723704","steam_id":85568392924469991,"keywords":["cp","nocrits","nodmgspread","uncletopia"],"game_id":440,"stv_port":27016,"stv_name":"Uncletopia | Los Angeles | 1 | All Maps | STV","players":[{"user_id":6,"name":"Werewolfo","steam_id":76561198143597449,"connected_time":1966000000000,"state":"spawning","ping":64},{"user_id":7,"name":"DICK KICKEM","steam_id":76561198430721311,"connected_time":1260000000000,"state":"active","ping":155},{"user_id":16,"name":"AsexyCommie","steam_id":76561198096330354,"connected_time":355000000000,"state":"active","ping":126},{"user_id":13,"name":"ingjess09","steam_id":76561199339732059,"connected_time":645000000000,"state":"spawning","ping":83},{"user_id":17,"name":"The Backstabbing Bastard","steam_id":76561198112635823,"connected_time":293000000000,"state":"spawning","ping":198},{"user_id":18,"name":"Fanout","steam_id":76561198075619480,"connected_time":207000000000,"state":"active","ping":70},{"user_id":20,"name":"Stupid frogs!","steam_id":76561198069415057,"connected_time":126000000000,"state":"active","ping":51}]},{"server_id":112,"name":"Uncletopia | Los Angeles | 2 | All Maps","name_short":"lax-2","host":"lax-1.us.uncletopia.com","port":27025,"enabled":true,"region":"us-west","cc":"us","latitude":33.94279,"longitude":-118.41004,"reserved":0,"last_update":"0001-01-01T00:00:00Z","name_a2s":"Uncletopia | Los Angeles | 2 | All Maps","protocol":17,"map":"pl_pier","folder":"tf","game":"Team Fortress","app_id":440,"player_count":0,"max_players":24,"Bots":0,"server_type":"Dedicated","server_os":"Linux","password":true,"vac":true,"version":"7723704","steam_id":85568392924469992,"keywords":["nocrits","nodmgspread","payload","uncletopia"],"game_id":440,"stv_port":27026,"stv_name":"Uncletopia | Los Angeles | 2 | All Maps | STV","players":null},{"server_id":324,"name":"Uncletopia | Los Angeles | 3 | All Maps","name_short":"lax-3","host":"lax-1.us.uncletopia.com","port":27035,"enabled":true,"region":"us-west","cc":"us","latitude":33.94279,"longitude":-118.41004,"reserved":0,"last_update":"0001-01-01T00:00:00Z","name_a2s":"Uncletopia | Los Angeles | 3 | All Maps","protocol":17,"map":"koth_highpass","folder":"tf","game":"Team Fortress","app_id":440,"player_count":0,"max_players":24,"Bots":0,"server_type":"Dedicated","server_os":"Linux","password":true,"vac":true,"version":"7723704","steam_id":85568392924510198,"keywords":["cp","nocrits","nodmgspread","uncletopia"],"game_id":440,"stv_port":27036,"stv_name":"Uncletopia | Los Angeles | 3 | All Maps | STV","players":null},{"server_id":25,"name":"Uncletopia | Los Angeles | 4 | No Payload","name_short":"lax-4","host":"lax-1.us.uncletopia.com","port":27045,"enabled":true,"region":"us-west","cc":"us","latitude":33.94279,"longitude":-118.41004,"reserved":0,"last_update":"0001-01-01T00:00:00Z","name_a2s":"Uncletopia | Los Angeles | 4 | No Payload","protocol":17,"map":"ctf_2fort","folder":"tf","game":"Team Fortress","app_id":440,"player_count":0,"max_players":24,"Bots":0,"server_type":"Dedicated","server_os":"Linux","password":true,"vac":true,"version":"7723704","steam_id":85568392924510199,"keywords":["ctf","nocrits","nodmgspread","uncletopia"],"game_id":440,"stv_port":27046,"stv_name":"Uncletopia | Los Angeles | 4 | No Payload | STV","players":null},{"server_id":11,"name":"Uncletopia | London | 1 | All Maps","name_short":"lon-1","host":"lon-1.uk.uncletopia.com","port":27015,"enabled":true,"region":"eu","cc":"gb","latitude":51.509865,"longitude":-0.118092,"reserved":0,"last_update":"0001-01-01T00:00:00Z","name_a2s":"Uncletopia | London | 1 | All Maps","protocol":17,"map":"koth_viaduct","folder":"tf","game":"Team Fortress","app_id":440,"player_count":0,"max_players":24,"Bots":0,"server_type":"Dedicated","server_os":"Linux","password":true,"vac":true,"version":"7723704","steam_id":85568392924367362,"keywords":["cp","nocrits","nodmgspread","uncletopia"],"game_id":440,"stv_port":27016,"stv_name":"Uncletopia | London | 1 | All Maps | STV","players":null},{"server_id":114,"name":"Uncletopia | London | 2 | All Maps","name_short":"lon-2","host":"lon-1.uk.uncletopia.com","port":27025,"enabled":true,"region":"eu","cc":"gb","latitude":51.509865,"longitude":-0.118092,"reserved":0,"last_update":"0001-01-01T00:00:00Z","name_a2s":"Uncletopia | London | 2 | All Maps","protocol":17,"map":"koth_highpass","folder":"tf","game":"Team Fortress","app_id":440,"player_count":0,"max_players":24,"Bots":0,"server_type":"Dedicated","server_os":"Linux","password":true,"vac":true,"version":"7723704","steam_id":85568392924470941,"keywords":["cp","nocrits","nodmgspread","uncletopia"],"game_id":440,"stv_port":27026,"stv_name":"Uncletopia | London | 2 | All Maps | STV","players":null},{"server_id":320,"name":"Uncletopia | London | 3 | All Maps","name_short":"lon-3","host":"lon-1.uk.uncletopia.com","port":27035,"enabled":true,"region":"eu","cc":"gb","latitude":51.509865,"longitude":-0.118092,"reserved":0,"last_update":"0001-01-01T00:00:00Z","name_a2s":"Uncletopia | London | 3 | All Maps","protocol":17,"map":"pl_barnblitz","folder":"tf","game":"Team Fortress","app_id":440,"player_count":0,"max_players":24,"Bots":0,"server_type":"Dedicated","server_os":"Linux","password":true,"vac":true,"version":"7723704","steam_id":85568392924510192,"keywords":["nocrits","nodmgspread","payload","uncletopia"],"game_id":440,"stv_port":27036,"stv_name":"Uncletopia | London | 3 | All Maps | STV","players":null},{"server_id":321,"name":"Uncletopia | London | 4 | All Maps","name_short":"lon-4","host":"lon-1.uk.uncletopia.com","port":27045,"enabled":true,"region":"eu","cc":"gb","latitude":51.509865,"longitude":-0.118092,"reserved":0,"last_update":"0001-01-01T00:00:00Z","name_a2s":"Uncletopia | London | 4 | All Maps","protocol":17,"map":"koth_highpass","folder":"tf","game":"Team Fortress","app_id":440,"player_count":0,"max_players":24,"Bots":0,"server_type":"Dedicated","server_os":"Linux","password":true,"vac":true,"version":"7723704","steam_id":85568392924510193,"keywords":["cp","nocrits","nodmgspread","uncletopia"],"game_id":440,"stv_port":27046,"stv_name":"Uncletopia | London | 4 | All Maps | STV","players":null},{"server_id":21,"name":"Uncletopia | London | 5 | All Maps","name_short":"lon-5","host":"lon-1.uk.uncletopia.com","port":27055,"enabled":true,"region":"eu","cc":"gb","latitude":51.509865,"longitude":-0.118092,"reserved":0,"last_update":"0001-01-01T00:00:00Z","name_a2s":"Uncletopia | London | 5 | All Maps","protocol":17,"map":"pl_badwater","folder":"tf","game":"Team Fortress","app_id":440,"player_count":3,"max_players":24,"Bots":0,"server_type":"Dedicated","server_os":"Linux","password":true,"vac":true,"version":"7723704","steam_id":85568392924742829,"keywords":["nocrits","nodmgspread","payload","uncletopia"],"game_id":440,"stv_port":27056,"stv_name":"Uncletopia | London | 5 | All Maps | STV","players":[{"user_id":3,"name":"FlameSpin","steam_id":76561198807974096,"connected_time":287000000000,"state":"active","ping":137},{"user_id":4,"name":"Sonic Meerkat","steam_id":76561198839631940,"connected_time":269000000000,"state":"active","ping":54},{"user_id":5,"name":"Kray-Z","steam_id":76561198797699901,"connected_time":197000000000,"state":"active","ping":122}]},{"server_id":22,"name":"Uncletopia | London | 6 | All Maps","name_short":"lon-6","host":"lon-1.uk.uncletopia.com","port":27065,"enabled":true,"region":"eu","cc":"gb","latitude":51.509865,"longitude":-0.118092,"reserved":0,"last_update":"0001-01-01T00:00:00Z","name_a2s":"Uncletopia | London | 6 | All Maps","protocol":17,"map":"cp_altitude","folder":"tf","game":"Team Fortress","app_id":440,"player_count":0,"max_players":24,"Bots":0,"server_type":"Dedicated","server_os":"Linux","password":true,"vac":true,"version":"7723704","steam_id":85568392924742830,"keywords":["cp","nocrits","nodmgspread","uncletopia"],"game_id":440,"stv_port":27066,"stv_name":"Uncletopia | London | 6 | All Maps | STV","players":null},{"server_id":40,"name":"Uncletopia | London | 7 | No Payload","name_short":"lon-7","host":"lon-1.uk.uncletopia.com","port":27075,"enabled":true,"region":"eu","cc":"gb","latitude":51.509865,"longitude":-0.118092,"reserved":0,"last_update":"0001-01-01T00:00:00Z","name_a2s":"Uncletopia | London | 7 | No Payload","protocol":17,"map":"koth_cascade","folder":"tf","game":"Team Fortress","app_id":440,"player_count":0,"max_players":24,"Bots":0,"server_type":"Dedicated","server_os":"Linux","password":true,"vac":true,"version":"7723704","steam_id":85568392924964314,"keywords":["cp","nocrits","nodmgspread","uncletopia"],"game_id":440,"stv_port":27076,"stv_name":"Uncletopia | London | 7 | No Payload | STV","players":null},{"server_id":41,"name":"Uncletopia | London | 8 | Community","name_short":"lon-8","host":"lon-1.uk.uncletopia.com","port":27085,"enabled":true,"region":"eu","cc":"gb","latitude":51.509865,"longitude":-0.118092,"reserved":0,"last_update":"0001-01-01T00:00:00Z","name_a2s":"Uncletopia | London | 8 | Community","protocol":17,"map":"pl_snowycoast","folder":"tf","game":"Team Fortress","app_id":440,"player_count":0,"max_players":24,"Bots":0,"server_type":"Dedicated","server_os":"Linux","password":true,"vac":true,"version":"7723704","steam_id":85568392924964315,"keywords":["nocrits","nodmgspread","payload","uncletopia"],"game_id":440,"stv_port":27086,"stv_name":"Uncletopia | London | 8 | Community | STV","players":null},{"server_id":300,"name":"Uncletopia | Montr√©al | 1 | All Maps","name_short":"mtl-1","host":"mtl-1.ca.uncletopia.com","port":27015,"enabled":true,"region":"us-east","cc":"ca","latitude":45.50889,"longitude":-73.56167,"reserved":0,"last_update":"0001-01-01T00:00:00Z","name_a2s":"Uncletopia | Montr√©al | 1 | All Maps","protocol":17,"map":"pl_snowycoast","folder":"tf","game":"Team Fortress","app_id":440,"player_count":1,"max_players":24,"Bots":0,"server_type":"Dedicated","server_os":"Linux","password":true,"vac":true,"version":"7723704","steam_id":85568392924500087,"keywords":["nocrits","nodmgspread","payload","uncletopia"],"game_id":440,"stv_port":27016,"stv_name":"Uncletopia | Montr√©al | 1 | All Maps | STV","players":[{"user_id":3,"name":"Challenger Charles","steam_id":76561198005576553,"connected_time":660000000000,"state":"active","ping":54}]},{"server_id":301,"name":"Uncletopia | Montr√©al | 2 | All Maps","name_short":"mtl-2","host":"mtl-1.ca.uncletopia.com","port":27025,"enabled":true,"region":"us-east","cc":"ca","latitude":45.50889,"longitude":-73.56167,"reserved":0,"last_update":"0001-01-01T00:00:00Z","name_a2s":"Uncletopia | Montr√©al | 2 | All Maps","protocol":17,"map":"cp_sunshine","folder":"tf","game":"Team Fortress","app_id":440,"player_count":0,"max_players":24,"Bots":0,"server_type":"Dedicated","server_os":"Linux","password":true,"vac":true,"version":"7723704","steam_id":85568392924500088,"keywords":["cp","nocrits","nodmgspread","uncletopia"],"game_id":440,"stv_port":27026,"stv_name":"Uncletopia | Montr√©al | 2 | All Maps | STV","players":null},{"server_id":302,"name":"Uncletopia | Montr√©al | 3 | All Maps","name_short":"mtl-3","host":"mtl-1.ca.uncletopia.com","port":27035,"enabled":true,"region":"us-east","cc":"ca","latitude":45.50889,"longitude":-73.56167,"reserved":0,"last_update":"0001-01-01T00:00:00Z","name_a2s":"Uncletopia | Montr√©al | 3 | All Maps","protocol":17,"map":"cp_dustbowl","folder":"tf","game":"Team Fortress","app_id":440,"player_count":0,"max_players":24,"Bots":0,"server_type":"Dedicated","server_os":"Linux","password":true,"vac":true,"version":"7723704","steam_id":85568392924500089,"keywords":["cp","nocrits","nodmgspread","uncletopia"],"game_id":440,"stv_port":27036,"stv_name":"Uncletopia | Montr√©al | 3 | All Maps | STV","players":null},{"server_id":303,"name":"Uncletopia | Montr√©al | 4 | No Payload","name_short":"mtl-4","host":"mtl-1.ca.uncletopia.com","port":27045,"enabled":true,"region":"us-east","cc":"ca","latitude":45.50889,"longitude":-73.56167,"reserved":0,"last_update":"0001-01-01T00:00:00Z","name_a2s":"Uncletopia | Montr√©al | 4 | No Payload","protocol":17,"map":"cp_process_final","folder":"tf","game":"Team Fortress","app_id":440,"player_count":0,"max_players":24,"Bots":0,"server_type":"Dedicated","server_os":"Linux","password":true,"vac":true,"version":"7723704","steam_id":85568392924500090,"keywords":["cp","nocrits","nodmgspread","uncletopia"],"game_id":440,"stv_port":27046,"stv_name":"Uncletopia | Montr√©al | 4 | No Payload | STV","players":null},{"server_id":13,"name":"Uncletopia | New York City | 1 | All Maps","name_short":"nyc-1","host":"nyc-1.us.uncletopia.com","port":27015,"enabled":true,"region":"us-east","cc":"us","latitude":40.73061,"longitude":-73.93524,"reserved":0,"last_update":"0001-01-01T00:00:00Z","name_a2s":"Uncletopia | New York City | 1 | All Maps","protocol":17,"map":"koth_viaduct","folder":"tf","game":"Team Fortress","app_id":440,"player_count":22,"max_players":24,"Bots":0,"server_type":"Dedicated","server_os":"Linux","password":true,"vac":true,"version":"7723704","steam_id":85568392924469993,"keywords":["cp","nocrits","nodmgspread","uncletopia"],"game_id":440,"stv_port":27016,"stv_name":"Uncletopia | New York City | 1 | All Maps | STV","players":[{"user_id":52,"name":"Amaretto Sour","steam_id":76561198063112844,"connected_time":657000000000,"state":"active","ping":58},{"user_id":37,"name":"tarzan","steam_id":76561198050715408,"connected_time":2748000000000,"state":"active","ping":141},{"user_id":5,"name":"BB Lorexav","steam_id":76561198207565988,"connected_time":4031000000000,"state":"active","ping":67},{"user_id":53,"name":"Parth Makeo","steam_id":76561198002516581,"connected_time":566000000000,"state":"active","ping":46},{"user_id":54,"name":"Walmart Employee","steam_id":76561198840373909,"connected_time":562000000000,"state":"active","ping":92},{"user_id":45,"name":"Alfonso Molestro","steam_id":76561197998677099,"connected_time":1573000000000,"state":"active","ping":63},{"user_id":13,"name":"Spiteful_Guru","steam_id":76561199227572419,"connected_time":3590000000000,"state":"active","ping":74},{"user_id":25,"name":"Michaelpc1","steam_id":76561198088365519,"connected_time":3008000000000,"state":"active","ping":56},{"user_id":18,"name":"Cargo","steam_id":76561198065535025,"connected_time":3173000000000,"state":"active","ping":117},{"user_id":51,"name":"ShaqtusHD","steam_id":76561199138286233,"connected_time":659000000000,"state":"active","ping":49},{"user_id":21,"name":"Frank Horrigan","steam_id":76561198066504831,"connected_time":3121000000000,"state":"active","ping":115},{"user_id":47,"name":"squibbles!","steam_id":76561198271861959,"connected_time":983000000000,"state":"active","ping":48},{"user_id":48,"name":"r0la","steam_id":76561198128315340,"connected_time":965000000000,"state":"active","ping":141},{"user_id":26,"name":"-|Kappin'|- Kilbo Fraggins‚Ñ¢","steam_id":76561197994725498,"connected_time":3005000000000,"state":"active","ping":101},{"user_id":60,"name":"RICE A RONI JABRONI","steam_id":76561198251653444,"connected_time":235000000000,"state":"active","ping":62},{"user_id":61,"name":"FiddyFoMike","steam_id":76561198057072581,"connected_time":178000000000,"state":"active","ping":108},{"user_id":49,"name":"Hell's Reindeer","steam_id":76561198065310364,"connected_time":739000000000,"state":"active","ping":64},{"user_id":56,"name":"n8thegr83008","steam_id":76561198214814260,"connected_time":410000000000,"state":"active","ping":74},{"user_id":63,"name":"Balanced Diet","steam_id":76561198050931936,"connected_time":103000000000,"state":"active","ping":82},{"user_id":34,"name":"ZekeThePlumber","steam_id":76561197995016724,"connected_time":2852000000000,"state":"active","ping":55},{"user_id":36,"name":"Bigby","steam_id":76561199056842761,"connected_time":2838000000000,"state":"active","ping":112},{"user_id":42,"name":"Grand","steam_id":76561198088796754,"connected_time":2532000000000,"state":"active","ping":61}]},{"server_id":14,"name":"Uncletopia | New York City | 2 | All Maps","name_short":"nyc-2","host":"nyc-1.us.uncletopia.com","port":27025,"enabled":true,"region":"us-east","cc":"us","latitude":40.73061,"longitude":-73.93524,"reserved":0,"last_update":"0001-01-01T00:00:00Z","name_a2s":"Uncletopia | New York City | 2 | All Maps","protocol":17,"map":"cp_dustbowl","folder":"tf","game":"Team Fortress","app_id":440,"player_count":0,"max_players":24,"Bots":0,"server_type":"Dedicated","server_os":"Linux","password":true,"vac":true,"version":"7723704","steam_id":85568392924469994,"keywords":["cp","nocrits","nodmgspread","uncletopia"],"game_id":440,"stv_port":27026,"stv_name":"Uncletopia | New York City | 2 | All Maps | STV","players":null},{"server_id":15,"name":"Uncletopia | New York City | 3 | All Maps","name_short":"nyc-3","host":"nyc-1.us.uncletopia.com","port":27035,"enabled":true,"region":"us-east","cc":"us","latitude":40.73061,"longitude":-73.93524,"reserved":0,"last_update":"0001-01-01T00:00:00Z","name_a2s":"Uncletopia | New York City | 3 | All Maps","protocol":17,"map":"pl_frontier_final","folder":"tf","game":"Team Fortress","app_id":440,"player_count":0,"max_players":24,"Bots":0,"server_type":"Dedicated","server_os":"Linux","password":true,"vac":true,"version":"7723704","steam_id":85568392924742820,"keywords":["nocrits","nodmgspread","payload","uncletopia"],"game_id":440,"stv_port":27036,"stv_name":"Uncletopia | New York City | 3 | All Maps | STV","players":null},{"server_id":16,"name":"Uncletopia | New York City | 4 | Community","name_short":"nyc-4","host":"nyc-1.us.uncletopia.com","port":27045,"enabled":true,"region":"us-east","cc":"us","latitude":40.73061,"longitude":-73.93524,"reserved":0,"last_update":"0001-01-01T00:00:00Z","name_a2s":"Uncletopia | New York City | 4 | Community","protocol":17,"map":"cp_process_final","folder":"tf","game":"Team Fortress","app_id":440,"player_count":0,"max_players":24,"Bots":0,"server_type":"Dedicated","server_os":"Linux","password":true,"vac":true,"version":"7723704","steam_id":85568392924742821,"keywords":["cp","nocrits","nodmgspread","uncletopia"],"game_id":440,"stv_port":27046,"stv_name":"Uncletopia | New York City | 4 | Community | STV","players":null},{"server_id":142,"name":"Uncletopia | S√£o Paulo | 1 | All Maps","name_short":"sao-1","host":"sao-1.br.uncletopia.com","port":27015,"enabled":true,"region":"sa","cc":"br","latitude":-23.533773,"longitude":-46.62529,"reserved":0,"last_update":"0001-01-01T00:00:00Z","name_a2s":"Uncletopia | S√£o Paulo | 1 | All Maps","protocol":17,"map":"pl_upward","folder":"tf","game":"Team Fortress","app_id":440,"player_count":0,"max_players":24,"Bots":0,"server_type":"Dedicated","server_os":"Linux","password":true,"vac":true,"version":"7723704","steam_id":85568392924469996,"keywords":["nocrits","nodmgspread","payload","uncletopia"],"game_id":440,"stv_port":27016,"stv_name":"Uncletopia | S√£o Paulo | 1 | All Maps | STV","players":null},{"server_id":143,"name":"Uncletopia | S√£o Paulo | 2 | All Maps","name_short":"sao-2","host":"sao-2.br.uncletopia.com","port":27015,"enabled":true,"region":"sa","cc":"br","latitude":-23.533773,"longitude":-46.62529,"reserved":0,"last_update":"0001-01-01T00:00:00Z","name_a2s":"Uncletopia | S√£o Paulo | 2 | All Maps","protocol":17,"map":"cp_sunshine","folder":"tf","game":"Team Fortress","app_id":440,"player_count":0,"max_players":24,"Bots":0,"server_type":"Dedicated","server_os":"Linux","password":true,"vac":true,"version":"7723704","steam_id":85568392924485349,"keywords":["cp","nocrits","nodmgspread","uncletopia"],"game_id":440,"stv_port":27016,"stv_name":"Uncletopia | S√£o Paulo | 2 | All Maps | STV","players":null},{"server_id":7,"name":"Uncletopia | Seattle | 1 | All Maps","name_short":"sea-1","host":"sea-1.us.uncletopia.com","port":27015,"enabled":true,"region":"us-west","cc":"us","latitude":47.608013,"longitude":-122.33517,"reserved":0,"last_update":"0001-01-01T00:00:00Z","name_a2s":"Uncletopia | Seattle | 1 | All Maps","protocol":17,"map":"pl_upward","folder":"tf","game":"Team Fortress","app_id":440,"player_count":24,"max_players":24,"Bots":0,"server_type":"Dedicated","server_os":"Linux","password":true,"vac":true,"version":"7723704","steam_id":85568392924469997,"keywords":["nocrits","nodmgspread","payload","uncletopia"],"game_id":440,"stv_port":27016,"stv_name":"Uncletopia | Seattle | 1 | All Maps | STV","players":[{"user_id":67,"name":"Obtibotimus Prime","steam_id":76561198066091050,"connected_time":1288000000000,"state":"active","ping":57},{"user_id":56,"name":"Amateur Glaswegian","steam_id":76561198030851956,"connected_time":1887000000000,"state":"active","ping":54},{"user_id":53,"name":"That one gamer boy","steam_id":76561199166485004,"connected_time":1921000000000,"state":"active","ping":83},{"user_id":77,"name":"valky","steam_id":76561198046033522,"connected_time":240000000000,"state":"active","ping":68},{"user_id":43,"name":"Mr.Thirteen","steam_id":76561198047468836,"connected_time":2624000000000,"state":"active","ping":72},{"user_id":66,"name":"lol","steam_id":76561198026491738,"connected_time":1309000000000,"state":"active","ping":85},{"user_id":76,"name":"ECH","steam_id":76561199209834538,"connected_time":494000000000,"state":"active","ping":76},{"user_id":69,"name":"Milk T34","steam_id":76561198116115227,"connected_time":843000000000,"state":"active","ping":109},{"user_id":45,"name":"squash","steam_id":76561198150281353,"connected_time":2457000000000,"state":"active","ping":56},{"user_id":47,"name":"corbenis","steam_id":76561199012442511,"connected_time":1990000000000,"state":"active","ping":90},{"user_id":54,"name":"Nasu","steam_id":76561198168735322,"connected_time":1899000000000,"state":"active","ping":112},{"user_id":21,"name":"Whorenet","steam_id":76561198090433209,"connected_time":3508000000000,"state":"active","ping":163},{"user_id":52,"name":"Anchor","steam_id":76561197987177933,"connected_time":1928000000000,"state":"active","ping":92},{"user_id":65,"name":"dickus mc bigus","steam_id":76561198145598073,"connected_time":1352000000000,"state":"active","ping":82},{"user_id":25,"name":"Medic","steam_id":76561198067869016,"connected_time":3467000000000,"state":"active","ping":78},{"user_id":64,"name":"M@dH@tter0","steam_id":76561199148773626,"connected_time":1491000000000,"state":"active","ping":83},{"user_id":68,"name":"Mom","steam_id":76561198207936000,"connected_time":1277000000000,"state":"active","ping":84},{"user_id":41,"name":"comet sooicidy","steam_id":76561198025173479,"connected_time":3059000000000,"state":"active","ping":139},{"user_id":61,"name":"PickleKing23","steam_id":76561198179529599,"connected_time":1664000000000,"state":"active","ping":73},{"user_id":31,"name":"azusa","steam_id":76561198049483469,"connected_time":3433000000000,"state":"active","ping":102},{"user_id":48,"name":"Spleen","steam_id":76561198024379401,"connected_time":1935000000000,"state":"active","ping":84},{"user_id":63,"name":"Worml1ps","steam_id":76561198108185717,"connected_time":1522000000000,"state":"active","ping":91},{"user_id":71,"name":"Koyota","steam_id":76561198069878114,"connected_time":550000000000,"state":"active","ping":74},{"user_id":73,"name":"Pyrotek‚Å¥","steam_id":76561198072747672,"connected_time":525000000000,"state":"active","ping":85}]},{"server_id":119,"name":"Uncletopia | Seattle | 2 | All Maps","name_short":"sea-2","host":"sea-1.us.uncletopia.com","port":27025,"enabled":true,"region":"us-west","cc":"us","latitude":47.608013,"longitude":-122.33517,"reserved":0,"last_update":"0001-01-01T00:00:00Z","name_a2s":"Uncletopia | Seattle | 2 | All Maps","protocol":17,"map":"pl_pier","folder":"tf","game":"Team Fortress","app_id":440,"player_count":24,"max_players":24,"Bots":0,"server_type":"Dedicated","server_os":"Linux","password":true,"vac":true,"version":"7723704","steam_id":85568392924469998,"keywords":["nocrits","nodmgspread","payload","uncletopia"],"game_id":440,"stv_port":27026,"stv_name":"Uncletopia | Seattle | 2 | All Maps | STV","players":[{"user_id":4,"name":"Dosario","steam_id":76561198298095535,"connected_time":3155000000000,"state":"active","ping":52},{"user_id":6,"name":"lili.winters","steam_id":76561199391478575,"connected_time":3120000000000,"state":"active","ping":69},{"user_id":7,"name":"SHADOW (he/him)","steam_id":76561198207768148,"connected_time":3112000000000,"state":"active","ping":87},{"user_id":61,"name":"Quavo_YRN","steam_id":76561198070630154,"connected_time":461000000000,"state":"active","ping":76},{"user_id":10,"name":"Sir Galahad","steam_id":76561198195999859,"connected_time":2957000000000,"state":"active","ping":46},{"user_id":59,"name":"Cinna Mon","steam_id":76561198005840633,"connected_time":899000000000,"state":"active","ping":61},{"user_id":33,"name":"Kuyumiester","steam_id":76561198126835302,"connected_time":2445000000000,"state":"active","ping":73},{"user_id":54,"name":"orthotic horse shoes","steam_id":76561198083242298,"connected_time":1499000000000,"state":"active","ping":124},{"user_id":31,"name":"Chicken Xanwich","steam_id":76561199386363103,"connected_time":2451000000000,"state":"active","ping":61},{"user_id":66,"name":"omugai_","steam_id":76561198086481768,"connected_time":239000000000,"state":"active","ping":63},{"user_id":17,"name":"dysesthesia","steam_id":76561198027159018,"connected_time":2650000000000,"state":"active","ping":138},{"user_id":23,"name":"Goofy Goober","steam_id":76561198128299594,"connected_time":2601000000000,"state":"active","ping":84},{"user_id":67,"name":"High Cotton","steam_id":76561197998894854,"connected_time":233000000000,"state":"active","ping":137},{"user_id":53,"name":"James","steam_id":76561198081313916,"connected_time":1674000000000,"state":"active","ping":121},{"user_id":68,"name":"Phaze","steam_id":76561198025267071,"connected_time":228000000000,"state":"active","ping":75},{"user_id":70,"name":"Nalyk","steam_id":76561198043886843,"connected_time":33000000000,"state":"active","ping":64},{"user_id":56,"name":"Fajita Master","steam_id":76561198329150962,"connected_time":1288000000000,"state":"active","ping":82},{"user_id":28,"name":"Kei-Ko‚òÜ","steam_id":76561198803824764,"connected_time":2515000000000,"state":"active","ping":77},{"user_id":49,"name":"Rockgraham101","steam_id":76561198171740458,"connected_time":1946000000000,"state":"active","ping":114},{"user_id":63,"name":"General Fisticuffs","steam_id":76561198255721392,"connected_time":279000000000,"state":"active","ping":113},{"user_id":69,"name":"Chubbles","steam_id":76561198237619472,"connected_time":226000000000,"state":"active","ping":120},{"user_id":60,"name":"Phil Collins","steam_id":76561198068868644,"connected_time":504000000000,"state":"active","ping":89},{"user_id":45,"name":"cielael","steam_id":76561198043971956,"connected_time":2309000000000,"state":"active","ping":79},{"user_id":62,"name":"Thezest","steam_id":76561198043895839,"connected_time":453000000000,"state":"active","ping":45}]},{"server_id":17,"name":"Uncletopia | San Francisco | 1 | All Maps","name_short":"sfo-1","host":"sfo-1.us.uncletopia.com","port":27015,"enabled":true,"region":"us-west","cc":"us","latitude":37.77397,"longitude":-122.4313,"reserved":0,"last_update":"0001-01-01T00:00:00Z","name_a2s":"Uncletopia | San Francisco | 1 | All Maps","protocol":17,"map":"pl_frontier_final","folder":"tf","game":"Team Fortress","app_id":440,"player_count":0,"max_players":24,"Bots":0,"server_type":"Dedicated","server_os":"Linux","password":true,"vac":true,"version":"7723704","steam_id":85568392924469999,"keywords":["nocrits","nodmgspread","payload","uncletopia"],"game_id":440,"stv_port":27016,"stv_name":"Uncletopia | San Francisco | 1 | All Maps | STV","players":null},{"server_id":18,"name":"Uncletopia | San Francisco | 2 | All Maps","name_short":"sfo-2","host":"sfo-1.us.uncletopia.com","port":27025,"enabled":true,"region":"us-west","cc":"us","latitude":37.77397,"longitude":-122.4313,"reserved":0,"last_update":"0001-01-01T00:00:00Z","name_a2s":"Uncletopia | San Francisco | 2 | All Maps","protocol":17,"map":"cp_dustbowl","folder":"tf","game":"Team Fortress","app_id":440,"player_count":0,"max_players":24,"Bots":0,"server_type":"Dedicated","server_os":"Linux","password":true,"vac":true,"version":"7723704","steam_id":85568392924470000,"keywords":["cp","nocrits","nodmgspread","uncletopia"],"game_id":440,"stv_port":27026,"stv_name":"Uncletopia | San Francisco | 2 | All Maps | STV","players":null},{"server_id":19,"name":"Uncletopia | San Francisco | 3 | No Payload","name_short":"sfo-3","host":"sfo-1.us.uncletopia.com","port":27035,"enabled":true,"region":"us-west","cc":"us","latitude":37.77397,"longitude":-122.4313,"reserved":0,"last_update":"0001-01-01T00:00:00Z","name_a2s":"Uncletopia | San Francisco | 3 | No Payload","protocol":17,"map":"pl_snowycoast","folder":"tf","game":"Team Fortress","app_id":440,"player_count":0,"max_players":24,"Bots":0,"server_type":"Dedicated","server_os":"Linux","password":true,"vac":true,"version":"7723704","steam_id":85568392924742824,"keywords":["nocrits","nodmgspread","payload","uncletopia"],"game_id":440,"stv_port":27036,"stv_name":"Uncletopia | San Francisco | 3 | No Payload | STV","players":null},{"server_id":20,"name":"Uncletopia | San Francisco | 4 | Community","name_short":"sfo-4","host":"sfo-1.us.uncletopia.com","port":27045,"enabled":true,"region":"us-west","cc":"us","latitude":37.77397,"longitude":-122.4313,"reserved":0,"last_update":"0001-01-01T00:00:00Z","name_a2s":"Uncletopia | San Francisco | 4 | Community","protocol":17,"map":"pl_frontier_final","folder":"tf","game":"Team Fortress","app_id":440,"player_count":0,"max_players":24,"Bots":0,"server_type":"Dedicated","server_os":"Linux","password":true,"vac":true,"version":"7723704","steam_id":85568392924742826,"keywords":["nocrits","nodmgspread","payload","uncletopia"],"game_id":440,"stv_port":27046,"stv_name":"Uncletopia | San Francisco | 4 | Community | STV","players":null},{"server_id":141,"name":"Uncletopia | Sydney | 1 | All Maps","name_short":"syd-1","host":"syd-1.au.uncletopia.com","port":27015,"enabled":true,"region":"au","cc":"au","latitude":-33.865143,"longitude":151.2099,"reserved":0,"last_update":"0001-01-01T00:00:00Z","name_a2s":"Uncletopia | Sydney | 1 | All Maps","protocol":17,"map":"koth_viaduct","folder":"tf","game":"Team Fortress","app_id":440,"player_count":0,"max_players":24,"Bots":0,"server_type":"Dedicated","server_os":"Linux","password":true,"vac":true,"version":"7723704","steam_id":85568392924470001,"keywords":["cp","nocrits","nodmgspread","uncletopia"],"game_id":440,"stv_port":27016,"stv_name":"Uncletopia | Sydney | 1 | All Maps | STV","players":null},{"server_id":123,"name":"Uncletopia | Sydney | 2 | All Maps","name_short":"syd-2","host":"syd-1.au.uncletopia.com","port":27025,"enabled":true,"region":"au","cc":"au","latitude":-33.865143,"longitude":151.2099,"reserved":0,"last_update":"0001-01-01T00:00:00Z","name_a2s":"Uncletopia | Sydney | 2 | All Maps","protocol":17,"map":"cp_snakewater_final1","folder":"tf","game":"Team Fortress","app_id":440,"player_count":0,"max_players":24,"Bots":0,"server_type":"Dedicated","server_os":"Linux","password":true,"vac":true,"version":"7723704","steam_id":85568392924470002,"keywords":["cp","nocrits","nodmgspread","uncletopia"],"game_id":440,"stv_port":27026,"stv_name":"Uncletopia | Sydney | 2 | All Maps | STV","players":null},{"server_id":395,"name":"Uncletopia | Sydney | 3 | All Maps","name_short":"syd-3","host":"syd-1.au.uncletopia.com","port":27035,"enabled":true,"region":"au","cc":"au","latitude":-33.865143,"longitude":151.2099,"reserved":0,"last_update":"0001-01-01T00:00:00Z","name_a2s":"Uncletopia | Sydney | 3 | All Maps","protocol":17,"map":"pl_upward","folder":"tf","game":"Team Fortress","app_id":440,"player_count":0,"max_players":24,"Bots":0,"server_type":"Dedicated","server_os":"Linux","password":true,"vac":true,"version":"7723704","steam_id":85568392925194467,"keywords":["nocrits","nodmgspread","payload","uncletopia"],"game_id":440,"stv_port":27036,"stv_name":"Uncletopia | Sydney | 3 | All Maps | STV","players":null},{"server_id":396,"name":"Uncletopia | Sydney | 4 | All Maps","name_short":"syd-4","host":"syd-1.au.uncletopia.com","port":27045,"enabled":true,"region":"au","cc":"au","latitude":-33.865143,"longitude":151.2099,"reserved":0,"last_update":"0001-01-01T00:00:00Z","name_a2s":"Uncletopia | Sydney | 4 | All Maps","protocol":17,"map":"pl_upward","folder":"tf","game":"Team Fortress","app_id":440,"player_count":12,"max_players":24,"Bots":0,"server_type":"Dedicated","server_os":"Linux","password":true,"vac":true,"version":"7723704","steam_id":85568392925397958,"keywords":["nocrits","nodmgspread","payload","uncletopia"],"game_id":440,"stv_port":27046,"stv_name":"Uncletopia | Sydney | 4 | All Maps | STV","players":[{"user_id":11,"name":"The_Green_Jelly","steam_id":76561198381061704,"connected_time":2268000000000,"state":"active","ping":89},{"user_id":14,"name":"Lancer","steam_id":76561198122813810,"connected_time":1124000000000,"state":"active","ping":81},{"user_id":6,"name":"COOKINATOR","steam_id":76561198308121632,"connected_time":2907000000000,"state":"active","ping":177},{"user_id":13,"name":"cimpact","steam_id":76561198452258917,"connected_time":1515000000000,"state":"active","ping":160},{"user_id":15,"name":"TheTophatterOfTophats","steam_id":76561199142504761,"connected_time":1089000000000,"state":"active","ping":44},{"user_id":10,"name":"floop flub","steam_id":76561198418968979,"connected_time":2370000000000,"state":"active","ping":104},{"user_id":16,"name":"surreal","steam_id":76561198983120413,"connected_time":1056000000000,"state":"active","ping":71},{"user_id":17,"name":"Zoey","steam_id":76561198126153554,"connected_time":988000000000,"state":"active","ping":72},{"user_id":18,"name":"phill","steam_id":76561198088680889,"connected_time":791000000000,"state":"active","ping":90},{"user_id":24,"name":"MrSwipez1","steam_id":76561199037763836,"connected_time":305000000000,"state":"active","ping":54},{"user_id":21,"name":"Mungbean","steam_id":76561198192300679,"connected_time":514000000000,"state":"active","ping":74},{"user_id":25,"name":"Drakeo","steam_id":76561198268859184,"connected_time":232000000000,"state":"active","ping":109}]},{"server_id":58,"name":"Uncletopia | Sydney | 5 | No Payload","name_short":"syd-5","host":"syd-1.au.uncletopia.com","port":27055,"enabled":true,"region":"au","cc":"au","latitude":-33.865143,"longitude":151.2099,"reserved":0,"last_update":"0001-01-01T00:00:00Z","name_a2s":"Uncletopia | Sydney | 5 | No Payload","protocol":17,"map":"koth_cascade","folder":"tf","game":"Team Fortress","app_id":440,"player_count":0,"max_players":24,"Bots":0,"server_type":"Dedicated","server_os":"Linux","password":true,"vac":true,"version":"7723704","steam_id":85568392925397959,"keywords":["cp","nocrits","nodmgspread","uncletopia"],"game_id":440,"stv_port":27056,"stv_name":"Uncletopia | Sydney | 5 | No Payload | STV","players":null},{"server_id":59,"name":"Uncletopia | Sydney | 6 | Community","name_short":"syd-6","host":"syd-1.au.uncletopia.com","port":27065,"enabled":true,"region":"au","cc":"au","latitude":-33.865143,"longitude":151.2099,"reserved":0,"last_update":"0001-01-01T00:00:00Z","name_a2s":"Uncletopia | Sydney | 6 | Community","protocol":17,"map":"koth_lakeside_final","folder":"tf","game":"Team Fortress","app_id":440,"player_count":0,"max_players":24,"Bots":0,"server_type":"Dedicated","server_os":"Linux","password":true,"vac":true,"version":"7723704","steam_id":85568392925397960,"keywords":["cp","nocrits","nodmgspread","uncletopia"],"game_id":440,"stv_port":27066,"stv_name":"Uncletopia | Sydney | 6 | Community | STV","players":null},{"server_id":49,"name":"Uncletopia | Warsaw | 1 | All Maps","name_short":"waw-1","host":"waw-1.pl.uncletopia.com","port":27015,"enabled":true,"region":"eu","cc":"pl","latitude":52.2297,"longitude":21.017532,"reserved":0,"last_update":"0001-01-01T00:00:00Z","name_a2s":"Uncletopia | Warsaw | 1 | All Maps","protocol":17,"map":"cp_process_final","folder":"tf","game":"Team Fortress","app_id":440,"player_count":0,"max_players":24,"Bots":0,"server_type":"Dedicated","server_os":"Linux","password":true,"vac":true,"version":"7723704","steam_id":85568392925397850,"keywords":["cp","nocrits","nodmgspread","uncletopia"],"game_id":440,"stv_port":27016,"stv_name":"Uncletopia | Warsaw | 1 | All Maps | STV","players":null},{"server_id":50,"name":"Uncletopia | Warsaw | 2 | All Maps","name_short":"waw-2","host":"waw-1.pl.uncletopia.com","port":27025,"enabled":true,"region":"eu","cc":"pl","latitude":52.2297,"longitude":21.017532,"reserved":0,"last_update":"0001-01-01T00:00:00Z","name_a2s":"Uncletopia | Warsaw | 2 | All Maps","protocol":17,"map":"pl_snowycoast","folder":"tf","game":"Team Fortress","app_id":440,"player_count":0,"max_players":24,"Bots":0,"server_type":"Dedicated","server_os":"Linux","password":true,"vac":true,"version":"7723704","steam_id":85568392925397851,"keywords":["nocrits","nodmgspread","payload","uncletopia"],"game_id":440,"stv_port":27026,"stv_name":"Uncletopia | Warsaw | 2 | All Maps | STV","players":null},{"server_id":51,"name":"Uncletopia | Warsaw | 3 | All Maps","name_short":"waw-3","host":"waw-1.pl.uncletopia.com","port":27035,"enabled":true,"region":"eu","cc":"pl","latitude":52.2297,"longitude":21.017532,"reserved":0,"last_update":"0001-01-01T00:00:00Z","name_a2s":"Uncletopia | Warsaw | 3 | All Maps","protocol":17,"map":"koth_lakeside_final","folder":"tf","game":"Team Fortress","app_id":440,"player_count":0,"max_players":24,"Bots":0,"server_type":"Dedicated","server_os":"Linux","password":true,"vac":true,"version":"7723704","steam_id":85568392925397852,"keywords":["cp","nocrits","nodmgspread","uncletopia"],"game_id":440,"stv_port":27036,"stv_name":"Uncletopia | Warsaw | 3 | All Maps | STV","players":null},{"server_id":52,"name":"Uncletopia | Warsaw | 4 | All Maps","name_short":"waw-4","host":"waw-1.pl.uncletopia.com","port":27045,"enabled":true,"region":"eu","cc":"pl","latitude":52.2297,"longitude":21.017532,"reserved":0,"last_update":"0001-01-01T00:00:00Z","name_a2s":"Uncletopia | Warsaw | 4 | All Maps","protocol":17,"map":"pl_upward","folder":"tf","game":"Team Fortress","app_id":440,"player_count":0,"max_players":24,"Bots":0,"server_type":"Dedicated","server_os":"Linux","password":true,"vac":true,"version":"7723704","steam_id":85568392925397853,"keywords":["nocrits","nodmgspread","payload","uncletopia"],"game_id":440,"stv_port":27046,"stv_name":"Uncletopia | Warsaw | 4 | All Maps | STV","players":null},{"server_id":53,"name":"Uncletopia | Warsaw | 5 | No Payload","name_short":"waw-5","host":"waw-1.pl.uncletopia.com","port":27055,"enabled":true,"region":"eu","cc":"pl","latitude":52.2297,"longitude":21.017532,"reserved":0,"last_update":"0001-01-01T00:00:00Z","name_a2s":"Uncletopia | Warsaw | 5 | No Payload","protocol":17,"map":"koth_highpass","folder":"tf","game":"Team Fortress","app_id":440,"player_count":0,"max_players":24,"Bots":0,"server_type":"Dedicated","server_os":"Linux","password":true,"vac":true,"version":"7723704","steam_id":85568392925397854,"keywords":["cp","nocrits","nodmgspread","uncletopia"],"game_id":440,"stv_port":27056,"stv_name":"Uncletopia | Warsaw | 5 | No Payload | STV","players":null},{"server_id":54,"name":"Uncletopia | Warsaw | 6 | Community","name_short":"waw-6","host":"waw-1.pl.uncletopia.com","port":27065,"enabled":true,"region":"eu","cc":"pl","latitude":52.2297,"longitude":21.017532,"reserved":0,"last_update":"0001-01-01T00:00:00Z","name_a2s":"Uncletopia | Warsaw | 6 | Community","protocol":17,"map":"koth_viaduct","folder":"tf","game":"Team Fortress","app_id":440,"player_count":0,"max_players":24,"Bots":0,"server_type":"Dedicated","server_os":"Linux","password":true,"vac":true,"version":"7723704","steam_id":85568392925397856,"keywords":["cp","nocrits","nodmgspread","uncletopia"],"game_id":440,"stv_port":27066,"stv_name":"Uncletopia | Warsaw | 6 | Community | STV","players":null}]}