{"status":true,"message":"","result":[{"server_id":9,"name":"Uncletopia | Atlanta | 1 | All Maps","name_short":"atl-1","host":"atl-1.us.uncletopia.com","port":27015,"enabled":true,"region":"us-east","cc":"us","latitude":33.753746,"longitude":-84.38633,"reserved":0,"last_update":"0001-01-01T00:00:00Z","name_a2s":"Uncletopia | Atlanta | 1 | All Maps","protocol":17,"map":"pl_barnblitz","folder":"tf","game":"Team Fortress","app_id":440,"player_count":24,"max_players":24,"Bots":0,"server_type":"Dedicated","server_os":"Linux","password":true,"vac":true,"version":"7961495","steam_id":85568392924469982,"keywords":["nocrits","nodmgspread","payload","uncletopia"],"game_id":440,"stv_port":27016,"stv_name":"Uncletopia | Atlanta | 1 | All Maps | STV","players":null},{"server_id":104,"name":"Uncletopia | Atlanta | 2 | All Maps","name_short":"atl-2","host":"atl-1.us.uncletopia.com","port":27025,"enabled":true,"region":"us-east","cc":"us","latitude":33.753746,"longitude":-84.38633,"reserved":0,"last_update":"0001-01-01T00:00:00Z","name_a2s":"Uncletopia | Atlanta | 2 | All Maps","protocol":17,"map":"koth_cascade","folder":"tf","game":"Team Fortress","app_id":440,"player_count":0,"max_players":24,"Bots":0,"server_type":"Dedicated","server_os":"Linux","password":true,"vac":true,"version":"7961495","steam_id":85568392924469983,"keywords":["cp","nocrits","nodmgspread","uncletopia"],"game_id":440,"stv_port":27026,"stv_name":"Uncletopia | Atlanta | 2 | All Maps | STV","players":null},{"server_id":400,"name":"Uncletopia | Atlanta | 3 | Stopwatch","name_short":"atl-3","host":"atl-1.us.uncletopia.com","port":27035,"enabled":true,"region":"us-east","cc":"us","latitude":33.753746,"longitude":-84.38633,"reserved":0,"last_update":"0001-01-01T00:00:00Z","name_a2s":"Uncletopia | Atlanta | 3 | Stopwatch","protocol":17,"map":"pl_badwater","folder":"tf","game":"Team Fortress","app_id":440,"player_count":0,"max_players":24,"Bots":0,"server_type":"Dedicated","server_os":"Linux","password":true,"vac":true,"version":"7961495","steam_id":85568392924515187,"keywords":["nocrits","nodmgspread","payload","uncletopia"],"game_id":440,"stv_port":27036,"stv_name":"Uncletopia | Atlanta | 3 | Stopwatch | STV","players":null},{"server_id":401,"name":"Uncletopia | Atlanta | 4 | Community","name_short":"atl-4","host":"atl-1.us.uncletopia.com","port":27045,"enabled":true,"region":"us-east","cc":"us","latitude":33.753746,"longitude":-84.38633,"reserved":0,"last_update":"0001-01-01T00:00:00Z","name_a2s":"Uncletopia | Atlanta | 4 | Community","protocol":17,"map":"koth_kemptown_rc1","folder":"tf","game":"Team Fortress","app_id":440,"player_count":0,"max_players":24,"Bots":0,"server_type":"Dedicated","server_os":"Linux","password":true,"vac":true,"version":"7961495","steam_id":85568392924515188,"keywords":["cp","nocrits","nodmgspread","uncletopia"],"game_id":440,"stv_port":27046,"stv_name":"Uncletopia | Atlanta | 4 | Community | STV","players":null},{"server_id":2,"name":"Uncletopia | Chicago | 1 | All Maps","name_short":"chi-1","host":"chi-1.us.uncletopia.com","port":27015,"enabled":true,"region":"us-central","cc":"us","latitude":41.881832,"longitude":-87.62318,"reserved":0,"last_update":"0001-01-01T00:00:00Z","name_a2s":"Uncletopia | Chicago | 1 | All Maps","protocol":17,"map":"pl_upward","folder":"tf","game":"Team Fortress","app_id":440,"player_count":24,"max_players":24,"Bots":0,"server_type":"Dedicated","server_os":"Linux","password":true,"vac":true,"version":"7961495","steam_id":85568392924469984,"keywords":["nocrits","nodmgspread","payload","uncletopia"],"game_id":440,"stv_port":27016,"stv_name":"Uncletopia | Chicago | 1 | All Maps | STV","players":[{"user_id":386,"name":"suns","steam_id":76561198079583278,"connected_time":820000000000,"state":"active","ping":47},{"user_id":306,"name":"B R O W N","steam_id":76561198084016173,"connected_time":5453000000000,"state":"active","ping":68},{"user_id":377,"name":"SaaxoM","steam_id":76561198208256603,"connected_time":1413000000000,"state":"active","ping":98},{"user_id":391,"name":"moe","steam_id":76561198929586245,"connected_time":362000000000,"state":"active","ping":98},{"user_id":387,"name":"Sunflower","steam_id":76561198081223793,"connected_time":797000000000,"state":"active","ping":55},{"user_id":364,"name":"Zomboboi_","steam_id":76561198139401380,"connected_time":2281000000000,"state":"active","ping":66},{"user_id":379,"name":"TheSnipersHat","steam_id":76561198057684066,"connected_time":1137000000000,"state":"active","ping":54},{"user_id":321,"name":"Jericho von Generico","steam_id":76561198206139559,"connected_time":4362000000000,"state":"active","ping":79},{"user_id":333,"name":"Ras","steam_id":76561198123546775,"connected_time":3267000000000,"state":"active","ping":91},{"user_id":392,"name":"I haven't even begun to peak","steam_id":76561198022302843,"connected_time":176000000000,"state":"active","ping":80},{"user_id":380,"name":"fish album fan","steam_id":76561198281735951,"connected_time":992000000000,"state":"active","ping":61},{"user_id":381,"name":"Teleporter  (Entrance, Level 3)","steam_id":76561198316927664,"connected_time":986000000000,"state":"active","ping":76},{"user_id":334,"name":"WWWWWWWWWWWWWWWWWWWWWWWWWWWWWWW","steam_id":76561197981060504,"connected_time":3255000000000,"state":"active","ping":49},{"user_id":304,"name":"The Helpful Mute","steam_id":76561198078359985,"connected_time":5908000000000,"state":"active","ping":57},{"user_id":367,"name":"berserker_tf2 yt","steam_id":76561198303464488,"connected_time":2137000000000,"state":"active","ping":64},{"user_id":382,"name":"unmitigated success","steam_id":76561197988234127,"connected_time":912000000000,"state":"active","ping":72},{"user_id":360,"name":"Rtx Fred ‚óè","steam_id":76561198999217575,"connected_time":2477000000000,"state":"active","ping":69},{"user_id":388,"name":"MeatShield 2000","steam_id":76561199375192850,"connected_time":785000000000,"state":"active","ping":83},{"user_id":389,"name":"derb","steam_id":76561198110369487,"connected_time":785000000000,"state":"active","ping":88},{"user_id":371,"name":"Spicy Chicken","steam_id":76561198074209737,"connected_time":2065000000000,"state":"active","ping":59},{"user_id":287,"name":"josh","steam_id":76561198077902438,"connected_time":6872000000000,"state":"active","ping":76},{"user_id":328,"name":"Mortal Flame","steam_id":76561198130698418,"connected_time":3734000000000,"state":"active","ping":93},{"user_id":374,"name":"Hylic","steam_id":76561199051314589,"connected_time":1578000000000,"state":"active","ping":72},{"user_id":390,"name":"melon","steam_id":76561199014039702,"connected_time":768000000000,"state":"active","ping":60}]},{"server_id":106,"name":"Uncletopia | Chicago | 2 | All Maps","name_short":"chi-2","host":"chi-1.us.uncletopia.com","port":27025,"enabled":true,"region":"us-central","cc":"us","latitude":41.881832,"longitude":-87.62318,"reserved":0,"last_update":"0001-01-01T00:00:00Z","name_a2s":"Uncletopia | Chicago | 2 | All Maps","protocol":17,"map":"cp_process_final","folder":"tf","game":"Team Fortress","app_id":440,"player_count":24,"max_players":24,"Bots":0,"server_type":"Dedicated","server_os":"Linux","password":true,"vac":true,"version":"7961495","steam_id":85568392924469985,"keywords":["cp","nocrits","nodmgspread","uncletopia"],"game_id":440,"stv_port":27026,"stv_name":"Uncletopia | Chicago | 2 | All Maps | STV","players":[{"user_id":8,"name":"Bobato Chaps","steam_id":76561198065103552,"connected_time":11995000000000,"state":"active","ping":46},{"user_id":97,"name":"qt pa 2t","steam_id":76561198066867150,"connected_time":6152000000000,"state":"active","ping":71},{"user_id":155,"name":"pump","steam_id":76561198071705442,"connected_time":2213000000000,"state":"active","ping":74},{"user_id":164,"name":"BigNugs","steam_id":76561198056402610,"connected_time":1147000000000,"state":"active","ping":70},{"user_id":125,"name":"Garfield Expert","steam_id":76561198092452824,"connected_time":3618000000000,"state":"active","ping":68},{"user_id":165,"name":"socializedCryptid","steam_id":76561198991665007,"connected_time":1129000000000,"state":"active","ping":56},{"user_id":170,"name":"[MRY] Sk-iLite","steam_id":76561198041797350,"connected_time":127000000000,"state":"active","ping":72},{"user_id":95,"name":"fi_ji","steam_id":76561198126087725,"connected_time":6176000000000,"state":"active","ping":70},{"user_id":171,"name":"[MP40s] JavelinV2","steam_id":76561198188284466,"connected_time":100000000000,"state":"active","ping":52},{"user_id":169,"name":"ume_ybbuhc","steam_id":76561199482149729,"connected_time":269000000000,"state":"active","ping":63},{"user_id":160,"name":"Asha'man","steam_id":76561198057913763,"connected_time":1453000000000,"state":"active","ping":46},{"user_id":137,"name":"William Wallace","steam_id":76561199343316814,"connected_time":3320000000000,"state":"active","ping":71},{"user_id":168,"name":"ƒ†1 ‚ô¶ Synth","steam_id":76561198058660228,"connected_time":364000000000,"state":"active","ping":53},{"user_id":149,"name":"Barmy","steam_id":76561198111626352,"connected_time":2696000000000,"state":"active","ping":90},{"user_id":128,"name":"Bear","steam_id":76561198062949510,"connected_time":3595000000000,"state":"active","ping":52},{"user_id":140,"name":"the rizzler","steam_id":76561198012917426,"connected_time":3282000000000,"state":"active","ping":68},{"user_id":156,"name":"aiden","steam_id":76561198449527009,"connected_time":2206000000000,"state":"active","ping":89},{"user_id":166,"name":"88","steam_id":76561198165212575,"connected_time":1122000000000,"state":"active","ping":70},{"user_id":117,"name":"kimchy101","steam_id":76561198202721584,"connected_time":3937000000000,"state":"active","ping":55},{"user_id":148,"name":"i suffer from ligma","steam_id":76561199158496518,"connected_time":2746000000000,"state":"active","ping":141},{"user_id":163,"name":"ryce","steam_id":76561198114572309,"connected_time":1154000000000,"state":"active","ping":81},{"user_id":112,"name":"shnowshner","steam_id":76561198066450438,"connected_time":5047000000000,"state":"active","ping":82},{"user_id":162,"name":"Billychicken54","steam_id":76561198022365463,"connected_time":1326000000000,"state":"active","ping":65},{"user_id":167,"name":"Mog","steam_id":76561198025575870,"connected_time":1121000000000,"state":"active","ping":54}]},{"server_id":402,"name":"Uncletopia | Chicago | 3 | All Maps","name_short":"chi-3","host":"chi-1.us.uncletopia.com","port":27035,"enabled":true,"region":"us-central","cc":"us","latitude":41.881832,"longitude":-87.62318,"reserved":0,"last_update":"0001-01-01T00:00:00Z","name_a2s":"Uncletopia | Chicago | 3 | All Maps","protocol":17,"map":"pl_swiftwater_final1","folder":"tf","game":"Team Fortress","app_id":440,"player_count":0,"max_players":24,"Bots":0,"server_type":"Dedicated","server_os":"Linux","password":true,"vac":true,"version":"7961495","steam_id":85568392924515191,"keywords":["nocrits","nodmgspread","payload","uncletopia"],"game_id":440,"stv_port":27036,"stv_name":"Uncletopia | Chicago | 3 | All Maps | STV","players":null},{"server_id":403,"name":"Uncletopia | Chicago | 4 | All Maps","name_short":"chi-4","host":"chi-1.us.uncletopia.com","port":27045,"enabled":true,"region":"us-central","cc":"us","latitude":41.881832,"longitude":-87.62318,"reserved":0,"last_update":"0001-01-01T00:00:00Z","name_a2s":"Uncletopia | Chicago | 4 | All Maps","protocol":17,"map":"koth_cascade","folder":"tf","game":"Team Fortress","app_id":440,"player_count":0,"max_players":24,"Bots":0,"server_type":"Dedicated","server_os":"Linux","password":true,"vac":true,"version":"7961495","steam_id":85568392924515193,"keywords":["cp","nocrits","nodmgspread","uncletopia"],"game_id":440,"stv_port":27046,"stv_name":"Uncletopia | Chicago | 4 | All Maps | STV","players":null},{"server_id":36,"name":"Uncletopia | Chicago | 5 | All Maps","name_short":"chi-5","host":"chi-2.us.uncletopia.com","port":27015,"enabled":true,"region":"us-central","cc":"us","latitude":41.881832,"longitude":-87.62318,"reserved":0,"last_update":"0001-01-01T00:00:00Z","name_a2s":"Uncletopia | Chicago | 5 | All Maps","protocol":17,"map":"koth_viaduct","folder":"tf","game":"Team Fortress","app_id":440,"player_count":7,"max_players":24,"Bots":0,"server_type":"Dedicated","server_os":"Linux","password":true,"vac":true,"version":"7961495","steam_id":85568392924866362,"keywords":["cp","nocrits","nodmgspread","uncletopia"],"game_id":440,"stv_port":27016,"stv_name":"Uncletopia | Chicago | 5 | All Maps | STV","players":[{"user_id":5,"name":"leboeufbn","steam_id":76561199228923100,"connected_time":508000000000,"state":"active","ping":81},{"user_id":7,"name":"Keymaster","steam_id":76561198881514228,"connected_time":391000000000,"state":"active","ping":74},{"user_id":14,"name":"::INVEST IN SKYNET::","steam_id":76561198144436132,"connected_time":11000000000,"state":"active","ping":74},{"user_id":10,"name":"Mikael_01","steam_id":76561199080253129,"connected_time":182000000000,"state":"active","ping":183},{"user_id":11,"name":"bleach65","steam_id":76561198115270571,"connected_time":166000000000,"state":"active","ping":74},{"user_id":12,"name":"Barbatruc","steam_id":76561198119019916,"connected_time":155000000000,"state":"active","ping":153},{"user_id":13,"name":"Flaccid Snake (little boss)","steam_id":76561198211454440,"connected_time":114000000000,"state":"active","ping":90}]},{"server_id":37,"name":"Uncletopia | Chicago | 6 | All Maps","name_short":"chi-6","host":"chi-2.us.uncletopia.com","port":27025,"enabled":true,"region":"us-central","cc":"us","latitude":41.881832,"longitude":-87.62318,"reserved":0,"last_update":"0001-01-01T00:00:00Z","name_a2s":"Uncletopia | Chicago | 6 | All Maps","protocol":17,"map":"pl_frontier_final","folder":"tf","game":"Team Fortress","app_id":440,"player_count":0,"max_players":24,"Bots":0,"server_type":"Dedicated","server_os":"Linux","password":true,"vac":true,"version":"7961495","steam_id":85568392924866363,"keywords":["nocrits","nodmgspread","payload","uncletopia"],"game_id":440,"stv_port":27026,"stv_name":"Uncletopia | Chicago | 6 | All Maps | STV","players":null},{"server_id":38,"name":"Uncletopia | Chicago | 7 | Stopwatch","name_short":"chi-7","host":"chi-2.us.uncletopia.com","port":27035,"enabled":true,"region":"us-central","cc":"us","latitude":41.881832,"longitude":-87.62318,"reserved":0,"last_update":"0001-01-01T00:00:00Z","name_a2s":"Uncletopia | Chicago | 7 | Stopwatch","protocol":17,"map":"pl_borneo","folder":"tf","game":"Team Fortress","app_id":440,"player_count":0,"max_players":24,"Bots":0,"server_type":"Dedicated","server_os":"Linux","password":true,"vac":true,"version":"7961495","steam_id":85568392924866364,"keywords":["nocrits","nodmgspread","payload","uncletopia"],"game_id":440,"stv_port":27036,"stv_name":"Uncletopia | Chicago | 7 | Stopwatch | STV","players":null},{"server_id":39,"name":"Uncletopia | Chicago | 8 | Community","name_short":"chi-8","host":"chi-2.us.uncletopia.com","port":27045,"enabled":true,"region":"us-central","cc":"us","latitude":41.881832,"longitude":-87.62318,"reserved":0,"last_update":"0001-01-01T00:00:00Z","name_a2s":"Uncletopia | Chicago | 8 | Community","protocol":17,"map":"workshop/koth_trenchfoot_b1a.ugc731436616","folder":"tf","game":"Team Fortress","app_id":440,"player_count":0,"max_players":24,"Bots":0,"server_type":"Dedicated","server_os":"Linux","password":true,"vac":true,"version":"7961495","steam_id":85568392924866365,"keywords":["cp","nocrits","nodmgspread","uncletopia"],"game_id":440,"stv_port":27046,"stv_name":"Uncletopia | Chicago | 8 | Community | STV","players":null},{"server_id":8,"name":"Uncletopia | Dallas | 1 | All Maps","name_short":"dal-1","host":"dal-1.us.uncletopia.com","port":27015,"enabled":true,"region":"us-central","cc":"us","latitude":32.779167,"longitude":-96.80889,"reserved":0,"last_update":"0001-01-01T00:00:00Z","name_a2s":"Uncletopia | Dallas | 1 | All Maps","protocol":17,"map":"pl_badwater","folder":"tf","game":"Team Fortress","app_id":440,"player_count":24,"max_players":24,"Bots":0,"server_type":"Dedicated","server_os":"Linux","password":true,"vac":true,"version":"7961495","steam_id":85568392924469986,"keywords":["nocrits","nodmgspread","payload","uncletopia"],"game_id":440,"stv_port":27016,"stv_name":"Uncletopia | Dallas | 1 | All Maps | STV","players":[{"user_id":20,"name":"Waytoolol","steam_id":76561199201517753,"connected_time":1530000000000,"state":"active","ping":96},{"user_id":26,"name":"clenZORZ","steam_id":76561198835570628,"connected_time":699000000000,"state":"active","ping":59},{"user_id":51,"name":"A rotting llama corpse","steam_id":76561198140840588,"connected_time":90000000000,"state":"active","ping":65},{"user_id":31,"name":"koh ‚úß","steam_id":76561198831996918,"connected_time":411000000000,"state":"active","ping":79},{"user_id":27,"name":"brewkey","steam_id":76561198057896324,"connected_time":491000000000,"state":"active","ping":44},{"user_id":28,"name":"KaijuCowBelle","steam_id":76561198191619439,"connected_time":470000000000,"state":"active","ping":78},{"user_id":29,"name":"Pork44","steam_id":76561198005773170,"connected_time":444000000000,"state":"active","ping":56},{"user_id":30,"name":"Xebbey","steam_id":76561198880415976,"connected_time":441000000000,"state":"active","ping":69},{"user_id":32,"name":"VixianUwU","steam_id":76561198948815060,"connected_time":405000000000,"state":"active","ping":65},{"user_id":40,"name":"Dirt Road","steam_id":76561198210372012,"connected_time":294000000000,"state":"active","ping":93},{"user_id":34,"name":"Shalom","steam_id":76561198410005222,"connected_time":384000000000,"state":"active","ping":65},{"user_id":41,"name":"Deni Jems","steam_id":76561198147707286,"connected_time":290000000000,"state":"active","ping":150},{"user_id":36,"name":"Wagemage","steam_id":76561198013625580,"connected_time":360000000000,"state":"active","ping":77},{"user_id":42,"name":"Cousin Balki","steam_id":76561198070496395,"connected_time":283000000000,"state":"active","ping":96},{"user_id":38,"name":"Nemiel Zaharion","steam_id":76561197999234678,"connected_time":340000000000,"state":"active","ping":55},{"user_id":52,"name":"Jovo","steam_id":76561197993265970,"connected_time":38000000000,"state":"active","ping":94},{"user_id":43,"name":"mollusk_obliteration","steam_id":76561198085388962,"connected_time":276000000000,"state":"active","ping":65},{"user_id":44,"name":"Zetta","steam_id":76561198045710113,"connected_time":272000000000,"state":"active","ping":83},{"user_id":45,"name":"relay","steam_id":76561198314662811,"connected_time":262000000000,"state":"active","ping":95},{"user_id":46,"name":"tobrehto","steam_id":76561198097544038,"connected_time":246000000000,"state":"active","ping":67},{"user_id":47,"name":"brando_not_lando","steam_id":76561198163197384,"connected_time":237000000000,"state":"active","ping":93},{"user_id":48,"name":"Frofro","steam_id":76561198025349121,"connected_time":227000000000,"state":"active","ping":68},{"user_id":49,"name":"Rafl","steam_id":76561198055222756,"connected_time":208000000000,"state":"active","ping":46},{"user_id":50,"name":"Legit_Jaxer","steam_id":76561198172234053,"connected_time":202000000000,"state":"active","ping":108}]},{"server_id":108,"name":"Uncletopia | Dallas | 2 | All Maps","name_short":"dal-2","host":"dal-1.us.uncletopia.com","port":27025,"enabled":true,"region":"us-central","cc":"us","latitude":32.779167,"longitude":-96.80889,"reserved":0,"last_update":"0001-01-01T00:00:00Z","name_a2s":"Uncletopia | Dallas | 2 | All Maps","protocol":17,"map":"cp_dustbowl","folder":"tf","game":"Team Fortress","app_id":440,"player_count":24,"max_players":24,"Bots":0,"server_type":"Dedicated","server_os":"Linux","password":true,"vac":true,"version":"7961495","steam_id":85568392924469988,"keywords":["cp","nocrits","nodmgspread","uncletopia"],"game_id":440,"stv_port":27026,"stv_name":"Uncletopia | Dallas | 2 | All Maps | STV","players":[{"user_id":324,"name":"Spaceman","steam_id":76561198098025074,"connected_time":1056000000000,"state":"active","ping":55},{"user_id":332,"name":"MR.THE TOASTER","steam_id":76561199109565739,"connected_time":858000000000,"state":"active","ping":65},{"user_id":317,"name":"real worm","steam_id":76561199065645094,"connected_time":1715000000000,"state":"active","ping":77},{"user_id":325,"name":"Tanna Tuver","steam_id":76561198382485444,"connected_time":1015000000000,"state":"active","ping":61},{"user_id":339,"name":"BackwardsEagle","steam_id":76561199013712612,"connected_time":134000000000,"state":"active","ping":86},{"user_id":333,"name":"Crazy Insane Proboscis Monkey","steam_id":76561198061011176,"connected_time":840000000000,"state":"active","ping":91},{"user_id":334,"name":"5kPrime","steam_id":76561198039471915,"connected_time":836000000000,"state":"active","ping":90},{"user_id":318,"name":"Rob","steam_id":76561199187786660,"connected_time":1680000000000,"state":"active","ping":54},{"user_id":327,"name":"Dumgum","steam_id":76561198044960992,"connected_time":982000000000,"state":"active","ping":72},{"user_id":306,"name":"Levi","steam_id":76561198089832776,"connected_time":2453000000000,"state":"active","ping":52},{"user_id":307,"name":"Jankyo","steam_id":76561198083339492,"connected_time":2448000000000,"state":"active","ping":84},{"user_id":335,"name":"Squibbzin","steam_id":76561198254519678,"connected_time":830000000000,"state":"active","ping":102},{"user_id":276,"name":"ALDOMLG","steam_id":76561198343776095,"connected_time":3930000000000,"state":"active","ping":104},{"user_id":311,"name":"hforce11","steam_id":76561198087647130,"connected_time":2321000000000,"state":"active","ping":66},{"user_id":316,"name":"say gex","steam_id":76561199026721822,"connected_time":1735000000000,"state":"active","ping":110},{"user_id":304,"name":"mkl","steam_id":76561197986401685,"connected_time":2464000000000,"state":"active","ping":48},{"user_id":329,"name":"Sollyz","steam_id":76561198081110786,"connected_time":946000000000,"state":"active","ping":95},{"user_id":297,"name":"Mellou","steam_id":76561198212048740,"connected_time":3085000000000,"state":"active","ping":55},{"user_id":292,"name":"aisu","steam_id":76561198043768507,"connected_time":3571000000000,"state":"active","ping":97},{"user_id":338,"name":"TOKENLIZARD","steam_id":76561198218765205,"connected_time":620000000000,"state":"active","ping":62},{"user_id":330,"name":"VioletVixsyn","steam_id":76561198388575556,"connected_time":946000000000,"state":"active","ping":90},{"user_id":309,"name":"Rat Smoker","steam_id":76561198090419068,"connected_time":2361000000000,"state":"active","ping":129},{"user_id":331,"name":"Kirby.exe","steam_id":76561198242714582,"connected_time":931000000000,"state":"active","ping":50},{"user_id":336,"name":"Your Dad‚Ñ¢","steam_id":76561198254739340,"connected_time":816000000000,"state":"active","ping":89}]},{"server_id":404,"name":"Uncletopia | Dallas | 3 | All Maps","name_short":"dal-3","host":"dal-1.us.uncletopia.com","port":27035,"enabled":true,"region":"us-central","cc":"us","latitude":32.779167,"longitude":-96.80889,"reserved":0,"last_update":"0001-01-01T00:00:00Z","name_a2s":"Uncletopia | Dallas | 3 | All Maps","protocol":17,"map":"cp_process_final","folder":"tf","game":"Team Fortress","app_id":440,"player_count":0,"max_players":24,"Bots":0,"server_type":"Dedicated","server_os":"Linux","password":true,"vac":true,"version":"7961495","steam_id":85568392924515219,"keywords":["cp","nocrits","nodmgspread","uncletopia"],"game_id":440,"stv_port":27036,"stv_name":"Uncletopia | Dallas | 3 | All Maps | STV","players":null},{"server_id":405,"name":"Uncletopia | Dallas | 4 | Community","name_short":"dal-4","host":"dal-1.us.uncletopia.com","port":27045,"enabled":true,"region":"us-central","cc":"us","latitude":32.779167,"longitude":-96.80889,"reserved":0,"last_update":"0001-01-01T00:00:00Z","name_a2s":"Uncletopia | Dallas | 4 | Community","protocol":17,"map":"pl_pier","folder":"tf","game":"Team Fortress","app_id":440,"player_count":0,"max_players":24,"Bots":0,"server_type":"Dedicated","server_os":"Linux","password":true,"vac":true,"version":"7961495","steam_id":85568392924515220,"keywords":["nocrits","nodmgspread","payload","uncletopia"],"game_id":440,"stv_port":27046,"stv_name":"Uncletopia | Dallas | 4 | Community | STV","players":null},{"server_id":5,"name":"Uncletopia | Frankfurt | 1 | All Maps","name_short":"frk-1","host":"frk-1.de.uncletopia.com","port":27015,"enabled":true,"region":"eu","cc":"de","latitude":50.110924,"longitude":8.682127,"reserved":0,"last_update":"0001-01-01T00:00:00Z","name_a2s":"Uncletopia | Frankfurt | 1 | All Maps","protocol":17,"map":"ctf_turbine","folder":"tf","game":"Team Fortress","app_id":440,"player_count":21,"max_players":24,"Bots":0,"server_type":"Dedicated","server_os":"Linux","password":true,"vac":true,"version":"7961495","steam_id":85568392924469989,"keywords":["ctf","nocrits","nodmgspread","uncletopia"],"game_id":440,"stv_port":27016,"stv_name":"Uncletopia | Frankfurt | 1 | All Maps | STV","players":[{"user_id":371,"name":"Ceiling fan enthusiast","steam_id":76561197989214268,"connected_time":1562000000000,"state":"active","ping":64},{"user_id":388,"name":"–°–∞–Ω–µ—á–∫–∞","steam_id":76561198258884232,"connected_time":401000000000,"state":"active","ping":75},{"user_id":378,"name":"Salih","steam_id":76561198287934839,"connected_time":1354000000000,"state":"active","ping":60},{"user_id":402,"name":"Banzaiiiii ai √ßa pique","steam_id":76561198008634711,"connected_time":51000000000,"state":"active","ping":70},{"user_id":385,"name":"Silver","steam_id":76561198037290739,"connected_time":721000000000,"state":"active","ping":67},{"user_id":376,"name":"Venkids","steam_id":76561198086518702,"connected_time":1411000000000,"state":"active","ping":57},{"user_id":353,"name":"shoras","steam_id":76561198019680159,"connected_time":4174000000000,"state":"active","ping":81},{"user_id":372,"name":"autistic","steam_id":76561198897732673,"connected_time":1497000000000,"state":"active","ping":77},{"user_id":403,"name":"Fanta¬Æ","steam_id":76561198416458968,"connected_time":29000000000,"state":"active","ping":59},{"user_id":398,"name":"_4pr1l","steam_id":76561198186607327,"connected_time":166000000000,"state":"active","ping":44},{"user_id":400,"name":"Mr. Master","steam_id":76561199198569317,"connected_time":112000000000,"state":"active","ping":64},{"user_id":399,"name":"alex jones gaming","steam_id":76561199090730414,"connected_time":166000000000,"state":"active","ping":87},{"user_id":387,"name":"pep","steam_id":76561198207543607,"connected_time":650000000000,"state":"active","ping":62},{"user_id":401,"name":"Dark ^^","steam_id":76561198036241064,"connected_time":109000000000,"state":"active","ping":62},{"user_id":355,"name":"AlphaDog","steam_id":76561198110238357,"connected_time":4091000000000,"state":"active","ping":59},{"user_id":377,"name":"Khrinde","steam_id":76561198036744526,"connected_time":1410000000000,"state":"active","ping":96},{"user_id":389,"name":"nky!","steam_id":76561198086229832,"connected_time":368000000000,"state":"active","ping":50},{"user_id":367,"name":"Toni","steam_id":76561198342821250,"connected_time":1996000000000,"state":"active","ping":55},{"user_id":379,"name":"Mario Moretti [BR]","steam_id":76561198179299606,"connected_time":1351000000000,"state":"active","ping":103},{"user_id":394,"name":"chrome heart","steam_id":76561198101978330,"connected_time":289000000000,"state":"active","ping":59},{"user_id":383,"name":"cactus_octoling","steam_id":76561198837919828,"connected_time":793000000000,"state":"active","ping":92}]},{"server_id":110,"name":"Uncletopia | Frankfurt | 2 | All Maps","name_short":"frk-2","host":"frk-1.de.uncletopia.com","port":27025,"enabled":true,"region":"eu","cc":"de","latitude":50.110924,"longitude":8.682127,"reserved":0,"last_update":"0001-01-01T00:00:00Z","name_a2s":"Uncletopia | Frankfurt | 2 | All Maps","protocol":17,"map":"pl_upward","folder":"tf","game":"Team Fortress","app_id":440,"player_count":24,"max_players":24,"Bots":0,"server_type":"Dedicated","server_os":"Linux","password":true,"vac":true,"version":"7961495","steam_id":85568392924469990,"keywords":["nocrits","nodmgspread","payload","uncletopia"],"game_id":440,"stv_port":27026,"stv_name":"Uncletopia | Frankfurt | 2 | All Maps | STV","players":[{"user_id":494,"name":"kelm","steam_id":76561198027166144,"connected_time":2022000000000,"state":"active","ping":77},{"user_id":518,"name":"doctwoeight","steam_id":76561198153488940,"connected_time":145000000000,"state":"active","ping":74},{"user_id":515,"name":"Menty","steam_id":76561198036748212,"connected_time":505000000000,"state":"active","ping":41},{"user_id":514,"name":"engineer drip","steam_id":76561198991032570,"connected_time":576000000000,"state":"active","ping":92},{"user_id":519,"name":"BeefHammer","steam_id":76561198078426223,"connected_time":107000000000,"state":"active","ping":107},{"user_id":508,"name":"Dr Hund","steam_id":76561198381049905,"connected_time":1061000000000,"state":"active","ping":60},{"user_id":520,"name":"Antonescu","steam_id":76561199417619618,"connected_time":92000000000,"state":"active","ping":90},{"user_id":474,"name":"meriones","steam_id":76561198034234373,"connected_time":3184000000000,"state":"active","ping":57},{"user_id":478,"name":"iniT","steam_id":76561198019883794,"connected_time":2745000000000,"state":"active","ping":57},{"user_id":504,"name":"Wild","steam_id":76561198196320754,"connected_time":1374000000000,"state":"active","ping":67},{"user_id":512,"name":"Lyncurion","steam_id":76561199260022725,"connected_time":964000000000,"state":"active","ping":72},{"user_id":521,"name":"jamkel #savetf2","steam_id":76561199088464666,"connected_time":75000000000,"state":"active","ping":115},{"user_id":475,"name":"ÍßÅ‡ºíXenon‡ºíÍßÇ","steam_id":76561198120502313,"connected_time":3145000000000,"state":"active","ping":87},{"user_id":510,"name":"DelreLeFou","steam_id":76561198302015176,"connected_time":1052000000000,"state":"active","ping":69},{"user_id":522,"name":"narlee","steam_id":76561198058084646,"connected_time":69000000000,"state":"active","ping":77},{"user_id":497,"name":"Elma Can√≥n del Toro","steam_id":76561198081053203,"connected_time":1860000000000,"state":"active","ping":179},{"user_id":523,"name":"Na z√°chodƒõ","steam_id":76561198383952144,"connected_time":65000000000,"state":"active","ping":134},{"user_id":498,"name":"eiflA","steam_id":76561198094886044,"connected_time":1850000000000,"state":"active","ping":70},{"user_id":524,"name":"cobblestone","steam_id":76561198079123043,"connected_time":60000000000,"state":"active","ping":80},{"user_id":511,"name":"r0la","steam_id":76561198128315340,"connected_time":988000000000,"state":"active","ping":86},{"user_id":517,"name":"Puss in Boots","steam_id":76561198211599767,"connected_time":484000000000,"state":"active","ping":67},{"user_id":488,"name":"Filtered Water","steam_id":76561199142022395,"connected_time":2436000000000,"state":"active","ping":69},{"user_id":502,"name":"King Goomba","steam_id":76561198146467813,"connected_time":1721000000000,"state":"active","ping":86},{"user_id":481,"name":"Worm","steam_id":76561198296497176,"connected_time":2666000000000,"state":"active","ping":64}]},{"server_id":308,"name":"Uncletopia | Frankfurt | 3 | All Maps","name_short":"frk-3","host":"frk-1.de.uncletopia.com","port":27035,"enabled":true,"region":"eu","cc":"de","latitude":50.110924,"longitude":8.682127,"reserved":0,"last_update":"0001-01-01T00:00:00Z","name_a2s":"Uncletopia | Frankfurt | 3 | All Maps","protocol":17,"map":"pl_badwater","folder":"tf","game":"Team Fortress","app_id":440,"player_count":23,"max_players":24,"Bots":0,"server_type":"Dedicated","server_os":"Linux","password":true,"vac":true,"version":"7961495","steam_id":85568392924504274,"keywords":["nocrits","nodmgspread","payload","uncletopia"],"game_id":440,"stv_port":27036,"stv_name":"Uncletopia | Frankfurt | 3 | All Maps | STV","players":[{"user_id":298,"name":"Alice_Neko","steam_id":76561198411388911,"connected_time":3580000000000,"state":"active","ping":120},{"user_id":336,"name":"Pepegi","steam_id":76561198001230113,"connected_time":1294000000000,"state":"active","ping":80},{"user_id":346,"name":"Estyle","steam_id":76561198157804700,"connected_time":874000000000,"state":"active","ping":83},{"user_id":326,"name":"PLATINUM PISSED","steam_id":76561198275955087,"connected_time":2200000000000,"state":"active","ping":63},{"user_id":348,"name":"Raven","steam_id":76561198036076305,"connected_time":836000000000,"state":"active","ping":51},{"user_id":345,"name":"Goblineer","steam_id":76561198442888935,"connected_time":904000000000,"state":"active","ping":69},{"user_id":337,"name":"mumbler","steam_id":76561197970641239,"connected_time":1235000000000,"state":"active","ping":48},{"user_id":325,"name":"Zazou","steam_id":76561198028076362,"connected_time":2218000000000,"state":"active","ping":57},{"user_id":316,"name":"Sinnmeister","steam_id":76561198201091797,"connected_time":2551000000000,"state":"active","ping":63},{"user_id":339,"name":"Sleepy Dummy","steam_id":76561198122108762,"connected_time":1217000000000,"state":"active","ping":51},{"user_id":328,"name":"Bliketod","steam_id":76561198255098671,"connected_time":2084000000000,"state":"active","ping":78},{"user_id":300,"name":"Dakeyras","steam_id":76561198057069564,"connected_time":3474000000000,"state":"active","ping":101},{"user_id":347,"name":"The Daniella","steam_id":76561198023075547,"connected_time":854000000000,"state":"active","ping":62},{"user_id":293,"name":"an idiot","steam_id":76561198172542535,"connected_time":3915000000000,"state":"active","ping":75},{"user_id":333,"name":"Yaveltal","steam_id":76561198199982015,"connected_time":1586000000000,"state":"active","ping":119},{"user_id":350,"name":"Lowbird","steam_id":76561198137424821,"connected_time":374000000000,"state":"active","ping":57},{"user_id":329,"name":"√∏negalt","steam_id":76561198162997817,"connected_time":2008000000000,"state":"active","ping":86},{"user_id":342,"name":"Fiddlah","steam_id":76561198077916925,"connected_time":1148000000000,"state":"active","ping":51},{"user_id":331,"name":"NIckson GERald","steam_id":76561198838255900,"connected_time":1949000000000,"state":"active","ping":122},{"user_id":343,"name":"Solymr ibn Wali Barad","steam_id":76561198044008976,"connected_time":1118000000000,"state":"active","ping":74},{"user_id":295,"name":"Silver","steam_id":76561198175238807,"connected_time":3797000000000,"state":"active","ping":68},{"user_id":351,"name":"cazador","steam_id":76561198123096922,"connected_time":283000000000,"state":"active","ping":95},{"user_id":335,"name":"kgf","steam_id":76561198181442259,"connected_time":1328000000000,"state":"active","ping":49}]},{"server_id":309,"name":"Uncletopia | Frankfurt | 4 | All Maps","name_short":"frk-4","host":"frk-1.de.uncletopia.com","port":27045,"enabled":true,"region":"eu","cc":"de","latitude":50.110924,"longitude":8.682127,"reserved":0,"last_update":"0001-01-01T00:00:00Z","name_a2s":"Uncletopia | Frankfurt | 4 | All Maps","protocol":17,"map":"cp_process_final","folder":"tf","game":"Team Fortress","app_id":440,"player_count":23,"max_players":24,"Bots":0,"server_type":"Dedicated","server_os":"Linux","password":true,"vac":true,"version":"7961495","steam_id":85568392924504275,"keywords":["cp","nocrits","nodmgspread","uncletopia"],"game_id":440,"stv_port":27046,"stv_name":"Uncletopia | Frankfurt | 4 | All Maps | STV","players":[{"user_id":424,"name":"Fenrys","steam_id":76561198353946813,"connected_time":51000000000,"state":"active","ping":63},{"user_id":339,"name":"Micha≈Ç","steam_id":76561198320346362,"connected_time":6475000000000,"state":"active","ping":61},{"user_id":357,"name":"Flohr","steam_id":76561198191948841,"connected_time":5059000000000,"state":"active","ping":59},{"user_id":361,"name":"Cookies and Bakies","steam_id":76561198017442928,"connected_time":4456000000000,"state":"active","ping":55},{"user_id":325,"name":"Aven","steam_id":76561198974343597,"connected_time":7299000000000,"state":"active","ping":90},{"user_id":422,"name":"BonnieDrag","steam_id":76561199149216429,"connected_time":78000000000,"state":"active","ping":86},{"user_id":414,"name":"crazycalumrock","steam_id":76561198049890080,"connected_time":222000000000,"state":"active","ping":48},{"user_id":390,"name":"UwUlric","steam_id":76561198136794751,"connected_time":2688000000000,"state":"active","ping":86},{"user_id":336,"name":"wasto-/-‚Ñ¢","steam_id":76561198102888038,"connected_time":6531000000000,"state":"active","ping":45},{"user_id":401,"name":"Boba","steam_id":76561198369465924,"connected_time":1795000000000,"state":"active","ping":68},{"user_id":409,"name":"Lux","steam_id":76561198060417740,"connected_time":813000000000,"state":"active","ping":45},{"user_id":415,"name":"Talkkari","steam_id":76561198025327723,"connected_time":209000000000,"state":"active","ping":60},{"user_id":406,"name":"kubanamaxa","steam_id":76561198154315656,"connected_time":1569000000000,"state":"active","ping":81},{"user_id":407,"name":"StingyLettuce","steam_id":76561199010337406,"connected_time":1292000000000,"state":"active","ping":110},{"user_id":416,"name":"sneaky snake","steam_id":76561198279965791,"connected_time":201000000000,"state":"active","ping":107},{"user_id":411,"name":"Correspondent","steam_id":76561198124078154,"connected_time":288000000000,"state":"active","ping":70},{"user_id":420,"name":"WasserGurke","steam_id":76561198372482746,"connected_time":159000000000,"state":"active","ping":72},{"user_id":384,"name":"Zm4j","steam_id":76561198259465946,"connected_time":3337000000000,"state":"active","ping":84},{"user_id":418,"name":"SzalonygƒÖsior69","steam_id":76561198300089671,"connected_time":183000000000,"state":"active","ping":67},{"user_id":403,"name":"Master Of Noob","steam_id":76561198217926783,"connected_time":1646000000000,"state":"active","ping":68},{"user_id":419,"name":"Vriska Serket","steam_id":76561198201870332,"connected_time":175000000000,"state":"active","ping":61},{"user_id":423,"name":"Refre35","steam_id":76561198971840738,"connected_time":74000000000,"state":"active","ping":94},{"user_id":356,"name":"‚Ä†ùî•e œâoo","steam_id":76561198929808815,"connected_time":5109000000000,"state":"active","ping":56}]},{"server_id":310,"name":"Uncletopia | Frankfurt | 5 | All Maps","name_short":"frk-5","host":"frk-1.de.uncletopia.com","port":27055,"enabled":true,"region":"eu","cc":"de","latitude":50.110924,"longitude":8.682127,"reserved":0,"last_update":"0001-01-01T00:00:00Z","name_a2s":"Uncletopia | Frankfurt | 5 | All Maps","protocol":17,"map":"cp_dustbowl","folder":"tf","game":"Team Fortress","app_id":440,"player_count":24,"max_players":24,"Bots":0,"server_type":"Dedicated","server_os":"Linux","password":true,"vac":true,"version":"7961495","steam_id":85568392924504277,"keywords":["cp","nocrits","nodmgspread","uncletopia"],"game_id":440,"stv_port":27056,"stv_name":"Uncletopia | Frankfurt | 5 | All Maps | STV","players":[{"user_id":508,"name":"Bottle O' Scrumpy","steam_id":76561199244250562,"connected_time":1082000000000,"state":"active","ping":109},{"user_id":533,"name":"Rumf","steam_id":76561197993957541,"connected_time":295000000000,"state":"active","ping":56},{"user_id":522,"name":"Ozzak","steam_id":76561198353664262,"connected_time":544000000000,"state":"active","ping":45},{"user_id":524,"name":"BLACKBIRD CLOSE [she/her]","steam_id":76561198262910410,"connected_time":531000000000,"state":"active","ping":97},{"user_id":499,"name":"realness","steam_id":76561199129226935,"connected_time":2126000000000,"state":"active","ping":90},{"user_id":527,"name":"leonardini.w","steam_id":76561199097963071,"connected_time":482000000000,"state":"active","ping":80},{"user_id":519,"name":"ascension","steam_id":76561198114056695,"connected_time":570000000000,"state":"active","ping":69},{"user_id":535,"name":"mefju","steam_id":76561198854933128,"connected_time":31000000000,"state":"active","ping":54},{"user_id":532,"name":"ËôæÊâØËõã.Lonely","steam_id":76561198022989560,"connected_time":321000000000,"state":"active","ping":77},{"user_id":526,"name":"Ozzie","steam_id":76561197992915315,"connected_time":510000000000,"state":"active","ping":74},{"user_id":464,"name":"LOBZIK","steam_id":76561198114830120,"connected_time":4514000000000,"state":"active","ping":77},{"user_id":501,"name":"Faking.","steam_id":76561198823540483,"connected_time":2088000000000,"state":"active","ping":87},{"user_id":470,"name":"my mom","steam_id":76561199225201569,"connected_time":4310000000000,"state":"active","ping":144},{"user_id":528,"name":"Rigby","steam_id":76561198021552128,"connected_time":475000000000,"state":"active","ping":93},{"user_id":513,"name":"Temka","steam_id":76561198331323738,"connected_time":1018000000000,"state":"active","ping":69},{"user_id":497,"name":"Archive","steam_id":76561198071255385,"connected_time":2589000000000,"state":"active","ping":97},{"user_id":514,"name":"Abbplutt","steam_id":76561198121678429,"connected_time":1016000000000,"state":"active","ping":76},{"user_id":515,"name":"Kotlonizator","steam_id":76561198993830128,"connected_time":1010000000000,"state":"active","ping":81},{"user_id":530,"name":"dab-dab","steam_id":76561198088930298,"connected_time":419000000000,"state":"active","ping":82},{"user_id":507,"name":"Koli","steam_id":76561197992428783,"connected_time":1270000000000,"state":"active","ping":45},{"user_id":516,"name":"Maksim:)","steam_id":76561198816061842,"connected_time":840000000000,"state":"active","ping":72},{"user_id":504,"name":"Soler_F_A","steam_id":76561198158345985,"connected_time":2047000000000,"state":"active","ping":94},{"user_id":518,"name":"TidB","steam_id":76561198055342304,"connected_time":692000000000,"state":"active","ping":52},{"user_id":529,"name":"Rojapokemona","steam_id":76561198179925894,"connected_time":454000000000,"state":"active","ping":68}]},{"server_id":311,"name":"Uncletopia | Frankfurt | 6 | All Maps","name_short":"frk-6","host":"frk-1.de.uncletopia.com","port":27065,"enabled":true,"region":"eu","cc":"de","latitude":50.110924,"longitude":8.682127,"reserved":0,"last_update":"0001-01-01T00:00:00Z","name_a2s":"Uncletopia | Frankfurt | 6 | All Maps","protocol":17,"map":"pl_frontier_final","folder":"tf","game":"Team Fortress","app_id":440,"player_count":23,"max_players":24,"Bots":0,"server_type":"Dedicated","server_os":"Linux","password":true,"vac":true,"version":"7961495","steam_id":85568392924504278,"keywords":["nocrits","nodmgspread","payload","uncletopia"],"game_id":440,"stv_port":27066,"stv_name":"Uncletopia | Frankfurt | 6 | All Maps | STV","players":[{"user_id":389,"name":"Dr Ultraman","steam_id":76561198060787567,"connected_time":635000000000,"state":"active","ping":72},{"user_id":400,"name":"Spotmonkey","steam_id":76561198003994092,"connected_time":322000000000,"state":"active","ping":104},{"user_id":350,"name":"Lunar","steam_id":76561198154068949,"connected_time":2441000000000,"state":"active","ping":62},{"user_id":390,"name":"competitive sex","steam_id":76561198060530483,"connected_time":630000000000,"state":"active","ping":70},{"user_id":368,"name":"Cosmic Gamer","steam_id":76561198027357981,"connected_time":1303000000000,"state":"active","ping":85},{"user_id":325,"name":"Eggy_The_Tyrone","steam_id":76561198036857277,"connected_time":4427000000000,"state":"active","ping":61},{"user_id":401,"name":"Max Power","steam_id":76561198019269089,"connected_time":26000000000,"state":"active","ping":50},{"user_id":237,"name":"Chronicles of Nornia","steam_id":76561198040509712,"connected_time":8316000000000,"state":"active","ping":61},{"user_id":398,"name":"Maddox","steam_id":76561198026419869,"connected_time":405000000000,"state":"active","ping":69},{"user_id":392,"name":"benjaminmarkMLP","steam_id":76561198920361202,"connected_time":615000000000,"state":"active","ping":128},{"user_id":355,"name":"mossfan1","steam_id":76561198087525446,"connected_time":1626000000000,"state":"active","ping":85},{"user_id":312,"name":"‡πñ€£€úSir Robbiewolf","steam_id":76561198001357988,"connected_time":4965000000000,"state":"active","ping":71},{"user_id":330,"name":"FoOzTV","steam_id":76561197998636728,"connected_time":4044000000000,"state":"active","ping":71},{"user_id":352,"name":"degu","steam_id":76561198180823942,"connected_time":1979000000000,"state":"active","ping":79},{"user_id":394,"name":"Dodo","steam_id":76561198001877653,"connected_time":601000000000,"state":"active","ping":59},{"user_id":366,"name":"mohemmedmokhter2005","steam_id":76561199197650506,"connected_time":1385000000000,"state":"active","ping":99},{"user_id":379,"name":"Deckard","steam_id":76561198004704647,"connected_time":1113000000000,"state":"active","ping":76},{"user_id":395,"name":"rev","steam_id":76561198134512931,"connected_time":597000000000,"state":"active","ping":56},{"user_id":292,"name":"Donki Wonki","steam_id":76561198327761273,"connected_time":6063000000000,"state":"active","ping":70},{"user_id":397,"name":"nemo","steam_id":76561199488507139,"connected_time":585000000000,"state":"active","ping":126},{"user_id":365,"name":"mc hammer #1 fan","steam_id":76561198034955422,"connected_time":1414000000000,"state":"active","ping":66},{"user_id":202,"name":"El Gato Volador","steam_id":76561198021296882,"connected_time":10635000000000,"state":"active","ping":74},{"user_id":364,"name":"jorgemaioneze","steam_id":76561198282523699,"connected_time":1511000000000,"state":"active","ping":75}]},{"server_id":23,"name":"Uncletopia | Frankfurt | 7 | Stopwatch","name_short":"frk-7","host":"frk-1.de.uncletopia.com","port":27075,"enabled":true,"region":"eu","cc":"de","latitude":50.110924,"longitude":8.682127,"reserved":0,"last_update":"0001-01-01T00:00:00Z","name_a2s":"Uncletopia | Frankfurt | 7 | Stopwatch","protocol":17,"map":"workshop/pl_summercoast_rc8e.ugc1761528829","folder":"tf","game":"Team Fortress","app_id":440,"player_count":3,"max_players":24,"Bots":0,"server_type":"Dedicated","server_os":"Linux","password":true,"vac":true,"version":"7961495","steam_id":85568392924742827,"keywords":["nocrits","nodmgspread","payload","uncletopia"],"game_id":440,"stv_port":27076,"stv_name":"Uncletopia | Frankfurt | 7 | Stopwatch | STV","players":[{"user_id":67,"name":"Lord Lem0ns!","steam_id":76561198323174893,"connected_time":629000000000,"state":"active","ping":171},{"user_id":69,"name":"CMD_God","steam_id":76561198333037007,"connected_time":476000000000,"state":"active","ping":83},{"user_id":70,"name":"Kyra","steam_id":76561199151490064,"connected_time":468000000000,"state":"active","ping":65}]},{"server_id":24,"name":"Uncletopia | Frankfurt | 8 | Community","name_short":"frk-8","host":"frk-1.de.uncletopia.com","port":27085,"enabled":true,"region":"eu","cc":"de","latitude":50.110924,"longitude":8.682127,"reserved":0,"last_update":"0001-01-01T00:00:00Z","name_a2s":"Uncletopia | Frankfurt | 8 | Community","protocol":17,"map":"workshop/cp_villa_b19.ugc2113052569","folder":"tf","game":"Team Fortress","app_id":440,"player_count":20,"max_players":24,"Bots":0,"server_type":"Dedicated","server_os":"Linux","password":true,"vac":true,"version":"7961495","steam_id":85568392924742828,"keywords":["cp","nocrits","nodmgspread","uncletopia"],"game_id":440,"stv_port":27086,"stv_name":"Uncletopia | Frankfurt | 8 | Community | STV","players":[{"user_id":150,"name":"Dokuro","steam_id":76561198005413903,"connected_time":677000000000,"state":"active","ping":70},{"user_id":138,"name":"TriR–ò–å","steam_id":76561198119622375,"connected_time":1504000000000,"state":"active","ping":66},{"user_id":142,"name":"Thisisthecat","steam_id":76561198403314907,"connected_time":1354000000000,"state":"active","ping":47},{"user_id":147,"name":"Inairo","steam_id":76561198113473099,"connected_time":1076000000000,"state":"active","ping":72},{"user_id":42,"name":"joachym","steam_id":76561198428579761,"connected_time":6914000000000,"state":"active","ping":56},{"user_id":121,"name":"JazzMaster","steam_id":76561198204524845,"connected_time":2984000000000,"state":"active","ping":93},{"user_id":151,"name":"BosnianBones","steam_id":76561198300187313,"connected_time":659000000000,"state":"active","ping":177},{"user_id":132,"name":"Darkf065","steam_id":76561199029257202,"connected_time":2106000000000,"state":"active","ping":99},{"user_id":143,"name":"ScoutPilgrim","steam_id":76561198013007215,"connected_time":1310000000000,"state":"active","ping":48},{"user_id":139,"name":"sudo","steam_id":76561198045575797,"connected_time":1498000000000,"state":"active","ping":59},{"user_id":123,"name":"SPANISH LIGMA","steam_id":76561198846916016,"connected_time":2959000000000,"state":"active","ping":100},{"user_id":160,"name":"Bronze Age Furvert","steam_id":76561198859118263,"connected_time":125000000000,"state":"active","ping":143},{"user_id":134,"name":"TrolololNor.","steam_id":76561198324592461,"connected_time":2078000000000,"state":"active","ping":59},{"user_id":145,"name":"FLYING DWARF","steam_id":76561199048614286,"connected_time":1174000000000,"state":"active","ping":102},{"user_id":129,"name":"MC Stompin","steam_id":76561198061527217,"connected_time":2473000000000,"state":"active","ping":69},{"user_id":131,"name":"CLIF Bar Blueberry Crisp","steam_id":76561198060339391,"connected_time":2424000000000,"state":"active","ping":45},{"user_id":148,"name":"JohaTG","steam_id":76561198804468284,"connected_time":991000000000,"state":"active","ping":47},{"user_id":157,"name":"antondstepanenko","steam_id":76561198966147466,"connected_time":382000000000,"state":"active","ping":71},{"user_id":149,"name":"powej","steam_id":76561198056381418,"connected_time":949000000000,"state":"active","ping":54},{"user_id":137,"name":"Rock..","steam_id":76561198004641963,"connected_time":1903000000000,"state":"active","ping":86}]},{"server_id":202,"name":"Uncletopia | Hong Kong | 1 | All Maps","name_short":"hgk-1","host":"hgk-1.hk.uncletopia.com","port":27015,"enabled":true,"region":"asia","cc":"hk","latitude":22.302711,"longitude":114.177216,"reserved":0,"last_update":"0001-01-01T00:00:00Z","name_a2s":"Uncletopia | Hong Kong | 1 | All Maps","protocol":17,"map":"cp_mountainlab","folder":"tf","game":"Team Fortress","app_id":440,"player_count":0,"max_players":24,"Bots":0,"server_type":"Dedicated","server_os":"Linux","password":true,"vac":true,"version":"7961495","steam_id":85568392924494504,"keywords":["cp","nocrits","nodmgspread","uncletopia"],"game_id":440,"stv_port":27016,"stv_name":"Uncletopia | Hong Kong | 1 | All Maps | STV","players":null},{"server_id":1,"name":"Uncletopia | Los Angeles | 1 | All Maps","name_short":"lax-1","host":"lax-1.us.uncletopia.com","port":27015,"enabled":true,"region":"us-west","cc":"us","latitude":33.94279,"longitude":-118.41004,"reserved":0,"last_update":"0001-01-01T00:00:00Z","name_a2s":"Uncletopia | Los Angeles | 1 | All Maps","protocol":17,"map":"koth_highpass","folder":"tf","game":"Team Fortress","app_id":440,"player_count":0,"max_players":24,"Bots":0,"server_type":"Dedicated","server_os":"Linux","password":true,"vac":true,"version":"7961495","steam_id":85568392924469991,"keywords":["cp","nocrits","nodmgspread","uncletopia"],"game_id":440,"stv_port":27016,"stv_name":"Uncletopia | Los Angeles | 1 | All Maps | STV","players":null},{"server_id":112,"name":"Uncletopia | Los Angeles | 2 | All Maps","name_short":"lax-2","host":"lax-1.us.uncletopia.com","port":27025,"enabled":true,"region":"us-west","cc":"us","latitude":33.94279,"longitude":-118.41004,"reserved":0,"last_update":"0001-01-01T00:00:00Z","name_a2s":"Uncletopia | Los Angeles | 2 | All Maps","protocol":17,"map":"pl_upward","folder":"tf","game":"Team Fortress","app_id":440,"player_count":24,"max_players":24,"Bots":0,"server_type":"Dedicated","server_os":"Linux","password":true,"vac":true,"version":"7961495","steam_id":85568392924469992,"keywords":["nocrits","nodmgspread","payload","uncletopia"],"game_id":440,"stv_port":27026,"stv_name":"Uncletopia | Los Angeles | 2 | All Maps | STV","players":[{"user_id":92,"name":"Mainyx","steam_id":76561198811844438,"connected_time":2018000000000,"state":"active","ping":44},{"user_id":65,"name":"Matisguy","steam_id":76561199020903681,"connected_time":4005000000000,"state":"active","ping":94},{"user_id":96,"name":"Cael","steam_id":76561198136789464,"connected_time":949000000000,"state":"active","ping":61},{"user_id":99,"name":"space dog","steam_id":76561198153384032,"connected_time":782000000000,"state":"active","ping":86},{"user_id":61,"name":"SenTreats","steam_id":76561198085835841,"connected_time":4492000000000,"state":"active","ping":61},{"user_id":100,"name":"Cartmachine","steam_id":76561198060362323,"connected_time":755000000000,"state":"active","ping":68},{"user_id":109,"name":"Pixelated Pussy","steam_id":76561198002511088,"connected_time":204000000000,"state":"active","ping":61},{"user_id":78,"name":"Karthos","steam_id":76561198040827487,"connected_time":3020000000000,"state":"active","ping":108},{"user_id":110,"name":"chanoc","steam_id":76561198026734746,"connected_time":171000000000,"state":"active","ping":57},{"user_id":85,"name":"AudaCD","steam_id":76561198202775853,"connected_time":2841000000000,"state":"active","ping":82},{"user_id":102,"name":"Kaluka","steam_id":76561198036861445,"connected_time":692000000000,"state":"active","ping":109},{"user_id":103,"name":"John Smith","steam_id":76561198185776555,"connected_time":665000000000,"state":"active","ping":58},{"user_id":86,"name":"Silvermace","steam_id":76561198090696843,"connected_time":2832000000000,"state":"active","ping":45},{"user_id":72,"name":"Unemployed","steam_id":76561199127423378,"connected_time":3599000000000,"state":"active","ping":59},{"user_id":105,"name":"dankmemer9999","steam_id":76561199088438884,"connected_time":433000000000,"state":"active","ping":96},{"user_id":93,"name":"Jeremy","steam_id":76561198286240347,"connected_time":1957000000000,"state":"active","ping":119},{"user_id":95,"name":"Glanderson booper","steam_id":76561198021223747,"connected_time":1181000000000,"state":"active","ping":84},{"user_id":108,"name":"Berner415TTV","steam_id":76561198082334363,"connected_time":217000000000,"state":"active","ping":78},{"user_id":73,"name":"mega","steam_id":76561198089520959,"connected_time":3489000000000,"state":"active","ping":117},{"user_id":98,"name":"Hindoto","steam_id":76561198876365283,"connected_time":798000000000,"state":"active","ping":37},{"user_id":97,"name":"triph","steam_id":76561198067196509,"connected_time":919000000000,"state":"active","ping":30},{"user_id":67,"name":"cheesebro","steam_id":76561198002072852,"connected_time":3944000000000,"state":"active","ping":37},{"user_id":111,"name":"VyruzDed„ÄÇ","steam_id":76561199070671785,"connected_time":81000000000,"state":"active","ping":64},{"user_id":91,"name":"atmBomb","steam_id":76561198055557988,"connected_time":2104000000000,"state":"active","ping":74}]},{"server_id":324,"name":"Uncletopia | Los Angeles | 3 | All Maps","name_short":"lax-3","host":"lax-1.us.uncletopia.com","port":27035,"enabled":true,"region":"us-west","cc":"us","latitude":33.94279,"longitude":-118.41004,"reserved":0,"last_update":"0001-01-01T00:00:00Z","name_a2s":"Uncletopia | Los Angeles | 3 | All Maps","protocol":17,"map":"cp_process_final","folder":"tf","game":"Team Fortress","app_id":440,"player_count":0,"max_players":24,"Bots":0,"server_type":"Dedicated","server_os":"Linux","password":true,"vac":true,"version":"7961495","steam_id":85568392924510198,"keywords":["cp","nocrits","nodmgspread","uncletopia"],"game_id":440,"stv_port":27036,"stv_name":"Uncletopia | Los Angeles | 3 | All Maps | STV","players":null},{"server_id":25,"name":"Uncletopia | Los Angeles | 4 | Stopwatch","name_short":"lax-4","host":"lax-1.us.uncletopia.com","port":27045,"enabled":true,"region":"us-west","cc":"us","latitude":33.94279,"longitude":-118.41004,"reserved":0,"last_update":"0001-01-01T00:00:00Z","name_a2s":"Uncletopia | Los Angeles | 4 | Stopwatch","protocol":17,"map":"cp_gullywash_final1","folder":"tf","game":"Team Fortress","app_id":440,"player_count":0,"max_players":24,"Bots":0,"server_type":"Dedicated","server_os":"Linux","password":true,"vac":true,"version":"7961495","steam_id":85568392924510199,"keywords":["cp","nocrits","nodmgspread","uncletopia"],"game_id":440,"stv_port":27046,"stv_name":"Uncletopia | Los Angeles | 4 | Stopwatch | STV","players":null},{"server_id":11,"name":"Uncletopia | London | 1 | All Maps","name_short":"lon-1","host":"lon-1.uk.uncletopia.com","port":27015,"enabled":true,"region":"eu","cc":"gb","latitude":51.509865,"longitude":-0.118092,"reserved":0,"last_update":"0001-01-01T00:00:00Z","name_a2s":"Uncletopia | London | 1 | All Maps","protocol":17,"map":"cp_sunshine","folder":"tf","game":"Team Fortress","app_id":440,"player_count":24,"max_players":24,"Bots":0,"server_type":"Dedicated","server_os":"Linux","password":true,"vac":true,"version":"7961495","steam_id":85568392924367362,"keywords":["cp","nocrits","nodmgspread","uncletopia"],"game_id":440,"stv_port":27016,"stv_name":"Uncletopia | London | 1 | All Maps | STV","players":[{"user_id":457,"name":"Maveth","steam_id":76561198315021197,"connected_time":1074000000000,"state":"active","ping":135},{"user_id":383,"name":"face beautiful lies","steam_id":76561198079277466,"connected_time":6194000000000,"state":"active","ping":60},{"user_id":416,"name":"Clown","steam_id":76561198074657015,"connected_time":3500000000000,"state":"active","ping":72},{"user_id":440,"name":"Lubi Animal","steam_id":76561199041620433,"connected_time":1942000000000,"state":"active","ping":61},{"user_id":439,"name":"the_Qcumber","steam_id":76561199152515819,"connected_time":1998000000000,"state":"active","ping":75},{"user_id":432,"name":"TomNoSocks","steam_id":76561198114071046,"connected_time":2780000000000,"state":"active","ping":63},{"user_id":367,"name":"Alter","steam_id":76561199135934698,"connected_time":7847000000000,"state":"active","ping":88},{"user_id":382,"name":"yup that extream78711","steam_id":76561198106049954,"connected_time":6276000000000,"state":"active","ping":145},{"user_id":451,"name":"KENZO","steam_id":76561197993520279,"connected_time":1359000000000,"state":"active","ping":44},{"user_id":420,"name":"here widdle wabbit‚Ä¶ come here","steam_id":76561198190583242,"connected_time":3306000000000,"state":"active","ping":83},{"user_id":463,"name":"Without warning","steam_id":76561199383437138,"connected_time":89000000000,"state":"active","ping":120},{"user_id":411,"name":"YARrICk.¬´+¬ª","steam_id":76561197990126485,"connected_time":4138000000000,"state":"active","ping":58},{"user_id":454,"name":"Blar","steam_id":76561198042438229,"connected_time":1271000000000,"state":"active","ping":60},{"user_id":459,"name":"Persephone","steam_id":76561198246467946,"connected_time":899000000000,"state":"active","ping":71},{"user_id":456,"name":"Chappi","steam_id":76561198075512843,"connected_time":1097000000000,"state":"active","ping":90},{"user_id":442,"name":"Slifer the GiantEnemy SkyDragon","steam_id":76561198062255803,"connected_time":1840000000000,"state":"active","ping":73},{"user_id":387,"name":"enine","steam_id":76561198890193313,"connected_time":5858000000000,"state":"active","ping":58},{"user_id":455,"name":"That Bussy Can Squirt","steam_id":76561199185615752,"connected_time":1135000000000,"state":"active","ping":54},{"user_id":380,"name":"Pantroglodytestherapy","steam_id":76561198236015392,"connected_time":6679000000000,"state":"active","ping":118},{"user_id":435,"name":"Mapavri","steam_id":76561198370196400,"connected_time":2526000000000,"state":"active","ping":90},{"user_id":417,"name":"Trapezoid","steam_id":76561198059369295,"connected_time":3493000000000,"state":"active","ping":63},{"user_id":441,"name":"JayKey","steam_id":76561198008847925,"connected_time":1911000000000,"state":"active","ping":59},{"user_id":461,"name":"SwLucie","steam_id":76561197969984656,"connected_time":398000000000,"state":"active","ping":55},{"user_id":444,"name":"Naeso","steam_id":76561198068602498,"connected_time":1750000000000,"state":"active","ping":45}]},{"server_id":114,"name":"Uncletopia | London | 2 | All Maps","name_short":"lon-2","host":"lon-1.uk.uncletopia.com","port":27025,"enabled":true,"region":"eu","cc":"gb","latitude":51.509865,"longitude":-0.118092,"reserved":0,"last_update":"0001-01-01T00:00:00Z","name_a2s":"Uncletopia | London | 2 | All Maps","protocol":17,"map":"cp_mountainlab","folder":"tf","game":"Team Fortress","app_id":440,"player_count":24,"max_players":24,"Bots":0,"server_type":"Dedicated","server_os":"Linux","password":true,"vac":true,"version":"7961495","steam_id":85568392924470941,"keywords":["cp","nocrits","nodmgspread","uncletopia"],"game_id":440,"stv_port":27026,"stv_name":"Uncletopia | London | 2 | All Maps | STV","players":[{"user_id":89,"name":"IS3BITEL","steam_id":76561199178060325,"connected_time":1097000000000,"state":"active","ping":84},{"user_id":59,"name":"Spectre","steam_id":76561198163819482,"connected_time":2034000000000,"state":"active","ping":65},{"user_id":86,"name":"great value","steam_id":76561198368978553,"connected_time":1315000000000,"state":"active","ping":127},{"user_id":57,"name":"Texas Red","steam_id":76561199069782779,"connected_time":2410000000000,"state":"active","ping":88},{"user_id":60,"name":"Raine","steam_id":76561198098860903,"connected_time":2032000000000,"state":"active","ping":70},{"user_id":92,"name":"Dyld","steam_id":76561197979603871,"connected_time":1008000000000,"state":"active","ping":63},{"user_id":100,"name":"GrungiestCow","steam_id":76561198170192279,"connected_time":677000000000,"state":"active","ping":163},{"user_id":64,"name":"Diamhair","steam_id":76561198109020178,"connected_time":1690000000000,"state":"active","ping":62},{"user_id":101,"name":"Pixie","steam_id":76561198044038797,"connected_time":389000000000,"state":"active","ping":85},{"user_id":99,"name":"gabagool","steam_id":76561198307111838,"connected_time":719000000000,"state":"active","ping":34},{"user_id":67,"name":"Mr.O","steam_id":76561198039567498,"connected_time":1607000000000,"state":"active","ping":55},{"user_id":94,"name":"spy's arent real","steam_id":76561198165871469,"connected_time":963000000000,"state":"active","ping":56},{"user_id":71,"name":"Major","steam_id":76561198086483282,"connected_time":1548000000000,"state":"active","ping":50},{"user_id":103,"name":"Mav","steam_id":76561198004403881,"connected_time":94000000000,"state":"active","ping":60},{"user_id":87,"name":"Cormdawg","steam_id":76561198336483216,"connected_time":1306000000000,"state":"active","ping":53},{"user_id":74,"name":"Gubbly Bubbins","steam_id":76561198101451654,"connected_time":1501000000000,"state":"active","ping":49},{"user_id":76,"name":"Hodood","steam_id":76561198167443476,"connected_time":1497000000000,"state":"active","ping":57},{"user_id":104,"name":"fickens","steam_id":76561198209950723,"connected_time":62000000000,"state":"active","ping":53},{"user_id":88,"name":"--mmx--","steam_id":76561197997344902,"connected_time":1206000000000,"state":"active","ping":76},{"user_id":81,"name":"DrExplosive","steam_id":76561198063678579,"connected_time":1435000000000,"state":"active","ping":36},{"user_id":102,"name":"VampiuS","steam_id":76561197998827007,"connected_time":234000000000,"state":"active","ping":68},{"user_id":83,"name":"froge","steam_id":76561198304959766,"connected_time":1418000000000,"state":"active","ping":75},{"user_id":96,"name":"Big Al","steam_id":76561198079585198,"connected_time":924000000000,"state":"active","ping":55},{"user_id":98,"name":"Bineapple","steam_id":76561198983650763,"connected_time":833000000000,"state":"active","ping":56}]},{"server_id":320,"name":"Uncletopia | London | 3 | All Maps","name_short":"lon-3","host":"lon-1.uk.uncletopia.com","port":27035,"enabled":true,"region":"eu","cc":"gb","latitude":51.509865,"longitude":-0.118092,"reserved":0,"last_update":"0001-01-01T00:00:00Z","name_a2s":"Uncletopia | London | 3 | All Maps","protocol":17,"map":"cp_process_final","folder":"tf","game":"Team Fortress","app_id":440,"player_count":24,"max_players":24,"Bots":0,"server_type":"Dedicated","server_os":"Linux","password":true,"vac":true,"version":"7961495","steam_id":85568392924510192,"keywords":["cp","nocrits","nodmgspread","uncletopia"],"game_id":440,"stv_port":27036,"stv_name":"Uncletopia | London | 3 | All Maps | STV","players":[{"user_id":249,"name":"fence_","steam_id":76561198150386379,"connected_time":4692000000000,"state":"active","ping":45},{"user_id":283,"name":"Qdarks","steam_id":76561198013391340,"connected_time":821000000000,"state":"active","ping":176},{"user_id":284,"name":"MaypulSoyrup","steam_id":76561199213966821,"connected_time":815000000000,"state":"active","ping":80},{"user_id":252,"name":"Caruzon - Obismal","steam_id":76561198036211170,"connected_time":4026000000000,"state":"active","ping":89},{"user_id":278,"name":"fabacher","steam_id":76561198057905272,"connected_time":2115000000000,"state":"active","ping":66},{"user_id":253,"name":"frosty","steam_id":76561198094560834,"connected_time":4023000000000,"state":"active","ping":57},{"user_id":263,"name":"clunk","steam_id":76561198836460767,"connected_time":3910000000000,"state":"active","ping":76},{"user_id":255,"name":"R8N - Obismal","steam_id":76561198007482714,"connected_time":4018000000000,"state":"active","ping":76},{"user_id":273,"name":":(","steam_id":76561198152392309,"connected_time":2607000000000,"state":"active","ping":45},{"user_id":285,"name":"neophyte78","steam_id":76561198010009076,"connected_time":782000000000,"state":"active","ping":48},{"user_id":246,"name":"Pogi820","steam_id":76561198320573568,"connected_time":4840000000000,"state":"active","ping":101},{"user_id":286,"name":"Foo.","steam_id":76561198000013666,"connected_time":731000000000,"state":"active","ping":70},{"user_id":289,"name":"Summer ‚ô•","steam_id":76561198047723907,"connected_time":591000000000,"state":"active","ping":36},{"user_id":251,"name":"cowb√∂y","steam_id":76561198048990716,"connected_time":4179000000000,"state":"active","ping":100},{"user_id":290,"name":"prot√´in","steam_id":76561197998423616,"connected_time":564000000000,"state":"active","ping":69},{"user_id":280,"name":"wouris","steam_id":76561198876188003,"connected_time":1186000000000,"state":"active","ping":60},{"user_id":269,"name":"Naiten","steam_id":76561198051894514,"connected_time":2989000000000,"state":"active","ping":84},{"user_id":275,"name":"Just1s","steam_id":76561198026597437,"connected_time":2426000000000,"state":"active","ping":75},{"user_id":291,"name":"coella","steam_id":76561198442803577,"connected_time":97000000000,"state":"active","ping":281},{"user_id":272,"name":"Macci - Obismal","steam_id":76561198050485404,"connected_time":2643000000000,"state":"active","ping":75},{"user_id":279,"name":"‚ô¨ ·¥õ·¥á·¥ã…™·¥õ ‚ô¨","steam_id":76561198111704722,"connected_time":1827000000000,"state":"active","ping":94},{"user_id":266,"name":"Spurt","steam_id":76561198078523852,"connected_time":3724000000000,"state":"active","ping":58},{"user_id":243,"name":"Massmarine","steam_id":76561198038696531,"connected_time":5340000000000,"state":"active","ping":114},{"user_id":282,"name":"padillacampos","steam_id":76561198161923970,"connected_time":929000000000,"state":"active","ping":78}]},{"server_id":321,"name":"Uncletopia | London | 4 | All Maps","name_short":"lon-4","host":"lon-1.uk.uncletopia.com","port":27045,"enabled":true,"region":"eu","cc":"gb","latitude":51.509865,"longitude":-0.118092,"reserved":0,"last_update":"0001-01-01T00:00:00Z","name_a2s":"Uncletopia | London | 4 | All Maps","protocol":17,"map":"cp_steel","folder":"tf","game":"Team Fortress","app_id":440,"player_count":24,"max_players":24,"Bots":0,"server_type":"Dedicated","server_os":"Linux","password":true,"vac":true,"version":"7961495","steam_id":85568392924510193,"keywords":["cp","nocrits","nodmgspread","uncletopia"],"game_id":440,"stv_port":27046,"stv_name":"Uncletopia | London | 4 | All Maps | STV","players":[{"user_id":454,"name":"Eoghan","steam_id":76561198095344395,"connected_time":1516000000000,"state":"active","ping":61},{"user_id":489,"name":"Baked Beans Gaming","steam_id":76561199177778966,"connected_time":18000000000,"state":"active","ping":49},{"user_id":475,"name":"Lola bunny","steam_id":76561198214149431,"connected_time":651000000000,"state":"active","ping":44},{"user_id":466,"name":"Carlos Spartan","steam_id":76561198362047478,"connected_time":1314000000000,"state":"active","ping":170},{"user_id":474,"name":"Nabi","steam_id":76561198092259156,"connected_time":756000000000,"state":"active","ping":145},{"user_id":476,"name":"LainBizkit","steam_id":76561199200708626,"connected_time":638000000000,"state":"active","ping":83},{"user_id":463,"name":"Dapper","steam_id":76561198081694974,"connected_time":1375000000000,"state":"active","ping":44},{"user_id":434,"name":"Not Sussy Tanuki","steam_id":76561198137289375,"connected_time":3226000000000,"state":"active","ping":112},{"user_id":483,"name":"worm with a fat ass","steam_id":76561198170026338,"connected_time":305000000000,"state":"active","ping":74},{"user_id":442,"name":"Sussius Amogius The Third","steam_id":76561198047778351,"connected_time":2429000000000,"state":"active","ping":44},{"user_id":484,"name":"meme_lad21","steam_id":76561199229567068,"connected_time":287000000000,"state":"active","ping":160},{"user_id":485,"name":"Narvhal√∏","steam_id":76561198147495474,"connected_time":269000000000,"state":"active","ping":43},{"user_id":482,"name":"Fofenho","steam_id":76561198436817109,"connected_time":359000000000,"state":"active","ping":59},{"user_id":455,"name":"DANDELION","steam_id":76561198038451376,"connected_time":1516000000000,"state":"active","ping":45},{"user_id":468,"name":"cropping","steam_id":76561198026586456,"connected_time":1273000000000,"state":"active","ping":61},{"user_id":472,"name":"Battersüå∏","steam_id":76561198927992205,"connected_time":1002000000000,"state":"active","ping":51},{"user_id":452,"name":"bombo112","steam_id":76561198059743551,"connected_time":1938000000000,"state":"active","ping":56},{"user_id":488,"name":"I jazzed myself","steam_id":76561198203016603,"connected_time":208000000000,"state":"active","ping":65},{"user_id":487,"name":"Chicken pot pie","steam_id":76561198084997090,"connected_time":251000000000,"state":"active","ping":43},{"user_id":478,"name":"2BCD","steam_id":76561198178254946,"connected_time":537000000000,"state":"active","ping":60},{"user_id":457,"name":"ThunderCluckz","steam_id":76561198055066162,"connected_time":1458000000000,"state":"active","ping":65},{"user_id":438,"name":"Vinhal Keller","steam_id":76561198145589528,"connected_time":3167000000000,"state":"active","ping":54},{"user_id":289,"name":"‚ôÇ Animan ‚ôÇ Studios ‚ôÇ","steam_id":76561198308302932,"connected_time":11859000000000,"state":"active","ping":104},{"user_id":440,"name":"Norret Gantier","steam_id":76561198170062453,"connected_time":2992000000000,"state":"active","ping":92}]},{"server_id":21,"name":"Uncletopia | London | 5 | All Maps","name_short":"lon-5","host":"lon-1.uk.uncletopia.com","port":27055,"enabled":true,"region":"eu","cc":"gb","latitude":51.509865,"longitude":-0.118092,"reserved":0,"last_update":"0001-01-01T00:00:00Z","name_a2s":"Uncletopia | London | 5 | All Maps","protocol":17,"map":"pl_borneo","folder":"tf","game":"Team Fortress","app_id":440,"player_count":24,"max_players":24,"Bots":0,"server_type":"Dedicated","server_os":"Linux","password":true,"vac":true,"version":"7961495","steam_id":85568392924742829,"keywords":["nocrits","nodmgspread","payload","uncletopia"],"game_id":440,"stv_port":27056,"stv_name":"Uncletopia | London | 5 | All Maps | STV","players":[{"user_id":378,"name":"Flying skyhigh","steam_id":76561198372971096,"connected_time":685000000000,"state":"active","ping":71},{"user_id":381,"name":"L4gman","steam_id":76561198048227040,"connected_time":576000000000,"state":"active","ping":76},{"user_id":376,"name":"Tea","steam_id":76561198799243030,"connected_time":1222000000000,"state":"active","ping":68},{"user_id":307,"name":"rets_","steam_id":76561198061551392,"connected_time":6652000000000,"state":"active","ping":63},{"user_id":345,"name":"t.tv/soarfps","steam_id":76561198010662796,"connected_time":3669000000000,"state":"active","ping":51},{"user_id":399,"name":"einfinity","steam_id":76561197992776372,"connected_time":308000000000,"state":"active","ping":97},{"user_id":380,"name":"Chinese Kharp","steam_id":76561199383220023,"connected_time":610000000000,"state":"active","ping":90},{"user_id":402,"name":"scramble my ass","steam_id":76561198133901720,"connected_time":132000000000,"state":"active","ping":75},{"user_id":383,"name":"Deimos","steam_id":76561198852007512,"connected_time":533000000000,"state":"active","ping":60},{"user_id":392,"name":"Mr. Mundy","steam_id":76561198132008918,"connected_time":454000000000,"state":"active","ping":85},{"user_id":382,"name":"Jack","steam_id":76561198209102833,"connected_time":557000000000,"state":"active","ping":45},{"user_id":384,"name":"Gardvord","steam_id":76561198120715753,"connected_time":492000000000,"state":"active","ping":75},{"user_id":369,"name":"Dr. Funkenstein","steam_id":76561197977816210,"connected_time":2505000000000,"state":"active","ping":68},{"user_id":387,"name":"Bortas","steam_id":76561197972282153,"connected_time":479000000000,"state":"active","ping":68},{"user_id":398,"name":"Mankor","steam_id":76561198020439322,"connected_time":336000000000,"state":"active","ping":61},{"user_id":374,"name":"Herb","steam_id":76561198205266944,"connected_time":1619000000000,"state":"active","ping":46},{"user_id":389,"name":"Dr.Sees [F2P]","steam_id":76561199219233587,"connected_time":474000000000,"state":"active","ping":81},{"user_id":390,"name":"Beep","steam_id":76561198151248575,"connected_time":472000000000,"state":"active","ping":75},{"user_id":371,"name":"Omyskull","steam_id":76561198131711758,"connected_time":2444000000000,"state":"active","ping":68},{"user_id":391,"name":"Hexagon","steam_id":76561198151205758,"connected_time":470000000000,"state":"active","ping":59},{"user_id":393,"name":"CurlyPaty - [YouTube]","steam_id":76561198125025171,"connected_time":453000000000,"state":"active","ping":72},{"user_id":401,"name":"mista white","steam_id":76561199387233667,"connected_time":153000000000,"state":"active","ping":63},{"user_id":403,"name":"j√π xiƒì","steam_id":76561198096189399,"connected_time":131000000000,"state":"active","ping":66},{"user_id":397,"name":"SpaceBoxxer","steam_id":76561198798211513,"connected_time":379000000000,"state":"active","ping":79}]},{"server_id":22,"name":"Uncletopia | London | 6 | All Maps","name_short":"lon-6","host":"lon-1.uk.uncletopia.com","port":27065,"enabled":true,"region":"eu","cc":"gb","latitude":51.509865,"longitude":-0.118092,"reserved":0,"last_update":"0001-01-01T00:00:00Z","name_a2s":"Uncletopia | London | 6 | All Maps","protocol":17,"map":"koth_highpass","folder":"tf","game":"Team Fortress","app_id":440,"player_count":0,"max_players":24,"Bots":0,"server_type":"Dedicated","server_os":"Linux","password":true,"vac":true,"version":"7961495","steam_id":85568392924742830,"keywords":["cp","nocrits","nodmgspread","uncletopia"],"game_id":440,"stv_port":27066,"stv_name":"Uncletopia | London | 6 | All Maps | STV","players":null},{"server_id":40,"name":"Uncletopia | London | 7 | Stopwatch","name_short":"lon-7","host":"lon-1.uk.uncletopia.com","port":27075,"enabled":true,"region":"eu","cc":"gb","latitude":51.509865,"longitude":-0.118092,"reserved":0,"last_update":"0001-01-01T00:00:00Z","name_a2s":"Uncletopia | London | 7 | Stopwatch","protocol":17,"map":"workshop/koth_ramjam_rc1.ugc459778887","folder":"tf","game":"Team Fortress","app_id":440,"player_count":0,"max_players":24,"Bots":0,"server_type":"Dedicated","server_os":"Linux","password":true,"vac":true,"version":"7961495","steam_id":85568392924964314,"keywords":["cp","nocrits","nodmgspread","uncletopia"],"game_id":440,"stv_port":27076,"stv_name":"Uncletopia | London | 7 | Stopwatch | STV","players":null},{"server_id":41,"name":"Uncletopia | London | 8 | Community","name_short":"lon-8","host":"lon-1.uk.uncletopia.com","port":27085,"enabled":true,"region":"eu","cc":"gb","latitude":51.509865,"longitude":-0.118092,"reserved":0,"last_update":"0001-01-01T00:00:00Z","name_a2s":"Uncletopia | London | 8 | Community","protocol":17,"map":"workshop/koth_ashville_final.ugc2130459942","folder":"tf","game":"Team Fortress","app_id":440,"player_count":0,"max_players":24,"Bots":0,"server_type":"Dedicated","server_os":"Linux","password":true,"vac":true,"version":"7961495","steam_id":85568392924964315,"keywords":["cp","nocrits","nodmgspread","uncletopia"],"game_id":440,"stv_port":27086,"stv_name":"Uncletopia | London | 8 | Community | STV","players":null},{"server_id":300,"name":"Uncletopia | Montr√©al | 1 | All Maps","name_short":"mtl-1","host":"mtl-1.ca.uncletopia.com","port":27015,"enabled":true,"region":"us-east","cc":"ca","latitude":45.50889,"longitude":-73.56167,"reserved":0,"last_update":"0001-01-01T00:00:00Z","name_a2s":"","protocol":0,"map":"","folder":"","game":"","app_id":0,"player_count":0,"max_players":0,"Bots":0,"server_type":"","server_os":"","password":false,"vac":false,"version":"","steam_id":0,"keywords":null,"game_id":0,"stv_port":0,"stv_name":"","players":null},{"server_id":301,"name":"Uncletopia | Montr√©al | 2 | All Maps","name_short":"mtl-2","host":"mtl-1.ca.uncletopia.com","port":27025,"enabled":true,"region":"us-east","cc":"ca","latitude":45.50889,"longitude":-73.56167,"reserved":0,"last_update":"0001-01-01T00:00:00Z","name_a2s":"","protocol":0,"map":"","folder":"","game":"","app_id":0,"player_count":0,"max_players":0,"Bots":0,"server_type":"","server_os":"","password":false,"vac":false,"version":"","steam_id":0,"keywords":null,"game_id":0,"stv_port":0,"stv_name":"","players":null},{"server_id":302,"name":"Uncletopia | Montr√©al | 3 | All Maps","name_short":"mtl-3","host":"mtl-1.ca.uncletopia.com","port":27035,"enabled":true,"region":"us-east","cc":"ca","latitude":45.50889,"longitude":-73.56167,"reserved":0,"last_update":"0001-01-01T00:00:00Z","name_a2s":"","protocol":0,"map":"","folder":"","game":"","app_id":0,"player_count":0,"max_players":0,"Bots":0,"server_type":"","server_os":"","password":false,"vac":false,"version":"","steam_id":0,"keywords":null,"game_id":0,"stv_port":0,"stv_name":"","players":null},{"server_id":303,"name":"Uncletopia | Montr√©al | 4 | No Payload","name_short":"mtl-4","host":"mtl-1.ca.uncletopia.com","port":27045,"enabled":true,"region":"us-east","cc":"ca","latitude":45.50889,"longitude":-73.56167,"reserved":0,"last_update":"0001-01-01T00:00:00Z","name_a2s":"","protocol":0,"map":"","folder":"","game":"","app_id":0,"player_count":0,"max_players":0,"Bots":0,"server_type":"","server_os":"","password":false,"vac":false,"version":"","steam_id":0,"keywords":null,"game_id":0,"stv_port":0,"stv_name":"","players":null},{"server_id":13,"name":"Uncletopia | New York City | 1 | All Maps","name_short":"nyc-1","host":"nyc-1.us.uncletopia.com","port":27015,"enabled":true,"region":"us-east","cc":"us","latitude":40.73061,"longitude":-73.93524,"reserved":0,"last_update":"0001-01-01T00:00:00Z","name_a2s":"Uncletopia | New York City | 1 | All Maps","protocol":17,"map":"pl_borneo","folder":"tf","game":"Team Fortress","app_id":440,"player_count":23,"max_players":24,"Bots":0,"server_type":"Dedicated","server_os":"Linux","password":true,"vac":true,"version":"7961495","steam_id":85568392924469993,"keywords":["nocrits","nodmgspread","payload","uncletopia"],"game_id":440,"stv_port":27016,"stv_name":"Uncletopia | New York City | 1 | All Maps | STV","players":[{"user_id":83,"name":"josh","steam_id":76561198110063909,"connected_time":1229000000000,"state":"active","ping":80},{"user_id":57,"name":"boat","steam_id":76561198157124609,"connected_time":2900000000000,"state":"active","ping":59},{"user_id":20,"name":"BoyKisser","steam_id":76561199200969139,"connected_time":4691000000000,"state":"active","ping":124},{"user_id":61,"name":"Mayor McCheese","steam_id":76561198095788861,"connected_time":2412000000000,"state":"active","ping":75},{"user_id":63,"name":"LocaKola","steam_id":76561198173435430,"connected_time":2213000000000,"state":"active","ping":70},{"user_id":95,"name":"bran","steam_id":76561199028457134,"connected_time":345000000000,"state":"active","ping":45},{"user_id":73,"name":"barney","steam_id":76561198166433332,"connected_time":1312000000000,"state":"active","ping":105},{"user_id":74,"name":"Fluffy Frog666","steam_id":76561199013365634,"connected_time":1304000000000,"state":"active","ping":67},{"user_id":100,"name":"H202","steam_id":76561198149361309,"connected_time":50000000000,"state":"active","ping":88},{"user_id":72,"name":"THORNFIELDGAMER","steam_id":76561199087167473,"connected_time":1404000000000,"state":"active","ping":74},{"user_id":90,"name":"‚ú†CrustyCake‚ú†","steam_id":76561198155062405,"connected_time":604000000000,"state":"active","ping":90},{"user_id":97,"name":"ash","steam_id":76561198127890645,"connected_time":179000000000,"state":"active","ping":82},{"user_id":79,"name":"dredbot1_","steam_id":76561199133238998,"connected_time":1298000000000,"state":"active","ping":119},{"user_id":96,"name":"Thrasher","steam_id":76561197977801547,"connected_time":303000000000,"state":"active","ping":83},{"user_id":82,"name":"Lovedaddy","steam_id":76561198006569710,"connected_time":1250000000000,"state":"active","ping":73},{"user_id":84,"name":"Detective Rectum ‚ô°","steam_id":76561198018558677,"connected_time":1217000000000,"state":"active","ping":72},{"user_id":85,"name":"Nashoba","steam_id":76561198301622877,"connected_time":1172000000000,"state":"active","ping":90},{"user_id":87,"name":"crayonnipple","steam_id":76561198070253331,"connected_time":1077000000000,"state":"active","ping":70},{"user_id":58,"name":"turd ferguson","steam_id":76561198071620782,"connected_time":2496000000000,"state":"active","ping":72},{"user_id":43,"name":"XD","steam_id":76561198069347028,"connected_time":3888000000000,"state":"active","ping":56},{"user_id":67,"name":"Provocator","steam_id":76561197961830410,"connected_time":2135000000000,"state":"active","ping":98},{"user_id":46,"name":"coffee bagel","steam_id":76561198141198352,"connected_time":3868000000000,"state":"active","ping":61},{"user_id":94,"name":"Nerrrd_","steam_id":76561198870129960,"connected_time":405000000000,"state":"active","ping":45}]},{"server_id":14,"name":"Uncletopia | New York City | 2 | All Maps","name_short":"nyc-2","host":"nyc-1.us.uncletopia.com","port":27025,"enabled":true,"region":"us-east","cc":"us","latitude":40.73061,"longitude":-73.93524,"reserved":0,"last_update":"0001-01-01T00:00:00Z","name_a2s":"Uncletopia | New York City | 2 | All Maps","protocol":17,"map":"pl_swiftwater_final1","folder":"tf","game":"Team Fortress","app_id":440,"player_count":24,"max_players":24,"Bots":0,"server_type":"Dedicated","server_os":"Linux","password":true,"vac":true,"version":"7961495","steam_id":85568392924469994,"keywords":["nocrits","nodmgspread","payload","uncletopia"],"game_id":440,"stv_port":27026,"stv_name":"Uncletopia | New York City | 2 | All Maps | STV","players":[{"user_id":235,"name":"CherryPieRed2023","steam_id":76561198998007496,"connected_time":44000000000,"state":"active","ping":125},{"user_id":186,"name":"roman","steam_id":76561198170066797,"connected_time":4795000000000,"state":"active","ping":66},{"user_id":187,"name":"John F. Kennedy, 35th president","steam_id":76561198301021031,"connected_time":4776000000000,"state":"active","ping":86},{"user_id":226,"name":"TruffShuff","steam_id":76561198055869160,"connected_time":917000000000,"state":"active","ping":66},{"user_id":12,"name":"uhooter","steam_id":76561198007829078,"connected_time":17999000000000,"state":"active","ping":59},{"user_id":234,"name":"RuinLucky","steam_id":76561199481172481,"connected_time":47000000000,"state":"active","ping":88},{"user_id":215,"name":"Snoopy","steam_id":76561198273735974,"connected_time":2187000000000,"state":"active","ping":156},{"user_id":233,"name":"Maggie Rhee","steam_id":76561198055921722,"connected_time":59000000000,"state":"spawning","ping":73},{"user_id":227,"name":"cactail","steam_id":76561198238898732,"connected_time":890000000000,"state":"active","ping":62},{"user_id":174,"name":"Bippums","steam_id":76561198366406729,"connected_time":5678000000000,"state":"active","ping":85},{"user_id":59,"name":"De","steam_id":76561198206728044,"connected_time":14305000000000,"state":"active","ping":75},{"user_id":232,"name":"Weerk","steam_id":76561199209543551,"connected_time":101000000000,"state":"active","ping":82},{"user_id":223,"name":"A Puppy","steam_id":76561198828184456,"connected_time":1891000000000,"state":"active","ping":50},{"user_id":228,"name":"Where's my Laptop?","steam_id":76561198860068961,"connected_time":837000000000,"state":"active","ping":43},{"user_id":224,"name":"None of that $9.99 bullshit","steam_id":76561198116169903,"connected_time":920000000000,"state":"active","ping":83},{"user_id":218,"name":"Beepleton The 3rd","steam_id":76561198081466207,"connected_time":2104000000000,"state":"active","ping":96},{"user_id":229,"name":"Dum_Bass(Fish)","steam_id":76561197988105207,"connected_time":833000000000,"state":"active","ping":63},{"user_id":236,"name":"crexorz","steam_id":76561198890949432,"connected_time":38000000000,"state":"active","ping":77},{"user_id":104,"name":"Maet","steam_id":76561198030208485,"connected_time":11211000000000,"state":"active","ping":81},{"user_id":154,"name":"googa","steam_id":76561198133130452,"connected_time":7996000000000,"state":"active","ping":44},{"user_id":222,"name":"Just PYE","steam_id":76561199439622967,"connected_time":1961000000000,"state":"active","ping":96},{"user_id":237,"name":"Chicken Burger","steam_id":76561198358529311,"connected_time":29000000000,"state":"active","ping":165},{"user_id":197,"name":"Machine Girl - SAD CLAPS","steam_id":76561198294013916,"connected_time":3588000000000,"state":"active","ping":45},{"user_id":225,"name":"vv","steam_id":76561198134813102,"connected_time":920000000000,"state":"active","ping":69}]},{"server_id":15,"name":"Uncletopia | New York City | 3 | Stopwatch","name_short":"nyc-3","host":"nyc-1.us.uncletopia.com","port":27035,"enabled":true,"region":"us-east","cc":"us","latitude":40.73061,"longitude":-73.93524,"reserved":0,"last_update":"0001-01-01T00:00:00Z","name_a2s":"Uncletopia | New York City | 3 | Stopwatch","protocol":17,"map":"pl_snowycoast","folder":"tf","game":"Team Fortress","app_id":440,"player_count":0,"max_players":24,"Bots":0,"server_type":"Dedicated","server_os":"Linux","password":true,"vac":true,"version":"7961495","steam_id":85568392924742820,"keywords":["nocrits","nodmgspread","payload","uncletopia"],"game_id":440,"stv_port":27036,"stv_name":"Uncletopia | New York City | 3 | Stopwatch | STV","players":null},{"server_id":16,"name":"Uncletopia | New York City | 4 | Community","name_short":"nyc-4","host":"nyc-1.us.uncletopia.com","port":27045,"enabled":true,"region":"us-east","cc":"us","latitude":40.73061,"longitude":-73.93524,"reserved":0,"last_update":"0001-01-01T00:00:00Z","name_a2s":"Uncletopia | New York City | 4 | Community","protocol":17,"map":"cp_altitude","folder":"tf","game":"Team Fortress","app_id":440,"player_count":0,"max_players":24,"Bots":0,"server_type":"Dedicated","server_os":"Linux","password":true,"vac":true,"version":"7961495","steam_id":85568392924742821,"keywords":["cp","nocrits","nodmgspread","uncletopia"],"game_id":440,"stv_port":27046,"stv_name":"Uncletopia | New York City | 4 | Community | STV","players":null},{"server_id":142,"name":"Uncletopia | S√£o Paulo | 1 | All Maps","name_short":"sao-1","host":"sao-1.br.uncletopia.com","port":27015,"enabled":true,"region":"sa","cc":"br","latitude":-23.533773,"longitude":-46.62529,"reserved":0,"last_update":"0001-01-01T00:00:00Z","name_a2s":"Uncletopia | S√£o Paulo | 1 | All Maps","protocol":17,"map":"cp_dustbowl","folder":"tf","game":"Team Fortress","app_id":440,"player_count":0,"max_players":24,"Bots":0,"server_type":"Dedicated","server_os":"Linux","password":true,"vac":true,"version":"7961495","steam_id":85568392924469996,"keywords":["cp","nocrits","nodmgspread","uncletopia"],"game_id":440,"stv_port":27016,"stv_name":"Uncletopia | S√£o Paulo | 1 | All Maps | STV","players":null},{"server_id":143,"name":"Uncletopia | S√£o Paulo | 2 | Community","name_short":"sao-2","host":"sao-2.br.uncletopia.com","port":27015,"enabled":true,"region":"sa","cc":"br","latitude":-23.533773,"longitude":-46.62529,"reserved":0,"last_update":"0001-01-01T00:00:00Z","name_a2s":"Uncletopia | S√£o Paulo | 2 | Community","protocol":17,"map":"workshop/cp_croissant_final.ugc458840209","folder":"tf","game":"Team Fortress","app_id":440,"player_count":0,"max_players":24,"Bots":0,"server_type":"Dedicated","server_os":"Linux","password":true,"vac":true,"version":"7961495","steam_id":85568392924485349,"keywords":["cp","nocrits","nodmgspread","uncletopia"],"game_id":440,"stv_port":27016,"stv_name":"Uncletopia | S√£o Paulo | 2 | Community | STV","players":null},{"server_id":7,"name":"Uncletopia | Seattle | 1 | All Maps","name_short":"sea-1","host":"sea-1.us.uncletopia.com","port":27015,"enabled":true,"region":"us-west","cc":"us","latitude":47.608013,"longitude":-122.33517,"reserved":0,"last_update":"0001-01-01T00:00:00Z","name_a2s":"Uncletopia | Seattle | 1 | All Maps","protocol":17,"map":"pl_badwater","folder":"tf","game":"Team Fortress","app_id":440,"player_count":12,"max_players":24,"Bots":0,"server_type":"Dedicated","server_os":"Linux","password":true,"vac":true,"version":"7961495","steam_id":85568392924469997,"keywords":["nocrits","nodmgspread","payload","uncletopia"],"game_id":440,"stv_port":27016,"stv_name":"Uncletopia | Seattle | 1 | All Maps | STV","players":[{"user_id":184,"name":"laggy mcstab","steam_id":76561198106379962,"connected_time":2705000000000,"state":"active","ping":48},{"user_id":185,"name":"‚ú´P‚àÄnck‚àà‚ú´","steam_id":76561198050163618,"connected_time":2677000000000,"state":"active","ping":63},{"user_id":200,"name":"Vruk","steam_id":76561198116930332,"connected_time":677000000000,"state":"active","ping":46},{"user_id":202,"name":"Taylor Swift","steam_id":76561198078130694,"connected_time":506000000000,"state":"active","ping":74},{"user_id":204,"name":"Sir-Samuraialot","steam_id":76561198885712212,"connected_time":347000000000,"state":"active","ping":128},{"user_id":205,"name":"lol","steam_id":76561198026491738,"connected_time":259000000000,"state":"active","ping":83},{"user_id":198,"name":"Whiskey","steam_id":76561198858154667,"connected_time":868000000000,"state":"active","ping":63},{"user_id":196,"name":"COOL master_9","steam_id":76561198073041151,"connected_time":890000000000,"state":"active","ping":95},{"user_id":197,"name":"Grassman (Cc)","steam_id":76561198026488532,"connected_time":875000000000,"state":"active","ping":63},{"user_id":206,"name":"Skabbety","steam_id":76561198168044257,"connected_time":148000000000,"state":"active","ping":30},{"user_id":207,"name":"WarMace","steam_id":76561198395937853,"connected_time":136000000000,"state":"active","ping":105},{"user_id":208,"name":"funkeymonkey15","steam_id":76561198930961042,"connected_time":100000000000,"state":"active","ping":239}]},{"server_id":119,"name":"Uncletopia | Seattle | 2 | All Maps","name_short":"sea-2","host":"sea-1.us.uncletopia.com","port":27025,"enabled":true,"region":"us-west","cc":"us","latitude":47.608013,"longitude":-122.33517,"reserved":0,"last_update":"0001-01-01T00:00:00Z","name_a2s":"Uncletopia | Seattle | 2 | All Maps","protocol":17,"map":"pl_snowycoast","folder":"tf","game":"Team Fortress","app_id":440,"player_count":0,"max_players":24,"Bots":0,"server_type":"Dedicated","server_os":"Linux","password":true,"vac":true,"version":"7961495","steam_id":85568392924469998,"keywords":["nocrits","nodmgspread","payload","uncletopia"],"game_id":440,"stv_port":27026,"stv_name":"Uncletopia | Seattle | 2 | All Maps | STV","players":null},{"server_id":406,"name":"Uncletopia | Seattle | 3 | Stopwatch","name_short":"sea-3","host":"sea-1.us.uncletopia.com","port":27035,"enabled":true,"region":"us-west","cc":"us","latitude":47.608013,"longitude":-122.33517,"reserved":0,"last_update":"0001-01-01T00:00:00Z","name_a2s":"Uncletopia | Seattle | 3 | Stopwatch","protocol":17,"map":"koth_lakeside_final","folder":"tf","game":"Team Fortress","app_id":440,"player_count":0,"max_players":24,"Bots":0,"server_type":"Dedicated","server_os":"Linux","password":true,"vac":true,"version":"7961495","steam_id":85568392924515217,"keywords":["cp","nocrits","nodmgspread","uncletopia"],"game_id":440,"stv_port":27036,"stv_name":"Uncletopia | Seattle | 3 | Stopwatch | STV","players":null},{"server_id":17,"name":"Uncletopia | San Francisco | 1 | All Maps","name_short":"sfo-1","host":"sfo-1.us.uncletopia.com","port":27015,"enabled":true,"region":"us-west","cc":"us","latitude":37.77397,"longitude":-122.4313,"reserved":0,"last_update":"0001-01-01T00:00:00Z","name_a2s":"Uncletopia | San Francisco | 1 | All Maps","protocol":17,"map":"koth_cascade","folder":"tf","game":"Team Fortress","app_id":440,"player_count":0,"max_players":24,"Bots":0,"server_type":"Dedicated","server_os":"Linux","password":true,"vac":true,"version":"7961495","steam_id":85568392924469999,"keywords":["cp","nocrits","nodmgspread","uncletopia"],"game_id":440,"stv_port":27016,"stv_name":"Uncletopia | San Francisco | 1 | All Maps | STV","players":null},{"server_id":18,"name":"Uncletopia | San Francisco | 2 | All Maps","name_short":"sfo-2","host":"sfo-1.us.uncletopia.com","port":27025,"enabled":true,"region":"us-west","cc":"us","latitude":37.77397,"longitude":-122.4313,"reserved":0,"last_update":"0001-01-01T00:00:00Z","name_a2s":"Uncletopia | San Francisco | 2 | All Maps","protocol":17,"map":"pl_frontier_final","folder":"tf","game":"Team Fortress","app_id":440,"player_count":24,"max_players":24,"Bots":0,"server_type":"Dedicated","server_os":"Linux","password":true,"vac":true,"version":"7961495","steam_id":85568392924470000,"keywords":["nocrits","nodmgspread","payload","uncletopia"],"game_id":440,"stv_port":27026,"stv_name":"Uncletopia | San Francisco | 2 | All Maps | STV","players":[{"user_id":141,"name":"ChatGPT","steam_id":76561198441387036,"connected_time":2897000000000,"state":"active","ping":71},{"user_id":182,"name":"roto","steam_id":76561198138735860,"connected_time":40000000000,"state":"active","ping":102},{"user_id":152,"name":"‚ú™ Y V E S","steam_id":76561198299479796,"connected_time":2093000000000,"state":"active","ping":54},{"user_id":166,"name":"Petrivus","steam_id":76561198202152453,"connected_time":1658000000000,"state":"active","ping":68},{"user_id":148,"name":"I GOT LAID AT SHEN YUN 2023","steam_id":76561198844003641,"connected_time":2269000000000,"state":"active","ping":60},{"user_id":160,"name":"An Albany Expression","steam_id":76561198043266392,"connected_time":1795000000000,"state":"active","ping":115},{"user_id":170,"name":"mega knight","steam_id":76561199176211866,"connected_time":1398000000000,"state":"active","ping":117},{"user_id":181,"name":"Christian Anglo-Saxon","steam_id":76561198067439057,"connected_time":305000000000,"state":"active","ping":171},{"user_id":175,"name":"Marcy (She/Her)","steam_id":76561198097413073,"connected_time":563000000000,"state":"active","ping":58},{"user_id":138,"name":"Els","steam_id":76561198354718934,"connected_time":3304000000000,"state":"active","ping":91},{"user_id":178,"name":"‡∂û","steam_id":76561199365672047,"connected_time":390000000000,"state":"active","ping":119},{"user_id":136,"name":"FizzleWizard","steam_id":76561198045990868,"connected_time":3426000000000,"state":"active","ping":123},{"user_id":125,"name":"no vc no c","steam_id":76561197989503095,"connected_time":4234000000000,"state":"active","ping":148},{"user_id":143,"name":"Jahootis Pootis","steam_id":76561198048879388,"connected_time":2664000000000,"state":"active","ping":76},{"user_id":64,"name":"Meekz","steam_id":76561198012562373,"connected_time":7947000000000,"state":"active","ping":68},{"user_id":176,"name":"true religion jeans (fake)","steam_id":76561198042600523,"connected_time":554000000000,"state":"active","ping":91},{"user_id":150,"name":"Walmus","steam_id":76561198111416393,"connected_time":2189000000000,"state":"active","ping":68},{"user_id":137,"name":"Big Tony","steam_id":76561198341885311,"connected_time":3363000000000,"state":"active","ping":119},{"user_id":158,"name":"Dooper","steam_id":76561198154514320,"connected_time":1877000000000,"state":"active","ping":80},{"user_id":172,"name":"SLEEPY-Class NHP","steam_id":76561198064583865,"connected_time":1119000000000,"state":"active","ping":100},{"user_id":162,"name":"Bolbi","steam_id":76561198051811597,"connected_time":1731000000000,"state":"active","ping":66},{"user_id":174,"name":"Dr. Karl, the AUS Science Guy","steam_id":76561198031278747,"connected_time":583000000000,"state":"active","ping":70},{"user_id":177,"name":"Urby","steam_id":76561199074391666,"connected_time":544000000000,"state":"active","ping":80},{"user_id":145,"name":"Synical","steam_id":76561198917787801,"connected_time":2592000000000,"state":"active","ping":48}]},{"server_id":19,"name":"Uncletopia | San Francisco | 3 | Stopwatch","name_short":"sfo-3","host":"sfo-1.us.uncletopia.com","port":27035,"enabled":true,"region":"us-west","cc":"us","latitude":37.77397,"longitude":-122.4313,"reserved":0,"last_update":"0001-01-01T00:00:00Z","name_a2s":"Uncletopia | San Francisco | 3 | Stopwatch","protocol":17,"map":"workshop/cp_reckoner_rc6.ugc674719999","folder":"tf","game":"Team Fortress","app_id":440,"player_count":0,"max_players":24,"Bots":0,"server_type":"Dedicated","server_os":"Linux","password":true,"vac":true,"version":"7961495","steam_id":85568392924742824,"keywords":["cp","nocrits","nodmgspread","uncletopia"],"game_id":440,"stv_port":27036,"stv_name":"Uncletopia | San Francisco | 3 | Stopwatch | STV","players":null},{"server_id":20,"name":"Uncletopia | San Francisco | 4 | Community","name_short":"sfo-4","host":"sfo-1.us.uncletopia.com","port":27045,"enabled":true,"region":"us-west","cc":"us","latitude":37.77397,"longitude":-122.4313,"reserved":0,"last_update":"0001-01-01T00:00:00Z","name_a2s":"Uncletopia | San Francisco | 4 | Community","protocol":17,"map":"pl_pier","folder":"tf","game":"Team Fortress","app_id":440,"player_count":0,"max_players":24,"Bots":0,"server_type":"Dedicated","server_os":"Linux","password":true,"vac":true,"version":"7961495","steam_id":85568392924742826,"keywords":["nocrits","nodmgspread","payload","uncletopia"],"game_id":440,"stv_port":27046,"stv_name":"Uncletopia | San Francisco | 4 | Community | STV","players":null},{"server_id":141,"name":"Uncletopia | Sydney | 1 | All Maps","name_short":"syd-1","host":"syd-1.au.uncletopia.com","port":27015,"enabled":true,"region":"au","cc":"au","latitude":-33.865143,"longitude":151.2099,"reserved":0,"last_update":"0001-01-01T00:00:00Z","name_a2s":"Uncletopia | Sydney | 1 | All Maps","protocol":17,"map":"koth_cascade","folder":"tf","game":"Team Fortress","app_id":440,"player_count":0,"max_players":24,"Bots":0,"server_type":"Dedicated","server_os":"Linux","password":true,"vac":true,"version":"7961495","steam_id":85568392924470001,"keywords":["cp","nocrits","nodmgspread","uncletopia"],"game_id":440,"stv_port":27016,"stv_name":"Uncletopia | Sydney | 1 | All Maps | STV","players":null},{"server_id":123,"name":"Uncletopia | Sydney | 2 | All Maps","name_short":"syd-2","host":"syd-1.au.uncletopia.com","port":27025,"enabled":true,"region":"au","cc":"au","latitude":-33.865143,"longitude":151.2099,"reserved":0,"last_update":"0001-01-01T00:00:00Z","name_a2s":"Uncletopia | Sydney | 2 | All Maps","protocol":17,"map":"pl_frontier_final","folder":"tf","game":"Team Fortress","app_id":440,"player_count":0,"max_players":24,"Bots":0,"server_type":"Dedicated","server_os":"Linux","password":true,"vac":true,"version":"7961495","steam_id":85568392924470002,"keywords":["nocrits","nodmgspread","payload","uncletopia"],"game_id":440,"stv_port":27026,"stv_name":"Uncletopia | Sydney | 2 | All Maps | STV","players":null},{"server_id":395,"name":"Uncletopia | Sydney | 3 | All Maps","name_short":"syd-3","host":"syd-1.au.uncletopia.com","port":27035,"enabled":true,"region":"au","cc":"au","latitude":-33.865143,"longitude":151.2099,"reserved":0,"last_update":"0001-01-01T00:00:00Z","name_a2s":"Uncletopia | Sydney | 3 | All Maps","protocol":17,"map":"cp_sunshine","folder":"tf","game":"Team Fortress","app_id":440,"player_count":0,"max_players":24,"Bots":0,"server_type":"Dedicated","server_os":"Linux","password":true,"vac":true,"version":"7961495","steam_id":85568392925194467,"keywords":["cp","nocrits","nodmgspread","uncletopia"],"game_id":440,"stv_port":27036,"stv_name":"Uncletopia | Sydney | 3 | All Maps | STV","players":null},{"server_id":396,"name":"Uncletopia | Sydney | 4 | All Maps","name_short":"syd-4","host":"syd-1.au.uncletopia.com","port":27045,"enabled":true,"region":"au","cc":"au","latitude":-33.865143,"longitude":151.2099,"reserved":0,"last_update":"0001-01-01T00:00:00Z","name_a2s":"Uncletopia | Sydney | 4 | All Maps","protocol":17,"map":"cp_process_final","folder":"tf","game":"Team Fortress","app_id":440,"player_count":0,"max_players":24,"Bots":0,"server_type":"Dedicated","server_os":"Linux","password":true,"vac":true,"version":"7961495","steam_id":85568392925397958,"keywords":["cp","nocrits","nodmgspread","uncletopia"],"game_id":440,"stv_port":27046,"stv_name":"Uncletopia | Sydney | 4 | All Maps | STV","players":null},{"server_id":58,"name":"Uncletopia | Sydney | 5 | Stopwatch","name_short":"syd-5","host":"syd-1.au.uncletopia.com","port":27055,"enabled":true,"region":"au","cc":"au","latitude":-33.865143,"longitude":151.2099,"reserved":0,"last_update":"0001-01-01T00:00:00Z","name_a2s":"Uncletopia | Sydney | 5 | Stopwatch","protocol":17,"map":"pl_frontier_final","folder":"tf","game":"Team Fortress","app_id":440,"player_count":0,"max_players":24,"Bots":0,"server_type":"Dedicated","server_os":"Linux","password":true,"vac":true,"version":"7961495","steam_id":85568392925397959,"keywords":["nocrits","nodmgspread","payload","uncletopia"],"game_id":440,"stv_port":27056,"stv_name":"Uncletopia | Sydney | 5 | Stopwatch | STV","players":null},{"server_id":59,"name":"Uncletopia | Sydney | 6 | Community","name_short":"syd-6","host":"syd-1.au.uncletopia.com","port":27065,"enabled":true,"region":"au","cc":"au","latitude":-33.865143,"longitude":151.2099,"reserved":0,"last_update":"0001-01-01T00:00:00Z","name_a2s":"Uncletopia | Sydney | 6 | Community","protocol":17,"map":"cp_sunshine","folder":"tf","game":"Team Fortress","app_id":440,"player_count":0,"max_players":24,"Bots":0,"server_type":"Dedicated","server_os":"Linux","password":true,"vac":true,"version":"7961495","steam_id":85568392925397960,"keywords":["cp","nocrits","nodmgspread","uncletopia"],"game_id":440,"stv_port":27066,"stv_name":"Uncletopia | Sydney | 6 | Community | STV","players":null},{"server_id":49,"name":"Uncletopia | Warsaw | 1 | All Maps","name_short":"waw-1","host":"waw-1.pl.uncletopia.com","port":27015,"enabled":true,"region":"eu","cc":"pl","latitude":52.2297,"longitude":21.017532,"reserved":0,"last_update":"0001-01-01T00:00:00Z","name_a2s":"Uncletopia | Warsaw | 1 | All Maps","protocol":17,"map":"pl_pier","folder":"tf","game":"Team Fortress","app_id":440,"player_count":0,"max_players":24,"Bots":0,"server_type":"Dedicated","server_os":"Linux","password":true,"vac":true,"version":"7961495","steam_id":85568392925397850,"keywords":["nocrits","nodmgspread","payload","uncletopia"],"game_id":440,"stv_port":27016,"stv_name":"Uncletopia | Warsaw | 1 | All Maps | STV","players":null},{"server_id":50,"name":"Uncletopia | Warsaw | 2 | All Maps","name_short":"waw-2","host":"waw-1.pl.uncletopia.com","port":27025,"enabled":true,"region":"eu","cc":"pl","latitude":52.2297,"longitude":21.017532,"reserved":0,"last_update":"0001-01-01T00:00:00Z","name_a2s":"Uncletopia | Warsaw | 2 | All Maps","protocol":17,"map":"koth_highpass","folder":"tf","game":"Team Fortress","app_id":440,"player_count":0,"max_players":24,"Bots":0,"server_type":"Dedicated","server_os":"Linux","password":true,"vac":true,"version":"7961495","steam_id":85568392925397851,"keywords":["cp","nocrits","nodmgspread","uncletopia"],"game_id":440,"stv_port":27026,"stv_name":"Uncletopia | Warsaw | 2 | All Maps | STV","players":null},{"server_id":51,"name":"Uncletopia | Warsaw | 3 | All Maps","name_short":"waw-3","host":"waw-1.pl.uncletopia.com","port":27035,"enabled":true,"region":"eu","cc":"pl","latitude":52.2297,"longitude":21.017532,"reserved":0,"last_update":"0001-01-01T00:00:00Z","name_a2s":"Uncletopia | Warsaw | 3 | All Maps","protocol":17,"map":"cp_process_final","folder":"tf","game":"Team Fortress","app_id":440,"player_count":0,"max_players":24,"Bots":0,"server_type":"Dedicated","server_os":"Linux","password":true,"vac":true,"version":"7961495","steam_id":85568392925397852,"keywords":["cp","nocrits","nodmgspread","uncletopia"],"game_id":440,"stv_port":27036,"stv_name":"Uncletopia | Warsaw | 3 | All Maps | STV","players":null},{"server_id":52,"name":"Uncletopia | Warsaw | 4 | All Maps","name_short":"waw-4","host":"waw-1.pl.uncletopia.com","port":27045,"enabled":true,"region":"eu","cc":"pl","latitude":52.2297,"longitude":21.017532,"reserved":0,"last_update":"0001-01-01T00:00:00Z","name_a2s":"Uncletopia | Warsaw | 4 | All Maps","protocol":17,"map":"pl_borneo","folder":"tf","game":"Team Fortress","app_id":440,"player_count":0,"max_players":24,"Bots":0,"server_type":"Dedicated","server_os":"Linux","password":true,"vac":true,"version":"7961495","steam_id":85568392925397853,"keywords":["nocrits","nodmgspread","payload","uncletopia"],"game_id":440,"stv_port":27046,"stv_name":"Uncletopia | Warsaw | 4 | All Maps | STV","players":null},{"server_id":53,"name":"Uncletopia | Warsaw | 5 | Stopwatch","name_short":"waw-5","host":"waw-1.pl.uncletopia.com","port":27055,"enabled":true,"region":"eu","cc":"pl","latitude":52.2297,"longitude":21.017532,"reserved":0,"last_update":"0001-01-01T00:00:00Z","name_a2s":"Uncletopia | Warsaw | 5 | Stopwatch","protocol":17,"map":"cp_granary","folder":"tf","game":"Team Fortress","app_id":440,"player_count":0,"max_players":24,"Bots":0,"server_type":"Dedicated","server_os":"Linux","password":true,"vac":true,"version":"7961495","steam_id":85568392925397854,"keywords":["cp","nocrits","nodmgspread","uncletopia"],"game_id":440,"stv_port":27056,"stv_name":"Uncletopia | Warsaw | 5 | Stopwatch | STV","players":null},{"server_id":54,"name":"Uncletopia | Warsaw | 6 | Community","name_short":"waw-6","host":"waw-1.pl.uncletopia.com","port":27065,"enabled":true,"region":"eu","cc":"pl","latitude":52.2297,"longitude":21.017532,"reserved":0,"last_update":"0001-01-01T00:00:00Z","name_a2s":"Uncletopia | Warsaw | 6 | Community","protocol":17,"map":"workshop/cp_hazyfort_rc6.ugc1365963729","folder":"tf","game":"Team Fortress","app_id":440,"player_count":0,"max_players":24,"Bots":0,"server_type":"Dedicated","server_os":"Linux","password":true,"vac":true,"version":"7961495","steam_id":85568392925397856,"keywords":["cp","nocrits","nodmgspread","uncletopia"],"game_id":440,"stv_port":27066,"stv_name":"Uncletopia | Warsaw | 6 | Community | STV","players":null}]}