{"status":true,"message":"","result":[{"server_id":9,"name":"Uncletopia | Atlanta | 1 | All Maps","name_short":"atl-1","host":"atl-1.us.uncletopia.com","port":27015,"enabled":true,"region":"us-east","cc":"us","latitude":33.753746,"longitude":-84.38633,"reserved":0,"last_update":"0001-01-01T00:00:00Z","name_a2s":"Uncletopia | Atlanta | 1 | All Maps","protocol":17,"map":"koth_cascade","folder":"tf","game":"Team Fortress","app_id":440,"player_count":0,"max_players":24,"Bots":0,"server_type":"Dedicated","server_os":"Linux","password":true,"vac":true,"version":"7882260","steam_id":85568392924469982,"keywords":["cp","nocrits","nodmgspread","uncletopia"],"game_id":440,"stv_port":27016,"stv_name":"Uncletopia | Atlanta | 1 | All Maps | STV","players":null},{"server_id":104,"name":"Uncletopia | Atlanta | 2 | All Maps","name_short":"atl-2","host":"atl-1.us.uncletopia.com","port":27025,"enabled":true,"region":"us-east","cc":"us","latitude":33.753746,"longitude":-84.38633,"reserved":0,"last_update":"0001-01-01T00:00:00Z","name_a2s":"Uncletopia | Atlanta | 2 | All Maps","protocol":17,"map":"cp_process_final","folder":"tf","game":"Team Fortress","app_id":440,"player_count":0,"max_players":24,"Bots":0,"server_type":"Dedicated","server_os":"Linux","password":true,"vac":true,"version":"7882260","steam_id":85568392924469983,"keywords":["cp","nocrits","nodmgspread","uncletopia"],"game_id":440,"stv_port":27026,"stv_name":"Uncletopia | Atlanta | 2 | All Maps | STV","players":null},{"server_id":400,"name":"Uncletopia | Atlanta | 3 | Community","name_short":"atl-3","host":"atl-1.us.uncletopia.com","port":27035,"enabled":true,"region":"us-east","cc":"us","latitude":33.753746,"longitude":-84.38633,"reserved":0,"last_update":"0001-01-01T00:00:00Z","name_a2s":"Uncletopia | Atlanta | 3 | Community","protocol":17,"map":"workshop/koth_synthetic_rc6a.ugc1549817316","folder":"tf","game":"Team Fortress","app_id":440,"player_count":0,"max_players":24,"Bots":0,"server_type":"Dedicated","server_os":"Linux","password":true,"vac":true,"version":"7882260","steam_id":85568392924515187,"keywords":["cp","nocrits","nodmgspread","uncletopia"],"game_id":440,"stv_port":27036,"stv_name":"Uncletopia | Atlanta | 3 | Community | STV","players":null},{"server_id":401,"name":"Uncletopia | Atlanta | 4 | No Payload","name_short":"atl-4","host":"atl-1.us.uncletopia.com","port":27045,"enabled":true,"region":"us-east","cc":"us","latitude":33.753746,"longitude":-84.38633,"reserved":0,"last_update":"0001-01-01T00:00:00Z","name_a2s":"","protocol":0,"map":"","folder":"","game":"","app_id":0,"player_count":0,"max_players":0,"Bots":0,"server_type":"","server_os":"","password":false,"vac":false,"version":"","steam_id":0,"keywords":null,"game_id":0,"stv_port":0,"stv_name":"","players":null},{"server_id":2,"name":"Uncletopia | Chicago | 1 | All Maps","name_short":"chi-1","host":"chi-1.us.uncletopia.com","port":27015,"enabled":true,"region":"us-central","cc":"us","latitude":41.881832,"longitude":-87.62318,"reserved":0,"last_update":"0001-01-01T00:00:00Z","name_a2s":"Uncletopia | Chicago | 1 | All Maps","protocol":17,"map":"pl_frontier_final","folder":"tf","game":"Team Fortress","app_id":440,"player_count":23,"max_players":24,"Bots":0,"server_type":"Dedicated","server_os":"Linux","password":true,"vac":true,"version":"7882260","steam_id":85568392924469984,"keywords":["nocrits","nodmgspread","payload","uncletopia"],"game_id":440,"stv_port":27016,"stv_name":"Uncletopia | Chicago | 1 | All Maps | STV","players":[{"user_id":752,"name":"c9","steam_id":76561198136642793,"connected_time":16068000000000,"state":"active","ping":62},{"user_id":885,"name":"High Medic","steam_id":76561198082405984,"connected_time":2276000000000,"state":"active","ping":62},{"user_id":904,"name":"STILLZ","steam_id":76561198131892406,"connected_time":478000000000,"state":"active","ping":87},{"user_id":874,"name":"LerN","steam_id":76561198083463877,"connected_time":3365000000000,"state":"active","ping":59},{"user_id":855,"name":"LVL","steam_id":76561198334403617,"connected_time":5805000000000,"state":"active","ping":54},{"user_id":905,"name":"Gogo","steam_id":76561198172430633,"connected_time":433000000000,"state":"active","ping":84},{"user_id":908,"name":"Rockinbacon","steam_id":76561198047159811,"connected_time":211000000000,"state":"active","ping":66},{"user_id":902,"name":"Retro Phoenix","steam_id":76561198077176271,"connected_time":737000000000,"state":"active","ping":55},{"user_id":886,"name":"narcotics","steam_id":76561198152560062,"connected_time":2130000000000,"state":"active","ping":54},{"user_id":859,"name":"eveie0mlets","steam_id":76561198259172011,"connected_time":5715000000000,"state":"active","ping":85},{"user_id":909,"name":"Boom 13","steam_id":76561198126796502,"connected_time":77000000000,"state":"active","ping":85},{"user_id":882,"name":"SpecialForce19","steam_id":76561198120974644,"connected_time":2910000000000,"state":"active","ping":78},{"user_id":877,"name":"Salda√±a","steam_id":76561198214473001,"connected_time":3224000000000,"state":"active","ping":90},{"user_id":754,"name":"SLICK PAPI #IMDADDYASF","steam_id":76561198144766439,"connected_time":16039000000000,"state":"active","ping":42},{"user_id":869,"name":"Mr. Owmew","steam_id":76561199032490400,"connected_time":4479000000000,"state":"active","ping":72},{"user_id":748,"name":"Melody","steam_id":76561198407789232,"connected_time":16157000000000,"state":"active","ping":119},{"user_id":907,"name":"Simon Fenix","steam_id":76561197990165694,"connected_time":293000000000,"state":"active","ping":60},{"user_id":910,"name":"firstlastmcgee","steam_id":76561198170187989,"connected_time":54000000000,"state":"active","ping":64},{"user_id":899,"name":"Alecto","steam_id":76561198042476864,"connected_time":784000000000,"state":"active","ping":47},{"user_id":900,"name":"0","steam_id":76561198046065237,"connected_time":781000000000,"state":"active","ping":79},{"user_id":911,"name":"no.","steam_id":76561198988350454,"connected_time":45000000000,"state":"spawning","ping":158},{"user_id":871,"name":"Fairy WeedMother","steam_id":76561198831382303,"connected_time":3816000000000,"state":"active","ping":66},{"user_id":898,"name":"Joey Gonzales","steam_id":76561198215557329,"connected_time":1231000000000,"state":"active","ping":170}]},{"server_id":106,"name":"Uncletopia | Chicago | 2 | All Maps","name_short":"chi-2","host":"chi-1.us.uncletopia.com","port":27025,"enabled":true,"region":"us-central","cc":"us","latitude":41.881832,"longitude":-87.62318,"reserved":0,"last_update":"0001-01-01T00:00:00Z","name_a2s":"Uncletopia | Chicago | 2 | All Maps","protocol":17,"map":"cp_dustbowl","folder":"tf","game":"Team Fortress","app_id":440,"player_count":18,"max_players":24,"Bots":0,"server_type":"Dedicated","server_os":"Linux","password":true,"vac":true,"version":"7882260","steam_id":85568392924469985,"keywords":["cp","nocrits","nodmgspread","uncletopia"],"game_id":440,"stv_port":27026,"stv_name":"Uncletopia | Chicago | 2 | All Maps | STV","players":[{"user_id":1059,"name":"Lol funny monke","steam_id":76561198017200146,"connected_time":447000000000,"state":"active","ping":70},{"user_id":1066,"name":"greenboy135","steam_id":76561198057146944,"connected_time":28000000000,"state":"active","ping":63},{"user_id":1061,"name":"DIErector of death","steam_id":76561199217741639,"connected_time":389000000000,"state":"active","ping":192},{"user_id":1032,"name":"stock","steam_id":76561198849461209,"connected_time":2811000000000,"state":"active","ping":64},{"user_id":1062,"name":"Sparky","steam_id":76561198086845464,"connected_time":371000000000,"state":"active","ping":51},{"user_id":1043,"name":"puppy :3","steam_id":76561198011196264,"connected_time":1830000000000,"state":"active","ping":45},{"user_id":1056,"name":"Gentoo Linux Gaming","steam_id":76561197999657118,"connected_time":920000000000,"state":"active","ping":79},{"user_id":1044,"name":"kree","steam_id":76561197979960008,"connected_time":1781000000000,"state":"active","ping":52},{"user_id":1053,"name":"Squilliam Fancyson","steam_id":76561198084195360,"connected_time":1062000000000,"state":"active","ping":70},{"user_id":1063,"name":"Judge Dad (Proud)","steam_id":76561198071473697,"connected_time":362000000000,"state":"active","ping":69},{"user_id":1055,"name":"Detective Shad","steam_id":76561198282873682,"connected_time":966000000000,"state":"active","ping":187},{"user_id":1064,"name":"Zi","steam_id":76561197964061167,"connected_time":339000000000,"state":"active","ping":59},{"user_id":1051,"name":"CheeseCake488","steam_id":76561199407617942,"connected_time":1159000000000,"state":"active","ping":203},{"user_id":1065,"name":"Rusted Cake","steam_id":76561198209755931,"connected_time":238000000000,"state":"active","ping":102},{"user_id":1046,"name":"Scorpianswag","steam_id":76561198260651036,"connected_time":1724000000000,"state":"active","ping":90},{"user_id":1007,"name":"Ja","steam_id":76561198396340174,"connected_time":4100000000000,"state":"active","ping":69},{"user_id":1021,"name":"shittystripper","steam_id":76561198101012071,"connected_time":3558000000000,"state":"active","ping":104},{"user_id":1052,"name":"James","steam_id":76561198098325427,"connected_time":1115000000000,"state":"active","ping":90}]},{"server_id":402,"name":"Uncletopia | Chicago | 3 | All Maps","name_short":"chi-3","host":"chi-1.us.uncletopia.com","port":27035,"enabled":true,"region":"us-central","cc":"us","latitude":41.881832,"longitude":-87.62318,"reserved":0,"last_update":"0001-01-01T00:00:00Z","name_a2s":"Uncletopia | Chicago | 3 | All Maps","protocol":17,"map":"pl_swiftwater_final1","folder":"tf","game":"Team Fortress","app_id":440,"player_count":24,"max_players":24,"Bots":0,"server_type":"Dedicated","server_os":"Linux","password":true,"vac":true,"version":"7882260","steam_id":85568392924515191,"keywords":["nocrits","nodmgspread","payload","uncletopia"],"game_id":440,"stv_port":27036,"stv_name":"Uncletopia | Chicago | 3 | All Maps | STV","players":[{"user_id":1172,"name":"ScrockCat","steam_id":76561198012882208,"connected_time":2780000000000,"state":"active","ping":91},{"user_id":1198,"name":"YourSchoolsNext;]","steam_id":76561198078635684,"connected_time":1019000000000,"state":"active","ping":110},{"user_id":1200,"name":"LIFE","steam_id":76561198027146328,"connected_time":693000000000,"state":"active","ping":30},{"user_id":1139,"name":"Airik","steam_id":76561198208249865,"connected_time":5792000000000,"state":"active","ping":89},{"user_id":1199,"name":"ShadowWasUhOh","steam_id":76561198400361935,"connected_time":863000000000,"state":"active","ping":92},{"user_id":1175,"name":"justapikmin","steam_id":76561199023650282,"connected_time":2485000000000,"state":"active","ping":81},{"user_id":1062,"name":"VidzCMC","steam_id":76561198848142973,"connected_time":11754000000000,"state":"active","ping":50},{"user_id":1163,"name":"Jin","steam_id":76561198119873148,"connected_time":3776000000000,"state":"active","ping":106},{"user_id":1185,"name":"creamer","steam_id":76561198144095056,"connected_time":2118000000000,"state":"active","ping":65},{"user_id":1131,"name":"June","steam_id":76561198211858204,"connected_time":5938000000000,"state":"active","ping":120},{"user_id":1140,"name":"frank","steam_id":76561198137777483,"connected_time":5742000000000,"state":"active","ping":72},{"user_id":1186,"name":"Dr. Chad Feelgood","steam_id":76561198454077219,"connected_time":1847000000000,"state":"active","ping":58},{"user_id":1177,"name":"Gay Cake","steam_id":76561198004388831,"connected_time":2247000000000,"state":"active","ping":69},{"user_id":1204,"name":"James","steam_id":76561198077251918,"connected_time":350000000000,"state":"active","ping":91},{"user_id":1190,"name":"Mr.noob","steam_id":76561199200442395,"connected_time":1790000000000,"state":"active","ping":176},{"user_id":1205,"name":"It's Over!","steam_id":76561198104086771,"connected_time":286000000000,"state":"active","ping":106},{"user_id":1065,"name":"Grand","steam_id":76561198290143399,"connected_time":11636000000000,"state":"active","ping":74},{"user_id":1206,"name":"Mr.Phil","steam_id":76561198042801033,"connected_time":280000000000,"state":"active","ping":66},{"user_id":1192,"name":"YOUNG UPGRADE","steam_id":76561198035474725,"connected_time":1440000000000,"state":"active","ping":74},{"user_id":1207,"name":"h‚Ñ¢","steam_id":76561198154365729,"connected_time":256000000000,"state":"active","ping":115},{"user_id":1203,"name":"Pongallow","steam_id":76561198146876078,"connected_time":388000000000,"state":"active","ping":54},{"user_id":1194,"name":"Loxic","steam_id":76561198043617388,"connected_time":1408000000000,"state":"active","ping":73},{"user_id":1066,"name":"Truffles","steam_id":76561198095868800,"connected_time":11597000000000,"state":"active","ping":85},{"user_id":1195,"name":"Cookie Dough | tf2pugs.com","steam_id":76561198882007496,"connected_time":1353000000000,"state":"active","ping":60}]},{"server_id":403,"name":"Uncletopia | Chicago | 4 | All Maps","name_short":"chi-4","host":"chi-1.us.uncletopia.com","port":27045,"enabled":true,"region":"us-central","cc":"us","latitude":41.881832,"longitude":-87.62318,"reserved":0,"last_update":"0001-01-01T00:00:00Z","name_a2s":"Uncletopia | Chicago | 4 | All Maps","protocol":17,"map":"pl_snowycoast","folder":"tf","game":"Team Fortress","app_id":440,"player_count":0,"max_players":24,"Bots":0,"server_type":"Dedicated","server_os":"Linux","password":true,"vac":true,"version":"7882260","steam_id":85568392924515193,"keywords":["nocrits","nodmgspread","payload","uncletopia"],"game_id":440,"stv_port":27046,"stv_name":"Uncletopia | Chicago | 4 | All Maps | STV","players":null},{"server_id":36,"name":"Uncletopia | Chicago | 5 | All Maps","name_short":"chi-5","host":"chi-2.us.uncletopia.com","port":27015,"enabled":true,"region":"us-central","cc":"us","latitude":41.881832,"longitude":-87.62318,"reserved":0,"last_update":"0001-01-01T00:00:00Z","name_a2s":"Uncletopia | Chicago | 5 | All Maps","protocol":17,"map":"cp_mountainlab","folder":"tf","game":"Team Fortress","app_id":440,"player_count":0,"max_players":24,"Bots":0,"server_type":"Dedicated","server_os":"Linux","password":true,"vac":true,"version":"7882260","steam_id":85568392924866362,"keywords":["cp","nocrits","nodmgspread","uncletopia"],"game_id":440,"stv_port":27016,"stv_name":"Uncletopia | Chicago | 5 | All Maps | STV","players":null},{"server_id":37,"name":"Uncletopia | Chicago | 6 | All Maps","name_short":"chi-6","host":"chi-2.us.uncletopia.com","port":27025,"enabled":true,"region":"us-central","cc":"us","latitude":41.881832,"longitude":-87.62318,"reserved":0,"last_update":"0001-01-01T00:00:00Z","name_a2s":"Uncletopia | Chicago | 6 | All Maps","protocol":17,"map":"pl_snowycoast","folder":"tf","game":"Team Fortress","app_id":440,"player_count":0,"max_players":24,"Bots":0,"server_type":"Dedicated","server_os":"Linux","password":true,"vac":true,"version":"7882260","steam_id":85568392924866363,"keywords":["nocrits","nodmgspread","payload","uncletopia"],"game_id":440,"stv_port":27026,"stv_name":"Uncletopia | Chicago | 6 | All Maps | STV","players":null},{"server_id":38,"name":"Uncletopia | Chicago | 7 | Stopwatch Beta","name_short":"chi-7","host":"chi-2.us.uncletopia.com","port":27035,"enabled":true,"region":"us-central","cc":"us","latitude":41.881832,"longitude":-87.62318,"reserved":0,"last_update":"0001-01-01T00:00:00Z","name_a2s":"Uncletopia | Chicago | 7 | Stopwatch Beta","protocol":17,"map":"pl_swiftwater_final1","folder":"tf","game":"Team Fortress","app_id":440,"player_count":0,"max_players":24,"Bots":0,"server_type":"Dedicated","server_os":"Linux","password":true,"vac":true,"version":"7882260","steam_id":85568392924866364,"keywords":["nocrits","nodmgspread","payload","uncletopia"],"game_id":440,"stv_port":27036,"stv_name":"Uncletopia | Chicago | 7 | Stopwatch Beta | STV","players":null},{"server_id":39,"name":"Uncletopia | Chicago | 8 | Community","name_short":"chi-8","host":"chi-2.us.uncletopia.com","port":27045,"enabled":true,"region":"us-central","cc":"us","latitude":41.881832,"longitude":-87.62318,"reserved":0,"last_update":"0001-01-01T00:00:00Z","name_a2s":"Uncletopia | Chicago | 8 | Community","protocol":17,"map":"workshop/pl_divulgence_b4b.ugc2884808746","folder":"tf","game":"Team Fortress","app_id":440,"player_count":0,"max_players":24,"Bots":0,"server_type":"Dedicated","server_os":"Linux","password":true,"vac":true,"version":"7882260","steam_id":85568392924866365,"keywords":["nocrits","nodmgspread","payload","uncletopia"],"game_id":440,"stv_port":27046,"stv_name":"Uncletopia | Chicago | 8 | Community | STV","players":null},{"server_id":8,"name":"Uncletopia | Dallas | 1 | All Maps","name_short":"dal-1","host":"dal-1.us.uncletopia.com","port":27015,"enabled":true,"region":"us-central","cc":"us","latitude":32.779167,"longitude":-96.80889,"reserved":0,"last_update":"0001-01-01T00:00:00Z","name_a2s":"Uncletopia | Dallas | 1 | All Maps","protocol":17,"map":"koth_highpass","folder":"tf","game":"Team Fortress","app_id":440,"player_count":0,"max_players":24,"Bots":0,"server_type":"Dedicated","server_os":"Linux","password":true,"vac":true,"version":"7882260","steam_id":85568392924469986,"keywords":["cp","nocrits","nodmgspread","uncletopia"],"game_id":440,"stv_port":27016,"stv_name":"Uncletopia | Dallas | 1 | All Maps | STV","players":null},{"server_id":108,"name":"Uncletopia | Dallas | 2 | All Maps","name_short":"dal-2","host":"dal-1.us.uncletopia.com","port":27025,"enabled":true,"region":"us-central","cc":"us","latitude":32.779167,"longitude":-96.80889,"reserved":0,"last_update":"0001-01-01T00:00:00Z","name_a2s":"Uncletopia | Dallas | 2 | All Maps","protocol":17,"map":"pl_upward","folder":"tf","game":"Team Fortress","app_id":440,"player_count":24,"max_players":24,"Bots":0,"server_type":"Dedicated","server_os":"Linux","password":true,"vac":true,"version":"7882260","steam_id":85568392924469988,"keywords":["nocrits","nodmgspread","payload","uncletopia"],"game_id":440,"stv_port":27026,"stv_name":"Uncletopia | Dallas | 2 | All Maps | STV","players":[{"user_id":557,"name":"PirateJet","steam_id":76561198050858744,"connected_time":2572000000000,"state":"active","ping":84},{"user_id":558,"name":"seasoul","steam_id":76561198883302327,"connected_time":2428000000000,"state":"active","ping":99},{"user_id":573,"name":"sky walker","steam_id":76561198937717599,"connected_time":861000000000,"state":"active","ping":36},{"user_id":586,"name":"nnobi","steam_id":76561198878729277,"connected_time":184000000000,"state":"active","ping":75},{"user_id":549,"name":"Iron","steam_id":76561198247918478,"connected_time":3094000000000,"state":"active","ping":61},{"user_id":572,"name":"dr. silly goose","steam_id":76561198143187033,"connected_time":874000000000,"state":"active","ping":85},{"user_id":584,"name":"tony hawk","steam_id":76561198172050802,"connected_time":566000000000,"state":"active","ping":108},{"user_id":561,"name":"AudaCD","steam_id":76561198202775853,"connected_time":2340000000000,"state":"active","ping":59},{"user_id":491,"name":"piebluedog","steam_id":76561198141362745,"connected_time":8567000000000,"state":"active","ping":66},{"user_id":574,"name":"Shinies","steam_id":76561198169459631,"connected_time":853000000000,"state":"active","ping":40},{"user_id":575,"name":"JonBoy","steam_id":76561198082052480,"connected_time":821000000000,"state":"active","ping":91},{"user_id":576,"name":"CheeseLikeSubstance","steam_id":76561197977170646,"connected_time":820000000000,"state":"active","ping":66},{"user_id":543,"name":"‚ô° ironterrortrain ‚ô°","steam_id":76561198046460418,"connected_time":3784000000000,"state":"active","ping":98},{"user_id":544,"name":"Average Tunnel Vision Switcher","steam_id":76561198318189010,"connected_time":3777000000000,"state":"active","ping":76},{"user_id":577,"name":"rat","steam_id":76561199207696533,"connected_time":803000000000,"state":"active","ping":126},{"user_id":585,"name":"The idiot sponge man","steam_id":76561198831912024,"connected_time":496000000000,"state":"active","ping":45},{"user_id":571,"name":"Bork Bork","steam_id":76561198045081654,"connected_time":1756000000000,"state":"active","ping":86},{"user_id":580,"name":"BananaFana","steam_id":76561198008891875,"connected_time":764000000000,"state":"active","ping":80},{"user_id":583,"name":"rice white","steam_id":76561198320732910,"connected_time":672000000000,"state":"active","ping":91},{"user_id":565,"name":"chikin.sauce","steam_id":76561198042464635,"connected_time":2219000000000,"state":"active","ping":57},{"user_id":455,"name":"zpalmtree","steam_id":76561198134307620,"connected_time":12086000000000,"state":"active","ping":90},{"user_id":566,"name":"highschool drop-out","steam_id":76561198366299848,"connected_time":2181000000000,"state":"active","ping":60},{"user_id":536,"name":"Shamrock Shake Oct.10.2020 @8pm","steam_id":76561198833313201,"connected_time":4438000000000,"state":"active","ping":88},{"user_id":567,"name":"Icarus the legend","steam_id":76561199013250091,"connected_time":2156000000000,"state":"active","ping":55}]},{"server_id":5,"name":"Uncletopia | Frankfurt | 1 | All Maps","name_short":"frk-1","host":"frk-1.de.uncletopia.com","port":27015,"enabled":true,"region":"eu","cc":"de","latitude":50.110924,"longitude":8.682127,"reserved":0,"last_update":"0001-01-01T00:00:00Z","name_a2s":"Uncletopia | Frankfurt | 1 | All Maps","protocol":17,"map":"pl_barnblitz","folder":"tf","game":"Team Fortress","app_id":440,"player_count":11,"max_players":24,"Bots":0,"server_type":"Dedicated","server_os":"Linux","password":true,"vac":true,"version":"7882260","steam_id":85568392924469989,"keywords":["nocrits","nodmgspread","payload","uncletopia"],"game_id":440,"stv_port":27016,"stv_name":"Uncletopia | Frankfurt | 1 | All Maps | STV","players":[{"user_id":4,"name":"AxyzS | affenbr0t_6o4","steam_id":76561197981823456,"connected_time":869000000000,"state":"active","ping":59},{"user_id":5,"name":"Jack.Orlando","steam_id":76561198802400236,"connected_time":662000000000,"state":"active","ping":70},{"user_id":6,"name":"Genuine","steam_id":76561197966295765,"connected_time":630000000000,"state":"active","ping":39},{"user_id":7,"name":"Krefa12","steam_id":76561198268375393,"connected_time":625000000000,"state":"active","ping":82},{"user_id":8,"name":"stoppen","steam_id":76561197960281482,"connected_time":535000000000,"state":"active","ping":73},{"user_id":9,"name":"Cipher Guy","steam_id":76561198987064749,"connected_time":465000000000,"state":"active","ping":98},{"user_id":10,"name":"Espa√±aa","steam_id":76561198879587832,"connected_time":337000000000,"state":"active","ping":80},{"user_id":11,"name":"nachtraaf","steam_id":76561197960473205,"connected_time":269000000000,"state":"active","ping":59},{"user_id":12,"name":"dollar foot long","steam_id":76561199250808808,"connected_time":129000000000,"state":"active","ping":68},{"user_id":13,"name":"Lankzz","steam_id":76561198082522564,"connected_time":60000000000,"state":"active","ping":57},{"user_id":14,"name":"Leibeigener","steam_id":76561199275478305,"connected_time":17000000000,"state":"active","ping":39}]},{"server_id":110,"name":"Uncletopia | Frankfurt | 2 | All Maps","name_short":"frk-2","host":"frk-1.de.uncletopia.com","port":27025,"enabled":true,"region":"eu","cc":"de","latitude":50.110924,"longitude":8.682127,"reserved":0,"last_update":"0001-01-01T00:00:00Z","name_a2s":"Uncletopia | Frankfurt | 2 | All Maps","protocol":17,"map":"cp_mountainlab","folder":"tf","game":"Team Fortress","app_id":440,"player_count":0,"max_players":24,"Bots":0,"server_type":"Dedicated","server_os":"Linux","password":true,"vac":true,"version":"7882260","steam_id":85568392924469990,"keywords":["cp","nocrits","nodmgspread","uncletopia"],"game_id":440,"stv_port":27026,"stv_name":"Uncletopia | Frankfurt | 2 | All Maps | STV","players":null},{"server_id":308,"name":"Uncletopia | Frankfurt | 3 | All Maps","name_short":"frk-3","host":"frk-1.de.uncletopia.com","port":27035,"enabled":true,"region":"eu","cc":"de","latitude":50.110924,"longitude":8.682127,"reserved":0,"last_update":"0001-01-01T00:00:00Z","name_a2s":"Uncletopia | Frankfurt | 3 | All Maps","protocol":17,"map":"pl_snowycoast","folder":"tf","game":"Team Fortress","app_id":440,"player_count":0,"max_players":24,"Bots":0,"server_type":"Dedicated","server_os":"Linux","password":true,"vac":true,"version":"7882260","steam_id":85568392924504274,"keywords":["nocrits","nodmgspread","payload","uncletopia"],"game_id":440,"stv_port":27036,"stv_name":"Uncletopia | Frankfurt | 3 | All Maps | STV","players":null},{"server_id":309,"name":"Uncletopia | Frankfurt | 4 | All Maps","name_short":"frk-4","host":"frk-1.de.uncletopia.com","port":27045,"enabled":true,"region":"eu","cc":"de","latitude":50.110924,"longitude":8.682127,"reserved":0,"last_update":"0001-01-01T00:00:00Z","name_a2s":"Uncletopia | Frankfurt | 4 | All Maps","protocol":17,"map":"pl_pier","folder":"tf","game":"Team Fortress","app_id":440,"player_count":0,"max_players":24,"Bots":0,"server_type":"Dedicated","server_os":"Linux","password":true,"vac":true,"version":"7882260","steam_id":85568392924504275,"keywords":["nocrits","nodmgspread","payload","uncletopia"],"game_id":440,"stv_port":27046,"stv_name":"Uncletopia | Frankfurt | 4 | All Maps | STV","players":null},{"server_id":310,"name":"Uncletopia | Frankfurt | 5 | All Maps","name_short":"frk-5","host":"frk-1.de.uncletopia.com","port":27055,"enabled":true,"region":"eu","cc":"de","latitude":50.110924,"longitude":8.682127,"reserved":0,"last_update":"0001-01-01T00:00:00Z","name_a2s":"Uncletopia | Frankfurt | 5 | All Maps","protocol":17,"map":"cp_mountainlab","folder":"tf","game":"Team Fortress","app_id":440,"player_count":0,"max_players":24,"Bots":0,"server_type":"Dedicated","server_os":"Linux","password":true,"vac":true,"version":"7882260","steam_id":85568392924504277,"keywords":["cp","nocrits","nodmgspread","uncletopia"],"game_id":440,"stv_port":27056,"stv_name":"Uncletopia | Frankfurt | 5 | All Maps | STV","players":null},{"server_id":311,"name":"Uncletopia | Frankfurt | 6 | All Maps","name_short":"frk-6","host":"frk-1.de.uncletopia.com","port":27065,"enabled":true,"region":"eu","cc":"de","latitude":50.110924,"longitude":8.682127,"reserved":0,"last_update":"0001-01-01T00:00:00Z","name_a2s":"Uncletopia | Frankfurt | 6 | All Maps","protocol":17,"map":"koth_cascade","folder":"tf","game":"Team Fortress","app_id":440,"player_count":0,"max_players":24,"Bots":0,"server_type":"Dedicated","server_os":"Linux","password":true,"vac":true,"version":"7882260","steam_id":85568392924504278,"keywords":["cp","nocrits","nodmgspread","uncletopia"],"game_id":440,"stv_port":27066,"stv_name":"Uncletopia | Frankfurt | 6 | All Maps | STV","players":null},{"server_id":23,"name":"Uncletopia | Frankfurt | 7 | Stopwatch Beta","name_short":"frk-7","host":"frk-1.de.uncletopia.com","port":27075,"enabled":true,"region":"eu","cc":"de","latitude":50.110924,"longitude":8.682127,"reserved":0,"last_update":"0001-01-01T00:00:00Z","name_a2s":"Uncletopia | Frankfurt | 7 | Stopwatch Beta","protocol":17,"map":"cp_dustbowl","folder":"tf","game":"Team Fortress","app_id":440,"player_count":0,"max_players":24,"Bots":0,"server_type":"Dedicated","server_os":"Linux","password":true,"vac":true,"version":"7882260","steam_id":85568392924742827,"keywords":["cp","nocrits","nodmgspread","uncletopia"],"game_id":440,"stv_port":27076,"stv_name":"Uncletopia | Frankfurt | 7 | Stopwatch Beta | STV","players":null},{"server_id":24,"name":"Uncletopia | Frankfurt | 8 | Community","name_short":"frk-8","host":"frk-1.de.uncletopia.com","port":27085,"enabled":true,"region":"eu","cc":"de","latitude":50.110924,"longitude":8.682127,"reserved":0,"last_update":"0001-01-01T00:00:00Z","name_a2s":"Uncletopia | Frankfurt | 8 | Community","protocol":17,"map":"koth_cascade","folder":"tf","game":"Team Fortress","app_id":440,"player_count":0,"max_players":24,"Bots":0,"server_type":"Dedicated","server_os":"Linux","password":true,"vac":true,"version":"7882260","steam_id":85568392924742828,"keywords":["cp","nocrits","nodmgspread","uncletopia"],"game_id":440,"stv_port":27086,"stv_name":"Uncletopia | Frankfurt | 8 | Community | STV","players":null},{"server_id":202,"name":"Uncletopia | Hong Kong | 1 | All Maps","name_short":"hgk-1","host":"hgk-1.hk.uncletopia.com","port":27015,"enabled":true,"region":"asia","cc":"hk","latitude":22.302711,"longitude":114.177216,"reserved":0,"last_update":"0001-01-01T00:00:00Z","name_a2s":"Uncletopia | Hong Kong | 1 | All Maps","protocol":17,"map":"pl_swiftwater_final1","folder":"tf","game":"Team Fortress","app_id":440,"player_count":24,"max_players":24,"Bots":0,"server_type":"Dedicated","server_os":"Linux","password":true,"vac":true,"version":"7882260","steam_id":85568392924494504,"keywords":["nocrits","nodmgspread","payload","uncletopia"],"game_id":440,"stv_port":27016,"stv_name":"Uncletopia | Hong Kong | 1 | All Maps | STV","players":[{"user_id":245,"name":"im_0ff","steam_id":76561198339346695,"connected_time":3786000000000,"state":"active","ping":121},{"user_id":254,"name":"Mystery cheese üßÄ","steam_id":76561198304002409,"connected_time":2904000000000,"state":"active","ping":86},{"user_id":261,"name":"Â∏ï","steam_id":76561198439343999,"connected_time":2619000000000,"state":"active","ping":97},{"user_id":272,"name":"Heavy Fingers Guy","steam_id":76561199016545154,"connected_time":486000000000,"state":"active","ping":33},{"user_id":265,"name":"Lelouch","steam_id":76561198828840546,"connected_time":1673000000000,"state":"active","ping":75},{"user_id":264,"name":"H·∫±ng Ra ƒë∆°","steam_id":76561199373637717,"connected_time":1912000000000,"state":"active","ping":64},{"user_id":158,"name":"bodacious bogey","steam_id":76561198055553140,"connected_time":12609000000000,"state":"active","ping":76},{"user_id":262,"name":"Telekhine","steam_id":76561198387120618,"connected_time":2111000000000,"state":"active","ping":50},{"user_id":257,"name":"Kyo","steam_id":76561198088550274,"connected_time":2880000000000,"state":"active","ping":45},{"user_id":277,"name":"Ïø†ÌÇ§","steam_id":76561197997220367,"connected_time":159000000000,"state":"active","ping":54},{"user_id":239,"name":"UltraFat","steam_id":76561198253918132,"connected_time":4842000000000,"state":"active","ping":87},{"user_id":174,"name":"Stupid B","steam_id":76561198131423270,"connected_time":10762000000000,"state":"active","ping":120},{"user_id":274,"name":"Luzyyss","steam_id":76561198320532821,"connected_time":473000000000,"state":"active","ping":69},{"user_id":275,"name":"Dr. Piss Rat","steam_id":76561199074809838,"connected_time":471000000000,"state":"active","ping":76},{"user_id":258,"name":"vintage","steam_id":76561198230213828,"connected_time":2878000000000,"state":"active","ping":128},{"user_id":250,"name":"MeetTeMedic99","steam_id":76561199208706868,"connected_time":3256000000000,"state":"active","ping":80},{"user_id":276,"name":"NootNoot","steam_id":76561199122109977,"connected_time":470000000000,"state":"active","ping":127},{"user_id":253,"name":"El Blanco","steam_id":76561198100044991,"connected_time":2918000000000,"state":"active","ping":141},{"user_id":236,"name":"ksvk","steam_id":76561198152588681,"connected_time":4943000000000,"state":"active","ping":83},{"user_id":199,"name":"‡πã","steam_id":76561198413116920,"connected_time":8502000000000,"state":"active","ping":81},{"user_id":268,"name":"mutwo","steam_id":76561198077043500,"connected_time":1208000000000,"state":"active","ping":77},{"user_id":266,"name":"DoesColder","steam_id":76561198959978678,"connected_time":1466000000000,"state":"active","ping":89},{"user_id":244,"name":"Milf (The fan O'Milk)","steam_id":76561198213031155,"connected_time":3799000000000,"state":"active","ping":99},{"user_id":208,"name":"silverhouse7","steam_id":76561198349634906,"connected_time":8445000000000,"state":"active","ping":96}]},{"server_id":1,"name":"Uncletopia | Los Angeles | 1 | All Maps","name_short":"lax-1","host":"lax-1.us.uncletopia.com","port":27015,"enabled":true,"region":"us-west","cc":"us","latitude":33.94279,"longitude":-118.41004,"reserved":0,"last_update":"0001-01-01T00:00:00Z","name_a2s":"Uncletopia | Los Angeles | 1 | All Maps","protocol":17,"map":"cp_mountainlab","folder":"tf","game":"Team Fortress","app_id":440,"player_count":0,"max_players":24,"Bots":0,"server_type":"Dedicated","server_os":"Linux","password":true,"vac":true,"version":"7882260","steam_id":85568392924469991,"keywords":["cp","nocrits","nodmgspread","uncletopia"],"game_id":440,"stv_port":27016,"stv_name":"Uncletopia | Los Angeles | 1 | All Maps | STV","players":null},{"server_id":112,"name":"Uncletopia | Los Angeles | 2 | All Maps","name_short":"lax-2","host":"lax-1.us.uncletopia.com","port":27025,"enabled":true,"region":"us-west","cc":"us","latitude":33.94279,"longitude":-118.41004,"reserved":0,"last_update":"0001-01-01T00:00:00Z","name_a2s":"Uncletopia | Los Angeles | 2 | All Maps","protocol":17,"map":"pl_snowycoast","folder":"tf","game":"Team Fortress","app_id":440,"player_count":22,"max_players":24,"Bots":0,"server_type":"Dedicated","server_os":"Linux","password":true,"vac":true,"version":"7882260","steam_id":85568392924469992,"keywords":["nocrits","nodmgspread","payload","uncletopia"],"game_id":440,"stv_port":27026,"stv_name":"Uncletopia | Los Angeles | 2 | All Maps | STV","players":[{"user_id":412,"name":"Jomdac","steam_id":76561198150447896,"connected_time":5421000000000,"state":"active","ping":52},{"user_id":500,"name":"dumbeeon","steam_id":76561198059351874,"connected_time":740000000000,"state":"active","ping":47},{"user_id":494,"name":"WhoWantsACat","steam_id":76561198137880454,"connected_time":1404000000000,"state":"active","ping":65},{"user_id":499,"name":"murph","steam_id":76561197973805634,"connected_time":777000000000,"state":"active","ping":74},{"user_id":505,"name":"basmati jarate","steam_id":76561198319442494,"connected_time":484000000000,"state":"active","ping":66},{"user_id":417,"name":"LX-24","steam_id":76561198016168993,"connected_time":4810000000000,"state":"active","ping":80},{"user_id":475,"name":"DRFEELGOOD","steam_id":76561198114603745,"connected_time":3068000000000,"state":"active","ping":59},{"user_id":419,"name":"eau:","steam_id":76561198110020262,"connected_time":4678000000000,"state":"active","ping":34},{"user_id":502,"name":"Apprentice Pybro","steam_id":76561197996353534,"connected_time":681000000000,"state":"active","ping":50},{"user_id":506,"name":"Bitter","steam_id":76561198047426244,"connected_time":241000000000,"state":"active","ping":76},{"user_id":486,"name":"dog (WhiskeyH)","steam_id":76561198045261136,"connected_time":1539000000000,"state":"active","ping":69},{"user_id":507,"name":"Bwar","steam_id":76561198043444944,"connected_time":34000000000,"state":"active","ping":66},{"user_id":478,"name":"SNŒªRTLE","steam_id":76561198321853655,"connected_time":2894000000000,"state":"active","ping":67},{"user_id":488,"name":"An Alien Mango","steam_id":76561198864823970,"connected_time":1505000000000,"state":"active","ping":89},{"user_id":503,"name":"M√™ ‚Ä†ro","steam_id":76561198165562389,"connected_time":621000000000,"state":"active","ping":111},{"user_id":490,"name":"[Colorbomb]","steam_id":76561198006316527,"connected_time":1474000000000,"state":"active","ping":55},{"user_id":491,"name":"Pretzel","steam_id":76561198092856398,"connected_time":1458000000000,"state":"active","ping":87},{"user_id":492,"name":"a cat plushie","steam_id":76561198080046542,"connected_time":1458000000000,"state":"active","ping":67},{"user_id":493,"name":"happypurple","steam_id":76561198114782270,"connected_time":1449000000000,"state":"active","ping":53},{"user_id":497,"name":"Juuichi11","steam_id":76561198141955085,"connected_time":1071000000000,"state":"active","ping":71},{"user_id":453,"name":"Assassin","steam_id":76561198321410235,"connected_time":3857000000000,"state":"active","ping":41},{"user_id":383,"name":"rimble","steam_id":76561198150137369,"connected_time":7368000000000,"state":"active","ping":57}]},{"server_id":324,"name":"Uncletopia | Los Angeles | 3 | All Maps","name_short":"lax-3","host":"lax-1.us.uncletopia.com","port":27035,"enabled":true,"region":"us-west","cc":"us","latitude":33.94279,"longitude":-118.41004,"reserved":0,"last_update":"0001-01-01T00:00:00Z","name_a2s":"Uncletopia | Los Angeles | 3 | All Maps","protocol":17,"map":"pl_pier","folder":"tf","game":"Team Fortress","app_id":440,"player_count":0,"max_players":24,"Bots":0,"server_type":"Dedicated","server_os":"Linux","password":true,"vac":true,"version":"7882260","steam_id":85568392924510198,"keywords":["nocrits","nodmgspread","payload","uncletopia"],"game_id":440,"stv_port":27036,"stv_name":"Uncletopia | Los Angeles | 3 | All Maps | STV","players":null},{"server_id":25,"name":"Uncletopia | Los Angeles | 4 | Stopwatch Beta","name_short":"lax-4","host":"lax-1.us.uncletopia.com","port":27045,"enabled":true,"region":"us-west","cc":"us","latitude":33.94279,"longitude":-118.41004,"reserved":0,"last_update":"0001-01-01T00:00:00Z","name_a2s":"Uncletopia | Los Angeles | 4 | Stopwatch Beta","protocol":17,"map":"workshop/pl_badwater_pro_v12.ugc2142942074","folder":"tf","game":"Team Fortress","app_id":440,"player_count":0,"max_players":24,"Bots":0,"server_type":"Dedicated","server_os":"Linux","password":true,"vac":true,"version":"7882260","steam_id":85568392924510199,"keywords":["nocrits","nodmgspread","payload","uncletopia"],"game_id":440,"stv_port":27046,"stv_name":"Uncletopia | Los Angeles | 4 | Stopwatch Beta | STV","players":null},{"server_id":11,"name":"Uncletopia | London | 1 | All Maps","name_short":"lon-1","host":"lon-1.uk.uncletopia.com","port":27015,"enabled":true,"region":"eu","cc":"gb","latitude":51.509865,"longitude":-0.118092,"reserved":0,"last_update":"0001-01-01T00:00:00Z","name_a2s":"Uncletopia | London | 1 | All Maps","protocol":17,"map":"pl_upward","folder":"tf","game":"Team Fortress","app_id":440,"player_count":24,"max_players":24,"Bots":0,"server_type":"Dedicated","server_os":"Linux","password":true,"vac":true,"version":"7882260","steam_id":85568392924367362,"keywords":["nocrits","nodmgspread","payload","uncletopia"],"game_id":440,"stv_port":27016,"stv_name":"Uncletopia | London | 1 | All Maps | STV","players":[{"user_id":4,"name":"band-aid copyright infringement","steam_id":76561199027095451,"connected_time":6195000000000,"state":"active","ping":89},{"user_id":5,"name":"Xenometan","steam_id":76561198208408392,"connected_time":5023000000000,"state":"active","ping":114},{"user_id":7,"name":"Kolanciasty ‚ô•","steam_id":76561198020042179,"connected_time":3524000000000,"state":"active","ping":88},{"user_id":30,"name":"Uncle Terry","steam_id":76561198396415736,"connected_time":1598000000000,"state":"active","ping":71},{"user_id":48,"name":"Flint","steam_id":76561197995920776,"connected_time":912000000000,"state":"active","ping":45},{"user_id":10,"name":"Mika","steam_id":76561199183780280,"connected_time":2735000000000,"state":"active","ping":77},{"user_id":14,"name":"pootis sentry","steam_id":76561199225363633,"connected_time":2013000000000,"state":"active","ping":102},{"user_id":24,"name":"GEP Gun","steam_id":76561197981821003,"connected_time":1750000000000,"state":"active","ping":56},{"user_id":13,"name":"Rare bulldog owner","steam_id":76561199407941086,"connected_time":2125000000000,"state":"active","ping":72},{"user_id":50,"name":"ALARM","steam_id":76561198120686521,"connected_time":425000000000,"state":"active","ping":68},{"user_id":18,"name":"nemelex","steam_id":76561198958005865,"connected_time":1934000000000,"state":"active","ping":50},{"user_id":29,"name":"autistic luigi","steam_id":76561199218285040,"connected_time":1613000000000,"state":"active","ping":83},{"user_id":20,"name":"Intruder","steam_id":76561198156128173,"connected_time":1887000000000,"state":"active","ping":74},{"user_id":49,"name":"vasile","steam_id":76561198440211026,"connected_time":611000000000,"state":"active","ping":72},{"user_id":51,"name":"Garoiop","steam_id":76561198082326459,"connected_time":227000000000,"state":"active","ping":29},{"user_id":32,"name":"Random","steam_id":76561199116602799,"connected_time":1590000000000,"state":"active","ping":51},{"user_id":33,"name":"Internet Explorer","steam_id":76561198109246960,"connected_time":1583000000000,"state":"active","ping":49},{"user_id":47,"name":"walnuth","steam_id":76561199087006560,"connected_time":1129000000000,"state":"active","ping":79},{"user_id":37,"name":"dabuttsniffer","steam_id":76561198369227367,"connected_time":1531000000000,"state":"active","ping":92},{"user_id":39,"name":"marvs","steam_id":76561198851777617,"connected_time":1478000000000,"state":"active","ping":40},{"user_id":52,"name":"`Fox","steam_id":76561198079000692,"connected_time":35000000000,"state":"spawning","ping":159},{"user_id":41,"name":"Saint","steam_id":76561198003296382,"connected_time":1467000000000,"state":"active","ping":76},{"user_id":44,"name":"Testicular torsion","steam_id":76561198119547399,"connected_time":1393000000000,"state":"active","ping":67},{"user_id":43,"name":"Neo Kojiro","steam_id":76561198000967076,"connected_time":1415000000000,"state":"active","ping":127}]},{"server_id":114,"name":"Uncletopia | London | 2 | All Maps","name_short":"lon-2","host":"lon-1.uk.uncletopia.com","port":27025,"enabled":true,"region":"eu","cc":"gb","latitude":51.509865,"longitude":-0.118092,"reserved":0,"last_update":"0001-01-01T00:00:00Z","name_a2s":"Uncletopia | London | 2 | All Maps","protocol":17,"map":"pl_swiftwater_final1","folder":"tf","game":"Team Fortress","app_id":440,"player_count":0,"max_players":24,"Bots":0,"server_type":"Dedicated","server_os":"Linux","password":true,"vac":true,"version":"7882260","steam_id":85568392924470941,"keywords":["nocrits","nodmgspread","payload","uncletopia"],"game_id":440,"stv_port":27026,"stv_name":"Uncletopia | London | 2 | All Maps | STV","players":null},{"server_id":320,"name":"Uncletopia | London | 3 | All Maps","name_short":"lon-3","host":"lon-1.uk.uncletopia.com","port":27035,"enabled":true,"region":"eu","cc":"gb","latitude":51.509865,"longitude":-0.118092,"reserved":0,"last_update":"0001-01-01T00:00:00Z","name_a2s":"Uncletopia | London | 3 | All Maps","protocol":17,"map":"pl_snowycoast","folder":"tf","game":"Team Fortress","app_id":440,"player_count":24,"max_players":24,"Bots":0,"server_type":"Dedicated","server_os":"Linux","password":true,"vac":true,"version":"7882260","steam_id":85568392924510192,"keywords":["nocrits","nodmgspread","payload","uncletopia"],"game_id":440,"stv_port":27036,"stv_name":"Uncletopia | London | 3 | All Maps | STV","players":[{"user_id":93,"name":"Wujek Cacek","steam_id":76561198010267943,"connected_time":2693000000000,"state":"active","ping":75},{"user_id":106,"name":"lieutenant meaw is down meming","steam_id":76561198054313942,"connected_time":1394000000000,"state":"active","ping":169},{"user_id":96,"name":"Koli","steam_id":76561197992428783,"connected_time":2478000000000,"state":"active","ping":59},{"user_id":112,"name":"brtaba","steam_id":76561198796334790,"connected_time":711000000000,"state":"active","ping":71},{"user_id":97,"name":"on1on (roughly chopped)","steam_id":76561197995304137,"connected_time":2473000000000,"state":"active","ping":67},{"user_id":68,"name":"Cars","steam_id":76561198173329977,"connected_time":4558000000000,"state":"active","ping":55},{"user_id":108,"name":"Captain Beefheart","steam_id":76561198031573426,"connected_time":1135000000000,"state":"active","ping":74},{"user_id":43,"name":"Vany_I","steam_id":76561198821698134,"connected_time":6494000000000,"state":"active","ping":129},{"user_id":73,"name":"AmssoBador Spacelot","steam_id":76561197993444617,"connected_time":4103000000000,"state":"active","ping":74},{"user_id":99,"name":"J√∏rn","steam_id":76561199073257952,"connected_time":2288000000000,"state":"active","ping":67},{"user_id":67,"name":"Mr_Pulse_","steam_id":76561198095001602,"connected_time":4574000000000,"state":"active","ping":104},{"user_id":116,"name":"hichem","steam_id":76561198056197307,"connected_time":179000000000,"state":"active","ping":52},{"user_id":117,"name":"-[FF]- EnglishB0t2.9","steam_id":76561199013600280,"connected_time":86000000000,"state":"active","ping":66},{"user_id":118,"name":"Well, off to hang myself","steam_id":76561198053374944,"connected_time":63000000000,"state":"active","ping":64},{"user_id":119,"name":"mira","steam_id":76561199040246790,"connected_time":48000000000,"state":"spawning","ping":66},{"user_id":113,"name":"Romu3","steam_id":76561198055484251,"connected_time":703000000000,"state":"active","ping":118},{"user_id":114,"name":"Yuzu","steam_id":76561198121694613,"connected_time":433000000000,"state":"active","ping":49},{"user_id":110,"name":"DOMAIN","steam_id":76561199095640319,"connected_time":1065000000000,"state":"active","ping":89},{"user_id":100,"name":"YOUR MOM GAMING","steam_id":76561199429562693,"connected_time":2254000000000,"state":"active","ping":70},{"user_id":111,"name":"minitel","steam_id":76561198056336216,"connected_time":847000000000,"state":"active","ping":57},{"user_id":75,"name":"Hardy Rose","steam_id":76561197994099242,"connected_time":4030000000000,"state":"active","ping":74},{"user_id":86,"name":"crx3","steam_id":76561198064490510,"connected_time":3126000000000,"state":"active","ping":70},{"user_id":87,"name":"fmdi","steam_id":76561199433879329,"connected_time":2947000000000,"state":"active","ping":74},{"user_id":104,"name":"PashaVerti","steam_id":76561199013963024,"connected_time":1586000000000,"state":"active","ping":93}]},{"server_id":321,"name":"Uncletopia | London | 4 | All Maps","name_short":"lon-4","host":"lon-1.uk.uncletopia.com","port":27045,"enabled":true,"region":"eu","cc":"gb","latitude":51.509865,"longitude":-0.118092,"reserved":0,"last_update":"0001-01-01T00:00:00Z","name_a2s":"Uncletopia | London | 4 | All Maps","protocol":17,"map":"pl_upward","folder":"tf","game":"Team Fortress","app_id":440,"player_count":0,"max_players":24,"Bots":0,"server_type":"Dedicated","server_os":"Linux","password":true,"vac":true,"version":"7882260","steam_id":85568392924510193,"keywords":["nocrits","nodmgspread","payload","uncletopia"],"game_id":440,"stv_port":27046,"stv_name":"Uncletopia | London | 4 | All Maps | STV","players":null},{"server_id":21,"name":"Uncletopia | London | 5 | All Maps","name_short":"lon-5","host":"lon-1.uk.uncletopia.com","port":27055,"enabled":true,"region":"eu","cc":"gb","latitude":51.509865,"longitude":-0.118092,"reserved":0,"last_update":"0001-01-01T00:00:00Z","name_a2s":"Uncletopia | London | 5 | All Maps","protocol":17,"map":"pl_frontier_final","folder":"tf","game":"Team Fortress","app_id":440,"player_count":0,"max_players":24,"Bots":0,"server_type":"Dedicated","server_os":"Linux","password":true,"vac":true,"version":"7882260","steam_id":85568392924742829,"keywords":["nocrits","nodmgspread","payload","uncletopia"],"game_id":440,"stv_port":27056,"stv_name":"Uncletopia | London | 5 | All Maps | STV","players":null},{"server_id":22,"name":"Uncletopia | London | 6 | All Maps","name_short":"lon-6","host":"lon-1.uk.uncletopia.com","port":27065,"enabled":true,"region":"eu","cc":"gb","latitude":51.509865,"longitude":-0.118092,"reserved":0,"last_update":"0001-01-01T00:00:00Z","name_a2s":"Uncletopia | London | 6 | All Maps","protocol":17,"map":"pl_frontier_final","folder":"tf","game":"Team Fortress","app_id":440,"player_count":23,"max_players":24,"Bots":0,"server_type":"Dedicated","server_os":"Linux","password":true,"vac":true,"version":"7882260","steam_id":85568392924742830,"keywords":["nocrits","nodmgspread","payload","uncletopia"],"game_id":440,"stv_port":27066,"stv_name":"Uncletopia | London | 6 | All Maps | STV","players":[{"user_id":156,"name":"gmane8304","steam_id":76561199322454711,"connected_time":282000000000,"state":"active","ping":88},{"user_id":119,"name":"Marcus","steam_id":76561198205027963,"connected_time":2494000000000,"state":"active","ping":61},{"user_id":145,"name":"++Old_M@N++","steam_id":76561197994792094,"connected_time":1145000000000,"state":"active","ping":71},{"user_id":127,"name":"I am the one who donks","steam_id":76561198419583460,"connected_time":2205000000000,"state":"active","ping":65},{"user_id":142,"name":"–ù—ñ–∫—ñ—Ç—Ä–æ–Ω","steam_id":76561198044401080,"connected_time":1691000000000,"state":"active","ping":68},{"user_id":122,"name":"SpyCrab  Erik Twice","steam_id":76561198009710309,"connected_time":2289000000000,"state":"active","ping":60},{"user_id":93,"name":"askulap","steam_id":76561197992018795,"connected_time":4941000000000,"state":"active","ping":84},{"user_id":136,"name":"lulu","steam_id":76561199147764133,"connected_time":1975000000000,"state":"active","ping":73},{"user_id":147,"name":"Magic1L","steam_id":76561198831787182,"connected_time":1045000000000,"state":"active","ping":75},{"user_id":111,"name":"Peigg","steam_id":76561198414749782,"connected_time":3577000000000,"state":"active","ping":100},{"user_id":125,"name":"Lessoz","steam_id":76561199211572036,"connected_time":2215000000000,"state":"active","ping":87},{"user_id":158,"name":"mkwii","steam_id":76561198062507768,"connected_time":34000000000,"state":"active","ping":69},{"user_id":160,"name":"Asa Mitaka","steam_id":76561198361723475,"connected_time":6000000000,"state":"spawning","ping":84},{"user_id":143,"name":"elliot","steam_id":76561198055010039,"connected_time":1206000000000,"state":"active","ping":69},{"user_id":154,"name":"chemoman","steam_id":76561198820463450,"connected_time":424000000000,"state":"active","ping":75},{"user_id":131,"name":"Uriziel","steam_id":76561198046950794,"connected_time":2094000000000,"state":"active","ping":102},{"user_id":161,"name":"Bruski","steam_id":76561198053589119,"connected_time":5000000000,"state":"spawning","ping":56},{"user_id":148,"name":"Szeregowy LowiRyb","steam_id":76561198855967762,"connected_time":1030000000000,"state":"active","ping":102},{"user_id":84,"name":"Penis Contortionist","steam_id":76561198073663784,"connected_time":6473000000000,"state":"active","ping":36},{"user_id":153,"name":"Fuvuk","steam_id":76561198044458593,"connected_time":463000000000,"state":"active","ping":91},{"user_id":134,"name":"Kacperos12","steam_id":76561198044168268,"connected_time":2067000000000,"state":"active","ping":94},{"user_id":150,"name":"WATANG!","steam_id":76561198040478926,"connected_time":686000000000,"state":"active","ping":75},{"user_id":117,"name":"Yanniki","steam_id":76561197986058110,"connected_time":2673000000000,"state":"active","ping":64}]},{"server_id":40,"name":"Uncletopia | London | 7 | No Payload","name_short":"lon-7","host":"lon-1.uk.uncletopia.com","port":27075,"enabled":true,"region":"eu","cc":"gb","latitude":51.509865,"longitude":-0.118092,"reserved":0,"last_update":"0001-01-01T00:00:00Z","name_a2s":"Uncletopia | London | 7 | No Payload","protocol":17,"map":"cp_gorge","folder":"tf","game":"Team Fortress","app_id":440,"player_count":24,"max_players":24,"Bots":0,"server_type":"Dedicated","server_os":"Linux","password":true,"vac":true,"version":"7882260","steam_id":85568392924964314,"keywords":["cp","nocrits","nodmgspread","uncletopia"],"game_id":440,"stv_port":27076,"stv_name":"Uncletopia | London | 7 | No Payload | STV","players":[{"user_id":3,"name":"Tx_madmash","steam_id":76561198924656512,"connected_time":7066000000000,"state":"active","ping":64},{"user_id":48,"name":"Paul B√§umer","steam_id":76561198308302932,"connected_time":3123000000000,"state":"active","ping":101},{"user_id":92,"name":"pESde","steam_id":76561198392608456,"connected_time":540000000000,"state":"active","ping":105},{"user_id":64,"name":"T - Bone","steam_id":76561198107005109,"connected_time":2270000000000,"state":"active","ping":93},{"user_id":79,"name":"C. Trebonius Pius","steam_id":76561198310327706,"connected_time":1346000000000,"state":"active","ping":69},{"user_id":21,"name":"Nyhde","steam_id":76561198012771416,"connected_time":4685000000000,"state":"active","ping":108},{"user_id":15,"name":"Yeets3er","steam_id":76561199137127757,"connected_time":5121000000000,"state":"active","ping":55},{"user_id":89,"name":"Victoria NyaNya","steam_id":76561198386462300,"connected_time":773000000000,"state":"active","ping":90},{"user_id":47,"name":"Mephistopheles","steam_id":76561199033390312,"connected_time":3260000000000,"state":"active","ping":113},{"user_id":49,"name":"dorak","steam_id":76561198818037965,"connected_time":3107000000000,"state":"active","ping":106},{"user_id":81,"name":"hygalation","steam_id":76561198012503944,"connected_time":1073000000000,"state":"active","ping":71},{"user_id":95,"name":"Elix","steam_id":76561199072306920,"connected_time":107000000000,"state":"active","ping":93},{"user_id":75,"name":"–¢—Ä—É–ø –í–æ–ª–æ–¥—è","steam_id":76561198035718457,"connected_time":1727000000000,"state":"active","ping":79},{"user_id":85,"name":"Ghost","steam_id":76561198255430536,"connected_time":951000000000,"state":"active","ping":66},{"user_id":71,"name":"Kvadrat","steam_id":76561198022834916,"connected_time":1854000000000,"state":"active","ping":117},{"user_id":41,"name":"Fallen Dog","steam_id":76561198851387188,"connected_time":3587000000000,"state":"active","ping":70},{"user_id":66,"name":"Shark","steam_id":76561198205226501,"connected_time":2179000000000,"state":"active","ping":158},{"user_id":90,"name":"JeanCorben","steam_id":76561197965133561,"connected_time":766000000000,"state":"active","ping":44},{"user_id":57,"name":"Louis Armstrong Gaming","steam_id":76561199142022395,"connected_time":2893000000000,"state":"active","ping":76},{"user_id":73,"name":"Fat Pigeon","steam_id":76561198817940142,"connected_time":1767000000000,"state":"active","ping":51},{"user_id":97,"name":"Cool Boy Coz","steam_id":76561198016973060,"connected_time":46000000000,"state":"active","ping":92},{"user_id":86,"name":"BreadAcres","steam_id":76561198098217082,"connected_time":891000000000,"state":"active","ping":66},{"user_id":96,"name":"r","steam_id":76561199485138600,"connected_time":96000000000,"state":"active","ping":63},{"user_id":84,"name":"Paul Allen's Business Card","steam_id":76561198013959716,"connected_time":982000000000,"state":"active","ping":48}]},{"server_id":41,"name":"Uncletopia | London | 8 | Community","name_short":"lon-8","host":"lon-1.uk.uncletopia.com","port":27085,"enabled":true,"region":"eu","cc":"gb","latitude":51.509865,"longitude":-0.118092,"reserved":0,"last_update":"0001-01-01T00:00:00Z","name_a2s":"Uncletopia | London | 8 | Community","protocol":17,"map":"pl_swiftwater_final1","folder":"tf","game":"Team Fortress","app_id":440,"player_count":0,"max_players":24,"Bots":0,"server_type":"Dedicated","server_os":"Linux","password":true,"vac":true,"version":"7882260","steam_id":85568392924964315,"keywords":["nocrits","nodmgspread","payload","uncletopia"],"game_id":440,"stv_port":27086,"stv_name":"Uncletopia | London | 8 | Community | STV","players":null},{"server_id":300,"name":"Uncletopia | Montr√©al | 1 | All Maps","name_short":"mtl-1","host":"mtl-1.ca.uncletopia.com","port":27015,"enabled":true,"region":"us-east","cc":"ca","latitude":45.50889,"longitude":-73.56167,"reserved":0,"last_update":"0001-01-01T00:00:00Z","name_a2s":"Uncletopia | Montr√©al | 1 | All Maps","protocol":17,"map":"pl_barnblitz","folder":"tf","game":"Team Fortress","app_id":440,"player_count":0,"max_players":24,"Bots":0,"server_type":"Dedicated","server_os":"Linux","password":true,"vac":true,"version":"7882260","steam_id":85568392924500087,"keywords":["nocrits","nodmgspread","payload","uncletopia"],"game_id":440,"stv_port":27016,"stv_name":"Uncletopia | Montr√©al | 1 | All Maps | STV","players":null},{"server_id":301,"name":"Uncletopia | Montr√©al | 2 | All Maps","name_short":"mtl-2","host":"mtl-1.ca.uncletopia.com","port":27025,"enabled":true,"region":"us-east","cc":"ca","latitude":45.50889,"longitude":-73.56167,"reserved":0,"last_update":"0001-01-01T00:00:00Z","name_a2s":"Uncletopia | Montr√©al | 2 | All Maps","protocol":17,"map":"koth_highpass","folder":"tf","game":"Team Fortress","app_id":440,"player_count":0,"max_players":24,"Bots":0,"server_type":"Dedicated","server_os":"Linux","password":true,"vac":true,"version":"7882260","steam_id":85568392924500088,"keywords":["cp","nocrits","nodmgspread","uncletopia"],"game_id":440,"stv_port":27026,"stv_name":"Uncletopia | Montr√©al | 2 | All Maps | STV","players":null},{"server_id":302,"name":"Uncletopia | Montr√©al | 3 | All Maps","name_short":"mtl-3","host":"mtl-1.ca.uncletopia.com","port":27035,"enabled":true,"region":"us-east","cc":"ca","latitude":45.50889,"longitude":-73.56167,"reserved":0,"last_update":"0001-01-01T00:00:00Z","name_a2s":"Uncletopia | Montr√©al | 3 | All Maps","protocol":17,"map":"koth_cascade","folder":"tf","game":"Team Fortress","app_id":440,"player_count":0,"max_players":24,"Bots":0,"server_type":"Dedicated","server_os":"Linux","password":true,"vac":true,"version":"7882260","steam_id":85568392924500089,"keywords":["cp","nocrits","nodmgspread","uncletopia"],"game_id":440,"stv_port":27036,"stv_name":"Uncletopia | Montr√©al | 3 | All Maps | STV","players":null},{"server_id":303,"name":"Uncletopia | Montr√©al | 4 | No Payload","name_short":"mtl-4","host":"mtl-1.ca.uncletopia.com","port":27045,"enabled":true,"region":"us-east","cc":"ca","latitude":45.50889,"longitude":-73.56167,"reserved":0,"last_update":"0001-01-01T00:00:00Z","name_a2s":"Uncletopia | Montr√©al | 4 | No Payload","protocol":17,"map":"koth_nucleus","folder":"tf","game":"Team Fortress","app_id":440,"player_count":0,"max_players":24,"Bots":0,"server_type":"Dedicated","server_os":"Linux","password":true,"vac":true,"version":"7882260","steam_id":85568392924500090,"keywords":["cp","nocrits","nodmgspread","uncletopia"],"game_id":440,"stv_port":27046,"stv_name":"Uncletopia | Montr√©al | 4 | No Payload | STV","players":null},{"server_id":13,"name":"Uncletopia | New York City | 1 | All Maps","name_short":"nyc-1","host":"nyc-1.us.uncletopia.com","port":27015,"enabled":true,"region":"us-east","cc":"us","latitude":40.73061,"longitude":-73.93524,"reserved":0,"last_update":"0001-01-01T00:00:00Z","name_a2s":"Uncletopia | New York City | 1 | All Maps","protocol":17,"map":"cp_5gorge","folder":"tf","game":"Team Fortress","app_id":440,"player_count":0,"max_players":24,"Bots":0,"server_type":"Dedicated","server_os":"Linux","password":true,"vac":true,"version":"7882260","steam_id":85568392924469993,"keywords":["cp","nocrits","nodmgspread","uncletopia"],"game_id":440,"stv_port":27016,"stv_name":"Uncletopia | New York City | 1 | All Maps | STV","players":null},{"server_id":14,"name":"Uncletopia | New York City | 2 | All Maps","name_short":"nyc-2","host":"nyc-1.us.uncletopia.com","port":27025,"enabled":true,"region":"us-east","cc":"us","latitude":40.73061,"longitude":-73.93524,"reserved":0,"last_update":"0001-01-01T00:00:00Z","name_a2s":"Uncletopia | New York City | 2 | All Maps","protocol":17,"map":"koth_lakeside_final","folder":"tf","game":"Team Fortress","app_id":440,"player_count":0,"max_players":24,"Bots":0,"server_type":"Dedicated","server_os":"Linux","password":true,"vac":true,"version":"7882260","steam_id":85568392924469994,"keywords":["cp","nocrits","nodmgspread","uncletopia"],"game_id":440,"stv_port":27026,"stv_name":"Uncletopia | New York City | 2 | All Maps | STV","players":null},{"server_id":15,"name":"Uncletopia | New York City | 3 | Stopwatch Beta","name_short":"nyc-3","host":"nyc-1.us.uncletopia.com","port":27035,"enabled":true,"region":"us-east","cc":"us","latitude":40.73061,"longitude":-73.93524,"reserved":0,"last_update":"0001-01-01T00:00:00Z","name_a2s":"Uncletopia | New York City | 3 | Stopwatch Beta","protocol":17,"map":"pl_borneo","folder":"tf","game":"Team Fortress","app_id":440,"player_count":0,"max_players":24,"Bots":0,"server_type":"Dedicated","server_os":"Linux","password":true,"vac":true,"version":"7882260","steam_id":85568392924742820,"keywords":["nocrits","nodmgspread","payload","uncletopia"],"game_id":440,"stv_port":27036,"stv_name":"Uncletopia | New York City | 3 | Stopwatch Beta | STV","players":null},{"server_id":16,"name":"Uncletopia | New York City | 4 | Community","name_short":"nyc-4","host":"nyc-1.us.uncletopia.com","port":27045,"enabled":true,"region":"us-east","cc":"us","latitude":40.73061,"longitude":-73.93524,"reserved":0,"last_update":"0001-01-01T00:00:00Z","name_a2s":"Uncletopia | New York City | 4 | Community","protocol":17,"map":"workshop/koth_kemptown_rc1.ugc767410655","folder":"tf","game":"Team Fortress","app_id":440,"player_count":0,"max_players":24,"Bots":0,"server_type":"Dedicated","server_os":"Linux","password":true,"vac":true,"version":"7882260","steam_id":85568392924742821,"keywords":["cp","nocrits","nodmgspread","uncletopia"],"game_id":440,"stv_port":27046,"stv_name":"Uncletopia | New York City | 4 | Community | STV","players":null},{"server_id":142,"name":"Uncletopia | S√£o Paulo | 1 | All Maps","name_short":"sao-1","host":"sao-1.br.uncletopia.com","port":27015,"enabled":true,"region":"sa","cc":"br","latitude":-23.533773,"longitude":-46.62529,"reserved":0,"last_update":"0001-01-01T00:00:00Z","name_a2s":"Uncletopia | S√£o Paulo | 1 | All Maps","protocol":17,"map":"cp_process_final","folder":"tf","game":"Team Fortress","app_id":440,"player_count":0,"max_players":24,"Bots":0,"server_type":"Dedicated","server_os":"Linux","password":true,"vac":true,"version":"7882260","steam_id":85568392924469996,"keywords":["cp","nocrits","nodmgspread","uncletopia"],"game_id":440,"stv_port":27016,"stv_name":"Uncletopia | S√£o Paulo | 1 | All Maps | STV","players":null},{"server_id":143,"name":"Uncletopia | S√£o Paulo | 2 | All Maps","name_short":"sao-2","host":"sao-2.br.uncletopia.com","port":27015,"enabled":true,"region":"sa","cc":"br","latitude":-23.533773,"longitude":-46.62529,"reserved":0,"last_update":"0001-01-01T00:00:00Z","name_a2s":"Uncletopia | S√£o Paulo | 2 | All Maps","protocol":17,"map":"pl_pier","folder":"tf","game":"Team Fortress","app_id":440,"player_count":0,"max_players":24,"Bots":0,"server_type":"Dedicated","server_os":"Linux","password":true,"vac":true,"version":"7882260","steam_id":85568392924485349,"keywords":["nocrits","nodmgspread","payload","uncletopia"],"game_id":440,"stv_port":27016,"stv_name":"Uncletopia | S√£o Paulo | 2 | All Maps | STV","players":null},{"server_id":7,"name":"Uncletopia | Seattle | 1 | All Maps","name_short":"sea-1","host":"sea-1.us.uncletopia.com","port":27015,"enabled":true,"region":"us-west","cc":"us","latitude":47.608013,"longitude":-122.33517,"reserved":0,"last_update":"0001-01-01T00:00:00Z","name_a2s":"Uncletopia | Seattle | 1 | All Maps","protocol":17,"map":"pl_pier","folder":"tf","game":"Team Fortress","app_id":440,"player_count":24,"max_players":24,"Bots":0,"server_type":"Dedicated","server_os":"Linux","password":true,"vac":true,"version":"7882260","steam_id":85568392924469997,"keywords":["nocrits","nodmgspread","payload","uncletopia"],"game_id":440,"stv_port":27016,"stv_name":"Uncletopia | Seattle | 1 | All Maps | STV","players":[{"user_id":740,"name":"resh","steam_id":76561198239598834,"connected_time":6149000000000,"state":"active","ping":130},{"user_id":665,"name":"oil","steam_id":76561198099980149,"connected_time":13239000000000,"state":"active","ping":75},{"user_id":768,"name":"delight","steam_id":76561197980280272,"connected_time":2717000000000,"state":"active","ping":45},{"user_id":826,"name":"toilet thief","steam_id":76561198057486874,"connected_time":1102000000000,"state":"active","ping":70},{"user_id":684,"name":"profile name","steam_id":76561198032625036,"connected_time":10467000000000,"state":"active","ping":60},{"user_id":775,"name":"„Åµ„Çè„Åµ„ÇèÊØõÂ∏É","steam_id":76561198088403016,"connected_time":2704000000000,"state":"active","ping":180},{"user_id":746,"name":"Sir Loincloth","steam_id":76561198033073991,"connected_time":5667000000000,"state":"active","ping":60},{"user_id":774,"name":"Dot...","steam_id":76561198169920115,"connected_time":2707000000000,"state":"active","ping":98},{"user_id":723,"name":"white muslim dane cook","steam_id":76561198000979872,"connected_time":7789000000000,"state":"active","ping":84},{"user_id":597,"name":"roryisonamobilehotspot","steam_id":76561198065825165,"connected_time":19592000000000,"state":"active","ping":95},{"user_id":771,"name":"never knows best","steam_id":76561197989933601,"connected_time":2709000000000,"state":"active","ping":47},{"user_id":777,"name":"JTuu","steam_id":76561198030606396,"connected_time":2577000000000,"state":"active","ping":36},{"user_id":762,"name":"Oh No! It's Twister!","steam_id":76561198016791916,"connected_time":3853000000000,"state":"active","ping":85},{"user_id":767,"name":"bota box burglar","steam_id":76561198134309750,"connected_time":2721000000000,"state":"active","ping":102},{"user_id":765,"name":"Ariel Tone","steam_id":76561198086475014,"connected_time":3409000000000,"state":"active","ping":65},{"user_id":670,"name":"smeasly got the dab pen","steam_id":76561198028718812,"connected_time":12916000000000,"state":"active","ping":45},{"user_id":722,"name":"Oakus Maximus","steam_id":76561198317179010,"connected_time":7840000000000,"state":"active","ping":68},{"user_id":827,"name":"Infuzion4","steam_id":76561198119664203,"connected_time":1088000000000,"state":"active","ping":95},{"user_id":830,"name":"WaterTiddiMan","steam_id":76561198957418948,"connected_time":641000000000,"state":"active","ping":116},{"user_id":735,"name":"Inflight","steam_id":76561198920049475,"connected_time":6759000000000,"state":"active","ping":112},{"user_id":828,"name":"glock in my rawry :3","steam_id":76561198084885479,"connected_time":1062000000000,"state":"active","ping":74},{"user_id":832,"name":"the tf2 player of all time","steam_id":76561198881665250,"connected_time":450000000000,"state":"active","ping":55},{"user_id":779,"name":"bullet man","steam_id":76561198080058079,"connected_time":2555000000000,"state":"active","ping":60},{"user_id":787,"name":"jorts","steam_id":76561199041179985,"connected_time":1771000000000,"state":"active","ping":75}]},{"server_id":119,"name":"Uncletopia | Seattle | 2 | All Maps","name_short":"sea-2","host":"sea-1.us.uncletopia.com","port":27025,"enabled":true,"region":"us-west","cc":"us","latitude":47.608013,"longitude":-122.33517,"reserved":0,"last_update":"0001-01-01T00:00:00Z","name_a2s":"Uncletopia | Seattle | 2 | All Maps","protocol":17,"map":"pl_barnblitz","folder":"tf","game":"Team Fortress","app_id":440,"player_count":2,"max_players":24,"Bots":0,"server_type":"Dedicated","server_os":"Linux","password":true,"vac":true,"version":"7882260","steam_id":85568392924469998,"keywords":["nocrits","nodmgspread","payload","uncletopia"],"game_id":440,"stv_port":27026,"stv_name":"Uncletopia | Seattle | 2 | All Maps | STV","players":[{"user_id":809,"name":"Zeta-9","steam_id":76561199002170798,"connected_time":1273000000000,"state":"active","ping":71},{"user_id":810,"name":"CATANDME2020","steam_id":76561199482506203,"connected_time":1257000000000,"state":"active","ping":67}]},{"server_id":406,"name":"Uncletopia | Seattle | 3 | Stopwatch Beta","name_short":"sea-3","host":"sea-1.us.uncletopia.com","port":27035,"enabled":true,"region":"us-west","cc":"us","latitude":47.608013,"longitude":-122.33517,"reserved":0,"last_update":"0001-01-01T00:00:00Z","name_a2s":"Uncletopia | Seattle | 3 | Stopwatch Beta","protocol":17,"map":"pl_swiftwater_final1","folder":"tf","game":"Team Fortress","app_id":440,"player_count":0,"max_players":24,"Bots":0,"server_type":"Dedicated","server_os":"Linux","password":true,"vac":true,"version":"7882260","steam_id":85568392924515217,"keywords":["nocrits","nodmgspread","payload","uncletopia"],"game_id":440,"stv_port":27036,"stv_name":"Uncletopia | Seattle | 3 | Stopwatch Beta | STV","players":null},{"server_id":17,"name":"Uncletopia | San Francisco | 1 | All Maps","name_short":"sfo-1","host":"sfo-1.us.uncletopia.com","port":27015,"enabled":true,"region":"us-west","cc":"us","latitude":37.77397,"longitude":-122.4313,"reserved":0,"last_update":"0001-01-01T00:00:00Z","name_a2s":"Uncletopia | San Francisco | 1 | All Maps","protocol":17,"map":"pl_snowycoast","folder":"tf","game":"Team Fortress","app_id":440,"player_count":21,"max_players":24,"Bots":0,"server_type":"Dedicated","server_os":"Linux","password":true,"vac":true,"version":"7882260","steam_id":85568392924469999,"keywords":["nocrits","nodmgspread","payload","uncletopia"],"game_id":440,"stv_port":27016,"stv_name":"Uncletopia | San Francisco | 1 | All Maps | STV","players":[{"user_id":307,"name":"vintage","steam_id":76561198179249054,"connected_time":478000000000,"state":"active","ping":39},{"user_id":314,"name":"Anxious Nerd Bird","steam_id":76561198112178602,"connected_time":174000000000,"state":"active","ping":59},{"user_id":246,"name":"SQbuilder","steam_id":76561198076473375,"connected_time":5000000000000,"state":"active","ping":42},{"user_id":278,"name":"R3n3gade","steam_id":76561198145984116,"connected_time":2812000000000,"state":"active","ping":63},{"user_id":309,"name":"Kidjays","steam_id":76561198124941901,"connected_time":441000000000,"state":"active","ping":85},{"user_id":310,"name":"A man with no plan","steam_id":76561198031075099,"connected_time":410000000000,"state":"active","ping":85},{"user_id":302,"name":"huiei","steam_id":76561198073763735,"connected_time":1413000000000,"state":"active","ping":60},{"user_id":280,"name":"Hog Rider","steam_id":76561198270106555,"connected_time":2544000000000,"state":"active","ping":57},{"user_id":311,"name":"Blue","steam_id":76561199483406620,"connected_time":391000000000,"state":"active","ping":59},{"user_id":312,"name":"Bread","steam_id":76561198309684977,"connected_time":298000000000,"state":"active","ping":138},{"user_id":282,"name":"An Unhappy Clown","steam_id":76561198175516514,"connected_time":2524000000000,"state":"active","ping":89},{"user_id":250,"name":"Giorno Giovanna","steam_id":76561198044106874,"connected_time":4853000000000,"state":"active","ping":61},{"user_id":293,"name":"yogi","steam_id":76561198067986753,"connected_time":2208000000000,"state":"active","ping":53},{"user_id":313,"name":"merlin","steam_id":76561198334511480,"connected_time":287000000000,"state":"active","ping":80},{"user_id":298,"name":"cringy","steam_id":76561198323000455,"connected_time":1886000000000,"state":"active","ping":70},{"user_id":305,"name":"Portabello","steam_id":76561198092412930,"connected_time":965000000000,"state":"active","ping":58},{"user_id":287,"name":"Bagoool","steam_id":76561198065368286,"connected_time":2452000000000,"state":"active","ping":92},{"user_id":288,"name":"lite","steam_id":76561198041535914,"connected_time":2447000000000,"state":"active","ping":97},{"user_id":289,"name":"Prez Pineapple","steam_id":76561198253755258,"connected_time":2416000000000,"state":"active","ping":64},{"user_id":303,"name":"THE PRODGIAL STUNNA","steam_id":76561198325613425,"connected_time":1406000000000,"state":"active","ping":82},{"user_id":253,"name":"brucking","steam_id":76561198348213337,"connected_time":4699000000000,"state":"active","ping":59}]},{"server_id":18,"name":"Uncletopia | San Francisco | 2 | All Maps","name_short":"sfo-2","host":"sfo-1.us.uncletopia.com","port":27025,"enabled":true,"region":"us-west","cc":"us","latitude":37.77397,"longitude":-122.4313,"reserved":0,"last_update":"0001-01-01T00:00:00Z","name_a2s":"Uncletopia | San Francisco | 2 | All Maps","protocol":17,"map":"koth_highpass","folder":"tf","game":"Team Fortress","app_id":440,"player_count":0,"max_players":24,"Bots":0,"server_type":"Dedicated","server_os":"Linux","password":true,"vac":true,"version":"7882260","steam_id":85568392924470000,"keywords":["cp","nocrits","nodmgspread","uncletopia"],"game_id":440,"stv_port":27026,"stv_name":"Uncletopia | San Francisco | 2 | All Maps | STV","players":null},{"server_id":19,"name":"Uncletopia | San Francisco | 3 | Stopwatch Beta","name_short":"sfo-3","host":"sfo-1.us.uncletopia.com","port":27035,"enabled":true,"region":"us-west","cc":"us","latitude":37.77397,"longitude":-122.4313,"reserved":0,"last_update":"0001-01-01T00:00:00Z","name_a2s":"Uncletopia | San Francisco | 3 | Stopwatch Beta","protocol":17,"map":"pl_frontier_final","folder":"tf","game":"Team Fortress","app_id":440,"player_count":0,"max_players":24,"Bots":0,"server_type":"Dedicated","server_os":"Linux","password":true,"vac":true,"version":"7882260","steam_id":85568392924742824,"keywords":["nocrits","nodmgspread","payload","uncletopia"],"game_id":440,"stv_port":27036,"stv_name":"Uncletopia | San Francisco | 3 | Stopwatch Beta | STV","players":null},{"server_id":20,"name":"Uncletopia | San Francisco | 4 | Community","name_short":"sfo-4","host":"sfo-1.us.uncletopia.com","port":27045,"enabled":true,"region":"us-west","cc":"us","latitude":37.77397,"longitude":-122.4313,"reserved":0,"last_update":"0001-01-01T00:00:00Z","name_a2s":"Uncletopia | San Francisco | 4 | Community","protocol":17,"map":"workshop/koth_slaughter_rc1.ugc1712845210","folder":"tf","game":"Team Fortress","app_id":440,"player_count":0,"max_players":24,"Bots":0,"server_type":"Dedicated","server_os":"Linux","password":true,"vac":true,"version":"7882260","steam_id":85568392924742826,"keywords":["cp","nocrits","nodmgspread","uncletopia"],"game_id":440,"stv_port":27046,"stv_name":"Uncletopia | San Francisco | 4 | Community | STV","players":null},{"server_id":141,"name":"Uncletopia | Sydney | 1 | All Maps","name_short":"syd-1","host":"syd-1.au.uncletopia.com","port":27015,"enabled":true,"region":"au","cc":"au","latitude":-33.865143,"longitude":151.2099,"reserved":0,"last_update":"0001-01-01T00:00:00Z","name_a2s":"Uncletopia | Sydney | 1 | All Maps","protocol":17,"map":"pl_badwater","folder":"tf","game":"Team Fortress","app_id":440,"player_count":16,"max_players":24,"Bots":0,"server_type":"Dedicated","server_os":"Linux","password":true,"vac":true,"version":"7882260","steam_id":85568392924470001,"keywords":["nocrits","nodmgspread","payload","uncletopia"],"game_id":440,"stv_port":27016,"stv_name":"Uncletopia | Sydney | 1 | All Maps | STV","players":[{"user_id":162,"name":"Shiki Eiki","steam_id":76561198095744048,"connected_time":2333000000000,"state":"active","ping":95},{"user_id":159,"name":"Komeji","steam_id":76561198125237921,"connected_time":2657000000000,"state":"active","ping":39},{"user_id":161,"name":"Powersurge The Protogen -BvM-","steam_id":76561198013117218,"connected_time":2587000000000,"state":"active","ping":83},{"user_id":186,"name":"ericacummins","steam_id":76561198946280912,"connected_time":868000000000,"state":"active","ping":94},{"user_id":187,"name":"table","steam_id":76561199218095319,"connected_time":733000000000,"state":"active","ping":73},{"user_id":165,"name":"CypressFluff (She/Her)","steam_id":76561198174667818,"connected_time":2082000000000,"state":"active","ping":55},{"user_id":197,"name":"apache.oru","steam_id":76561199275926883,"connected_time":201000000000,"state":"active","ping":84},{"user_id":179,"name":"Âòõ‰ªï‰ºçÁª¥","steam_id":76561198190171598,"connected_time":1040000000000,"state":"active","ping":56},{"user_id":176,"name":"Crash","steam_id":76561198049431074,"connected_time":1113000000000,"state":"active","ping":63},{"user_id":173,"name":"Jxggs","steam_id":76561198987708584,"connected_time":1242000000000,"state":"active","ping":59},{"user_id":180,"name":"Cyborgcupine","steam_id":76561198257389366,"connected_time":1027000000000,"state":"active","ping":95},{"user_id":198,"name":"yarbinator","steam_id":76561198204678828,"connected_time":144000000000,"state":"active","ping":60},{"user_id":183,"name":"Bait Monkey","steam_id":76561198085392224,"connected_time":989000000000,"state":"active","ping":54},{"user_id":200,"name":"Hungry for thumbtacks","steam_id":76561198059129270,"connected_time":65000000000,"state":"active","ping":71},{"user_id":188,"name":"Fuzzy","steam_id":76561198081319798,"connected_time":720000000000,"state":"active","ping":45},{"user_id":191,"name":"Not A F2P","steam_id":76561198376756608,"connected_time":678000000000,"state":"active","ping":59}]},{"server_id":123,"name":"Uncletopia | Sydney | 2 | All Maps","name_short":"syd-2","host":"syd-1.au.uncletopia.com","port":27025,"enabled":true,"region":"au","cc":"au","latitude":-33.865143,"longitude":151.2099,"reserved":0,"last_update":"0001-01-01T00:00:00Z","name_a2s":"Uncletopia | Sydney | 2 | All Maps","protocol":17,"map":"cp_dustbowl","folder":"tf","game":"Team Fortress","app_id":440,"player_count":24,"max_players":24,"Bots":0,"server_type":"Dedicated","server_os":"Linux","password":true,"vac":true,"version":"7882260","steam_id":85568392924470002,"keywords":["cp","nocrits","nodmgspread","uncletopia"],"game_id":440,"stv_port":27026,"stv_name":"Uncletopia | Sydney | 2 | All Maps | STV","players":[{"user_id":348,"name":"mushroom","steam_id":76561197992336470,"connected_time":4807000000000,"state":"active","ping":93},{"user_id":405,"name":"Nackle","steam_id":76561198176111621,"connected_time":1098000000000,"state":"active","ping":89},{"user_id":397,"name":"veteran","steam_id":76561199457046392,"connected_time":1207000000000,"state":"active","ping":78},{"user_id":379,"name":"Comic Sans G","steam_id":76561198036184916,"connected_time":2536000000000,"state":"active","ping":79},{"user_id":411,"name":"BeSpOkE","steam_id":76561198880911058,"connected_time":441000000000,"state":"active","ping":91},{"user_id":408,"name":"ibus","steam_id":76561199026701614,"connected_time":796000000000,"state":"active","ping":62},{"user_id":393,"name":"weezer","steam_id":76561199439508788,"connected_time":1675000000000,"state":"active","ping":64},{"user_id":376,"name":"Local Trash Expert","steam_id":76561198145598622,"connected_time":2549000000000,"state":"active","ping":83},{"user_id":388,"name":"Phobia¬≤","steam_id":76561198038833524,"connected_time":1855000000000,"state":"active","ping":56},{"user_id":412,"name":"Bigrichard","steam_id":76561198032092945,"connected_time":275000000000,"state":"active","ping":77},{"user_id":401,"name":"Teflon","steam_id":76561198001224301,"connected_time":1173000000000,"state":"active","ping":98},{"user_id":399,"name":"Ungstein","steam_id":76561197998374531,"connected_time":1207000000000,"state":"active","ping":73},{"user_id":402,"name":"Sunny","steam_id":76561199253363005,"connected_time":1160000000000,"state":"active","ping":108},{"user_id":394,"name":"yohkes","steam_id":76561198053942284,"connected_time":1605000000000,"state":"active","ping":41},{"user_id":380,"name":"koyaa","steam_id":76561198047484772,"connected_time":2535000000000,"state":"active","ping":75},{"user_id":384,"name":"Jodelk√∂nig Franzl Lang","steam_id":76561198007667830,"connected_time":2039000000000,"state":"active","ping":53},{"user_id":375,"name":"R","steam_id":76561197996963023,"connected_time":2649000000000,"state":"active","ping":76},{"user_id":378,"name":"perturb (feed/seed)","steam_id":76561198085124297,"connected_time":2547000000000,"state":"active","ping":53},{"user_id":403,"name":"Lemmy","steam_id":76561198096213949,"connected_time":1126000000000,"state":"active","ping":54},{"user_id":413,"name":"Fyre Rose","steam_id":76561198000527551,"connected_time":69000000000,"state":"active","ping":78},{"user_id":377,"name":"Griffin","steam_id":76561198024926514,"connected_time":2548000000000,"state":"active","ping":89},{"user_id":404,"name":"Big ol' pool","steam_id":76561198214116428,"connected_time":1124000000000,"state":"active","ping":84},{"user_id":389,"name":"HORIZ0N","steam_id":76561199006929134,"connected_time":1785000000000,"state":"active","ping":70},{"user_id":410,"name":"CHOIB","steam_id":76561198387938667,"connected_time":788000000000,"state":"active","ping":45}]},{"server_id":395,"name":"Uncletopia | Sydney | 3 | All Maps","name_short":"syd-3","host":"syd-1.au.uncletopia.com","port":27035,"enabled":true,"region":"au","cc":"au","latitude":-33.865143,"longitude":151.2099,"reserved":0,"last_update":"0001-01-01T00:00:00Z","name_a2s":"Uncletopia | Sydney | 3 | All Maps","protocol":17,"map":"pl_pier","folder":"tf","game":"Team Fortress","app_id":440,"player_count":3,"max_players":24,"Bots":0,"server_type":"Dedicated","server_os":"Linux","password":true,"vac":true,"version":"7882260","steam_id":85568392925194467,"keywords":["nocrits","nodmgspread","payload","uncletopia"],"game_id":440,"stv_port":27036,"stv_name":"Uncletopia | Sydney | 3 | All Maps | STV","players":[{"user_id":15,"name":"Soldier main(Really)","steam_id":76561198153397177,"connected_time":2891000000000,"state":"active","ping":51},{"user_id":16,"name":"the weed alien","steam_id":76561199205171109,"connected_time":2888000000000,"state":"active","ping":64},{"user_id":18,"name":"Cris.p bacon","steam_id":76561199230423491,"connected_time":2055000000000,"state":"active","ping":114}]},{"server_id":396,"name":"Uncletopia | Sydney | 4 | All Maps","name_short":"syd-4","host":"syd-1.au.uncletopia.com","port":27045,"enabled":true,"region":"au","cc":"au","latitude":-33.865143,"longitude":151.2099,"reserved":0,"last_update":"0001-01-01T00:00:00Z","name_a2s":"Uncletopia | Sydney | 4 | All Maps","protocol":17,"map":"koth_highpass","folder":"tf","game":"Team Fortress","app_id":440,"player_count":0,"max_players":24,"Bots":0,"server_type":"Dedicated","server_os":"Linux","password":true,"vac":true,"version":"7882260","steam_id":85568392925397958,"keywords":["cp","nocrits","nodmgspread","uncletopia"],"game_id":440,"stv_port":27046,"stv_name":"Uncletopia | Sydney | 4 | All Maps | STV","players":null},{"server_id":58,"name":"Uncletopia | Sydney | 5 | Stopwatch Beta","name_short":"syd-5","host":"syd-1.au.uncletopia.com","port":27055,"enabled":true,"region":"au","cc":"au","latitude":-33.865143,"longitude":151.2099,"reserved":0,"last_update":"0001-01-01T00:00:00Z","name_a2s":"Uncletopia | Sydney | 5 | Stopwatch Beta","protocol":17,"map":"koth_highpass","folder":"tf","game":"Team Fortress","app_id":440,"player_count":0,"max_players":24,"Bots":0,"server_type":"Dedicated","server_os":"Linux","password":true,"vac":true,"version":"7882260","steam_id":85568392925397959,"keywords":["cp","nocrits","nodmgspread","uncletopia"],"game_id":440,"stv_port":27056,"stv_name":"Uncletopia | Sydney | 5 | Stopwatch Beta | STV","players":null},{"server_id":59,"name":"Uncletopia | Sydney | 6 | Community","name_short":"syd-6","host":"syd-1.au.uncletopia.com","port":27065,"enabled":true,"region":"au","cc":"au","latitude":-33.865143,"longitude":151.2099,"reserved":0,"last_update":"0001-01-01T00:00:00Z","name_a2s":"Uncletopia | Sydney | 6 | Community","protocol":17,"map":"workshop/koth_product_final.ugc454272353","folder":"tf","game":"Team Fortress","app_id":440,"player_count":0,"max_players":24,"Bots":0,"server_type":"Dedicated","server_os":"Linux","password":true,"vac":true,"version":"7882260","steam_id":85568392925397960,"keywords":["cp","nocrits","nodmgspread","uncletopia"],"game_id":440,"stv_port":27066,"stv_name":"Uncletopia | Sydney | 6 | Community | STV","players":null},{"server_id":49,"name":"Uncletopia | Warsaw | 1 | All Maps","name_short":"waw-1","host":"waw-1.pl.uncletopia.com","port":27015,"enabled":true,"region":"eu","cc":"pl","latitude":52.2297,"longitude":21.017532,"reserved":0,"last_update":"0001-01-01T00:00:00Z","name_a2s":"","protocol":0,"map":"","folder":"","game":"","app_id":0,"player_count":0,"max_players":0,"Bots":0,"server_type":"","server_os":"","password":false,"vac":false,"version":"","steam_id":0,"keywords":null,"game_id":0,"stv_port":0,"stv_name":"","players":null},{"server_id":50,"name":"Uncletopia | Warsaw | 2 | All Maps","name_short":"waw-2","host":"waw-1.pl.uncletopia.com","port":27025,"enabled":true,"region":"eu","cc":"pl","latitude":52.2297,"longitude":21.017532,"reserved":0,"last_update":"0001-01-01T00:00:00Z","name_a2s":"Uncletopia | Warsaw | 2 | All Maps","protocol":17,"map":"pl_upward","folder":"tf","game":"Team Fortress","app_id":440,"player_count":0,"max_players":24,"Bots":0,"server_type":"Dedicated","server_os":"Linux","password":true,"vac":true,"version":"7882260","steam_id":85568392925397851,"keywords":["nocrits","nodmgspread","payload","uncletopia"],"game_id":440,"stv_port":27026,"stv_name":"Uncletopia | Warsaw | 2 | All Maps | STV","players":null},{"server_id":51,"name":"Uncletopia | Warsaw | 3 | All Maps","name_short":"waw-3","host":"waw-1.pl.uncletopia.com","port":27035,"enabled":true,"region":"eu","cc":"pl","latitude":52.2297,"longitude":21.017532,"reserved":0,"last_update":"0001-01-01T00:00:00Z","name_a2s":"Uncletopia | Warsaw | 3 | All Maps","protocol":17,"map":"koth_viaduct","folder":"tf","game":"Team Fortress","app_id":440,"player_count":0,"max_players":24,"Bots":0,"server_type":"Dedicated","server_os":"Linux","password":true,"vac":true,"version":"7882260","steam_id":85568392925397852,"keywords":["cp","nocrits","nodmgspread","uncletopia"],"game_id":440,"stv_port":27036,"stv_name":"Uncletopia | Warsaw | 3 | All Maps | STV","players":null},{"server_id":52,"name":"Uncletopia | Warsaw | 4 | All Maps","name_short":"waw-4","host":"waw-1.pl.uncletopia.com","port":27045,"enabled":true,"region":"eu","cc":"pl","latitude":52.2297,"longitude":21.017532,"reserved":0,"last_update":"0001-01-01T00:00:00Z","name_a2s":"Uncletopia | Warsaw | 4 | All Maps","protocol":17,"map":"koth_highpass","folder":"tf","game":"Team Fortress","app_id":440,"player_count":0,"max_players":24,"Bots":0,"server_type":"Dedicated","server_os":"Linux","password":true,"vac":true,"version":"7882260","steam_id":85568392925397853,"keywords":["cp","nocrits","nodmgspread","uncletopia"],"game_id":440,"stv_port":27046,"stv_name":"Uncletopia | Warsaw | 4 | All Maps | STV","players":null},{"server_id":53,"name":"Uncletopia | Warsaw | 5 | Stopwatch Beta","name_short":"waw-5","host":"waw-1.pl.uncletopia.com","port":27055,"enabled":true,"region":"eu","cc":"pl","latitude":52.2297,"longitude":21.017532,"reserved":0,"last_update":"0001-01-01T00:00:00Z","name_a2s":"Uncletopia | Warsaw | 5 | Stopwatch Beta","protocol":17,"map":"cp_mountainlab","folder":"tf","game":"Team Fortress","app_id":440,"player_count":0,"max_players":24,"Bots":0,"server_type":"Dedicated","server_os":"Linux","password":true,"vac":true,"version":"7882260","steam_id":85568392925397854,"keywords":["cp","nocrits","nodmgspread","uncletopia"],"game_id":440,"stv_port":27056,"stv_name":"Uncletopia | Warsaw | 5 | Stopwatch Beta | STV","players":null},{"server_id":54,"name":"Uncletopia | Warsaw | 6 | Community","name_short":"waw-6","host":"waw-1.pl.uncletopia.com","port":27065,"enabled":true,"region":"eu","cc":"pl","latitude":52.2297,"longitude":21.017532,"reserved":0,"last_update":"0001-01-01T00:00:00Z","name_a2s":"Uncletopia | Warsaw | 6 | Community","protocol":17,"map":"koth_viaduct","folder":"tf","game":"Team Fortress","app_id":440,"player_count":0,"max_players":24,"Bots":0,"server_type":"Dedicated","server_os":"Linux","password":true,"vac":true,"version":"7882260","steam_id":85568392925397856,"keywords":["cp","nocrits","nodmgspread","uncletopia"],"game_id":440,"stv_port":27066,"stv_name":"Uncletopia | Warsaw | 6 | Community | STV","players":null}]}