{"status":true,"message":"","result":[{"server_id":9,"name":"Uncletopia | Atlanta | 1 | All Maps","name_short":"atl-1","host":"atl-1.us.uncletopia.com","port":27015,"enabled":true,"region":"us-east","cc":"us","latitude":33.753746,"longitude":-84.38633,"reserved":0,"last_update":"0001-01-01T00:00:00Z","name_a2s":"Uncletopia | Atlanta | 1 | All Maps","protocol":17,"map":"cp_dustbowl","folder":"tf","game":"Team Fortress","app_id":440,"player_count":24,"max_players":24,"Bots":0,"server_type":"Dedicated","server_os":"Linux","password":true,"vac":true,"version":"7882260","steam_id":85568392924469982,"keywords":["cp","nocrits","nodmgspread","uncletopia"],"game_id":440,"stv_port":27016,"stv_name":"Uncletopia | Atlanta | 1 | All Maps | STV","players":[{"user_id":472,"name":"Eazy_Peazy16","steam_id":76561198079056194,"connected_time":975000000000,"state":"active","ping":68},{"user_id":465,"name":"nomad","steam_id":76561197998740399,"connected_time":1396000000000,"state":"active","ping":67},{"user_id":462,"name":"Sophie","steam_id":76561198170408057,"connected_time":1425000000000,"state":"active","ping":44},{"user_id":471,"name":"drain.pablo.2005","steam_id":76561198303963691,"connected_time":1040000000000,"state":"active","ping":56},{"user_id":289,"name":"LUM","steam_id":76561198069976825,"connected_time":12577000000000,"state":"active","ping":81},{"user_id":464,"name":"eish","steam_id":76561198089463603,"connected_time":1400000000000,"state":"active","ping":118},{"user_id":469,"name":"Am da Best","steam_id":76561198163825955,"connected_time":1064000000000,"state":"active","ping":103},{"user_id":444,"name":"Zugzwang","steam_id":76561199224446350,"connected_time":2951000000000,"state":"active","ping":110},{"user_id":455,"name":"Communist Zobomafoo","steam_id":76561198068173978,"connected_time":2182000000000,"state":"active","ping":83},{"user_id":445,"name":"emilee (evil)","steam_id":76561198061455664,"connected_time":2817000000000,"state":"active","ping":60},{"user_id":466,"name":"Wahooka","steam_id":76561197962240925,"connected_time":1373000000000,"state":"active","ping":58},{"user_id":427,"name":"Yam Jazzy Jim","steam_id":76561198000788950,"connected_time":4056000000000,"state":"active","ping":72},{"user_id":452,"name":"shploopie","steam_id":76561198264289810,"connected_time":2236000000000,"state":"active","ping":86},{"user_id":474,"name":"--_Cook_--","steam_id":76561198080855748,"connected_time":455000000000,"state":"active","ping":45},{"user_id":476,"name":"V!CT!M","steam_id":76561198962721502,"connected_time":425000000000,"state":"active","ping":88},{"user_id":473,"name":"ShadowDragon0125","steam_id":76561198343849022,"connected_time":954000000000,"state":"active","ping":105},{"user_id":372,"name":"lil hog","steam_id":76561199230929836,"connected_time":5802000000000,"state":"active","ping":78},{"user_id":468,"name":"Jin","steam_id":76561198119873148,"connected_time":1225000000000,"state":"active","ping":68},{"user_id":477,"name":"stink","steam_id":76561198099318923,"connected_time":12000000000,"state":"spawning","ping":69},{"user_id":457,"name":"Looney","steam_id":76561198280518635,"connected_time":2035000000000,"state":"active","ping":80},{"user_id":456,"name":"BIG HOG","steam_id":76561198079923652,"connected_time":2085000000000,"state":"active","ping":63},{"user_id":449,"name":"Toonice","steam_id":76561198402994885,"connected_time":2414000000000,"state":"active","ping":82},{"user_id":442,"name":"big ol' buford","steam_id":76561198290675957,"connected_time":3112000000000,"state":"active","ping":59},{"user_id":475,"name":"Mastery of Rectal Prolapse","steam_id":76561198277198222,"connected_time":442000000000,"state":"active","ping":56}]},{"server_id":104,"name":"Uncletopia | Atlanta | 2 | All Maps","name_short":"atl-2","host":"atl-1.us.uncletopia.com","port":27025,"enabled":true,"region":"us-east","cc":"us","latitude":33.753746,"longitude":-84.38633,"reserved":0,"last_update":"0001-01-01T00:00:00Z","name_a2s":"Uncletopia | Atlanta | 2 | All Maps","protocol":17,"map":"koth_badlands","folder":"tf","game":"Team Fortress","app_id":440,"player_count":22,"max_players":24,"Bots":0,"server_type":"Dedicated","server_os":"Linux","password":true,"vac":true,"version":"7882260","steam_id":85568392924469983,"keywords":["cp","nocrits","nodmgspread","uncletopia"],"game_id":440,"stv_port":27026,"stv_name":"Uncletopia | Atlanta | 2 | All Maps | STV","players":[{"user_id":395,"name":"king dedede","steam_id":76561198965562679,"connected_time":18000000000,"state":"spawning","ping":61},{"user_id":366,"name":"Doomagedden","steam_id":76561198272589475,"connected_time":2742000000000,"state":"active","ping":72},{"user_id":382,"name":"Biome","steam_id":76561198133485826,"connected_time":1307000000000,"state":"active","ping":61},{"user_id":393,"name":"minge muncher","steam_id":76561198203506168,"connected_time":83000000000,"state":"active","ping":130},{"user_id":379,"name":"A_Malebolgia","steam_id":76561198097722818,"connected_time":1436000000000,"state":"active","ping":87},{"user_id":365,"name":"M@verick","steam_id":76561198006363519,"connected_time":2853000000000,"state":"active","ping":71},{"user_id":394,"name":"Cosmic sR","steam_id":76561198081738675,"connected_time":62000000000,"state":"active","ping":65},{"user_id":391,"name":"God (real)","steam_id":76561198131089513,"connected_time":243000000000,"state":"active","ping":60},{"user_id":351,"name":"Bad Rollout","steam_id":76561197971948876,"connected_time":4189000000000,"state":"active","ping":69},{"user_id":383,"name":"Gareg","steam_id":76561198171325614,"connected_time":1288000000000,"state":"active","ping":119},{"user_id":386,"name":"Thonk","steam_id":76561198131530521,"connected_time":859000000000,"state":"active","ping":57},{"user_id":362,"name":"the piss maker (F2P)","steam_id":76561199338113724,"connected_time":2893000000000,"state":"active","ping":99},{"user_id":384,"name":"Throathurt","steam_id":76561198030711450,"connected_time":1184000000000,"state":"active","ping":50},{"user_id":301,"name":"EndlessSpace45","steam_id":76561198081117820,"connected_time":7904000000000,"state":"active","ping":80},{"user_id":387,"name":"choi","steam_id":76561198053669887,"connected_time":800000000000,"state":"active","ping":106},{"user_id":389,"name":"Jevilthejoker","steam_id":76561199002367480,"connected_time":433000000000,"state":"active","ping":114},{"user_id":392,"name":"Bigguysal","steam_id":76561198171204223,"connected_time":184000000000,"state":"active","ping":136},{"user_id":368,"name":"kazoo2","steam_id":76561198260473504,"connected_time":2709000000000,"state":"active","ping":76},{"user_id":306,"name":"SaLt_VauLt","steam_id":76561199096277985,"connected_time":7685000000000,"state":"active","ping":63},{"user_id":335,"name":"Apetometrist","steam_id":76561198045391635,"connected_time":5617000000000,"state":"active","ping":81},{"user_id":212,"name":"aisu","steam_id":76561198043768507,"connected_time":14704000000000,"state":"active","ping":86},{"user_id":376,"name":"TheRiGuy21","steam_id":76561199466243640,"connected_time":1960000000000,"state":"active","ping":97}]},{"server_id":400,"name":"Uncletopia | Atlanta | 3 | Community","name_short":"atl-3","host":"atl-1.us.uncletopia.com","port":27035,"enabled":true,"region":"us-east","cc":"us","latitude":33.753746,"longitude":-84.38633,"reserved":0,"last_update":"0001-01-01T00:00:00Z","name_a2s":"Uncletopia | Atlanta | 3 | Community","protocol":17,"map":"workshop/koth_kemptown_rc1.ugc767410655","folder":"tf","game":"Team Fortress","app_id":440,"player_count":0,"max_players":24,"Bots":0,"server_type":"Dedicated","server_os":"Linux","password":true,"vac":true,"version":"7882260","steam_id":85568392924515187,"keywords":["cp","nocrits","nodmgspread","uncletopia"],"game_id":440,"stv_port":27036,"stv_name":"Uncletopia | Atlanta | 3 | Community | STV","players":null},{"server_id":401,"name":"Uncletopia | Atlanta | 4 | No Payload","name_short":"atl-4","host":"atl-1.us.uncletopia.com","port":27045,"enabled":true,"region":"us-east","cc":"us","latitude":33.753746,"longitude":-84.38633,"reserved":0,"last_update":"0001-01-01T00:00:00Z","name_a2s":"","protocol":0,"map":"","folder":"","game":"","app_id":0,"player_count":0,"max_players":0,"Bots":0,"server_type":"","server_os":"","password":false,"vac":false,"version":"","steam_id":0,"keywords":null,"game_id":0,"stv_port":0,"stv_name":"","players":null},{"server_id":2,"name":"Uncletopia | Chicago | 1 | All Maps","name_short":"chi-1","host":"chi-1.us.uncletopia.com","port":27015,"enabled":true,"region":"us-central","cc":"us","latitude":41.881832,"longitude":-87.62318,"reserved":0,"last_update":"0001-01-01T00:00:00Z","name_a2s":"Uncletopia | Chicago | 1 | All Maps","protocol":17,"map":"cp_steel","folder":"tf","game":"Team Fortress","app_id":440,"player_count":24,"max_players":24,"Bots":0,"server_type":"Dedicated","server_os":"Linux","password":true,"vac":true,"version":"7882260","steam_id":85568392924469984,"keywords":["cp","nocrits","nodmgspread","uncletopia"],"game_id":440,"stv_port":27016,"stv_name":"Uncletopia | Chicago | 1 | All Maps | STV","players":[{"user_id":437,"name":"Ras","steam_id":76561198123546775,"connected_time":3544000000000,"state":"active","ping":65},{"user_id":441,"name":"Bananaramagrams","steam_id":76561198084429090,"connected_time":3028000000000,"state":"active","ping":71},{"user_id":378,"name":"b3afy","steam_id":76561198084208649,"connected_time":8680000000000,"state":"active","ping":89},{"user_id":456,"name":"waltuh","steam_id":76561198363541736,"connected_time":1766000000000,"state":"active","ping":94},{"user_id":465,"name":"Frozone","steam_id":76561198259380127,"connected_time":953000000000,"state":"active","ping":64},{"user_id":427,"name":"Alpharious","steam_id":76561197970289529,"connected_time":4643000000000,"state":"active","ping":71},{"user_id":461,"name":"Person","steam_id":76561198093244204,"connected_time":1732000000000,"state":"active","ping":72},{"user_id":453,"name":"coodge","steam_id":76561198139080439,"connected_time":2330000000000,"state":"active","ping":74},{"user_id":411,"name":"Filthy Acts at Reasonable Price","steam_id":76561198354615890,"connected_time":6322000000000,"state":"active","ping":95},{"user_id":458,"name":"StonedGiant","steam_id":76561197984386932,"connected_time":1762000000000,"state":"active","ping":61},{"user_id":413,"name":"MankTKO","steam_id":76561198189421005,"connected_time":5847000000000,"state":"active","ping":48},{"user_id":440,"name":"Glue Gulper","steam_id":76561198158014525,"connected_time":3039000000000,"state":"active","ping":61},{"user_id":421,"name":"worker","steam_id":76561198039608940,"connected_time":5584000000000,"state":"active","ping":111},{"user_id":469,"name":"Spy Gaming","steam_id":76561198453295613,"connected_time":77000000000,"state":"spawning","ping":90},{"user_id":455,"name":"DinoGoof","steam_id":76561198998427283,"connected_time":1778000000000,"state":"active","ping":78},{"user_id":446,"name":"blob","steam_id":76561198122375328,"connected_time":2950000000000,"state":"active","ping":58},{"user_id":454,"name":"Musica Universalis","steam_id":76561198184794174,"connected_time":2072000000000,"state":"active","ping":84},{"user_id":444,"name":"Zoot","steam_id":76561198121944243,"connected_time":3018000000000,"state":"active","ping":75},{"user_id":377,"name":"Praise_to_the_Flashlight!","steam_id":76561199001728789,"connected_time":8817000000000,"state":"active","ping":58},{"user_id":471,"name":"Doublebagel47","steam_id":76561198832021744,"connected_time":64000000000,"state":"active","ping":74},{"user_id":445,"name":".JIFF","steam_id":76561198045181760,"connected_time":2986000000000,"state":"active","ping":61},{"user_id":460,"name":"Megumin","steam_id":76561198115278249,"connected_time":1739000000000,"state":"active","ping":87},{"user_id":449,"name":"DinkleBerg","steam_id":76561198891626233,"connected_time":2641000000000,"state":"active","ping":69},{"user_id":468,"name":"Gnarly Shark Bite","steam_id":76561198004058342,"connected_time":264000000000,"state":"active","ping":73}]},{"server_id":106,"name":"Uncletopia | Chicago | 2 | All Maps","name_short":"chi-2","host":"chi-1.us.uncletopia.com","port":27025,"enabled":true,"region":"us-central","cc":"us","latitude":41.881832,"longitude":-87.62318,"reserved":0,"last_update":"0001-01-01T00:00:00Z","name_a2s":"Uncletopia | Chicago | 2 | All Maps","protocol":17,"map":"pl_frontier_final","folder":"tf","game":"Team Fortress","app_id":440,"player_count":24,"max_players":24,"Bots":0,"server_type":"Dedicated","server_os":"Linux","password":true,"vac":true,"version":"7882260","steam_id":85568392924469985,"keywords":["nocrits","nodmgspread","payload","uncletopia"],"game_id":440,"stv_port":27026,"stv_name":"Uncletopia | Chicago | 2 | All Maps | STV","players":[{"user_id":679,"name":"CaptainKn1ght","steam_id":76561198018979695,"connected_time":727000000000,"state":"active","ping":102},{"user_id":682,"name":"sunny","steam_id":76561198069380992,"connected_time":293000000000,"state":"active","ping":81},{"user_id":666,"name":"Kasodani Kyouko","steam_id":76561198023178589,"connected_time":1322000000000,"state":"active","ping":83},{"user_id":638,"name":"Chief Diggery K.","steam_id":76561198066629137,"connected_time":3001000000000,"state":"active","ping":101},{"user_id":687,"name":"Ventastega","steam_id":76561197999366317,"connected_time":112000000000,"state":"active","ping":70},{"user_id":668,"name":"Hylic","steam_id":76561199051314589,"connected_time":1217000000000,"state":"active","ping":62},{"user_id":684,"name":"Saul Goodman Gaming","steam_id":76561199070127471,"connected_time":273000000000,"state":"active","ping":59},{"user_id":669,"name":"captain Damien","steam_id":76561198813245551,"connected_time":1215000000000,"state":"active","ping":103},{"user_id":645,"name":"cavemanDv","steam_id":76561198111927196,"connected_time":2814000000000,"state":"active","ping":76},{"user_id":657,"name":"artichoke","steam_id":76561198980994364,"connected_time":2479000000000,"state":"active","ping":133},{"user_id":662,"name":"We believe in you!","steam_id":76561198219252313,"connected_time":1520000000000,"state":"active","ping":63},{"user_id":680,"name":"Phat Cat","steam_id":76561198123017274,"connected_time":603000000000,"state":"active","ping":48},{"user_id":620,"name":"The Loveable CHI.I.BI.","steam_id":76561198039262228,"connected_time":4554000000000,"state":"active","ping":86},{"user_id":670,"name":"Zhenaj","steam_id":76561199209016136,"connected_time":1169000000000,"state":"active","ping":65},{"user_id":673,"name":"Takyon","steam_id":76561198172075186,"connected_time":1072000000000,"state":"active","ping":174},{"user_id":671,"name":"BurakkiHitsu","steam_id":76561198314156737,"connected_time":1156000000000,"state":"active","ping":88},{"user_id":681,"name":"Sean Bae","steam_id":76561198036909521,"connected_time":570000000000,"state":"active","ping":70},{"user_id":663,"name":"Ask Nicely For Heals","steam_id":76561198138478907,"connected_time":1459000000000,"state":"active","ping":66},{"user_id":688,"name":"pee pee poo poo","steam_id":76561198930017260,"connected_time":82000000000,"state":"active","ping":57},{"user_id":648,"name":"Brian","steam_id":76561198144650969,"connected_time":2792000000000,"state":"active","ping":76},{"user_id":672,"name":"evnobev","steam_id":76561198038966462,"connected_time":1148000000000,"state":"active","ping":59},{"user_id":686,"name":"eat Pant","steam_id":76561197974965536,"connected_time":205000000000,"state":"active","ping":100},{"user_id":674,"name":"A Can of Arizona Green Tea","steam_id":76561198062481133,"connected_time":1055000000000,"state":"active","ping":84},{"user_id":675,"name":"Zhafel","steam_id":76561198378724859,"connected_time":1048000000000,"state":"active","ping":73}]},{"server_id":402,"name":"Uncletopia | Chicago | 3 | All Maps","name_short":"chi-3","host":"chi-1.us.uncletopia.com","port":27035,"enabled":true,"region":"us-central","cc":"us","latitude":41.881832,"longitude":-87.62318,"reserved":0,"last_update":"0001-01-01T00:00:00Z","name_a2s":"Uncletopia | Chicago | 3 | All Maps","protocol":17,"map":"koth_nucleus","folder":"tf","game":"Team Fortress","app_id":440,"player_count":16,"max_players":24,"Bots":0,"server_type":"Dedicated","server_os":"Linux","password":true,"vac":true,"version":"7882260","steam_id":85568392924515191,"keywords":["cp","nocrits","nodmgspread","uncletopia"],"game_id":440,"stv_port":27036,"stv_name":"Uncletopia | Chicago | 3 | All Maps | STV","players":[{"user_id":620,"name":"Fatcat.win(false) ;","steam_id":76561198069007806,"connected_time":472000000000,"state":"active","ping":58},{"user_id":601,"name":"let me cook","steam_id":76561198075858067,"connected_time":1807000000000,"state":"active","ping":59},{"user_id":612,"name":"claeb :)","steam_id":76561198028761580,"connected_time":827000000000,"state":"active","ping":65},{"user_id":626,"name":"SlurpyTheDog","steam_id":76561198799733154,"connected_time":8000000000,"state":"spawning","ping":63},{"user_id":608,"name":"A Black Square","steam_id":76561198043570320,"connected_time":1129000000000,"state":"active","ping":64},{"user_id":619,"name":"xavier64","steam_id":76561199405220871,"connected_time":520000000000,"state":"active","ping":100},{"user_id":621,"name":"Tusked","steam_id":76561198078473398,"connected_time":452000000000,"state":"active","ping":158},{"user_id":624,"name":"Doctor Glocktorpus [NGC]","steam_id":76561198049194645,"connected_time":244000000000,"state":"active","ping":59},{"user_id":625,"name":"MYBRANNNND","steam_id":76561197986292563,"connected_time":145000000000,"state":"active","ping":71},{"user_id":570,"name":"Wild_Rumpus","steam_id":76561198066393719,"connected_time":3409000000000,"state":"active","ping":64},{"user_id":623,"name":"ZellaAmarisIolana","steam_id":76561198147614868,"connected_time":398000000000,"state":"active","ping":72},{"user_id":581,"name":"cucumper","steam_id":76561198079504588,"connected_time":2681000000000,"state":"active","ping":69},{"user_id":552,"name":"aphexjh","steam_id":76561197985854658,"connected_time":4091000000000,"state":"active","ping":55},{"user_id":573,"name":"bane","steam_id":76561198196769297,"connected_time":2936000000000,"state":"active","ping":61},{"user_id":574,"name":"Vapor Man","steam_id":76561198210173112,"connected_time":2890000000000,"state":"active","ping":119},{"user_id":609,"name":"Jeromius","steam_id":76561198051865275,"connected_time":1087000000000,"state":"active","ping":66}]},{"server_id":403,"name":"Uncletopia | Chicago | 4 | All Maps","name_short":"chi-4","host":"chi-1.us.uncletopia.com","port":27045,"enabled":true,"region":"us-central","cc":"us","latitude":41.881832,"longitude":-87.62318,"reserved":0,"last_update":"0001-01-01T00:00:00Z","name_a2s":"Uncletopia | Chicago | 4 | All Maps","protocol":17,"map":"ctf_turbine","folder":"tf","game":"Team Fortress","app_id":440,"player_count":22,"max_players":24,"Bots":0,"server_type":"Dedicated","server_os":"Linux","password":true,"vac":true,"version":"7882260","steam_id":85568392924515193,"keywords":["ctf","nocrits","nodmgspread","uncletopia"],"game_id":440,"stv_port":27046,"stv_name":"Uncletopia | Chicago | 4 | All Maps | STV","players":[{"user_id":282,"name":"Zixzs","steam_id":76561198055504126,"connected_time":71000000000,"state":"active","ping":67},{"user_id":269,"name":"Ok then","steam_id":76561198891914787,"connected_time":955000000000,"state":"active","ping":113},{"user_id":275,"name":"这是谁的电话吗","steam_id":76561198194893602,"connected_time":527000000000,"state":"active","ping":52},{"user_id":284,"name":"Idk","steam_id":76561198971629959,"connected_time":39000000000,"state":"active","ping":148},{"user_id":199,"name":"toxicpeck @@yahoocum","steam_id":76561198213385439,"connected_time":6697000000000,"state":"active","ping":116},{"user_id":277,"name":"StealthyZeroTwo","steam_id":76561198942692649,"connected_time":360000000000,"state":"active","ping":77},{"user_id":238,"name":"RiverEgg","steam_id":76561198888913405,"connected_time":3382000000000,"state":"active","ping":47},{"user_id":267,"name":"Rukh","steam_id":76561197999361315,"connected_time":1072000000000,"state":"active","ping":87},{"user_id":285,"name":"Winter the Witchie | B-DAY","steam_id":76561198151971178,"connected_time":35000000000,"state":"active","ping":57},{"user_id":171,"name":"Tskuno","steam_id":76561198129291597,"connected_time":9288000000000,"state":"active","ping":52},{"user_id":278,"name":"superad1","steam_id":76561198067001129,"connected_time":346000000000,"state":"active","ping":59},{"user_id":262,"name":"Tony Montana","steam_id":76561198029042605,"connected_time":1432000000000,"state":"active","ping":52},{"user_id":224,"name":"Skeleton Dad","steam_id":76561198021489595,"connected_time":4603000000000,"state":"active","ping":84},{"user_id":263,"name":"Mablinlok","steam_id":76561197992718242,"connected_time":1429000000000,"state":"active","ping":75},{"user_id":250,"name":"Katy","steam_id":76561198079395814,"connected_time":2452000000000,"state":"spawning","ping":30},{"user_id":255,"name":"peedrinker","steam_id":76561198876275070,"connected_time":1905000000000,"state":"active","ping":72},{"user_id":225,"name":"Toastie","steam_id":76561198246760934,"connected_time":4569000000000,"state":"active","ping":60},{"user_id":274,"name":"Jello","steam_id":76561198047795233,"connected_time":759000000000,"state":"active","ping":30},{"user_id":280,"name":"[El Fail] MR.BadassMCLee","steam_id":76561198043787818,"connected_time":132000000000,"state":"active","ping":113},{"user_id":226,"name":"carrot cake","steam_id":76561198055174915,"connected_time":4488000000000,"state":"active","ping":62},{"user_id":272,"name":"Kazmirl | Youtuber","steam_id":76561198116008410,"connected_time":939000000000,"state":"active","ping":109},{"user_id":233,"name":"We Ball","steam_id":76561199122315920,"connected_time":4240000000000,"state":"active","ping":61}]},{"server_id":36,"name":"Uncletopia | Chicago | 5 | All Maps","name_short":"chi-5","host":"chi-2.us.uncletopia.com","port":27015,"enabled":true,"region":"us-central","cc":"us","latitude":41.881832,"longitude":-87.62318,"reserved":0,"last_update":"0001-01-01T00:00:00Z","name_a2s":"Uncletopia | Chicago | 5 | All Maps","protocol":17,"map":"pl_goldrush","folder":"tf","game":"Team Fortress","app_id":440,"player_count":21,"max_players":24,"Bots":0,"server_type":"Dedicated","server_os":"Linux","password":true,"vac":true,"version":"7882260","steam_id":85568392924866362,"keywords":["nocrits","nodmgspread","payload","uncletopia"],"game_id":440,"stv_port":27016,"stv_name":"Uncletopia | Chicago | 5 | All Maps | STV","players":[{"user_id":446,"name":"WHATISYOURNAME","steam_id":76561198342560783,"connected_time":2377000000000,"state":"active","ping":64},{"user_id":452,"name":"BeanLordGamer","steam_id":76561199466512390,"connected_time":2092000000000,"state":"active","ping":84},{"user_id":307,"name":"swag messiah","steam_id":76561198204995668,"connected_time":13034000000000,"state":"active","ping":77},{"user_id":464,"name":"{FITH}™ SmittyWun {FM}","steam_id":76561198079531938,"connected_time":350000000000,"state":"active","ping":69},{"user_id":465,"name":"The Fiend","steam_id":76561199229771413,"connected_time":299000000000,"state":"active","ping":93},{"user_id":453,"name":"beats","steam_id":76561199245717718,"connected_time":2055000000000,"state":"active","ping":58},{"user_id":372,"name":"[GUT] RiDiK®","steam_id":76561197969756446,"connected_time":7176000000000,"state":"active","ping":54},{"user_id":309,"name":"Shadow Wizard Money Gang","steam_id":76561198135736718,"connected_time":12271000000000,"state":"active","ping":95},{"user_id":438,"name":"too funky ᗜˬᗜ","steam_id":76561199120399776,"connected_time":3087000000000,"state":"active","ping":65},{"user_id":427,"name":"Angry Ginger","steam_id":76561198256929349,"connected_time":3522000000000,"state":"active","ping":57},{"user_id":469,"name":"gwy","steam_id":76561198277458653,"connected_time":144000000000,"state":"active","ping":85},{"user_id":415,"name":"Sleepy","steam_id":76561198273471153,"connected_time":4393000000000,"state":"active","ping":81},{"user_id":470,"name":"Foxiee","steam_id":76561198271681809,"connected_time":141000000000,"state":"active","ping":61},{"user_id":380,"name":"Gentoo Linux Gaming","steam_id":76561197999657118,"connected_time":6862000000000,"state":"active","ping":84},{"user_id":440,"name":"CHAIRMAN MAO GAMING","steam_id":76561198066018972,"connected_time":3003000000000,"state":"active","ping":78},{"user_id":461,"name":"BetoelAff es","steam_id":76561198377842585,"connected_time":964000000000,"state":"active","ping":124},{"user_id":471,"name":"w1ppy","steam_id":76561198324695896,"connected_time":140000000000,"state":"active","ping":89},{"user_id":454,"name":"Mati [EST]","steam_id":76561197994743813,"connected_time":2045000000000,"state":"active","ping":187},{"user_id":419,"name":"Orca?","steam_id":76561198164341099,"connected_time":4226000000000,"state":"active","ping":79},{"user_id":455,"name":"Kunata","steam_id":76561198050998975,"connected_time":2022000000000,"state":"active","ping":70},{"user_id":448,"name":"RarestGuide","steam_id":76561198050338923,"connected_time":2312000000000,"state":"active","ping":75}]},{"server_id":37,"name":"Uncletopia | Chicago | 6 | All Maps","name_short":"chi-6","host":"chi-2.us.uncletopia.com","port":27025,"enabled":true,"region":"us-central","cc":"us","latitude":41.881832,"longitude":-87.62318,"reserved":0,"last_update":"0001-01-01T00:00:00Z","name_a2s":"Uncletopia | Chicago | 6 | All Maps","protocol":17,"map":"cp_mercenarypark","folder":"tf","game":"Team Fortress","app_id":440,"player_count":24,"max_players":24,"Bots":0,"server_type":"Dedicated","server_os":"Linux","password":true,"vac":true,"version":"7882260","steam_id":85568392924866363,"keywords":["cp","nocrits","nodmgspread","uncletopia"],"game_id":440,"stv_port":27026,"stv_name":"Uncletopia | Chicago | 6 | All Maps | STV","players":[{"user_id":425,"name":"Solstrom","steam_id":76561198313364985,"connected_time":1632000000000,"state":"active","ping":72},{"user_id":446,"name":"Grilled Jizo","steam_id":76561199250875340,"connected_time":6000000000,"state":"spawning","ping":75},{"user_id":409,"name":"[RGGL] Baccouch","steam_id":76561198001480670,"connected_time":2785000000000,"state":"active","ping":61},{"user_id":423,"name":"great uncle Terry","steam_id":76561198001488041,"connected_time":1671000000000,"state":"active","ping":95},{"user_id":443,"name":"Mr.Newt_","steam_id":76561198042906063,"connected_time":507000000000,"state":"active","ping":55},{"user_id":402,"name":"sky walker","steam_id":76561198937717599,"connected_time":3105000000000,"state":"active","ping":65},{"user_id":417,"name":"Rex","steam_id":76561198138365053,"connected_time":2388000000000,"state":"active","ping":122},{"user_id":444,"name":"[live] ttv/lilirouxxx","steam_id":76561198000522179,"connected_time":467000000000,"state":"active","ping":69},{"user_id":427,"name":"⊰Aero⊱","steam_id":76561198084648457,"connected_time":1193000000000,"state":"active","ping":60},{"user_id":392,"name":"FamishedNinja","steam_id":76561198310786497,"connected_time":3603000000000,"state":"active","ping":83},{"user_id":438,"name":"happy :)","steam_id":76561198188722751,"connected_time":762000000000,"state":"active","ping":102},{"user_id":440,"name":"the willy","steam_id":76561199179563808,"connected_time":654000000000,"state":"active","ping":81},{"user_id":420,"name":"BigNugs","steam_id":76561198056402610,"connected_time":2122000000000,"state":"active","ping":66},{"user_id":412,"name":"Angel Wolfie","steam_id":76561198026562237,"connected_time":2738000000000,"state":"active","ping":58},{"user_id":436,"name":"PeesTi2","steam_id":76561199016865192,"connected_time":853000000000,"state":"active","ping":98},{"user_id":430,"name":"realhedgehog2082","steam_id":76561198168931330,"connected_time":953000000000,"state":"active","ping":65},{"user_id":400,"name":"anonpain","steam_id":76561198081317092,"connected_time":3261000000000,"state":"active","ping":56},{"user_id":437,"name":"Raptortastic","steam_id":76561198105613110,"connected_time":839000000000,"state":"active","ping":63},{"user_id":404,"name":"MEDIC!!!","steam_id":76561198265522923,"connected_time":3100000000000,"state":"active","ping":69},{"user_id":372,"name":"Ata","steam_id":76561198349085545,"connected_time":5265000000000,"state":"active","ping":81},{"user_id":441,"name":"1998 Volvo S70 T5","steam_id":76561198258615044,"connected_time":649000000000,"state":"active","ping":68},{"user_id":406,"name":"lil homie gay ass","steam_id":76561198044804626,"connected_time":3038000000000,"state":"active","ping":82},{"user_id":442,"name":"BDCMaverick","steam_id":76561198222232532,"connected_time":647000000000,"state":"active","ping":68},{"user_id":434,"name":"AreYouMyMummy?","steam_id":76561197995101745,"connected_time":903000000000,"state":"active","ping":65}]},{"server_id":38,"name":"Uncletopia | Chicago | 7 | Stopwatch Beta","name_short":"chi-7","host":"chi-2.us.uncletopia.com","port":27035,"enabled":true,"region":"us-central","cc":"us","latitude":41.881832,"longitude":-87.62318,"reserved":0,"last_update":"0001-01-01T00:00:00Z","name_a2s":"Uncletopia | Chicago | 7 | Stopwatch Beta","protocol":17,"map":"pl_borneo","folder":"tf","game":"Team Fortress","app_id":440,"player_count":0,"max_players":24,"Bots":0,"server_type":"Dedicated","server_os":"Linux","password":true,"vac":true,"version":"7882260","steam_id":85568392924866364,"keywords":["nocrits","nodmgspread","payload","uncletopia"],"game_id":440,"stv_port":27036,"stv_name":"Uncletopia | Chicago | 7 | Stopwatch Beta | STV","players":null},{"server_id":39,"name":"Uncletopia | Chicago | 8 | Community","name_short":"chi-8","host":"chi-2.us.uncletopia.com","port":27045,"enabled":true,"region":"us-central","cc":"us","latitude":41.881832,"longitude":-87.62318,"reserved":0,"last_update":"0001-01-01T00:00:00Z","name_a2s":"Uncletopia | Chicago | 8 | Community","protocol":17,"map":"workshop/koth_trenchfoot_b1a.ugc731436616","folder":"tf","game":"Team Fortress","app_id":440,"player_count":0,"max_players":24,"Bots":0,"server_type":"Dedicated","server_os":"Linux","password":true,"vac":true,"version":"7882260","steam_id":85568392924866365,"keywords":["cp","nocrits","nodmgspread","uncletopia"],"game_id":440,"stv_port":27046,"stv_name":"Uncletopia | Chicago | 8 | Community | STV","players":null},{"server_id":8,"name":"Uncletopia | Dallas | 1 | All Maps","name_short":"dal-1","host":"dal-1.us.uncletopia.com","port":27015,"enabled":true,"region":"us-central","cc":"us","latitude":32.779167,"longitude":-96.80889,"reserved":0,"last_update":"0001-01-01T00:00:00Z","name_a2s":"Uncletopia | Dallas | 1 | All Maps","protocol":17,"map":"pl_upward","folder":"tf","game":"Team Fortress","app_id":440,"player_count":23,"max_players":24,"Bots":0,"server_type":"Dedicated","server_os":"Linux","password":true,"vac":true,"version":"7882260","steam_id":85568392924469986,"keywords":["nocrits","nodmgspread","payload","uncletopia"],"game_id":440,"stv_port":27016,"stv_name":"Uncletopia | Dallas | 1 | All Maps | STV","players":[{"user_id":435,"name":"Ros","steam_id":76561199055963822,"connected_time":346000000000,"state":"active","ping":74},{"user_id":423,"name":"Still Alive","steam_id":76561198042523000,"connected_time":1350000000000,"state":"active","ping":74},{"user_id":412,"name":"Smug","steam_id":76561198448205229,"connected_time":1917000000000,"state":"active","ping":71},{"user_id":389,"name":"deb","steam_id":76561198414336279,"connected_time":3643000000000,"state":"active","ping":60},{"user_id":436,"name":"kibsta","steam_id":76561198991982630,"connected_time":341000000000,"state":"active","ping":72},{"user_id":418,"name":"Someone gaming","steam_id":76561198156690812,"connected_time":1762000000000,"state":"active","ping":57},{"user_id":329,"name":"motherofdragons96","steam_id":76561198864779097,"connected_time":6969000000000,"state":"active","ping":78},{"user_id":410,"name":"Top-G Man","steam_id":76561199122152458,"connected_time":1974000000000,"state":"active","ping":106},{"user_id":437,"name":"Pyro Pootis","steam_id":76561199385177651,"connected_time":290000000000,"state":"active","ping":79},{"user_id":394,"name":"Ace","steam_id":76561198878661482,"connected_time":2887000000000,"state":"active","ping":33},{"user_id":404,"name":"Liebesträume","steam_id":76561198038862034,"connected_time":2351000000000,"state":"active","ping":72},{"user_id":438,"name":"Jester","steam_id":76561198153102922,"connected_time":282000000000,"state":"active","ping":56},{"user_id":397,"name":"❤MICHIMOMOS❤","steam_id":76561199221395732,"connected_time":2846000000000,"state":"active","ping":75},{"user_id":444,"name":"Duh Slug God","steam_id":76561198347280079,"connected_time":94000000000,"state":"spawning","ping":119},{"user_id":441,"name":"Seduce!_!Me_!213","steam_id":76561198857556368,"connected_time":182000000000,"state":"active","ping":70},{"user_id":365,"name":"my_fish","steam_id":76561198058993241,"connected_time":4879000000000,"state":"active","ping":71},{"user_id":433,"name":"Drapph","steam_id":76561199384213314,"connected_time":490000000000,"state":"active","ping":88},{"user_id":440,"name":"bolainassr0","steam_id":76561199079078845,"connected_time":275000000000,"state":"active","ping":96},{"user_id":408,"name":"Killroy NQP ❤","steam_id":76561198006983771,"connected_time":2200000000000,"state":"active","ping":77},{"user_id":434,"name":"Oceandusk","steam_id":76561198263047409,"connected_time":426000000000,"state":"active","ping":74},{"user_id":398,"name":"CreativeCoffeeCake","steam_id":76561198323542875,"connected_time":2837000000000,"state":"active","ping":78},{"user_id":442,"name":"LossNonsense","steam_id":76561198077167840,"connected_time":128000000000,"state":"active","ping":61},{"user_id":445,"name":"Healerblade","steam_id":76561197999816472,"connected_time":59000000000,"state":"active","ping":62}]},{"server_id":108,"name":"Uncletopia | Dallas | 2 | All Maps","name_short":"dal-2","host":"dal-1.us.uncletopia.com","port":27025,"enabled":true,"region":"us-central","cc":"us","latitude":32.779167,"longitude":-96.80889,"reserved":0,"last_update":"0001-01-01T00:00:00Z","name_a2s":"Uncletopia | Dallas | 2 | All Maps","protocol":17,"map":"cp_process_final","folder":"tf","game":"Team Fortress","app_id":440,"player_count":23,"max_players":24,"Bots":0,"server_type":"Dedicated","server_os":"Linux","password":true,"vac":true,"version":"7882260","steam_id":85568392924469988,"keywords":["cp","nocrits","nodmgspread","uncletopia"],"game_id":440,"stv_port":27026,"stv_name":"Uncletopia | Dallas | 2 | All Maps | STV","players":[{"user_id":240,"name":"D(b) Hell","steam_id":76561198067869016,"connected_time":9869000000000,"state":"active","ping":67},{"user_id":315,"name":"BLOOD !","steam_id":76561198004400850,"connected_time":3988000000000,"state":"active","ping":61},{"user_id":250,"name":"HeroProc","steam_id":76561197993296892,"connected_time":8877000000000,"state":"active","ping":67},{"user_id":353,"name":"счизяѳ","steam_id":76561199182960322,"connected_time":1320000000000,"state":"active","ping":47},{"user_id":359,"name":"DragonHeart","steam_id":76561198013245625,"connected_time":516000000000,"state":"active","ping":71},{"user_id":370,"name":"she turn my life ******* off","steam_id":76561198202240772,"connected_time":142000000000,"state":"active","ping":54},{"user_id":368,"name":"java","steam_id":76561198030276792,"connected_time":336000000000,"state":"active","ping":56},{"user_id":361,"name":"Thomas Sowell","steam_id":76561198047168548,"connected_time":471000000000,"state":"active","ping":75},{"user_id":362,"name":"aiming with drawing tablet","steam_id":76561198397662124,"connected_time":435000000000,"state":"active","ping":58},{"user_id":346,"name":"TeriyakiDynamite","steam_id":76561198050049346,"connected_time":1484000000000,"state":"active","ping":94},{"user_id":349,"name":"Pinetree w/ apples.","steam_id":76561198105411709,"connected_time":1447000000000,"state":"active","ping":107},{"user_id":339,"name":"WinnieThuhPoo","steam_id":76561199114579127,"connected_time":1851000000000,"state":"active","ping":65},{"user_id":345,"name":"s a d b o y s","steam_id":76561198037481669,"connected_time":1526000000000,"state":"active","ping":85},{"user_id":363,"name":"PhobixTheThing","steam_id":76561199059009386,"connected_time":421000000000,"state":"active","ping":63},{"user_id":365,"name":"Mr. Owmew","steam_id":76561199032490400,"connected_time":392000000000,"state":"active","ping":59},{"user_id":372,"name":"Notation","steam_id":76561198119509319,"connected_time":81000000000,"state":"active","ping":60},{"user_id":328,"name":"LtK","steam_id":76561197993180943,"connected_time":3395000000000,"state":"active","ping":37},{"user_id":350,"name":"vi","steam_id":76561198388123421,"connected_time":1437000000000,"state":"active","ping":78},{"user_id":366,"name":"sithreis","steam_id":76561198000564263,"connected_time":370000000000,"state":"active","ping":71},{"user_id":251,"name":"Turudo","steam_id":76561197997648031,"connected_time":8788000000000,"state":"active","ping":55},{"user_id":286,"name":"Yoru","steam_id":76561198119698950,"connected_time":6642000000000,"state":"active","ping":124},{"user_id":294,"name":"walmart","steam_id":76561199051524205,"connected_time":5731000000000,"state":"active","ping":38},{"user_id":367,"name":"lanoc","steam_id":76561198055415367,"connected_time":360000000000,"state":"active","ping":61}]},{"server_id":5,"name":"Uncletopia | Frankfurt | 1 | All Maps","name_short":"frk-1","host":"frk-1.de.uncletopia.com","port":27015,"enabled":true,"region":"eu","cc":"de","latitude":50.110924,"longitude":8.682127,"reserved":0,"last_update":"0001-01-01T00:00:00Z","name_a2s":"Uncletopia | Frankfurt | 1 | All Maps","protocol":17,"map":"pl_barnblitz","folder":"tf","game":"Team Fortress","app_id":440,"player_count":0,"max_players":24,"Bots":0,"server_type":"Dedicated","server_os":"Linux","password":true,"vac":true,"version":"7882260","steam_id":85568392924469989,"keywords":["nocrits","nodmgspread","payload","uncletopia"],"game_id":440,"stv_port":27016,"stv_name":"Uncletopia | Frankfurt | 1 | All Maps | STV","players":null},{"server_id":110,"name":"Uncletopia | Frankfurt | 2 | All Maps","name_short":"frk-2","host":"frk-1.de.uncletopia.com","port":27025,"enabled":true,"region":"eu","cc":"de","latitude":50.110924,"longitude":8.682127,"reserved":0,"last_update":"0001-01-01T00:00:00Z","name_a2s":"Uncletopia | Frankfurt | 2 | All Maps","protocol":17,"map":"koth_viaduct","folder":"tf","game":"Team Fortress","app_id":440,"player_count":0,"max_players":24,"Bots":0,"server_type":"Dedicated","server_os":"Linux","password":true,"vac":true,"version":"7882260","steam_id":85568392924469990,"keywords":["cp","nocrits","nodmgspread","uncletopia"],"game_id":440,"stv_port":27026,"stv_name":"Uncletopia | Frankfurt | 2 | All Maps | STV","players":null},{"server_id":308,"name":"Uncletopia | Frankfurt | 3 | All Maps","name_short":"frk-3","host":"frk-1.de.uncletopia.com","port":27035,"enabled":true,"region":"eu","cc":"de","latitude":50.110924,"longitude":8.682127,"reserved":0,"last_update":"0001-01-01T00:00:00Z","name_a2s":"Uncletopia | Frankfurt | 3 | All Maps","protocol":17,"map":"cp_snakewater_final1","folder":"tf","game":"Team Fortress","app_id":440,"player_count":24,"max_players":24,"Bots":0,"server_type":"Dedicated","server_os":"Linux","password":true,"vac":true,"version":"7882260","steam_id":85568392924504274,"keywords":["cp","nocrits","nodmgspread","uncletopia"],"game_id":440,"stv_port":27036,"stv_name":"Uncletopia | Frankfurt | 3 | All Maps | STV","players":[{"user_id":571,"name":"Kopatych","steam_id":76561198922879432,"connected_time":512000000000,"state":"active","ping":71},{"user_id":547,"name":"lacurio","steam_id":76561198059701776,"connected_time":1535000000000,"state":"active","ping":45},{"user_id":561,"name":"REN","steam_id":76561198000596385,"connected_time":925000000000,"state":"active","ping":65},{"user_id":542,"name":"ShovelHero","steam_id":76561198086869029,"connected_time":1904000000000,"state":"active","ping":50},{"user_id":545,"name":"LIGHTWEIGHT BABY","steam_id":76561198002761980,"connected_time":1695000000000,"state":"active","ping":60},{"user_id":525,"name":"Fran","steam_id":76561199070516960,"connected_time":3284000000000,"state":"active","ping":60},{"user_id":562,"name":"ඞbominasus 2137  #SaveTF2","steam_id":76561198030062981,"connected_time":907000000000,"state":"active","ping":67},{"user_id":565,"name":"Danipp","steam_id":76561198027147377,"connected_time":756000000000,"state":"active","ping":70},{"user_id":553,"name":"why rum gone","steam_id":76561198158484784,"connected_time":1268000000000,"state":"active","ping":69},{"user_id":528,"name":"Matteo Il Biondo","steam_id":76561198315389475,"connected_time":2997000000000,"state":"active","ping":78},{"user_id":569,"name":"piquu sponsored by monster","steam_id":76561198065896046,"connected_time":626000000000,"state":"active","ping":79},{"user_id":541,"name":"Intruder","steam_id":76561198156128173,"connected_time":2156000000000,"state":"active","ping":68},{"user_id":538,"name":"Genuine","steam_id":76561197966295765,"connected_time":2623000000000,"state":"active","ping":40},{"user_id":564,"name":"clcraven","steam_id":76561198004637699,"connected_time":838000000000,"state":"active","ping":69},{"user_id":555,"name":"Raufaser","steam_id":76561199266632227,"connected_time":1214000000000,"state":"active","ping":56},{"user_id":558,"name":"Real Lad™","steam_id":76561198053730933,"connected_time":1097000000000,"state":"active","ping":73},{"user_id":531,"name":"(/•0•)/ WoW","steam_id":76561198144990790,"connected_time":2884000000000,"state":"active","ping":83},{"user_id":557,"name":"OREO","steam_id":76561199229118371,"connected_time":1182000000000,"state":"active","ping":120},{"user_id":566,"name":"Rikilowe","steam_id":76561199108144070,"connected_time":729000000000,"state":"active","ping":72},{"user_id":574,"name":"Orbit","steam_id":76561198242999878,"connected_time":275000000000,"state":"active","ping":74},{"user_id":539,"name":"BoBunny McGlitter","steam_id":76561198057403817,"connected_time":2582000000000,"state":"active","ping":69},{"user_id":575,"name":"Floris","steam_id":76561198001717422,"connected_time":273000000000,"state":"active","ping":58},{"user_id":573,"name":"Blim","steam_id":76561198021587651,"connected_time":325000000000,"state":"active","ping":52},{"user_id":544,"name":"Spectral Sloth","steam_id":76561198170083139,"connected_time":1765000000000,"state":"active","ping":86}]},{"server_id":309,"name":"Uncletopia | Frankfurt | 4 | All Maps","name_short":"frk-4","host":"frk-1.de.uncletopia.com","port":27045,"enabled":true,"region":"eu","cc":"de","latitude":50.110924,"longitude":8.682127,"reserved":0,"last_update":"0001-01-01T00:00:00Z","name_a2s":"Uncletopia | Frankfurt | 4 | All Maps","protocol":17,"map":"cp_altitude","folder":"tf","game":"Team Fortress","app_id":440,"player_count":0,"max_players":24,"Bots":0,"server_type":"Dedicated","server_os":"Linux","password":true,"vac":true,"version":"7882260","steam_id":85568392924504275,"keywords":["cp","nocrits","nodmgspread","uncletopia"],"game_id":440,"stv_port":27046,"stv_name":"Uncletopia | Frankfurt | 4 | All Maps | STV","players":null},{"server_id":310,"name":"Uncletopia | Frankfurt | 5 | All Maps","name_short":"frk-5","host":"frk-1.de.uncletopia.com","port":27055,"enabled":true,"region":"eu","cc":"de","latitude":50.110924,"longitude":8.682127,"reserved":0,"last_update":"0001-01-01T00:00:00Z","name_a2s":"Uncletopia | Frankfurt | 5 | All Maps","protocol":17,"map":"pl_frontier_final","folder":"tf","game":"Team Fortress","app_id":440,"player_count":22,"max_players":24,"Bots":0,"server_type":"Dedicated","server_os":"Linux","password":true,"vac":true,"version":"7882260","steam_id":85568392924504277,"keywords":["nocrits","nodmgspread","payload","uncletopia"],"game_id":440,"stv_port":27056,"stv_name":"Uncletopia | Frankfurt | 5 | All Maps | STV","players":[{"user_id":472,"name":"Krocon","steam_id":76561198084906316,"connected_time":4146000000000,"state":"active","ping":75},{"user_id":469,"name":"woop","steam_id":76561198985105074,"connected_time":4263000000000,"state":"active","ping":76},{"user_id":508,"name":"pvtemback","steam_id":76561198887302382,"connected_time":2272000000000,"state":"active","ping":79},{"user_id":517,"name":"Tamirdadon","steam_id":76561198317551573,"connected_time":1642000000000,"state":"active","ping":89},{"user_id":420,"name":"Ostara","steam_id":76561198200054489,"connected_time":6670000000000,"state":"active","ping":68},{"user_id":421,"name":"Kelpy G gaming","steam_id":76561198056995633,"connected_time":6662000000000,"state":"active","ping":74},{"user_id":536,"name":"Kick a duck","steam_id":76561198048604631,"connected_time":266000000000,"state":"active","ping":72},{"user_id":535,"name":"Vexu","steam_id":76561198113145846,"connected_time":292000000000,"state":"active","ping":97},{"user_id":540,"name":"unnamed","steam_id":76561199149307190,"connected_time":164000000000,"state":"active","ping":75},{"user_id":537,"name":"Juiceydough","steam_id":76561197997323419,"connected_time":235000000000,"state":"active","ping":90},{"user_id":446,"name":"Droy","steam_id":76561198065854668,"connected_time":6024000000000,"state":"active","ping":60},{"user_id":538,"name":"Apple","steam_id":76561198128176001,"connected_time":230000000000,"state":"active","ping":60},{"user_id":531,"name":"Tin","steam_id":76561198022201818,"connected_time":750000000000,"state":"active","ping":48},{"user_id":542,"name":"Palp","steam_id":76561198055297549,"connected_time":82000000000,"state":"active","ping":83},{"user_id":539,"name":"Clubje Be","steam_id":76561198011557774,"connected_time":192000000000,"state":"active","ping":69},{"user_id":488,"name":"astigmatic","steam_id":76561199103959197,"connected_time":3551000000000,"state":"active","ping":85},{"user_id":521,"name":"Steen","steam_id":76561198122992510,"connected_time":1491000000000,"state":"active","ping":45},{"user_id":511,"name":"Jucatron","steam_id":76561198044259577,"connected_time":2188000000000,"state":"active","ping":84},{"user_id":541,"name":"EatMyP123","steam_id":76561198808819694,"connected_time":139000000000,"state":"active","ping":43},{"user_id":543,"name":"Charles Darwin","steam_id":76561197973496139,"connected_time":11000000000,"state":"spawning","ping":60},{"user_id":544,"name":"VampiuS","steam_id":76561197998827007,"connected_time":5000000000,"state":"spawning","ping":45},{"user_id":530,"name":"LT.Steeamer","steam_id":76561198271938142,"connected_time":807000000000,"state":"active","ping":77}]},{"server_id":311,"name":"Uncletopia | Frankfurt | 6 | All Maps","name_short":"frk-6","host":"frk-1.de.uncletopia.com","port":27065,"enabled":true,"region":"eu","cc":"de","latitude":50.110924,"longitude":8.682127,"reserved":0,"last_update":"0001-01-01T00:00:00Z","name_a2s":"Uncletopia | Frankfurt | 6 | All Maps","protocol":17,"map":"koth_cascade","folder":"tf","game":"Team Fortress","app_id":440,"player_count":0,"max_players":24,"Bots":0,"server_type":"Dedicated","server_os":"Linux","password":true,"vac":true,"version":"7882260","steam_id":85568392924504278,"keywords":["cp","nocrits","nodmgspread","uncletopia"],"game_id":440,"stv_port":27066,"stv_name":"Uncletopia | Frankfurt | 6 | All Maps | STV","players":null},{"server_id":23,"name":"Uncletopia | Frankfurt | 7 | Stopwatch Beta","name_short":"frk-7","host":"frk-1.de.uncletopia.com","port":27075,"enabled":true,"region":"eu","cc":"de","latitude":50.110924,"longitude":8.682127,"reserved":0,"last_update":"0001-01-01T00:00:00Z","name_a2s":"Uncletopia | Frankfurt | 7 | Stopwatch Beta","protocol":17,"map":"workshop/koth_ashville_final.ugc2130459942","folder":"tf","game":"Team Fortress","app_id":440,"player_count":0,"max_players":24,"Bots":0,"server_type":"Dedicated","server_os":"Linux","password":true,"vac":true,"version":"7882260","steam_id":85568392924742827,"keywords":["cp","nocrits","nodmgspread","uncletopia"],"game_id":440,"stv_port":27076,"stv_name":"Uncletopia | Frankfurt | 7 | Stopwatch Beta | STV","players":null},{"server_id":24,"name":"Uncletopia | Frankfurt | 8 | Community","name_short":"frk-8","host":"frk-1.de.uncletopia.com","port":27085,"enabled":true,"region":"eu","cc":"de","latitude":50.110924,"longitude":8.682127,"reserved":0,"last_update":"0001-01-01T00:00:00Z","name_a2s":"Uncletopia | Frankfurt | 8 | Community","protocol":17,"map":"workshop/pl_emerge_rc2.ugc888027758","folder":"tf","game":"Team Fortress","app_id":440,"player_count":0,"max_players":24,"Bots":0,"server_type":"Dedicated","server_os":"Linux","password":true,"vac":true,"version":"7882260","steam_id":85568392924742828,"keywords":["nocrits","nodmgspread","payload","uncletopia"],"game_id":440,"stv_port":27086,"stv_name":"Uncletopia | Frankfurt | 8 | Community | STV","players":null},{"server_id":202,"name":"Uncletopia | Hong Kong | 1 | All Maps","name_short":"hgk-1","host":"hgk-1.hk.uncletopia.com","port":27015,"enabled":true,"region":"asia","cc":"hk","latitude":22.302711,"longitude":114.177216,"reserved":0,"last_update":"0001-01-01T00:00:00Z","name_a2s":"Uncletopia | Hong Kong | 1 | All Maps","protocol":17,"map":"koth_cascade","folder":"tf","game":"Team Fortress","app_id":440,"player_count":0,"max_players":24,"Bots":0,"server_type":"Dedicated","server_os":"Linux","password":true,"vac":true,"version":"7882260","steam_id":85568392924494504,"keywords":["cp","nocrits","nodmgspread","uncletopia"],"game_id":440,"stv_port":27016,"stv_name":"Uncletopia | Hong Kong | 1 | All Maps | STV","players":null},{"server_id":1,"name":"Uncletopia | Los Angeles | 1 | All Maps","name_short":"lax-1","host":"lax-1.us.uncletopia.com","port":27015,"enabled":true,"region":"us-west","cc":"us","latitude":33.94279,"longitude":-118.41004,"reserved":0,"last_update":"0001-01-01T00:00:00Z","name_a2s":"Uncletopia | Los Angeles | 1 | All Maps","protocol":17,"map":"pl_badwater","folder":"tf","game":"Team Fortress","app_id":440,"player_count":24,"max_players":24,"Bots":0,"server_type":"Dedicated","server_os":"Linux","password":true,"vac":true,"version":"7882260","steam_id":85568392924469991,"keywords":["nocrits","nodmgspread","payload","uncletopia"],"game_id":440,"stv_port":27016,"stv_name":"Uncletopia | Los Angeles | 1 | All Maps | STV","players":[{"user_id":270,"name":"Dr Lazer","steam_id":76561199086408216,"connected_time":1035000000000,"state":"active","ping":118},{"user_id":275,"name":"Magician357","steam_id":76561198009308255,"connected_time":300000000000,"state":"active","ping":49},{"user_id":234,"name":"rimble","steam_id":76561198150137369,"connected_time":3175000000000,"state":"active","ping":46},{"user_id":282,"name":"confused","steam_id":76561199391930993,"connected_time":92000000000,"state":"active","ping":47},{"user_id":273,"name":"gumcuzzler","steam_id":76561198118644686,"connected_time":332000000000,"state":"active","ping":48},{"user_id":160,"name":"ejschild745","steam_id":76561199013388867,"connected_time":10715000000000,"state":"active","ping":101},{"user_id":278,"name":"Honeybunch","steam_id":76561198014850580,"connected_time":183000000000,"state":"active","ping":60},{"user_id":274,"name":"NotAWeeb","steam_id":76561198165530739,"connected_time":330000000000,"state":"active","ping":58},{"user_id":264,"name":"SwordBreaker","steam_id":76561199135564076,"connected_time":1504000000000,"state":"active","ping":48},{"user_id":172,"name":"Slim Charles","steam_id":76561197981687895,"connected_time":10333000000000,"state":"active","ping":54},{"user_id":266,"name":"SolarusD","steam_id":76561198029279861,"connected_time":1342000000000,"state":"active","ping":48},{"user_id":248,"name":"meisNate","steam_id":76561198215261695,"connected_time":2127000000000,"state":"active","ping":66},{"user_id":254,"name":"Captain Underbelly","steam_id":76561198811270935,"connected_time":1792000000000,"state":"active","ping":83},{"user_id":283,"name":"Supervillain Theme.","steam_id":76561198868600487,"connected_time":74000000000,"state":"active","ping":102},{"user_id":251,"name":"Gm_Trash","steam_id":76561199445091548,"connected_time":2009000000000,"state":"active","ping":61},{"user_id":252,"name":"MeAmJosh","steam_id":76561198064983436,"connected_time":1924000000000,"state":"active","ping":93},{"user_id":181,"name":"Taunter of Snipers","steam_id":76561198202254225,"connected_time":8975000000000,"state":"active","ping":91},{"user_id":262,"name":"Calypso","steam_id":76561198082939544,"connected_time":1555000000000,"state":"active","ping":102},{"user_id":284,"name":"canti","steam_id":76561198019267942,"connected_time":42000000000,"state":"active","ping":75},{"user_id":285,"name":"BUSY","steam_id":76561198047532250,"connected_time":28000000000,"state":"active","ping":83},{"user_id":280,"name":"Sticky","steam_id":76561198031581547,"connected_time":163000000000,"state":"active","ping":42},{"user_id":281,"name":"franky","steam_id":76561198070903328,"connected_time":157000000000,"state":"active","ping":115},{"user_id":263,"name":"Cheeseburglar","steam_id":76561198880267007,"connected_time":1533000000000,"state":"active","ping":59},{"user_id":271,"name":"☆Atomic Waffle☆","steam_id":76561198100385184,"connected_time":632000000000,"state":"active","ping":79}]},{"server_id":112,"name":"Uncletopia | Los Angeles | 2 | All Maps","name_short":"lax-2","host":"lax-1.us.uncletopia.com","port":27025,"enabled":true,"region":"us-west","cc":"us","latitude":33.94279,"longitude":-118.41004,"reserved":0,"last_update":"0001-01-01T00:00:00Z","name_a2s":"Uncletopia | Los Angeles | 2 | All Maps","protocol":17,"map":"cp_sunshine","folder":"tf","game":"Team Fortress","app_id":440,"player_count":25,"max_players":24,"Bots":0,"server_type":"Dedicated","server_os":"Linux","password":true,"vac":true,"version":"7882260","steam_id":85568392924469992,"keywords":["cp","nocrits","nodmgspread","uncletopia"],"game_id":440,"stv_port":27026,"stv_name":"Uncletopia | Los Angeles | 2 | All Maps | STV","players":[{"user_id":42,"name":"firestabber","steam_id":76561198057055577,"connected_time":19412000000000,"state":"active","ping":69},{"user_id":341,"name":"lasagnalarry12","steam_id":76561198162688146,"connected_time":564000000000,"state":"active","ping":53},{"user_id":318,"name":"dave.","steam_id":76561198112350449,"connected_time":2680000000000,"state":"active","ping":111},{"user_id":338,"name":"Dob Bole","steam_id":76561198056367220,"connected_time":996000000000,"state":"active","ping":44},{"user_id":342,"name":"Joe Biden TF2","steam_id":76561198837570484,"connected_time":559000000000,"state":"active","ping":49},{"user_id":343,"name":"Dog","steam_id":76561198450992953,"connected_time":549000000000,"state":"active","ping":63},{"user_id":344,"name":"william william williams","steam_id":76561199056802747,"connected_time":542000000000,"state":"active","ping":110},{"user_id":320,"name":"Zach Reeee","steam_id":76561198096698210,"connected_time":2475000000000,"state":"active","ping":78},{"user_id":321,"name":"Lord Scrubling","steam_id":76561198263744445,"connected_time":2321000000000,"state":"active","ping":75},{"user_id":337,"name":"DonoC","steam_id":76561198274473338,"connected_time":1042000000000,"state":"active","ping":90},{"user_id":301,"name":"Sir Nope (TSS)","steam_id":76561198035935649,"connected_time":3502000000000,"state":"active","ping":70},{"user_id":353,"name":"please stand still plz","steam_id":76561198206922028,"connected_time":331000000000,"state":"active","ping":47},{"user_id":307,"name":"Unwavering Flavor","steam_id":76561198053306065,"connected_time":3064000000000,"state":"active","ping":84},{"user_id":346,"name":"KOJAKK","steam_id":76561199060841878,"connected_time":504000000000,"state":"active","ping":72},{"user_id":355,"name":"Sidekick","steam_id":76561198392740835,"connected_time":189000000000,"state":"active","ping":70},{"user_id":348,"name":"FI LO","steam_id":76561198976530881,"connected_time":481000000000,"state":"active","ping":30},{"user_id":349,"name":"PENGEST","steam_id":76561198202605381,"connected_time":478000000000,"state":"active","ping":52},{"user_id":350,"name":"r u guys going trick or treatin","steam_id":76561199074585110,"connected_time":474000000000,"state":"active","ping":48},{"user_id":351,"name":"your local birb","steam_id":76561198094522490,"connected_time":444000000000,"state":"active","ping":69},{"user_id":335,"name":"Pah-Wraith Gul Dukat","steam_id":76561198033918106,"connected_time":1180000000000,"state":"active","ping":47},{"user_id":310,"name":"donutdagger","steam_id":76561199203048300,"connected_time":2977000000000,"state":"active","ping":70},{"user_id":328,"name":"John Wick's puppy","steam_id":76561198064662875,"connected_time":1895000000000,"state":"active","ping":53},{"user_id":352,"name":"moe","steam_id":76561198929586245,"connected_time":371000000000,"state":"active","ping":40},{"user_id":340,"name":"cave johnson","steam_id":76561199389283507,"connected_time":725000000000,"state":"active","ping":123},{"user_id":356,"name":"KRUSHER (volume off)","steam_id":76561198072157019,"connected_time":66000000000,"state":"spawning","ping":81}]},{"server_id":324,"name":"Uncletopia | Los Angeles | 3 | All Maps","name_short":"lax-3","host":"lax-1.us.uncletopia.com","port":27035,"enabled":true,"region":"us-west","cc":"us","latitude":33.94279,"longitude":-118.41004,"reserved":0,"last_update":"0001-01-01T00:00:00Z","name_a2s":"Uncletopia | Los Angeles | 3 | All Maps","protocol":17,"map":"koth_lakeside_final","folder":"tf","game":"Team Fortress","app_id":440,"player_count":3,"max_players":24,"Bots":0,"server_type":"Dedicated","server_os":"Linux","password":true,"vac":true,"version":"7882260","steam_id":85568392924510198,"keywords":["cp","nocrits","nodmgspread","uncletopia"],"game_id":440,"stv_port":27036,"stv_name":"Uncletopia | Los Angeles | 3 | All Maps | STV","players":[{"user_id":214,"name":"DOPEam1ne","steam_id":76561198112204774,"connected_time":988000000000,"state":"active","ping":48},{"user_id":225,"name":"Ðankmemedoon","steam_id":76561198046572636,"connected_time":147000000000,"state":"active","ping":52},{"user_id":224,"name":"sarcastic_monke","steam_id":76561198918244788,"connected_time":306000000000,"state":"active","ping":90}]},{"server_id":25,"name":"Uncletopia | Los Angeles | 4 | Stopwatch Beta","name_short":"lax-4","host":"lax-1.us.uncletopia.com","port":27045,"enabled":true,"region":"us-west","cc":"us","latitude":33.94279,"longitude":-118.41004,"reserved":0,"last_update":"0001-01-01T00:00:00Z","name_a2s":"Uncletopia | Los Angeles | 4 | Stopwatch Beta","protocol":17,"map":"koth_lakeside_final","folder":"tf","game":"Team Fortress","app_id":440,"player_count":0,"max_players":24,"Bots":0,"server_type":"Dedicated","server_os":"Linux","password":true,"vac":true,"version":"7882260","steam_id":85568392924510199,"keywords":["cp","nocrits","nodmgspread","uncletopia"],"game_id":440,"stv_port":27046,"stv_name":"Uncletopia | Los Angeles | 4 | Stopwatch Beta | STV","players":null},{"server_id":11,"name":"Uncletopia | London | 1 | All Maps","name_short":"lon-1","host":"lon-1.uk.uncletopia.com","port":27015,"enabled":true,"region":"eu","cc":"gb","latitude":51.509865,"longitude":-0.118092,"reserved":0,"last_update":"0001-01-01T00:00:00Z","name_a2s":"Uncletopia | London | 1 | All Maps","protocol":17,"map":"pl_barnblitz","folder":"tf","game":"Team Fortress","app_id":440,"player_count":24,"max_players":24,"Bots":0,"server_type":"Dedicated","server_os":"Linux","password":true,"vac":true,"version":"7882260","steam_id":85568392924367362,"keywords":["nocrits","nodmgspread","payload","uncletopia"],"game_id":440,"stv_port":27016,"stv_name":"Uncletopia | London | 1 | All Maps | STV","players":[{"user_id":758,"name":"sora :3","steam_id":76561198096547662,"connected_time":3182000000000,"state":"active","ping":53},{"user_id":795,"name":"nikkielmao","steam_id":76561198086229832,"connected_time":907000000000,"state":"active","ping":60},{"user_id":802,"name":"JimBow","steam_id":76561197999788359,"connected_time":445000000000,"state":"active","ping":61},{"user_id":803,"name":"Gustavo Fring","steam_id":76561198034769199,"connected_time":444000000000,"state":"active","ping":44},{"user_id":788,"name":"eee","steam_id":76561199062586342,"connected_time":1244000000000,"state":"active","ping":60},{"user_id":751,"name":"regimiro","steam_id":76561198120457008,"connected_time":3823000000000,"state":"active","ping":56},{"user_id":763,"name":"Hoff","steam_id":76561198026537318,"connected_time":2665000000000,"state":"active","ping":36},{"user_id":794,"name":"Green","steam_id":76561198183580019,"connected_time":1079000000000,"state":"active","ping":74},{"user_id":765,"name":"Kahvi","steam_id":76561198723244199,"connected_time":2570000000000,"state":"active","ping":76},{"user_id":777,"name":"KittyKate ❤","steam_id":76561198116340817,"connected_time":1919000000000,"state":"active","ping":60},{"user_id":804,"name":"MORTAL-WOMBAT","steam_id":76561198101581746,"connected_time":389000000000,"state":"active","ping":66},{"user_id":791,"name":"teddy","steam_id":76561198007436837,"connected_time":1174000000000,"state":"active","ping":30},{"user_id":790,"name":"Aaron","steam_id":76561197990046953,"connected_time":1176000000000,"state":"active","ping":59},{"user_id":800,"name":"(_ _).｡o○","steam_id":76561198298576765,"connected_time":484000000000,"state":"active","ping":65},{"user_id":739,"name":"Eidolon","steam_id":76561198043919565,"connected_time":4452000000000,"state":"active","ping":64},{"user_id":799,"name":"sriracha..","steam_id":76561198005560221,"connected_time":659000000000,"state":"active","ping":80},{"user_id":779,"name":"BuzzBees ❤","steam_id":76561198101502273,"connected_time":1898000000000,"state":"active","ping":60},{"user_id":773,"name":"Mr.killer","steam_id":76561198290584189,"connected_time":2079000000000,"state":"active","ping":82},{"user_id":805,"name":"vadr","steam_id":76561198334528186,"connected_time":329000000000,"state":"active","ping":46},{"user_id":734,"name":"something","steam_id":76561198198581615,"connected_time":4708000000000,"state":"active","ping":69},{"user_id":801,"name":"scarecrowshelper","steam_id":76561198072260553,"connected_time":483000000000,"state":"active","ping":60},{"user_id":757,"name":"BreadBubbles","steam_id":76561198174332826,"connected_time":3264000000000,"state":"active","ping":61},{"user_id":768,"name":"JeanCorben","steam_id":76561197965133561,"connected_time":2438000000000,"state":"active","ping":44},{"user_id":796,"name":"Acbh","steam_id":76561198158271672,"connected_time":828000000000,"state":"active","ping":70}]},{"server_id":114,"name":"Uncletopia | London | 2 | All Maps","name_short":"lon-2","host":"lon-1.uk.uncletopia.com","port":27025,"enabled":true,"region":"eu","cc":"gb","latitude":51.509865,"longitude":-0.118092,"reserved":0,"last_update":"0001-01-01T00:00:00Z","name_a2s":"Uncletopia | London | 2 | All Maps","protocol":17,"map":"pl_borneo","folder":"tf","game":"Team Fortress","app_id":440,"player_count":24,"max_players":24,"Bots":0,"server_type":"Dedicated","server_os":"Linux","password":true,"vac":true,"version":"7882260","steam_id":85568392924470941,"keywords":["nocrits","nodmgspread","payload","uncletopia"],"game_id":440,"stv_port":27026,"stv_name":"Uncletopia | London | 2 | All Maps | STV","players":[{"user_id":644,"name":"Anri Okita's Massive Milkers","steam_id":76561199186352720,"connected_time":3965000000000,"state":"active","ping":60},{"user_id":652,"name":"Nati \"triplePunk\" Noot","steam_id":76561198119449463,"connected_time":2785000000000,"state":"active","ping":62},{"user_id":636,"name":"absorbent robert","steam_id":76561198914610283,"connected_time":4290000000000,"state":"active","ping":79},{"user_id":655,"name":"00uk","steam_id":76561198281873108,"connected_time":2669000000000,"state":"active","ping":73},{"user_id":667,"name":"DeanAdamFry","steam_id":76561198054153160,"connected_time":1180000000000,"state":"active","ping":52},{"user_id":648,"name":"Nameless","steam_id":76561198084215731,"connected_time":3580000000000,"state":"active","ping":35},{"user_id":669,"name":"Yelowchy","steam_id":76561198199416121,"connected_time":1060000000000,"state":"active","ping":73},{"user_id":649,"name":"rets","steam_id":76561198061551392,"connected_time":3548000000000,"state":"active","ping":64},{"user_id":670,"name":"Laylakikio","steam_id":76561198090146457,"connected_time":1055000000000,"state":"active","ping":36},{"user_id":625,"name":"Wattseyy","steam_id":76561198248567360,"connected_time":5065000000000,"state":"active","ping":39},{"user_id":638,"name":"Orange :p","steam_id":76561198963378933,"connected_time":4283000000000,"state":"active","ping":42},{"user_id":658,"name":"Runyohell","steam_id":76561198309876860,"connected_time":2544000000000,"state":"active","ping":89},{"user_id":650,"name":"Bounter","steam_id":76561198072614188,"connected_time":3400000000000,"state":"active","ping":72},{"user_id":627,"name":"KooshIsCool","steam_id":76561198423902979,"connected_time":4891000000000,"state":"active","ping":49},{"user_id":654,"name":"nuke_de","steam_id":76561198859193688,"connected_time":2731000000000,"state":"active","ping":61},{"user_id":461,"name":"Rappin' Sebastian","steam_id":76561198453928256,"connected_time":16010000000000,"state":"active","ping":63},{"user_id":671,"name":"hardway","steam_id":76561198272529254,"connected_time":620000000000,"state":"active","ping":61},{"user_id":657,"name":"THE SASQUATCH","steam_id":76561198197606282,"connected_time":2597000000000,"state":"active","ping":42},{"user_id":634,"name":"Brian","steam_id":76561198077756206,"connected_time":4315000000000,"state":"active","ping":38},{"user_id":672,"name":"Well, off to hang myself","steam_id":76561198053374944,"connected_time":459000000000,"state":"active","ping":68},{"user_id":666,"name":"tone","steam_id":76561197975301462,"connected_time":1191000000000,"state":"active","ping":58},{"user_id":615,"name":"£3 hole pics in bio","steam_id":76561198259668029,"connected_time":5779000000000,"state":"active","ping":45},{"user_id":628,"name":"WE HAVE MR HIGHLANDER","steam_id":76561198798803845,"connected_time":4871000000000,"state":"active","ping":48},{"user_id":622,"name":"nebuNEBUnebu","steam_id":76561198307037169,"connected_time":5724000000000,"state":"active","ping":57}]},{"server_id":320,"name":"Uncletopia | London | 3 | All Maps","name_short":"lon-3","host":"lon-1.uk.uncletopia.com","port":27035,"enabled":true,"region":"eu","cc":"gb","latitude":51.509865,"longitude":-0.118092,"reserved":0,"last_update":"0001-01-01T00:00:00Z","name_a2s":"Uncletopia | London | 3 | All Maps","protocol":17,"map":"pl_pier","folder":"tf","game":"Team Fortress","app_id":440,"player_count":15,"max_players":24,"Bots":0,"server_type":"Dedicated","server_os":"Linux","password":true,"vac":true,"version":"7882260","steam_id":85568392924510192,"keywords":["nocrits","nodmgspread","payload","uncletopia"],"game_id":440,"stv_port":27036,"stv_name":"Uncletopia | London | 3 | All Maps | STV","players":[{"user_id":621,"name":"Yanniki","steam_id":76561197986058110,"connected_time":435000000000,"state":"active","ping":58},{"user_id":622,"name":"Angela-1","steam_id":76561198086481048,"connected_time":272000000000,"state":"connecting","ping":0},{"user_id":624,"name":"HilldogGaming","steam_id":76561198082209322,"connected_time":200000000000,"state":"active","ping":81},{"user_id":618,"name":"madijo","steam_id":76561198012617400,"connected_time":1171000000000,"state":"active","ping":74},{"user_id":588,"name":"Potassium Perpetrator","steam_id":76561198317217013,"connected_time":3310000000000,"state":"active","ping":115},{"user_id":625,"name":"FADe","steam_id":76561197960400908,"connected_time":116000000000,"state":"active","ping":39},{"user_id":626,"name":"WOW i'm dead","steam_id":76561199082267619,"connected_time":99000000000,"state":"active","ping":97},{"user_id":627,"name":"Ran33","steam_id":76561197991474499,"connected_time":52000000000,"state":"active","ping":88},{"user_id":589,"name":"key goose","steam_id":76561197964879379,"connected_time":3307000000000,"state":"active","ping":84},{"user_id":628,"name":"Agartha Dweller","steam_id":76561198076881381,"connected_time":9000000000,"state":"active","ping":75},{"user_id":567,"name":"dun-Dun-DUUUUUN!","steam_id":76561198193357946,"connected_time":4513000000000,"state":"active","ping":100},{"user_id":607,"name":"Stańczyk","steam_id":76561197998906563,"connected_time":2524000000000,"state":"active","ping":42},{"user_id":571,"name":"Din Javel","steam_id":76561198043018352,"connected_time":4241000000000,"state":"active","ping":69},{"user_id":620,"name":"Jyghc","steam_id":76561198405980575,"connected_time":482000000000,"state":"active","ping":76},{"user_id":611,"name":"Mr_Pulse_","steam_id":76561198095001602,"connected_time":2193000000000,"state":"active","ping":104}]},{"server_id":321,"name":"Uncletopia | London | 4 | All Maps","name_short":"lon-4","host":"lon-1.uk.uncletopia.com","port":27045,"enabled":true,"region":"eu","cc":"gb","latitude":51.509865,"longitude":-0.118092,"reserved":0,"last_update":"0001-01-01T00:00:00Z","name_a2s":"Uncletopia | London | 4 | All Maps","protocol":17,"map":"koth_highpass","folder":"tf","game":"Team Fortress","app_id":440,"player_count":0,"max_players":24,"Bots":0,"server_type":"Dedicated","server_os":"Linux","password":true,"vac":true,"version":"7882260","steam_id":85568392924510193,"keywords":["cp","nocrits","nodmgspread","uncletopia"],"game_id":440,"stv_port":27046,"stv_name":"Uncletopia | London | 4 | All Maps | STV","players":null},{"server_id":21,"name":"Uncletopia | London | 5 | All Maps","name_short":"lon-5","host":"lon-1.uk.uncletopia.com","port":27055,"enabled":true,"region":"eu","cc":"gb","latitude":51.509865,"longitude":-0.118092,"reserved":0,"last_update":"0001-01-01T00:00:00Z","name_a2s":"Uncletopia | London | 5 | All Maps","protocol":17,"map":"pl_thundermountain","folder":"tf","game":"Team Fortress","app_id":440,"player_count":24,"max_players":24,"Bots":0,"server_type":"Dedicated","server_os":"Linux","password":true,"vac":true,"version":"7882260","steam_id":85568392924742829,"keywords":["nocrits","nodmgspread","payload","uncletopia"],"game_id":440,"stv_port":27056,"stv_name":"Uncletopia | London | 5 | All Maps | STV","players":[{"user_id":533,"name":"Dakeyras","steam_id":76561198057069564,"connected_time":2445000000000,"state":"active","ping":98},{"user_id":535,"name":"ScaryTree","steam_id":76561199384362833,"connected_time":2373000000000,"state":"active","ping":47},{"user_id":528,"name":"Nugget","steam_id":76561198338916407,"connected_time":2728000000000,"state":"active","ping":72},{"user_id":552,"name":"49belowzero","steam_id":76561198108177252,"connected_time":476000000000,"state":"active","ping":171},{"user_id":474,"name":"rob","steam_id":76561198122211848,"connected_time":5610000000000,"state":"active","ping":97},{"user_id":549,"name":"Hypenite","steam_id":76561198067589713,"connected_time":1535000000000,"state":"active","ping":81},{"user_id":530,"name":"I LOVE POLAND","steam_id":76561198871136698,"connected_time":2692000000000,"state":"active","ping":40},{"user_id":542,"name":"Famous Anus","steam_id":76561198413675639,"connected_time":2056000000000,"state":"active","ping":65},{"user_id":543,"name":"peso enjoyer","steam_id":76561198798177799,"connected_time":1804000000000,"state":"active","ping":77},{"user_id":401,"name":"Enderpanda24","steam_id":76561199461170521,"connected_time":11588000000000,"state":"active","ping":87},{"user_id":506,"name":"Mabert","steam_id":76561198436058407,"connected_time":3578000000000,"state":"active","ping":71},{"user_id":546,"name":"Balen","steam_id":76561198036522265,"connected_time":1623000000000,"state":"active","ping":85},{"user_id":555,"name":"axel, comp bot","steam_id":76561197992311317,"connected_time":248000000000,"state":"active","ping":74},{"user_id":510,"name":"sook","steam_id":76561198199117446,"connected_time":3463000000000,"state":"active","ping":50},{"user_id":532,"name":"Ixsus\u003c3","steam_id":76561198094756869,"connected_time":2523000000000,"state":"active","ping":62},{"user_id":519,"name":"Clitorina","steam_id":76561198077570815,"connected_time":2987000000000,"state":"active","ping":45},{"user_id":520,"name":"SoupER","steam_id":76561198063056668,"connected_time":2987000000000,"state":"active","ping":42},{"user_id":554,"name":"Lucan","steam_id":76561198219195135,"connected_time":450000000000,"state":"active","ping":47},{"user_id":553,"name":"Carol Olston","steam_id":76561198080257273,"connected_time":463000000000,"state":"active","ping":37},{"user_id":548,"name":"Antifaschistischer","steam_id":76561198452588605,"connected_time":1559000000000,"state":"active","ping":71},{"user_id":524,"name":"Finn","steam_id":76561198179960193,"connected_time":2852000000000,"state":"active","ping":36},{"user_id":525,"name":"sarii ☆","steam_id":76561199155102111,"connected_time":2832000000000,"state":"active","ping":81},{"user_id":538,"name":"shadow39344","steam_id":76561198090639618,"connected_time":2323000000000,"state":"active","ping":65},{"user_id":557,"name":"df","steam_id":76561198448551449,"connected_time":244000000000,"state":"active","ping":35}]},{"server_id":22,"name":"Uncletopia | London | 6 | All Maps","name_short":"lon-6","host":"lon-1.uk.uncletopia.com","port":27065,"enabled":true,"region":"eu","cc":"gb","latitude":51.509865,"longitude":-0.118092,"reserved":0,"last_update":"0001-01-01T00:00:00Z","name_a2s":"Uncletopia | London | 6 | All Maps","protocol":17,"map":"pl_frontier_final","folder":"tf","game":"Team Fortress","app_id":440,"player_count":19,"max_players":24,"Bots":0,"server_type":"Dedicated","server_os":"Linux","password":true,"vac":true,"version":"7882260","steam_id":85568392924742830,"keywords":["nocrits","nodmgspread","payload","uncletopia"],"game_id":440,"stv_port":27066,"stv_name":"Uncletopia | London | 6 | All Maps | STV","players":[{"user_id":790,"name":"nicco","steam_id":76561198046217866,"connected_time":7000000000,"state":"active","ping":54},{"user_id":772,"name":"Economic crisis","steam_id":76561198063562843,"connected_time":2018000000000,"state":"active","ping":65},{"user_id":789,"name":"Luna","steam_id":76561198839699085,"connected_time":205000000000,"state":"active","ping":59},{"user_id":734,"name":"Jonno","steam_id":76561198023443744,"connected_time":7144000000000,"state":"active","ping":54},{"user_id":782,"name":"(wm) Das Fleisch","steam_id":76561198001250715,"connected_time":1397000000000,"state":"active","ping":66},{"user_id":685,"name":"Carrotcracker","steam_id":76561198034862396,"connected_time":10375000000000,"state":"active","ping":79},{"user_id":750,"name":"extra icky","steam_id":76561198097507847,"connected_time":5824000000000,"state":"active","ping":78},{"user_id":788,"name":"♦YankeeWithNoBrim♦","steam_id":76561199029000960,"connected_time":360000000000,"state":"active","ping":64},{"user_id":767,"name":"knavepunk","steam_id":76561198158631142,"connected_time":3542000000000,"state":"active","ping":43},{"user_id":768,"name":"Ketania","steam_id":76561198253326789,"connected_time":3539000000000,"state":"active","ping":65},{"user_id":781,"name":"フェムセル❤","steam_id":76561198972654736,"connected_time":1657000000000,"state":"active","ping":74},{"user_id":726,"name":"Expanix","steam_id":76561198111125317,"connected_time":7484000000000,"state":"active","ping":60},{"user_id":778,"name":"klaus","steam_id":76561198150394201,"connected_time":1897000000000,"state":"active","ping":93},{"user_id":784,"name":"Mi Manchi","steam_id":76561198171573129,"connected_time":1380000000000,"state":"active","ping":64},{"user_id":785,"name":"big carrot field. growing well","steam_id":76561198069649097,"connected_time":1378000000000,"state":"active","ping":44},{"user_id":787,"name":"☁⭍ qBowN∼","steam_id":76561198000980532,"connected_time":854000000000,"state":"active","ping":58},{"user_id":749,"name":"Into Extra Icky","steam_id":76561198067204908,"connected_time":5959000000000,"state":"active","ping":54},{"user_id":777,"name":"DobreStarachowickie","steam_id":76561198027126737,"connected_time":1921000000000,"state":"active","ping":75},{"user_id":780,"name":"Xiqui","steam_id":76561198818386611,"connected_time":1845000000000,"state":"active","ping":77}]},{"server_id":40,"name":"Uncletopia | London | 7 | No Payload","name_short":"lon-7","host":"lon-1.uk.uncletopia.com","port":27075,"enabled":true,"region":"eu","cc":"gb","latitude":51.509865,"longitude":-0.118092,"reserved":0,"last_update":"0001-01-01T00:00:00Z","name_a2s":"Uncletopia | London | 7 | No Payload","protocol":17,"map":"ctf_doublecross","folder":"tf","game":"Team Fortress","app_id":440,"player_count":23,"max_players":24,"Bots":0,"server_type":"Dedicated","server_os":"Linux","password":true,"vac":true,"version":"7882260","steam_id":85568392924964314,"keywords":["ctf","nocrits","nodmgspread","uncletopia"],"game_id":440,"stv_port":27076,"stv_name":"Uncletopia | London | 7 | No Payload | STV","players":[{"user_id":744,"name":"Gimli","steam_id":76561198004149706,"connected_time":3962000000000,"state":"active","ping":67},{"user_id":758,"name":"Space","steam_id":76561198021572167,"connected_time":1795000000000,"state":"active","ping":45},{"user_id":756,"name":"Mike Rotch","steam_id":76561198111232378,"connected_time":1973000000000,"state":"active","ping":79},{"user_id":729,"name":"Gimli but better","steam_id":76561197998352095,"connected_time":5309000000000,"state":"active","ping":38},{"user_id":734,"name":"Cheff","steam_id":76561198011475333,"connected_time":4893000000000,"state":"active","ping":55},{"user_id":757,"name":"Cpl. Shephard","steam_id":76561198882051599,"connected_time":1912000000000,"state":"active","ping":74},{"user_id":765,"name":"Hans","steam_id":76561198030061999,"connected_time":1397000000000,"state":"active","ping":85},{"user_id":782,"name":"Sentry Man","steam_id":76561198088417596,"connected_time":587000000000,"state":"active","ping":74},{"user_id":761,"name":"Gnomes","steam_id":76561198093510773,"connected_time":1548000000000,"state":"active","ping":53},{"user_id":762,"name":"JonnyBain","steam_id":76561198090080911,"connected_time":1532000000000,"state":"active","ping":67},{"user_id":763,"name":"CLAPPER","steam_id":76561199061808252,"connected_time":1515000000000,"state":"active","ping":61},{"user_id":785,"name":"桓 ඞ®","steam_id":76561198106121110,"connected_time":331000000000,"state":"active","ping":70},{"user_id":777,"name":"Idiotden","steam_id":76561199340950135,"connected_time":902000000000,"state":"active","ping":181},{"user_id":773,"name":"An_Evil_Donut","steam_id":76561198209195408,"connected_time":1069000000000,"state":"active","ping":78},{"user_id":769,"name":"padillacampos","steam_id":76561198161923970,"connected_time":1237000000000,"state":"active","ping":76},{"user_id":784,"name":"Prem Nintendogs Player","steam_id":76561197970114051,"connected_time":494000000000,"state":"active","ping":44},{"user_id":772,"name":"MxQuiteGood","steam_id":76561198069780233,"connected_time":1114000000000,"state":"active","ping":52},{"user_id":779,"name":"The.Real.Genesis","steam_id":76561198999652040,"connected_time":720000000000,"state":"active","ping":54},{"user_id":788,"name":"Kyan","steam_id":76561198046566697,"connected_time":64000000000,"state":"active","ping":59},{"user_id":778,"name":"The Subway Scientist","steam_id":76561198193757646,"connected_time":883000000000,"state":"active","ping":58},{"user_id":728,"name":"Birdseye","steam_id":76561198025852216,"connected_time":5346000000000,"state":"active","ping":59},{"user_id":786,"name":"Dezmin Enjoyer","steam_id":76561198274671599,"connected_time":196000000000,"state":"active","ping":73},{"user_id":783,"name":"Femboy Portal Radio Uncompresse","steam_id":76561198072320671,"connected_time":529000000000,"state":"active","ping":36}]},{"server_id":41,"name":"Uncletopia | London | 8 | Community","name_short":"lon-8","host":"lon-1.uk.uncletopia.com","port":27085,"enabled":true,"region":"eu","cc":"gb","latitude":51.509865,"longitude":-0.118092,"reserved":0,"last_update":"0001-01-01T00:00:00Z","name_a2s":"Uncletopia | London | 8 | Community","protocol":17,"map":"workshop/pl_vigil_rc9.ugc1266210012","folder":"tf","game":"Team Fortress","app_id":440,"player_count":18,"max_players":24,"Bots":0,"server_type":"Dedicated","server_os":"Linux","password":true,"vac":true,"version":"7882260","steam_id":85568392924964315,"keywords":["nocrits","nodmgspread","payload","uncletopia"],"game_id":440,"stv_port":27086,"stv_name":"Uncletopia | London | 8 | Community | STV","players":[{"user_id":252,"name":"ListlessGhost","steam_id":76561199068947598,"connected_time":45000000000,"state":"active","ping":64},{"user_id":253,"name":"SaxtonHaleSimp","steam_id":76561199143040639,"connected_time":28000000000,"state":"active","ping":969},{"user_id":246,"name":"bamacya_CSCASE.Io","steam_id":76561199441345433,"connected_time":286000000000,"state":"active","ping":90},{"user_id":239,"name":"O4W Guz tf2medium.com","steam_id":76561198384689388,"connected_time":1322000000000,"state":"active","ping":30},{"user_id":199,"name":"Zionel","steam_id":76561198202442224,"connected_time":4320000000000,"state":"active","ping":69},{"user_id":193,"name":"ProDG","steam_id":76561198087728099,"connected_time":4695000000000,"state":"active","ping":49},{"user_id":235,"name":"Rappy","steam_id":76561198094882533,"connected_time":1522000000000,"state":"active","ping":60},{"user_id":236,"name":"0lloe","steam_id":76561198070861443,"connected_time":1514000000000,"state":"active","ping":49},{"user_id":182,"name":"Tegnerud","steam_id":76561198214185612,"connected_time":5455000000000,"state":"active","ping":74},{"user_id":230,"name":"Conan","steam_id":76561198158321202,"connected_time":1735000000000,"state":"active","ping":62},{"user_id":194,"name":"SolidB_","steam_id":76561198035626468,"connected_time":4658000000000,"state":"active","ping":49},{"user_id":212,"name":"SPONGE","steam_id":76561198040933472,"connected_time":2360000000000,"state":"active","ping":76},{"user_id":243,"name":"O4W P1N tf2hard.com","steam_id":76561198382749493,"connected_time":526000000000,"state":"active","ping":90},{"user_id":242,"name":"Volcyy","steam_id":76561198063979124,"connected_time":1057000000000,"state":"active","ping":53},{"user_id":200,"name":"D4","steam_id":76561198021159800,"connected_time":4298000000000,"state":"active","ping":75},{"user_id":251,"name":"Filemon","steam_id":76561198307913145,"connected_time":116000000000,"state":"spawning","ping":278},{"user_id":153,"name":"akakez","steam_id":76561198095432821,"connected_time":7434000000000,"state":"active","ping":115},{"user_id":231,"name":"Clark","steam_id":76561197998520785,"connected_time":1718000000000,"state":"active","ping":80}]},{"server_id":300,"name":"Uncletopia | Montréal | 1 | All Maps","name_short":"mtl-1","host":"mtl-1.ca.uncletopia.com","port":27015,"enabled":true,"region":"us-east","cc":"ca","latitude":45.50889,"longitude":-73.56167,"reserved":0,"last_update":"0001-01-01T00:00:00Z","name_a2s":"Uncletopia | Montréal | 1 | All Maps","protocol":17,"map":"pl_barnblitz","folder":"tf","game":"Team Fortress","app_id":440,"player_count":21,"max_players":24,"Bots":0,"server_type":"Dedicated","server_os":"Linux","password":true,"vac":true,"version":"7882260","steam_id":85568392924500087,"keywords":["nocrits","nodmgspread","payload","uncletopia"],"game_id":440,"stv_port":27016,"stv_name":"Uncletopia | Montréal | 1 | All Maps | STV","players":[{"user_id":216,"name":"captain red","steam_id":76561198191587983,"connected_time":2482000000000,"state":"active","ping":105},{"user_id":236,"name":"hashmap","steam_id":76561198043794014,"connected_time":105000000000,"state":"active","ping":40},{"user_id":196,"name":"Julius Caesar","steam_id":76561198360004673,"connected_time":4122000000000,"state":"active","ping":83},{"user_id":231,"name":"Muromasa","steam_id":76561198069883531,"connected_time":791000000000,"state":"active","ping":73},{"user_id":222,"name":"Gas Can","steam_id":76561198162853003,"connected_time":1598000000000,"state":"active","ping":89},{"user_id":194,"name":"Bobo","steam_id":76561198052308399,"connected_time":4323000000000,"state":"active","ping":159},{"user_id":237,"name":"tacofever","steam_id":76561198010966507,"connected_time":99000000000,"state":"active","ping":120},{"user_id":234,"name":"WhoIsFrosty","steam_id":76561198880588117,"connected_time":604000000000,"state":"active","ping":67},{"user_id":199,"name":"maplestory","steam_id":76561198132218589,"connected_time":4044000000000,"state":"active","ping":54},{"user_id":225,"name":"Theodore Roosevelt","steam_id":76561197993295656,"connected_time":1527000000000,"state":"active","ping":61},{"user_id":226,"name":"Doubting Dave","steam_id":76561198066410749,"connected_time":1505000000000,"state":"active","ping":71},{"user_id":219,"name":"Lemurian","steam_id":76561198324118507,"connected_time":1999000000000,"state":"active","ping":71},{"user_id":235,"name":"Fribas","steam_id":76561198138502813,"connected_time":382000000000,"state":"active","ping":67},{"user_id":238,"name":"Strangelove","steam_id":76561198353773611,"connected_time":59000000000,"state":"active","ping":84},{"user_id":217,"name":"Bush.exe","steam_id":76561198124385307,"connected_time":2480000000000,"state":"active","ping":60},{"user_id":189,"name":"bouncyballs.com","steam_id":76561198236166288,"connected_time":4784000000000,"state":"active","ping":50},{"user_id":209,"name":"TOBY!!!","steam_id":76561199380822531,"connected_time":3515000000000,"state":"active","ping":116},{"user_id":152,"name":"Yep","steam_id":76561198041437251,"connected_time":6671000000000,"state":"active","ping":65},{"user_id":218,"name":"TheGuyWhoPlays","steam_id":76561198277363002,"connected_time":2393000000000,"state":"active","ping":50},{"user_id":233,"name":"Monsieur l'INGENIEUR","steam_id":76561198090504334,"connected_time":645000000000,"state":"active","ping":63},{"user_id":206,"name":"Phone","steam_id":76561198334357092,"connected_time":3769000000000,"state":"active","ping":83}]},{"server_id":301,"name":"Uncletopia | Montréal | 2 | All Maps","name_short":"mtl-2","host":"mtl-1.ca.uncletopia.com","port":27025,"enabled":true,"region":"us-east","cc":"ca","latitude":45.50889,"longitude":-73.56167,"reserved":0,"last_update":"0001-01-01T00:00:00Z","name_a2s":"Uncletopia | Montréal | 2 | All Maps","protocol":17,"map":"koth_cascade","folder":"tf","game":"Team Fortress","app_id":440,"player_count":0,"max_players":24,"Bots":0,"server_type":"Dedicated","server_os":"Linux","password":true,"vac":true,"version":"7882260","steam_id":85568392924500088,"keywords":["cp","nocrits","nodmgspread","uncletopia"],"game_id":440,"stv_port":27026,"stv_name":"Uncletopia | Montréal | 2 | All Maps | STV","players":null},{"server_id":302,"name":"Uncletopia | Montréal | 3 | All Maps","name_short":"mtl-3","host":"mtl-1.ca.uncletopia.com","port":27035,"enabled":true,"region":"us-east","cc":"ca","latitude":45.50889,"longitude":-73.56167,"reserved":0,"last_update":"0001-01-01T00:00:00Z","name_a2s":"Uncletopia | Montréal | 3 | All Maps","protocol":17,"map":"koth_highpass","folder":"tf","game":"Team Fortress","app_id":440,"player_count":0,"max_players":24,"Bots":0,"server_type":"Dedicated","server_os":"Linux","password":true,"vac":true,"version":"7882260","steam_id":85568392924500089,"keywords":["cp","nocrits","nodmgspread","uncletopia"],"game_id":440,"stv_port":27036,"stv_name":"Uncletopia | Montréal | 3 | All Maps | STV","players":null},{"server_id":303,"name":"Uncletopia | Montréal | 4 | No Payload","name_short":"mtl-4","host":"mtl-1.ca.uncletopia.com","port":27045,"enabled":true,"region":"us-east","cc":"ca","latitude":45.50889,"longitude":-73.56167,"reserved":0,"last_update":"0001-01-01T00:00:00Z","name_a2s":"Uncletopia | Montréal | 4 | No Payload","protocol":17,"map":"cp_altitude","folder":"tf","game":"Team Fortress","app_id":440,"player_count":0,"max_players":24,"Bots":0,"server_type":"Dedicated","server_os":"Linux","password":true,"vac":true,"version":"7882260","steam_id":85568392924500090,"keywords":["cp","nocrits","nodmgspread","uncletopia"],"game_id":440,"stv_port":27046,"stv_name":"Uncletopia | Montréal | 4 | No Payload | STV","players":null},{"server_id":13,"name":"Uncletopia | New York City | 1 | All Maps","name_short":"nyc-1","host":"nyc-1.us.uncletopia.com","port":27015,"enabled":true,"region":"us-east","cc":"us","latitude":40.73061,"longitude":-73.93524,"reserved":0,"last_update":"0001-01-01T00:00:00Z","name_a2s":"Uncletopia | New York City | 1 | All Maps","protocol":17,"map":"pl_pier","folder":"tf","game":"Team Fortress","app_id":440,"player_count":14,"max_players":24,"Bots":0,"server_type":"Dedicated","server_os":"Linux","password":true,"vac":true,"version":"7882260","steam_id":85568392924469993,"keywords":["nocrits","nodmgspread","payload","uncletopia"],"game_id":440,"stv_port":27016,"stv_name":"Uncletopia | New York City | 1 | All Maps | STV","players":[{"user_id":618,"name":"Mika  Laakso","steam_id":76561198115035132,"connected_time":43000000000,"state":"spawning","ping":60},{"user_id":606,"name":"Nihplod_","steam_id":76561199010320094,"connected_time":553000000000,"state":"active","ping":49},{"user_id":607,"name":"10KO!","steam_id":76561199134895220,"connected_time":532000000000,"state":"active","ping":53},{"user_id":608,"name":"Temujin","steam_id":76561198030936583,"connected_time":470000000000,"state":"active","ping":31},{"user_id":611,"name":"Waffle Wannabe","steam_id":76561198064510650,"connected_time":382000000000,"state":"active","ping":47},{"user_id":615,"name":"Pocket Medic Girlfriend","steam_id":76561198378587138,"connected_time":217000000000,"state":"active","ping":104},{"user_id":572,"name":"Sysadmin Stress Release","steam_id":76561197997326384,"connected_time":3047000000000,"state":"active","ping":63},{"user_id":613,"name":"WHAT","steam_id":76561198082336619,"connected_time":369000000000,"state":"active","ping":56},{"user_id":616,"name":"Cob","steam_id":76561198079750550,"connected_time":190000000000,"state":"active","ping":81},{"user_id":617,"name":"feelcal","steam_id":76561198039775629,"connected_time":157000000000,"state":"active","ping":134},{"user_id":594,"name":"@reallyBigBoss","steam_id":76561198137903950,"connected_time":1751000000000,"state":"active","ping":93},{"user_id":605,"name":"yale party @ 10","steam_id":76561198173047169,"connected_time":628000000000,"state":"active","ping":36},{"user_id":574,"name":"dog","steam_id":76561198263873491,"connected_time":2940000000000,"state":"active","ping":59},{"user_id":597,"name":"Solo","steam_id":76561198037769834,"connected_time":1699000000000,"state":"active","ping":75}]},{"server_id":14,"name":"Uncletopia | New York City | 2 | All Maps","name_short":"nyc-2","host":"nyc-1.us.uncletopia.com","port":27025,"enabled":true,"region":"us-east","cc":"us","latitude":40.73061,"longitude":-73.93524,"reserved":0,"last_update":"0001-01-01T00:00:00Z","name_a2s":"Uncletopia | New York City | 2 | All Maps","protocol":17,"map":"koth_viaduct","folder":"tf","game":"Team Fortress","app_id":440,"player_count":14,"max_players":24,"Bots":0,"server_type":"Dedicated","server_os":"Linux","password":true,"vac":true,"version":"7882260","steam_id":85568392924469994,"keywords":["cp","nocrits","nodmgspread","uncletopia"],"game_id":440,"stv_port":27026,"stv_name":"Uncletopia | New York City | 2 | All Maps | STV","players":[{"user_id":164,"name":"Ugzugzug The Bucket Mann","steam_id":76561198836624330,"connected_time":5455000000000,"state":"active","ping":78},{"user_id":242,"name":"Lexabyte","steam_id":76561198065032237,"connected_time":194000000000,"state":"active","ping":65},{"user_id":226,"name":"The Nikocado Enjoyer","steam_id":76561198263154374,"connected_time":1464000000000,"state":"active","ping":42},{"user_id":227,"name":"Peepster","steam_id":76561198297854733,"connected_time":1398000000000,"state":"active","ping":84},{"user_id":194,"name":"Ferguson","steam_id":76561198121349387,"connected_time":3298000000000,"state":"active","ping":85},{"user_id":235,"name":"Lost","steam_id":76561198093713427,"connected_time":607000000000,"state":"active","ping":62},{"user_id":215,"name":"Uriel Ruthven #saveTF2","steam_id":76561198004169379,"connected_time":1811000000000,"state":"active","ping":135},{"user_id":239,"name":"bikerkid207","steam_id":76561198390782783,"connected_time":301000000000,"state":"active","ping":48},{"user_id":231,"name":"Primal","steam_id":76561197983118203,"connected_time":1046000000000,"state":"active","ping":78},{"user_id":230,"name":"Lucille_Bluth","steam_id":76561198206133916,"connected_time":1148000000000,"state":"active","ping":64},{"user_id":204,"name":"Kona","steam_id":76561199026563078,"connected_time":2343000000000,"state":"active","ping":75},{"user_id":205,"name":"Vervain","steam_id":76561198269642607,"connected_time":2323000000000,"state":"active","ping":118},{"user_id":243,"name":"Victor Skull","steam_id":76561198352212864,"connected_time":121000000000,"state":"active","ping":42},{"user_id":94,"name":"Jesse Bear","steam_id":76561198217075305,"connected_time":9894000000000,"state":"active","ping":57}]},{"server_id":15,"name":"Uncletopia | New York City | 3 | Stopwatch Beta","name_short":"nyc-3","host":"nyc-1.us.uncletopia.com","port":27035,"enabled":true,"region":"us-east","cc":"us","latitude":40.73061,"longitude":-73.93524,"reserved":0,"last_update":"0001-01-01T00:00:00Z","name_a2s":"Uncletopia | New York City | 3 | Stopwatch Beta","protocol":17,"map":"cp_metalworks","folder":"tf","game":"Team Fortress","app_id":440,"player_count":0,"max_players":24,"Bots":0,"server_type":"Dedicated","server_os":"Linux","password":true,"vac":true,"version":"7882260","steam_id":85568392924742820,"keywords":["cp","nocrits","nodmgspread","uncletopia"],"game_id":440,"stv_port":27036,"stv_name":"Uncletopia | New York City | 3 | Stopwatch Beta | STV","players":null},{"server_id":16,"name":"Uncletopia | New York City | 4 | Community","name_short":"nyc-4","host":"nyc-1.us.uncletopia.com","port":27045,"enabled":true,"region":"us-east","cc":"us","latitude":40.73061,"longitude":-73.93524,"reserved":0,"last_update":"0001-01-01T00:00:00Z","name_a2s":"Uncletopia | New York City | 4 | Community","protocol":17,"map":"workshop/koth_product_final.ugc454272353","folder":"tf","game":"Team Fortress","app_id":440,"player_count":0,"max_players":24,"Bots":0,"server_type":"Dedicated","server_os":"Linux","password":true,"vac":true,"version":"7882260","steam_id":85568392924742821,"keywords":["cp","nocrits","nodmgspread","uncletopia"],"game_id":440,"stv_port":27046,"stv_name":"Uncletopia | New York City | 4 | Community | STV","players":null},{"server_id":142,"name":"Uncletopia | São Paulo | 1 | All Maps","name_short":"sao-1","host":"sao-1.br.uncletopia.com","port":27015,"enabled":true,"region":"sa","cc":"br","latitude":-23.533773,"longitude":-46.62529,"reserved":0,"last_update":"0001-01-01T00:00:00Z","name_a2s":"Uncletopia | São Paulo | 1 | All Maps","protocol":17,"map":"pl_frontier_final","folder":"tf","game":"Team Fortress","app_id":440,"player_count":0,"max_players":24,"Bots":0,"server_type":"Dedicated","server_os":"Linux","password":true,"vac":true,"version":"7882260","steam_id":85568392924469996,"keywords":["nocrits","nodmgspread","payload","uncletopia"],"game_id":440,"stv_port":27016,"stv_name":"Uncletopia | São Paulo | 1 | All Maps | STV","players":null},{"server_id":143,"name":"Uncletopia | São Paulo | 2 | All Maps","name_short":"sao-2","host":"sao-2.br.uncletopia.com","port":27015,"enabled":true,"region":"sa","cc":"br","latitude":-23.533773,"longitude":-46.62529,"reserved":0,"last_update":"0001-01-01T00:00:00Z","name_a2s":"Uncletopia | São Paulo | 2 | All Maps","protocol":17,"map":"cp_dustbowl","folder":"tf","game":"Team Fortress","app_id":440,"player_count":12,"max_players":24,"Bots":0,"server_type":"Dedicated","server_os":"Linux","password":true,"vac":true,"version":"7882260","steam_id":85568392924485349,"keywords":["cp","nocrits","nodmgspread","uncletopia"],"game_id":440,"stv_port":27016,"stv_name":"Uncletopia | São Paulo | 2 | All Maps | STV","players":[{"user_id":230,"name":"stuwpid pyo maim","steam_id":76561199246901712,"connected_time":6688000000000,"state":"active","ping":44},{"user_id":251,"name":"lit","steam_id":76561198032697387,"connected_time":2518000000000,"state":"active","ping":38},{"user_id":260,"name":"eDot","steam_id":76561199076298530,"connected_time":1736000000000,"state":"active","ping":50},{"user_id":238,"name":"Zaparol","steam_id":76561198971733797,"connected_time":5306000000000,"state":"active","ping":59},{"user_id":256,"name":"vacaloca25","steam_id":76561198082683352,"connected_time":2193000000000,"state":"active","ping":57},{"user_id":276,"name":"+20","steam_id":76561199124993470,"connected_time":879000000000,"state":"active","ping":181},{"user_id":277,"name":"Spam","steam_id":76561199025463092,"connected_time":869000000000,"state":"active","ping":97},{"user_id":279,"name":"Blob","steam_id":76561198403876902,"connected_time":775000000000,"state":"active","ping":118},{"user_id":259,"name":"anaheisenberg","steam_id":76561198304847307,"connected_time":1831000000000,"state":"active","ping":49},{"user_id":262,"name":"Piazinho","steam_id":76561198054820896,"connected_time":1458000000000,"state":"active","ping":44},{"user_id":263,"name":"gabrieljunqueirademattos8","steam_id":76561199197138383,"connected_time":1438000000000,"state":"active","ping":79},{"user_id":281,"name":"rami","steam_id":76561198187565346,"connected_time":591000000000,"state":"active","ping":83}]},{"server_id":7,"name":"Uncletopia | Seattle | 1 | All Maps","name_short":"sea-1","host":"sea-1.us.uncletopia.com","port":27015,"enabled":true,"region":"us-west","cc":"us","latitude":47.608013,"longitude":-122.33517,"reserved":0,"last_update":"0001-01-01T00:00:00Z","name_a2s":"Uncletopia | Seattle | 1 | All Maps","protocol":17,"map":"pl_pier","folder":"tf","game":"Team Fortress","app_id":440,"player_count":24,"max_players":24,"Bots":0,"server_type":"Dedicated","server_os":"Linux","password":true,"vac":true,"version":"7882260","steam_id":85568392924469997,"keywords":["nocrits","nodmgspread","payload","uncletopia"],"game_id":440,"stv_port":27016,"stv_name":"Uncletopia | Seattle | 1 | All Maps | STV","players":[{"user_id":450,"name":"Spooky","steam_id":76561198030817605,"connected_time":342000000000,"state":"active","ping":44},{"user_id":413,"name":"Geram","steam_id":76561198061979840,"connected_time":3157000000000,"state":"active","ping":76},{"user_id":371,"name":"Bishuhp","steam_id":76561198015062850,"connected_time":5676000000000,"state":"active","ping":47},{"user_id":422,"name":"a","steam_id":76561198212111977,"connected_time":2517000000000,"state":"active","ping":62},{"user_id":441,"name":"JICK¶","steam_id":76561198134218403,"connected_time":727000000000,"state":"active","ping":62},{"user_id":440,"name":"SadFapping","steam_id":76561198076651049,"connected_time":746000000000,"state":"active","ping":58},{"user_id":442,"name":"exephur","steam_id":76561198135763234,"connected_time":724000000000,"state":"active","ping":62},{"user_id":423,"name":"mer5277","steam_id":76561198192171041,"connected_time":2368000000000,"state":"active","ping":155},{"user_id":421,"name":"Igrium","steam_id":76561198119549811,"connected_time":2575000000000,"state":"active","ping":72},{"user_id":443,"name":"Fargo","steam_id":76561198044703931,"connected_time":712000000000,"state":"active","ping":75},{"user_id":425,"name":"TFBot(2)","steam_id":76561198061284371,"connected_time":2195000000000,"state":"active","ping":87},{"user_id":453,"name":"Rowmaster","steam_id":76561198271659574,"connected_time":69000000000,"state":"active","ping":84},{"user_id":439,"name":"RainboomCrash","steam_id":76561198065612273,"connected_time":757000000000,"state":"active","ping":50},{"user_id":368,"name":"colespudzo","steam_id":76561198051127147,"connected_time":5721000000000,"state":"active","ping":45},{"user_id":431,"name":"notkadenk","steam_id":76561198837454396,"connected_time":1729000000000,"state":"active","ping":52},{"user_id":432,"name":"Hershey Squirts","steam_id":76561198297628284,"connected_time":1629000000000,"state":"active","ping":52},{"user_id":452,"name":"Also UbeR","steam_id":76561198166926843,"connected_time":134000000000,"state":"active","ping":78},{"user_id":444,"name":"Dingelsmurf the Orange","steam_id":76561198212489267,"connected_time":701000000000,"state":"active","ping":88},{"user_id":445,"name":"Gunspy In Training","steam_id":76561198169484186,"connected_time":694000000000,"state":"active","ping":60},{"user_id":415,"name":"cream team","steam_id":76561198139043953,"connected_time":2790000000000,"state":"active","ping":97},{"user_id":451,"name":"veryscaryreaper","steam_id":76561198380018244,"connected_time":331000000000,"state":"active","ping":64},{"user_id":448,"name":"Themasterman75","steam_id":76561199385573293,"connected_time":452000000000,"state":"active","ping":74},{"user_id":434,"name":"Reggie","steam_id":76561198835737236,"connected_time":1528000000000,"state":"active","ping":118},{"user_id":409,"name":"merkury731","steam_id":76561198110565430,"connected_time":3277000000000,"state":"active","ping":116}]},{"server_id":119,"name":"Uncletopia | Seattle | 2 | All Maps","name_short":"sea-2","host":"sea-1.us.uncletopia.com","port":27025,"enabled":true,"region":"us-west","cc":"us","latitude":47.608013,"longitude":-122.33517,"reserved":0,"last_update":"0001-01-01T00:00:00Z","name_a2s":"Uncletopia | Seattle | 2 | All Maps","protocol":17,"map":"cp_gorge","folder":"tf","game":"Team Fortress","app_id":440,"player_count":24,"max_players":24,"Bots":0,"server_type":"Dedicated","server_os":"Linux","password":true,"vac":true,"version":"7882260","steam_id":85568392924469998,"keywords":["cp","nocrits","nodmgspread","uncletopia"],"game_id":440,"stv_port":27026,"stv_name":"Uncletopia | Seattle | 2 | All Maps | STV","players":[{"user_id":249,"name":"laggy mcstab","steam_id":76561198106379962,"connected_time":668000000000,"state":"active","ping":55},{"user_id":253,"name":"Greskrendtregk","steam_id":76561197969553142,"connected_time":330000000000,"state":"active","ping":48},{"user_id":238,"name":"Eraser cat","steam_id":76561199045570463,"connected_time":1468000000000,"state":"active","ping":43},{"user_id":217,"name":"Jacobzeba01","steam_id":76561198131808718,"connected_time":4063000000000,"state":"active","ping":59},{"user_id":229,"name":"soup","steam_id":76561198043209046,"connected_time":2571000000000,"state":"active","ping":76},{"user_id":30,"name":"knot quite","steam_id":76561198042913843,"connected_time":16576000000000,"state":"active","ping":60},{"user_id":252,"name":"Vagrant","steam_id":76561198242536886,"connected_time":378000000000,"state":"active","ping":90},{"user_id":254,"name":"dabri88","steam_id":76561198103645497,"connected_time":320000000000,"state":"active","ping":105},{"user_id":244,"name":"♦Benji♦","steam_id":76561198313529973,"connected_time":1071000000000,"state":"active","ping":46},{"user_id":247,"name":"The dreaded jar","steam_id":76561199087010656,"connected_time":740000000000,"state":"active","ping":61},{"user_id":220,"name":"Ranger","steam_id":76561198829369360,"connected_time":3755000000000,"state":"active","ping":119},{"user_id":250,"name":"Owl Of Delos","steam_id":76561198437116566,"connected_time":549000000000,"state":"active","ping":64},{"user_id":251,"name":"Morse","steam_id":76561198039944542,"connected_time":538000000000,"state":"active","ping":45},{"user_id":120,"name":"Flores","steam_id":76561198106938500,"connected_time":10534000000000,"state":"active","ping":80},{"user_id":230,"name":"Y2K","steam_id":76561199191855486,"connected_time":2536000000000,"state":"active","ping":38},{"user_id":237,"name":"Big G","steam_id":76561198053279911,"connected_time":1755000000000,"state":"active","ping":48},{"user_id":243,"name":"Mico (Mico)","steam_id":76561198125462953,"connected_time":1110000000000,"state":"active","ping":45},{"user_id":207,"name":"Unlock The Shock (She/They)","steam_id":76561198823616667,"connected_time":5065000000000,"state":"active","ping":108},{"user_id":192,"name":"oo","steam_id":76561198119626492,"connected_time":6043000000000,"state":"active","ping":92},{"user_id":255,"name":"Thaatsovietguy","steam_id":76561199262265522,"connected_time":249000000000,"state":"active","ping":58},{"user_id":258,"name":"MeatShield 2000","steam_id":76561199375192850,"connected_time":113000000000,"state":"active","ping":100},{"user_id":240,"name":"MrRojan","steam_id":76561197993760849,"connected_time":1433000000000,"state":"active","ping":66},{"user_id":236,"name":"nuh uh","steam_id":76561198413839489,"connected_time":1943000000000,"state":"active","ping":61},{"user_id":257,"name":"ColSnugglebugs","steam_id":76561197997121141,"connected_time":221000000000,"state":"active","ping":63}]},{"server_id":406,"name":"Uncletopia | Seattle | 3 | Stopwatch Beta","name_short":"sea-3","host":"sea-1.us.uncletopia.com","port":27035,"enabled":true,"region":"us-west","cc":"us","latitude":47.608013,"longitude":-122.33517,"reserved":0,"last_update":"0001-01-01T00:00:00Z","name_a2s":"Uncletopia | Seattle | 3 | Stopwatch Beta","protocol":17,"map":"workshop/koth_ramjam_rc1.ugc459778887","folder":"tf","game":"Team Fortress","app_id":440,"player_count":0,"max_players":24,"Bots":0,"server_type":"Dedicated","server_os":"Linux","password":true,"vac":true,"version":"7882260","steam_id":85568392924515217,"keywords":["cp","nocrits","nodmgspread","uncletopia"],"game_id":440,"stv_port":27036,"stv_name":"Uncletopia | Seattle | 3 | Stopwatch Beta | STV","players":null},{"server_id":17,"name":"Uncletopia | San Francisco | 1 | All Maps","name_short":"sfo-1","host":"sfo-1.us.uncletopia.com","port":27015,"enabled":true,"region":"us-west","cc":"us","latitude":37.77397,"longitude":-122.4313,"reserved":0,"last_update":"0001-01-01T00:00:00Z","name_a2s":"Uncletopia | San Francisco | 1 | All Maps","protocol":17,"map":"koth_king","folder":"tf","game":"Team Fortress","app_id":440,"player_count":22,"max_players":24,"Bots":0,"server_type":"Dedicated","server_os":"Linux","password":true,"vac":true,"version":"7882260","steam_id":85568392924469999,"keywords":["cp","nocrits","nodmgspread","uncletopia"],"game_id":440,"stv_port":27016,"stv_name":"Uncletopia | San Francisco | 1 | All Maps | STV","players":[{"user_id":26,"name":"Alkimia","steam_id":76561198385763137,"connected_time":2461000000000,"state":"active","ping":105},{"user_id":59,"name":"DEQUAVIS","steam_id":76561198843060075,"connected_time":465000000000,"state":"active","ping":62},{"user_id":62,"name":"ikaes","steam_id":76561198834496029,"connected_time":380000000000,"state":"active","ping":113},{"user_id":21,"name":"hypo","steam_id":76561198062479158,"connected_time":3282000000000,"state":"active","ping":73},{"user_id":23,"name":"DawnNannas","steam_id":76561198042915117,"connected_time":2830000000000,"state":"active","ping":95},{"user_id":32,"name":"Morgan","steam_id":76561199224141679,"connected_time":1890000000000,"state":"active","ping":43},{"user_id":30,"name":"rxea","steam_id":76561198868168910,"connected_time":2138000000000,"state":"active","ping":58},{"user_id":35,"name":"lucwasa14","steam_id":76561199025617634,"connected_time":1756000000000,"state":"active","ping":117},{"user_id":61,"name":"snowcreeper09","steam_id":76561198191154391,"connected_time":391000000000,"state":"active","ping":111},{"user_id":40,"name":"Elite_Friendly","steam_id":76561198819972127,"connected_time":1386000000000,"state":"active","ping":83},{"user_id":41,"name":"Flyingcat9000","steam_id":76561198179561797,"connected_time":1312000000000,"state":"active","ping":44},{"user_id":42,"name":"Frog","steam_id":76561198093257083,"connected_time":1311000000000,"state":"active","ping":60},{"user_id":43,"name":"Toad :)","steam_id":76561198163008022,"connected_time":1311000000000,"state":"active","ping":59},{"user_id":44,"name":"Carthage (TRANSRIGHTS)","steam_id":76561198049001571,"connected_time":1244000000000,"state":"active","ping":90},{"user_id":45,"name":"SiskoSenpai","steam_id":76561198053701833,"connected_time":1230000000000,"state":"active","ping":62},{"user_id":46,"name":"GreenDarkSteel","steam_id":76561198274523413,"connected_time":1217000000000,"state":"active","ping":69},{"user_id":47,"name":"Avem","steam_id":76561198058763710,"connected_time":1213000000000,"state":"active","ping":46},{"user_id":57,"name":"Balls Insurance","steam_id":76561198005860388,"connected_time":654000000000,"state":"active","ping":56},{"user_id":50,"name":"chocky","steam_id":76561198057491296,"connected_time":1155000000000,"state":"active","ping":60},{"user_id":58,"name":"how do i control my guy?","steam_id":76561198158855211,"connected_time":515000000000,"state":"active","ping":66},{"user_id":55,"name":"Peeky","steam_id":76561198049656090,"connected_time":831000000000,"state":"active","ping":58},{"user_id":53,"name":"Lord Avoc","steam_id":76561198220262416,"connected_time":1057000000000,"state":"active","ping":77}]},{"server_id":18,"name":"Uncletopia | San Francisco | 2 | All Maps","name_short":"sfo-2","host":"sfo-1.us.uncletopia.com","port":27025,"enabled":true,"region":"us-west","cc":"us","latitude":37.77397,"longitude":-122.4313,"reserved":0,"last_update":"0001-01-01T00:00:00Z","name_a2s":"Uncletopia | San Francisco | 2 | All Maps","protocol":17,"map":"cp_mountainlab","folder":"tf","game":"Team Fortress","app_id":440,"player_count":0,"max_players":24,"Bots":0,"server_type":"Dedicated","server_os":"Linux","password":true,"vac":true,"version":"7882260","steam_id":85568392924470000,"keywords":["cp","nocrits","nodmgspread","uncletopia"],"game_id":440,"stv_port":27026,"stv_name":"Uncletopia | San Francisco | 2 | All Maps | STV","players":null},{"server_id":19,"name":"Uncletopia | San Francisco | 3 | Stopwatch Beta","name_short":"sfo-3","host":"sfo-1.us.uncletopia.com","port":27035,"enabled":true,"region":"us-west","cc":"us","latitude":37.77397,"longitude":-122.4313,"reserved":0,"last_update":"0001-01-01T00:00:00Z","name_a2s":"Uncletopia | San Francisco | 3 | Stopwatch Beta","protocol":17,"map":"pl_frontier_final","folder":"tf","game":"Team Fortress","app_id":440,"player_count":0,"max_players":24,"Bots":0,"server_type":"Dedicated","server_os":"Linux","password":true,"vac":true,"version":"7882260","steam_id":85568392924742824,"keywords":["nocrits","nodmgspread","payload","uncletopia"],"game_id":440,"stv_port":27036,"stv_name":"Uncletopia | San Francisco | 3 | Stopwatch Beta | STV","players":null},{"server_id":20,"name":"Uncletopia | San Francisco | 4 | Community","name_short":"sfo-4","host":"sfo-1.us.uncletopia.com","port":27045,"enabled":true,"region":"us-west","cc":"us","latitude":37.77397,"longitude":-122.4313,"reserved":0,"last_update":"0001-01-01T00:00:00Z","name_a2s":"Uncletopia | San Francisco | 4 | Community","protocol":17,"map":"workshop/koth_bagel_rc6.ugc2514036946","folder":"tf","game":"Team Fortress","app_id":440,"player_count":0,"max_players":24,"Bots":0,"server_type":"Dedicated","server_os":"Linux","password":true,"vac":true,"version":"7882260","steam_id":85568392924742826,"keywords":["cp","nocrits","nodmgspread","uncletopia"],"game_id":440,"stv_port":27046,"stv_name":"Uncletopia | San Francisco | 4 | Community | STV","players":null},{"server_id":141,"name":"Uncletopia | Sydney | 1 | All Maps","name_short":"syd-1","host":"syd-1.au.uncletopia.com","port":27015,"enabled":true,"region":"au","cc":"au","latitude":-33.865143,"longitude":151.2099,"reserved":0,"last_update":"0001-01-01T00:00:00Z","name_a2s":"Uncletopia | Sydney | 1 | All Maps","protocol":17,"map":"cp_freight_final1","folder":"tf","game":"Team Fortress","app_id":440,"player_count":1,"max_players":24,"Bots":0,"server_type":"Dedicated","server_os":"Linux","password":true,"vac":true,"version":"7882260","steam_id":85568392924470001,"keywords":["cp","nocrits","nodmgspread","uncletopia"],"game_id":440,"stv_port":27016,"stv_name":"Uncletopia | Sydney | 1 | All Maps | STV","players":[{"user_id":458,"name":"vuhoangquan6a12","steam_id":76561199448875702,"connected_time":220000000000,"state":"active","ping":191}]},{"server_id":123,"name":"Uncletopia | Sydney | 2 | All Maps","name_short":"syd-2","host":"syd-1.au.uncletopia.com","port":27025,"enabled":true,"region":"au","cc":"au","latitude":-33.865143,"longitude":151.2099,"reserved":0,"last_update":"0001-01-01T00:00:00Z","name_a2s":"Uncletopia | Sydney | 2 | All Maps","protocol":17,"map":"koth_highpass","folder":"tf","game":"Team Fortress","app_id":440,"player_count":0,"max_players":24,"Bots":0,"server_type":"Dedicated","server_os":"Linux","password":true,"vac":true,"version":"7882260","steam_id":85568392924470002,"keywords":["cp","nocrits","nodmgspread","uncletopia"],"game_id":440,"stv_port":27026,"stv_name":"Uncletopia | Sydney | 2 | All Maps | STV","players":null},{"server_id":395,"name":"Uncletopia | Sydney | 3 | All Maps","name_short":"syd-3","host":"syd-1.au.uncletopia.com","port":27035,"enabled":true,"region":"au","cc":"au","latitude":-33.865143,"longitude":151.2099,"reserved":0,"last_update":"0001-01-01T00:00:00Z","name_a2s":"Uncletopia | Sydney | 3 | All Maps","protocol":17,"map":"pl_badwater","folder":"tf","game":"Team Fortress","app_id":440,"player_count":0,"max_players":24,"Bots":0,"server_type":"Dedicated","server_os":"Linux","password":true,"vac":true,"version":"7882260","steam_id":85568392925194467,"keywords":["nocrits","nodmgspread","payload","uncletopia"],"game_id":440,"stv_port":27036,"stv_name":"Uncletopia | Sydney | 3 | All Maps | STV","players":null},{"server_id":396,"name":"Uncletopia | Sydney | 4 | All Maps","name_short":"syd-4","host":"syd-1.au.uncletopia.com","port":27045,"enabled":true,"region":"au","cc":"au","latitude":-33.865143,"longitude":151.2099,"reserved":0,"last_update":"0001-01-01T00:00:00Z","name_a2s":"Uncletopia | Sydney | 4 | All Maps","protocol":17,"map":"pl_swiftwater_final1","folder":"tf","game":"Team Fortress","app_id":440,"player_count":0,"max_players":24,"Bots":0,"server_type":"Dedicated","server_os":"Linux","password":true,"vac":true,"version":"7882260","steam_id":85568392925397958,"keywords":["nocrits","nodmgspread","payload","uncletopia"],"game_id":440,"stv_port":27046,"stv_name":"Uncletopia | Sydney | 4 | All Maps | STV","players":null},{"server_id":58,"name":"Uncletopia | Sydney | 5 | Stopwatch Beta","name_short":"syd-5","host":"syd-1.au.uncletopia.com","port":27055,"enabled":true,"region":"au","cc":"au","latitude":-33.865143,"longitude":151.2099,"reserved":0,"last_update":"0001-01-01T00:00:00Z","name_a2s":"Uncletopia | Sydney | 5 | Stopwatch Beta","protocol":17,"map":"workshop/pl_vigil_rc9.ugc1266210012","folder":"tf","game":"Team Fortress","app_id":440,"player_count":0,"max_players":24,"Bots":0,"server_type":"Dedicated","server_os":"Linux","password":true,"vac":true,"version":"7882260","steam_id":85568392925397959,"keywords":["nocrits","nodmgspread","payload","uncletopia"],"game_id":440,"stv_port":27056,"stv_name":"Uncletopia | Sydney | 5 | Stopwatch Beta | STV","players":null},{"server_id":59,"name":"Uncletopia | Sydney | 6 | Community","name_short":"syd-6","host":"syd-1.au.uncletopia.com","port":27065,"enabled":true,"region":"au","cc":"au","latitude":-33.865143,"longitude":151.2099,"reserved":0,"last_update":"0001-01-01T00:00:00Z","name_a2s":"Uncletopia | Sydney | 6 | Community","protocol":17,"map":"pl_snowycoast","folder":"tf","game":"Team Fortress","app_id":440,"player_count":0,"max_players":24,"Bots":0,"server_type":"Dedicated","server_os":"Linux","password":true,"vac":true,"version":"7882260","steam_id":85568392925397960,"keywords":["nocrits","nodmgspread","payload","uncletopia"],"game_id":440,"stv_port":27066,"stv_name":"Uncletopia | Sydney | 6 | Community | STV","players":null},{"server_id":49,"name":"Uncletopia | Warsaw | 1 | All Maps","name_short":"waw-1","host":"waw-1.pl.uncletopia.com","port":27015,"enabled":true,"region":"eu","cc":"pl","latitude":52.2297,"longitude":21.017532,"reserved":0,"last_update":"0001-01-01T00:00:00Z","name_a2s":"","protocol":0,"map":"","folder":"","game":"","app_id":0,"player_count":0,"max_players":0,"Bots":0,"server_type":"","server_os":"","password":false,"vac":false,"version":"","steam_id":0,"keywords":null,"game_id":0,"stv_port":0,"stv_name":"","players":null},{"server_id":50,"name":"Uncletopia | Warsaw | 2 | All Maps","name_short":"waw-2","host":"waw-1.pl.uncletopia.com","port":27025,"enabled":true,"region":"eu","cc":"pl","latitude":52.2297,"longitude":21.017532,"reserved":0,"last_update":"0001-01-01T00:00:00Z","name_a2s":"Uncletopia | Warsaw | 2 | All Maps","protocol":17,"map":"cp_snakewater_final1","folder":"tf","game":"Team Fortress","app_id":440,"player_count":0,"max_players":24,"Bots":0,"server_type":"Dedicated","server_os":"Linux","password":true,"vac":true,"version":"7882260","steam_id":85568392925397851,"keywords":["cp","nocrits","nodmgspread","uncletopia"],"game_id":440,"stv_port":27026,"stv_name":"Uncletopia | Warsaw | 2 | All Maps | STV","players":null},{"server_id":51,"name":"Uncletopia | Warsaw | 3 | All Maps","name_short":"waw-3","host":"waw-1.pl.uncletopia.com","port":27035,"enabled":true,"region":"eu","cc":"pl","latitude":52.2297,"longitude":21.017532,"reserved":0,"last_update":"0001-01-01T00:00:00Z","name_a2s":"Uncletopia | Warsaw | 3 | All Maps","protocol":17,"map":"koth_viaduct","folder":"tf","game":"Team Fortress","app_id":440,"player_count":2,"max_players":24,"Bots":0,"server_type":"Dedicated","server_os":"Linux","password":true,"vac":true,"version":"7882260","steam_id":85568392925397852,"keywords":["cp","nocrits","nodmgspread","uncletopia"],"game_id":440,"stv_port":27036,"stv_name":"Uncletopia | Warsaw | 3 | All Maps | STV","players":[{"user_id":18,"name":"Kiz","steam_id":76561198811732820,"connected_time":167000000000,"state":"active","ping":91},{"user_id":19,"name":"DicyPicky","steam_id":76561198078873335,"connected_time":152000000000,"state":"active","ping":73}]},{"server_id":52,"name":"Uncletopia | Warsaw | 4 | All Maps","name_short":"waw-4","host":"waw-1.pl.uncletopia.com","port":27045,"enabled":true,"region":"eu","cc":"pl","latitude":52.2297,"longitude":21.017532,"reserved":0,"last_update":"0001-01-01T00:00:00Z","name_a2s":"Uncletopia | Warsaw | 4 | All Maps","protocol":17,"map":"koth_cascade","folder":"tf","game":"Team Fortress","app_id":440,"player_count":0,"max_players":24,"Bots":0,"server_type":"Dedicated","server_os":"Linux","password":true,"vac":true,"version":"7882260","steam_id":85568392925397853,"keywords":["cp","nocrits","nodmgspread","uncletopia"],"game_id":440,"stv_port":27046,"stv_name":"Uncletopia | Warsaw | 4 | All Maps | STV","players":null},{"server_id":53,"name":"Uncletopia | Warsaw | 5 | Stopwatch Beta","name_short":"waw-5","host":"waw-1.pl.uncletopia.com","port":27055,"enabled":true,"region":"eu","cc":"pl","latitude":52.2297,"longitude":21.017532,"reserved":0,"last_update":"0001-01-01T00:00:00Z","name_a2s":"Uncletopia | Warsaw | 5 | Stopwatch Beta","protocol":17,"map":"cp_mountainlab","folder":"tf","game":"Team Fortress","app_id":440,"player_count":0,"max_players":24,"Bots":0,"server_type":"Dedicated","server_os":"Linux","password":true,"vac":true,"version":"7882260","steam_id":85568392925397854,"keywords":["cp","nocrits","nodmgspread","uncletopia"],"game_id":440,"stv_port":27056,"stv_name":"Uncletopia | Warsaw | 5 | Stopwatch Beta | STV","players":null},{"server_id":54,"name":"Uncletopia | Warsaw | 6 | Community","name_short":"waw-6","host":"waw-1.pl.uncletopia.com","port":27065,"enabled":true,"region":"eu","cc":"pl","latitude":52.2297,"longitude":21.017532,"reserved":0,"last_update":"0001-01-01T00:00:00Z","name_a2s":"Uncletopia | Warsaw | 6 | Community","protocol":17,"map":"workshop/cp_indulge.ugc528106646","folder":"tf","game":"Team Fortress","app_id":440,"player_count":0,"max_players":24,"Bots":0,"server_type":"Dedicated","server_os":"Linux","password":true,"vac":true,"version":"7882260","steam_id":85568392925397856,"keywords":["cp","nocrits","nodmgspread","uncletopia"],"game_id":440,"stv_port":27066,"stv_name":"Uncletopia | Warsaw | 6 | Community | STV","players":null}]}