{"status":true,"message":"","result":[{"server_id":9,"name":"Uncletopia | Atlanta | 1 | All Maps","name_short":"atl-1","host":"atl-1.us.uncletopia.com","port":27015,"enabled":true,"region":"us-east","cc":"us","latitude":33.753746,"longitude":-84.38633,"reserved":0,"last_update":"0001-01-01T00:00:00Z","name_a2s":"Uncletopia | Atlanta | 1 | All Maps","protocol":17,"map":"cp_snakewater_final1","folder":"tf","game":"Team Fortress","app_id":440,"player_count":24,"max_players":24,"Bots":0,"server_type":"Dedicated","server_os":"Linux","password":true,"vac":true,"version":"7708610","steam_id":85568392924469982,"keywords":["cp","nocrits","nodmgspread","uncletopia"],"game_id":440,"stv_port":27016,"stv_name":"Uncletopia | Atlanta | 1 | All Maps | STV","players":[{"user_id":581,"name":"Poverty's Finest","steam_id":76561198127704044,"connected_time":742000000000,"state":"active","ping":65},{"user_id":471,"name":"i have a gun","steam_id":76561198016121536,"connected_time":11641000000000,"state":"active","ping":90},{"user_id":565,"name":"hazelsnail","steam_id":76561198862764679,"connected_time":2296000000000,"state":"active","ping":77},{"user_id":550,"name":"♡Alyx♡","steam_id":76561198024303978,"connected_time":3838000000000,"state":"active","ping":58},{"user_id":566,"name":"Boop","steam_id":76561198376703875,"connected_time":2121000000000,"state":"active","ping":67},{"user_id":575,"name":"Megadesk","steam_id":76561198078219641,"connected_time":941000000000,"state":"active","ping":78},{"user_id":510,"name":"--_Cook_--","steam_id":76561198080855748,"connected_time":8816000000000,"state":"active","ping":46},{"user_id":567,"name":"Devoid","steam_id":76561198254039012,"connected_time":2097000000000,"state":"active","ping":51},{"user_id":574,"name":"PyroToaster","steam_id":76561198053057346,"connected_time":1077000000000,"state":"active","ping":74},{"user_id":546,"name":"mommy grinch","steam_id":76561199230929836,"connected_time":4450000000000,"state":"active","ping":108},{"user_id":524,"name":"C papi","steam_id":76561198027779564,"connected_time":8244000000000,"state":"active","ping":52},{"user_id":569,"name":"Gerald Jay Sussman","steam_id":76561198114515026,"connected_time":1974000000000,"state":"active","ping":77},{"user_id":558,"name":"Chrisscar","steam_id":76561198086298130,"connected_time":2610000000000,"state":"active","ping":96},{"user_id":583,"name":"كندوز","steam_id":76561198326987939,"connected_time":436000000000,"state":"active","ping":71},{"user_id":584,"name":"cheetaz","steam_id":76561198224614084,"connected_time":158000000000,"state":"active","ping":75},{"user_id":579,"name":"BERBBLES","steam_id":76561198815107994,"connected_time":888000000000,"state":"active","ping":70},{"user_id":582,"name":"ATL1 | Lav4ie They/Them","steam_id":76561198825997674,"connected_time":691000000000,"state":"active","ping":70},{"user_id":522,"name":"ATL1 | eish","steam_id":76561198089463603,"connected_time":8561000000000,"state":"active","ping":118},{"user_id":561,"name":"abomination","steam_id":76561198167974713,"connected_time":2584000000000,"state":"active","ping":54},{"user_id":483,"name":"sansa musa","steam_id":76561198163723555,"connected_time":11527000000000,"state":"active","ping":75},{"user_id":570,"name":"snoops","steam_id":76561197986760351,"connected_time":1970000000000,"state":"active","ping":83},{"user_id":548,"name":"owlbortch","steam_id":76561198042849350,"connected_time":3935000000000,"state":"active","ping":63},{"user_id":518,"name":"Tommy Pickles (Very Cool)","steam_id":76561198391261463,"connected_time":8733000000000,"state":"active","ping":86},{"user_id":559,"name":"Spy_Is_Pye","steam_id":76561199439622967,"connected_time":2609000000000,"state":"active","ping":82}]},{"server_id":400,"name":"Uncletopia | Atlanta | 3 | All Maps","name_short":"atl-3","host":"atl-1.us.uncletopia.com","port":27035,"enabled":true,"region":"us-east","cc":"us","latitude":33.753746,"longitude":-84.38633,"reserved":0,"last_update":"0001-01-01T00:00:00Z","name_a2s":"Uncletopia | Atlanta | 3 | All Maps","protocol":17,"map":"koth_viaduct","folder":"tf","game":"Team Fortress","app_id":440,"player_count":0,"max_players":24,"Bots":0,"server_type":"Dedicated","server_os":"Linux","password":true,"vac":true,"version":"7708610","steam_id":85568392924515187,"keywords":["cp","nocrits","nodmgspread","uncletopia"],"game_id":440,"stv_port":27036,"stv_name":"Uncletopia | Atlanta | 3 | All Maps | STV","players":null},{"server_id":401,"name":"Uncletopia | Atlanta | 4 | No Payload","name_short":"atl-4","host":"atl-1.us.uncletopia.com","port":27045,"enabled":true,"region":"us-east","cc":"us","latitude":33.753746,"longitude":-84.38633,"reserved":0,"last_update":"0001-01-01T00:00:00Z","name_a2s":"Uncletopia | Atlanta | 4 | No Payload","protocol":17,"map":"koth_sawmill","folder":"tf","game":"Team Fortress","app_id":440,"player_count":0,"max_players":24,"Bots":0,"server_type":"Dedicated","server_os":"Linux","password":true,"vac":true,"version":"7708610","steam_id":85568392924515188,"keywords":["cp","nocrits","nodmgspread","uncletopia"],"game_id":440,"stv_port":27046,"stv_name":"Uncletopia | Atlanta | 4 | No Payload | STV","players":null},{"server_id":2,"name":"Uncletopia | Chicago | 1 | All Maps","name_short":"chi-1","host":"chi-1.us.uncletopia.com","port":27015,"enabled":true,"region":"us-central","cc":"us","latitude":41.881832,"longitude":-87.62318,"reserved":0,"last_update":"0001-01-01T00:00:00Z","name_a2s":"Uncletopia | Chicago | 1 | All Maps","protocol":17,"map":"pl_goldrush","folder":"tf","game":"Team Fortress","app_id":440,"player_count":24,"max_players":24,"Bots":0,"server_type":"Dedicated","server_os":"Linux","password":true,"vac":true,"version":"7708610","steam_id":85568392924469984,"keywords":["nocrits","nodmgspread","payload","uncletopia"],"game_id":440,"stv_port":27016,"stv_name":"Uncletopia | Chicago | 1 | All Maps | STV","players":[{"user_id":686,"name":"fuckterry","steam_id":76561198271957738,"connected_time":1780000000000,"state":"active","ping":70},{"user_id":654,"name":"023e20902o0239ee02390o239e","steam_id":76561198175741741,"connected_time":4442000000000,"state":"active","ping":78},{"user_id":684,"name":"debin","steam_id":76561198070711217,"connected_time":1865000000000,"state":"active","ping":73},{"user_id":690,"name":"BubbaJunior77","steam_id":76561198036168713,"connected_time":1427000000000,"state":"active","ping":60},{"user_id":707,"name":"iono gaming","steam_id":76561198082696042,"connected_time":217000000000,"state":"active","ping":66},{"user_id":704,"name":"richard clock","steam_id":76561198048455671,"connected_time":725000000000,"state":"active","ping":55},{"user_id":699,"name":"Antifa Alligator","steam_id":76561197988170816,"connected_time":907000000000,"state":"active","ping":56},{"user_id":693,"name":"Yukon Cornelius","steam_id":76561198261512781,"connected_time":1330000000000,"state":"active","ping":64},{"user_id":646,"name":"Donnie Blasto","steam_id":76561198043432005,"connected_time":5246000000000,"state":"active","ping":55},{"user_id":700,"name":"gasparmx","steam_id":76561197998611994,"connected_time":864000000000,"state":"active","ping":110},{"user_id":708,"name":"SE X","steam_id":76561198094525829,"connected_time":141000000000,"state":"active","ping":69},{"user_id":688,"name":"Mixolydia","steam_id":76561198058998371,"connected_time":1646000000000,"state":"active","ping":63},{"user_id":656,"name":"Caboom","steam_id":76561198040221007,"connected_time":4335000000000,"state":"active","ping":90},{"user_id":687,"name":"The_Quiet_One","steam_id":76561198132476501,"connected_time":1779000000000,"state":"active","ping":48},{"user_id":692,"name":"AG-67","steam_id":76561199076768002,"connected_time":1378000000000,"state":"active","ping":82},{"user_id":694,"name":"*literally heresy*","steam_id":76561198129718241,"connected_time":1327000000000,"state":"active","ping":71},{"user_id":706,"name":"gabinator32","steam_id":76561198872467183,"connected_time":396000000000,"state":"active","ping":47},{"user_id":695,"name":"Puppycino3637","steam_id":76561198212126544,"connected_time":1321000000000,"state":"active","ping":102},{"user_id":681,"name":"boo_thefeared","steam_id":76561198127967685,"connected_time":2124000000000,"state":"active","ping":144},{"user_id":682,"name":"Bo","steam_id":76561199120426986,"connected_time":2057000000000,"state":"active","ping":58},{"user_id":677,"name":"Whorenet","steam_id":76561198090433209,"connected_time":2319000000000,"state":"active","ping":90},{"user_id":701,"name":"Triple Lizard","steam_id":76561198188459654,"connected_time":847000000000,"state":"active","ping":80},{"user_id":697,"name":"craxy","steam_id":76561199034484160,"connected_time":1277000000000,"state":"active","ping":57},{"user_id":702,"name":"slep.py","steam_id":76561197988287144,"connected_time":846000000000,"state":"active","ping":57}]},{"server_id":106,"name":"Uncletopia | Chicago | 2 | All Maps","name_short":"chi-2","host":"chi-1.us.uncletopia.com","port":27025,"enabled":true,"region":"us-central","cc":"us","latitude":41.881832,"longitude":-87.62318,"reserved":0,"last_update":"0001-01-01T00:00:00Z","name_a2s":"Uncletopia | Chicago | 2 | All Maps","protocol":17,"map":"koth_cascade","folder":"tf","game":"Team Fortress","app_id":440,"player_count":23,"max_players":24,"Bots":0,"server_type":"Dedicated","server_os":"Linux","password":true,"vac":true,"version":"7708610","steam_id":85568392924469985,"keywords":["cp","nocrits","nodmgspread","uncletopia"],"game_id":440,"stv_port":27026,"stv_name":"Uncletopia | Chicago | 2 | All Maps | STV","players":[{"user_id":462,"name":"RingsOverElevens","steam_id":76561198143467601,"connected_time":689000000000,"state":"active","ping":74},{"user_id":435,"name":"OneTrueCorvid","steam_id":76561199012953221,"connected_time":1694000000000,"state":"active","ping":86},{"user_id":455,"name":"JustSomeInternetGuy","steam_id":76561199066037843,"connected_time":898000000000,"state":"active","ping":68},{"user_id":406,"name":"Piyono","steam_id":76561197962188504,"connected_time":3439000000000,"state":"active","ping":62},{"user_id":456,"name":"beep","steam_id":76561199096448766,"connected_time":868000000000,"state":"active","ping":74},{"user_id":459,"name":"kefkja","steam_id":76561198283963218,"connected_time":747000000000,"state":"active","ping":45},{"user_id":458,"name":"Michaelpc1","steam_id":76561198088365519,"connected_time":826000000000,"state":"active","ping":74},{"user_id":451,"name":"Rudy","steam_id":76561198013456828,"connected_time":1198000000000,"state":"active","ping":67},{"user_id":436,"name":"Van","steam_id":76561198073518712,"connected_time":1693000000000,"state":"active","ping":61},{"user_id":442,"name":"medic enthusiast","steam_id":76561198323031964,"connected_time":1536000000000,"state":"active","ping":83},{"user_id":444,"name":"Shwal","steam_id":76561198138840448,"connected_time":1490000000000,"state":"active","ping":85},{"user_id":428,"name":"math","steam_id":76561198092542997,"connected_time":2222000000000,"state":"active","ping":62},{"user_id":445,"name":"amagicowl","steam_id":76561199060487814,"connected_time":1462000000000,"state":"active","ping":82},{"user_id":437,"name":"CthUwU","steam_id":76561198036541581,"connected_time":1678000000000,"state":"active","ping":79},{"user_id":464,"name":"PintoVero","steam_id":76561198088369252,"connected_time":38000000000,"state":"active","ping":58},{"user_id":460,"name":"Lux E Tenebris","steam_id":76561198072664199,"connected_time":736000000000,"state":"active","ping":46},{"user_id":461,"name":"BreadBug","steam_id":76561198797355574,"connected_time":719000000000,"state":"active","ping":63},{"user_id":446,"name":"AkimboAoki","steam_id":76561198158323058,"connected_time":1442000000000,"state":"active","ping":95},{"user_id":447,"name":"a crazy hobo","steam_id":76561198289650060,"connected_time":1425000000000,"state":"active","ping":88},{"user_id":423,"name":"Money Collector","steam_id":76561198046249467,"connected_time":2407000000000,"state":"active","ping":55},{"user_id":453,"name":"damianluck925","steam_id":76561197962607364,"connected_time":1080000000000,"state":"active","ping":74},{"user_id":463,"name":"doctor watermelon","steam_id":76561198249799046,"connected_time":427000000000,"state":"active","ping":89},{"user_id":450,"name":"Terry Bogard's beefin 12 inch","steam_id":76561198371133385,"connected_time":1311000000000,"state":"active","ping":73}]},{"server_id":402,"name":"Uncletopia | Chicago | 3 | All Maps","name_short":"chi-3","host":"chi-1.us.uncletopia.com","port":27035,"enabled":true,"region":"us-central","cc":"us","latitude":41.881832,"longitude":-87.62318,"reserved":0,"last_update":"0001-01-01T00:00:00Z","name_a2s":"Uncletopia | Chicago | 3 | All Maps","protocol":17,"map":"pl_upward","folder":"tf","game":"Team Fortress","app_id":440,"player_count":23,"max_players":24,"Bots":0,"server_type":"Dedicated","server_os":"Linux","password":true,"vac":true,"version":"7708610","steam_id":85568392924515191,"keywords":["nocrits","nodmgspread","payload","uncletopia"],"game_id":440,"stv_port":27036,"stv_name":"Uncletopia | Chicago | 3 | All Maps | STV","players":[{"user_id":353,"name":"hemispherectomy","steam_id":76561198119178364,"connected_time":2054000000000,"state":"active","ping":77},{"user_id":316,"name":"Ace Chromatica","steam_id":76561198042211131,"connected_time":4872000000000,"state":"active","ping":56},{"user_id":345,"name":"a table","steam_id":76561198158461279,"connected_time":3105000000000,"state":"active","ping":64},{"user_id":308,"name":"Kyaaaaa!!!","steam_id":76561198066384337,"connected_time":5297000000000,"state":"active","ping":52},{"user_id":366,"name":"Kipernicus","steam_id":76561197998180212,"connected_time":1150000000000,"state":"active","ping":50},{"user_id":373,"name":"Merry Matches_","steam_id":76561198048925904,"connected_time":385000000000,"state":"active","ping":105},{"user_id":348,"name":"Avi","steam_id":76561198132127985,"connected_time":2697000000000,"state":"active","ping":60},{"user_id":357,"name":"SeaBass","steam_id":76561198278914206,"connected_time":1828000000000,"state":"active","ping":106},{"user_id":377,"name":"NUt","steam_id":76561198031007966,"connected_time":90000000000,"state":"active","ping":54},{"user_id":350,"name":"Gay Cake","steam_id":76561198004388831,"connected_time":2136000000000,"state":"active","ping":61},{"user_id":363,"name":"Ignatius J. Reilly","steam_id":76561198026393621,"connected_time":1743000000000,"state":"active","ping":78},{"user_id":352,"name":"honked off the bobo","steam_id":76561198123287268,"connected_time":2109000000000,"state":"active","ping":45},{"user_id":368,"name":"Jon Snuh","steam_id":76561198075298635,"connected_time":1098000000000,"state":"active","ping":66},{"user_id":367,"name":"Gator","steam_id":76561198185982730,"connected_time":1117000000000,"state":"active","ping":61},{"user_id":365,"name":"a soul must somehow strive","steam_id":76561198096806703,"connected_time":1265000000000,"state":"active","ping":72},{"user_id":371,"name":"pie gaming","steam_id":76561198072592880,"connected_time":562000000000,"state":"active","ping":40},{"user_id":372,"name":"Slumpest Duckest","steam_id":76561198170170606,"connected_time":438000000000,"state":"active","ping":50},{"user_id":378,"name":"boxagon","steam_id":76561198307845869,"connected_time":65000000000,"state":"active","ping":70},{"user_id":329,"name":"Medic","steam_id":76561198067869016,"connected_time":4535000000000,"state":"active","ping":44},{"user_id":359,"name":"Femcel Fornicator","steam_id":76561198336584447,"connected_time":1815000000000,"state":"active","ping":86},{"user_id":360,"name":"Lone Dancer","steam_id":76561199096241116,"connected_time":1803000000000,"state":"active","ping":53},{"user_id":361,"name":"jnn","steam_id":76561198078395002,"connected_time":1802000000000,"state":"active","ping":63},{"user_id":364,"name":"Omni Monky","steam_id":76561198083975292,"connected_time":1537000000000,"state":"active","ping":93}]},{"server_id":403,"name":"Uncletopia | Chicago | 4 | All Maps","name_short":"chi-4","host":"chi-1.us.uncletopia.com","port":27045,"enabled":true,"region":"us-central","cc":"us","latitude":41.881832,"longitude":-87.62318,"reserved":0,"last_update":"0001-01-01T00:00:00Z","name_a2s":"Uncletopia | Chicago | 4 | All Maps","protocol":17,"map":"cp_sunshine","folder":"tf","game":"Team Fortress","app_id":440,"player_count":16,"max_players":24,"Bots":0,"server_type":"Dedicated","server_os":"Linux","password":true,"vac":true,"version":"7708610","steam_id":85568392924515193,"keywords":["cp","nocrits","nodmgspread","uncletopia"],"game_id":440,"stv_port":27046,"stv_name":"Uncletopia | Chicago | 4 | All Maps | STV","players":[{"user_id":153,"name":"gorf?","steam_id":76561198142286417,"connected_time":69000000000,"state":"active","ping":70},{"user_id":65,"name":"Divine Mountain of Heaven","steam_id":76561198196793754,"connected_time":8431000000000,"state":"active","ping":73},{"user_id":136,"name":"sheep","steam_id":76561198172943006,"connected_time":1753000000000,"state":"active","ping":45},{"user_id":152,"name":"$$$","steam_id":76561198218897541,"connected_time":91000000000,"state":"active","ping":63},{"user_id":154,"name":"aeon","steam_id":76561198235875882,"connected_time":28000000000,"state":"active","ping":60},{"user_id":151,"name":"ItsGian","steam_id":76561198073108956,"connected_time":414000000000,"state":"active","ping":97},{"user_id":146,"name":"Niitaayis","steam_id":76561198017674458,"connected_time":955000000000,"state":"active","ping":47},{"user_id":144,"name":"Sprinklingmydoughnut","steam_id":76561198168009092,"connected_time":1235000000000,"state":"active","ping":84},{"user_id":132,"name":"Skelitor ✪","steam_id":76561198043885634,"connected_time":1903000000000,"state":"active","ping":60},{"user_id":149,"name":"Menachem","steam_id":76561198041226420,"connected_time":688000000000,"state":"active","ping":46},{"user_id":129,"name":"thecal","steam_id":76561198307893384,"connected_time":2293000000000,"state":"active","ping":60},{"user_id":123,"name":"GAYTRANSCOMMIE.milf","steam_id":76561198044370224,"connected_time":3091000000000,"state":"active","ping":65},{"user_id":140,"name":"balisohng","steam_id":76561198151654107,"connected_time":1705000000000,"state":"active","ping":56},{"user_id":150,"name":"della","steam_id":76561198118877005,"connected_time":619000000000,"state":"active","ping":44},{"user_id":104,"name":"Essentially_Someone","steam_id":76561199435588199,"connected_time":5018000000000,"state":"active","ping":76},{"user_id":145,"name":"ItsDonut","steam_id":76561198862163064,"connected_time":1174000000000,"state":"active","ping":76}]},{"server_id":36,"name":"Uncletopia | Chicago | 5 | All Maps","name_short":"chi-5","host":"chi-2.us.uncletopia.com","port":27015,"enabled":true,"region":"us-central","cc":"us","latitude":41.881832,"longitude":-87.62318,"reserved":0,"last_update":"0001-01-01T00:00:00Z","name_a2s":"Uncletopia | Chicago | 5 | All Maps","protocol":17,"map":"cp_mountainlab","folder":"tf","game":"Team Fortress","app_id":440,"player_count":0,"max_players":24,"Bots":0,"server_type":"Dedicated","server_os":"Linux","password":true,"vac":true,"version":"7708610","steam_id":85568392924866362,"keywords":["cp","nocrits","nodmgspread","uncletopia"],"game_id":440,"stv_port":27016,"stv_name":"Uncletopia | Chicago | 5 | All Maps | STV","players":null},{"server_id":37,"name":"Uncletopia | Chicago | 6 | All Maps","name_short":"chi-6","host":"chi-2.us.uncletopia.com","port":27025,"enabled":true,"region":"us-central","cc":"us","latitude":41.881832,"longitude":-87.62318,"reserved":0,"last_update":"0001-01-01T00:00:00Z","name_a2s":"Uncletopia | Chicago | 6 | All Maps","protocol":17,"map":"pl_upward","folder":"tf","game":"Team Fortress","app_id":440,"player_count":24,"max_players":24,"Bots":0,"server_type":"Dedicated","server_os":"Linux","password":true,"vac":true,"version":"7708610","steam_id":85568392924866363,"keywords":["nocrits","nodmgspread","payload","uncletopia"],"game_id":440,"stv_port":27026,"stv_name":"Uncletopia | Chicago | 6 | All Maps | STV","players":[{"user_id":321,"name":"⛧ AlphaSatanOmega ⛧","steam_id":76561198035125511,"connected_time":506000000000,"state":"active","ping":46},{"user_id":297,"name":"spill","steam_id":76561198082337619,"connected_time":1654000000000,"state":"active","ping":71},{"user_id":306,"name":"pk","steam_id":76561198012945016,"connected_time":1415000000000,"state":"active","ping":46},{"user_id":312,"name":"GooniOoni","steam_id":76561198102154561,"connected_time":1161000000000,"state":"active","ping":47},{"user_id":299,"name":"Questking1","steam_id":76561198328107634,"connected_time":1572000000000,"state":"active","ping":42},{"user_id":263,"name":"Uncle","steam_id":76561197988647705,"connected_time":3711000000000,"state":"active","ping":55},{"user_id":300,"name":"Hobbes","steam_id":76561198119447181,"connected_time":1564000000000,"state":"active","ping":96},{"user_id":322,"name":"Lolbyte #SaveTF2","steam_id":76561199239627724,"connected_time":438000000000,"state":"active","ping":178},{"user_id":282,"name":"Zero","steam_id":76561199383267408,"connected_time":2772000000000,"state":"active","ping":61},{"user_id":323,"name":"Saristan","steam_id":76561198093346048,"connected_time":418000000000,"state":"active","ping":67},{"user_id":301,"name":"Calvin Harkkonen","steam_id":76561198095271960,"connected_time":1556000000000,"state":"active","ping":105},{"user_id":324,"name":"ShwingyWingos","steam_id":76561198882909333,"connected_time":393000000000,"state":"active","ping":90},{"user_id":303,"name":"Fruit snacks","steam_id":76561198120349566,"connected_time":1543000000000,"state":"active","ping":112},{"user_id":289,"name":"ZeFizzyPop™","steam_id":76561198258104981,"connected_time":2224000000000,"state":"active","ping":41},{"user_id":325,"name":"Fillmore From Cars","steam_id":76561198175511286,"connected_time":343000000000,"state":"active","ping":83},{"user_id":251,"name":"sinisterMayo","steam_id":76561198087244649,"connected_time":4984000000000,"state":"active","ping":73},{"user_id":309,"name":"YASAI JUICE","steam_id":76561198131971992,"connected_time":1392000000000,"state":"active","ping":39},{"user_id":308,"name":"firetamer2","steam_id":76561198040886980,"connected_time":1397000000000,"state":"active","ping":88},{"user_id":319,"name":"KennytheHedgehog","steam_id":76561198094607721,"connected_time":597000000000,"state":"active","ping":76},{"user_id":313,"name":"Pasta","steam_id":76561198273707746,"connected_time":1069000000000,"state":"active","ping":110},{"user_id":318,"name":"Vince Offer","steam_id":76561198991008825,"connected_time":610000000000,"state":"active","ping":77},{"user_id":288,"name":"GreekGoat_Coffee","steam_id":76561198129331088,"connected_time":2465000000000,"state":"active","ping":51},{"user_id":279,"name":"*Gage*","steam_id":76561197975233869,"connected_time":2831000000000,"state":"active","ping":82},{"user_id":256,"name":"ashelin praxis nude mod","steam_id":76561198167907089,"connected_time":4740000000000,"state":"active","ping":76}]},{"server_id":38,"name":"Uncletopia | Chicago | 7 | No Payload","name_short":"chi-7","host":"chi-2.us.uncletopia.com","port":27035,"enabled":true,"region":"us-central","cc":"us","latitude":41.881832,"longitude":-87.62318,"reserved":0,"last_update":"0001-01-01T00:00:00Z","name_a2s":"Uncletopia | Chicago | 7 | No Payload","protocol":17,"map":"koth_badlands","folder":"tf","game":"Team Fortress","app_id":440,"player_count":0,"max_players":24,"Bots":0,"server_type":"Dedicated","server_os":"Linux","password":true,"vac":true,"version":"7708610","steam_id":85568392924866364,"keywords":["cp","nocrits","nodmgspread","uncletopia"],"game_id":440,"stv_port":27036,"stv_name":"Uncletopia | Chicago | 7 | No Payload | STV","players":null},{"server_id":39,"name":"Uncletopia | Chicago | 8 | Community","name_short":"chi-8","host":"chi-2.us.uncletopia.com","port":27045,"enabled":true,"region":"us-central","cc":"us","latitude":41.881832,"longitude":-87.62318,"reserved":0,"last_update":"0001-01-01T00:00:00Z","name_a2s":"Uncletopia | Chicago | 8 | Community","protocol":17,"map":"workshop/koth_ashville_final.ugc2130459942","folder":"tf","game":"Team Fortress","app_id":440,"player_count":0,"max_players":24,"Bots":0,"server_type":"Dedicated","server_os":"Linux","password":true,"vac":true,"version":"7708610","steam_id":85568392924866365,"keywords":["cp","nocrits","nodmgspread","uncletopia"],"game_id":440,"stv_port":27046,"stv_name":"Uncletopia | Chicago | 8 | Community | STV","players":null},{"server_id":8,"name":"Uncletopia | Dallas | 1 | All Maps","name_short":"dal-1","host":"dal-1.us.uncletopia.com","port":27015,"enabled":true,"region":"us-central","cc":"us","latitude":32.779167,"longitude":-96.80889,"reserved":0,"last_update":"0001-01-01T00:00:00Z","name_a2s":"Uncletopia | Dallas | 1 | All Maps","protocol":17,"map":"pl_badwater","folder":"tf","game":"Team Fortress","app_id":440,"player_count":24,"max_players":24,"Bots":0,"server_type":"Dedicated","server_os":"Linux","password":true,"vac":true,"version":"7708610","steam_id":85568392924469986,"keywords":["nocrits","nodmgspread","payload","uncletopia"],"game_id":440,"stv_port":27016,"stv_name":"Uncletopia | Dallas | 1 | All Maps | STV","players":[{"user_id":503,"name":"The_Skull_boy","steam_id":76561198227692664,"connected_time":2002000000000,"state":"active","ping":86},{"user_id":522,"name":"DrD","steam_id":76561198067266383,"connected_time":96000000000,"state":"active","ping":86},{"user_id":498,"name":"jkao","steam_id":76561197989863583,"connected_time":2319000000000,"state":"active","ping":85},{"user_id":478,"name":"Frontier Psychiatrist","steam_id":76561198038689088,"connected_time":3597000000000,"state":"active","ping":82},{"user_id":491,"name":"The Fireblazer","steam_id":76561198011128160,"connected_time":2503000000000,"state":"active","ping":92},{"user_id":514,"name":"Distou","steam_id":76561198397886545,"connected_time":824000000000,"state":"active","ping":72},{"user_id":501,"name":"MrBajaBlast","steam_id":76561199052471047,"connected_time":2103000000000,"state":"active","ping":90},{"user_id":425,"name":"xX_matias.gamer_Xx","steam_id":76561199187226776,"connected_time":6909000000000,"state":"active","ping":52},{"user_id":515,"name":"♥Swiss♥","steam_id":76561198306966579,"connected_time":818000000000,"state":"active","ping":87},{"user_id":521,"name":"pinglefingle","steam_id":76561198216580197,"connected_time":238000000000,"state":"active","ping":56},{"user_id":516,"name":"Azaheth","steam_id":76561198253616898,"connected_time":799000000000,"state":"active","ping":92},{"user_id":461,"name":"Special","steam_id":76561198070380404,"connected_time":4393000000000,"state":"active","ping":86},{"user_id":507,"name":"WhiteBladeZero","steam_id":76561198862514815,"connected_time":1712000000000,"state":"active","ping":90},{"user_id":523,"name":"Spare(8)Ball","steam_id":76561197982432995,"connected_time":64000000000,"state":"active","ping":93},{"user_id":513,"name":"Phosu","steam_id":76561198180162801,"connected_time":1240000000000,"state":"active","ping":64},{"user_id":517,"name":"Tele Co","steam_id":76561198041909269,"connected_time":769000000000,"state":"active","ping":70},{"user_id":520,"name":"tokemaster69","steam_id":76561198083996924,"connected_time":460000000000,"state":"active","ping":116},{"user_id":510,"name":"LocusUwU","steam_id":76561198250393626,"connected_time":1554000000000,"state":"active","ping":96},{"user_id":524,"name":"ραѕтєℓ ιик","steam_id":76561199151508585,"connected_time":3000000000,"state":"spawning","ping":92},{"user_id":463,"name":"swat aaa","steam_id":76561199099843307,"connected_time":4377000000000,"state":"active","ping":52},{"user_id":496,"name":"NotSoMewwo","steam_id":76561198130067099,"connected_time":2398000000000,"state":"active","ping":61},{"user_id":464,"name":"The Ultimate Coomer","steam_id":76561199128833757,"connected_time":4363000000000,"state":"active","ping":47},{"user_id":455,"name":"hollandese","steam_id":76561198078636737,"connected_time":4837000000000,"state":"active","ping":64},{"user_id":511,"name":"☃️Festive Wormhole☃","steam_id":76561199008302939,"connected_time":1546000000000,"state":"active","ping":93}]},{"server_id":108,"name":"Uncletopia | Dallas | 2 | All Maps","name_short":"dal-2","host":"dal-1.us.uncletopia.com","port":27025,"enabled":true,"region":"us-central","cc":"us","latitude":32.779167,"longitude":-96.80889,"reserved":0,"last_update":"0001-01-01T00:00:00Z","name_a2s":"Uncletopia | Dallas | 2 | All Maps","protocol":17,"map":"pl_upward","folder":"tf","game":"Team Fortress","app_id":440,"player_count":24,"max_players":24,"Bots":0,"server_type":"Dedicated","server_os":"Linux","password":true,"vac":true,"version":"7708610","steam_id":85568392924469988,"keywords":["nocrits","nodmgspread","payload","uncletopia"],"game_id":440,"stv_port":27026,"stv_name":"Uncletopia | Dallas | 2 | All Maps | STV","players":[{"user_id":357,"name":"Drakon","steam_id":76561198078210822,"connected_time":2361000000000,"state":"active","ping":89},{"user_id":366,"name":"Moonflower ✦","steam_id":76561198191782483,"connected_time":1294000000000,"state":"active","ping":54},{"user_id":343,"name":"Santa","steam_id":76561198044130442,"connected_time":3227000000000,"state":"active","ping":46},{"user_id":327,"name":"spaaaaace","steam_id":76561199085974120,"connected_time":3539000000000,"state":"active","ping":80},{"user_id":307,"name":"dog","steam_id":76561198263873491,"connected_time":5099000000000,"state":"active","ping":61},{"user_id":367,"name":"Spearit5464","steam_id":76561199241807676,"connected_time":1279000000000,"state":"active","ping":92},{"user_id":358,"name":"totally not a pile of beans","steam_id":76561198119851931,"connected_time":2346000000000,"state":"active","ping":97},{"user_id":331,"name":"Rin \"Hindwing\" Redtail","steam_id":76561199074865638,"connected_time":3476000000000,"state":"active","ping":48},{"user_id":380,"name":"Murfkong","steam_id":76561198011719931,"connected_time":175000000000,"state":"active","ping":59},{"user_id":378,"name":"MRramdom","steam_id":76561199097710386,"connected_time":313000000000,"state":"active","ping":100},{"user_id":368,"name":"EatSports","steam_id":76561198009384115,"connected_time":1262000000000,"state":"active","ping":52},{"user_id":360,"name":"Level 1 Crook","steam_id":76561198441098132,"connected_time":2201000000000,"state":"active","ping":120},{"user_id":364,"name":"Zell Da Sheepy","steam_id":76561198978753666,"connected_time":2146000000000,"state":"active","ping":76},{"user_id":354,"name":"autumnal.messenger","steam_id":76561199345816635,"connected_time":2721000000000,"state":"active","ping":93},{"user_id":381,"name":"shawcrow","steam_id":76561198998720161,"connected_time":120000000000,"state":"active","ping":61},{"user_id":362,"name":"Shipmunk","steam_id":76561198063062670,"connected_time":2183000000000,"state":"active","ping":74},{"user_id":352,"name":"cyg","steam_id":76561198138012167,"connected_time":2872000000000,"state":"active","ping":62},{"user_id":363,"name":"Tetanus Bob","steam_id":76561198074500319,"connected_time":2182000000000,"state":"active","ping":96},{"user_id":376,"name":"Dragon_Spiced","steam_id":76561198097517957,"connected_time":357000000000,"state":"active","ping":77},{"user_id":370,"name":"hehe :3","steam_id":76561198036901822,"connected_time":1203000000000,"state":"active","ping":53},{"user_id":371,"name":"crankshaft","steam_id":76561197992798282,"connected_time":1190000000000,"state":"active","ping":76},{"user_id":374,"name":"DEGROOT GOBLIN","steam_id":76561199222905174,"connected_time":896000000000,"state":"active","ping":75},{"user_id":234,"name":"BOT [Craf227]","steam_id":76561198196211121,"connected_time":8443000000000,"state":"active","ping":52},{"user_id":382,"name":"sweaterfan","steam_id":76561199389567214,"connected_time":45000000000,"state":"active","ping":122}]},{"server_id":5,"name":"Uncletopia | Frankfurt | 1 | All Maps","name_short":"frk-1","host":"frk-1.de.uncletopia.com","port":27015,"enabled":true,"region":"eu","cc":"de","latitude":50.110924,"longitude":8.682127,"reserved":0,"last_update":"0001-01-01T00:00:00Z","name_a2s":"Uncletopia | Frankfurt | 1 | All Maps","protocol":17,"map":"pl_coal_event","folder":"tf","game":"Team Fortress","app_id":440,"player_count":0,"max_players":24,"Bots":0,"server_type":"Dedicated","server_os":"Linux","password":true,"vac":true,"version":"7708610","steam_id":85568392924469989,"keywords":["nocrits","nodmgspread","payload","uncletopia"],"game_id":440,"stv_port":27016,"stv_name":"Uncletopia | Frankfurt | 1 | All Maps | STV","players":null},{"server_id":110,"name":"Uncletopia | Frankfurt | 2 | All Maps","name_short":"frk-2","host":"frk-1.de.uncletopia.com","port":27025,"enabled":true,"region":"eu","cc":"de","latitude":50.110924,"longitude":8.682127,"reserved":0,"last_update":"0001-01-01T00:00:00Z","name_a2s":"Uncletopia | Frankfurt | 2 | All Maps","protocol":17,"map":"koth_lakeside_final","folder":"tf","game":"Team Fortress","app_id":440,"player_count":0,"max_players":24,"Bots":0,"server_type":"Dedicated","server_os":"Linux","password":true,"vac":true,"version":"7708610","steam_id":85568392924469990,"keywords":["cp","nocrits","nodmgspread","uncletopia"],"game_id":440,"stv_port":27026,"stv_name":"Uncletopia | Frankfurt | 2 | All Maps | STV","players":null},{"server_id":308,"name":"Uncletopia | Frankfurt | 3 | All Maps","name_short":"frk-3","host":"frk-1.de.uncletopia.com","port":27035,"enabled":true,"region":"eu","cc":"de","latitude":50.110924,"longitude":8.682127,"reserved":0,"last_update":"0001-01-01T00:00:00Z","name_a2s":"Uncletopia | Frankfurt | 3 | All Maps","protocol":17,"map":"koth_viaduct","folder":"tf","game":"Team Fortress","app_id":440,"player_count":0,"max_players":24,"Bots":0,"server_type":"Dedicated","server_os":"Linux","password":true,"vac":true,"version":"7708610","steam_id":85568392924504274,"keywords":["cp","nocrits","nodmgspread","uncletopia"],"game_id":440,"stv_port":27036,"stv_name":"Uncletopia | Frankfurt | 3 | All Maps | STV","players":null},{"server_id":309,"name":"Uncletopia | Frankfurt | 4 | All Maps","name_short":"frk-4","host":"frk-1.de.uncletopia.com","port":27045,"enabled":true,"region":"eu","cc":"de","latitude":50.110924,"longitude":8.682127,"reserved":0,"last_update":"0001-01-01T00:00:00Z","name_a2s":"Uncletopia | Frankfurt | 4 | All Maps","protocol":17,"map":"pl_pier","folder":"tf","game":"Team Fortress","app_id":440,"player_count":0,"max_players":24,"Bots":0,"server_type":"Dedicated","server_os":"Linux","password":true,"vac":true,"version":"7708610","steam_id":85568392924504275,"keywords":["nocrits","nodmgspread","payload","uncletopia"],"game_id":440,"stv_port":27046,"stv_name":"Uncletopia | Frankfurt | 4 | All Maps | STV","players":null},{"server_id":310,"name":"Uncletopia | Frankfurt | 5 | All Maps","name_short":"frk-5","host":"frk-1.de.uncletopia.com","port":27055,"enabled":true,"region":"eu","cc":"de","latitude":50.110924,"longitude":8.682127,"reserved":0,"last_update":"0001-01-01T00:00:00Z","name_a2s":"Uncletopia | Frankfurt | 5 | All Maps","protocol":17,"map":"pl_frontier_final","folder":"tf","game":"Team Fortress","app_id":440,"player_count":0,"max_players":24,"Bots":0,"server_type":"Dedicated","server_os":"Linux","password":true,"vac":true,"version":"7708610","steam_id":85568392924504277,"keywords":["nocrits","nodmgspread","payload","uncletopia"],"game_id":440,"stv_port":27056,"stv_name":"Uncletopia | Frankfurt | 5 | All Maps | STV","players":null},{"server_id":311,"name":"Uncletopia | Frankfurt | 6 | All Maps","name_short":"frk-6","host":"frk-1.de.uncletopia.com","port":27065,"enabled":true,"region":"eu","cc":"de","latitude":50.110924,"longitude":8.682127,"reserved":0,"last_update":"0001-01-01T00:00:00Z","name_a2s":"Uncletopia | Frankfurt | 6 | All Maps","protocol":17,"map":"koth_viaduct","folder":"tf","game":"Team Fortress","app_id":440,"player_count":0,"max_players":24,"Bots":0,"server_type":"Dedicated","server_os":"Linux","password":true,"vac":true,"version":"7708610","steam_id":85568392924504278,"keywords":["cp","nocrits","nodmgspread","uncletopia"],"game_id":440,"stv_port":27066,"stv_name":"Uncletopia | Frankfurt | 6 | All Maps | STV","players":null},{"server_id":23,"name":"Uncletopia | Frankfurt | 7 | No Payload","name_short":"frk-7","host":"frk-1.de.uncletopia.com","port":27075,"enabled":true,"region":"eu","cc":"de","latitude":50.110924,"longitude":8.682127,"reserved":0,"last_update":"0001-01-01T00:00:00Z","name_a2s":"Uncletopia | Frankfurt | 7 | No Payload","protocol":17,"map":"ctf_turbine","folder":"tf","game":"Team Fortress","app_id":440,"player_count":0,"max_players":24,"Bots":0,"server_type":"Dedicated","server_os":"Linux","password":true,"vac":true,"version":"7708610","steam_id":85568392924742827,"keywords":["ctf","nocrits","nodmgspread","uncletopia"],"game_id":440,"stv_port":27076,"stv_name":"Uncletopia | Frankfurt | 7 | No Payload | STV","players":null},{"server_id":24,"name":"Uncletopia | Frankfurt | 8 | Community","name_short":"frk-8","host":"frk-1.de.uncletopia.com","port":27085,"enabled":true,"region":"eu","cc":"de","latitude":50.110924,"longitude":8.682127,"reserved":0,"last_update":"0001-01-01T00:00:00Z","name_a2s":"Uncletopia | Frankfurt | 8 | Community","protocol":17,"map":"workshop/koth_ramjam_v2_b2.ugc2865676487","folder":"tf","game":"Team Fortress","app_id":440,"player_count":0,"max_players":24,"Bots":0,"server_type":"Dedicated","server_os":"Linux","password":true,"vac":true,"version":"7708610","steam_id":85568392924742828,"keywords":["cp","nocrits","nodmgspread","uncletopia"],"game_id":440,"stv_port":27086,"stv_name":"Uncletopia | Frankfurt | 8 | Community | STV","players":null},{"server_id":202,"name":"Uncletopia | Hong Kong | 1 | All Maps","name_short":"hgk-1","host":"hgk-1.hk.uncletopia.com","port":27015,"enabled":true,"region":"asia","cc":"hk","latitude":22.302711,"longitude":114.177216,"reserved":0,"last_update":"0001-01-01T00:00:00Z","name_a2s":"Uncletopia | Hong Kong | 1 | All Maps","protocol":17,"map":"cp_dustbowl","folder":"tf","game":"Team Fortress","app_id":440,"player_count":14,"max_players":24,"Bots":0,"server_type":"Dedicated","server_os":"Linux","password":true,"vac":true,"version":"7708610","steam_id":85568392924494504,"keywords":["cp","nocrits","nodmgspread","uncletopia"],"game_id":440,"stv_port":27016,"stv_name":"Uncletopia | Hong Kong | 1 | All Maps | STV","players":[{"user_id":34,"name":"screaming sniper","steam_id":76561199085568674,"connected_time":1962000000000,"state":"active","ping":72},{"user_id":15,"name":"Cool_A","steam_id":76561199177496182,"connected_time":4365000000000,"state":"active","ping":80},{"user_id":47,"name":"Dits","steam_id":76561198283833960,"connected_time":709000000000,"state":"active","ping":39},{"user_id":19,"name":"Windmill","steam_id":76561199230997986,"connected_time":3737000000000,"state":"active","ping":78},{"user_id":20,"name":"The Spycrab","steam_id":76561199145831752,"connected_time":3688000000000,"state":"active","ping":198},{"user_id":31,"name":"gilsomnia","steam_id":76561198830813639,"connected_time":2180000000000,"state":"active","ping":65},{"user_id":52,"name":"iLikeMudrock ᗜ‸ᗜ","steam_id":76561199352285088,"connected_time":161000000000,"state":"active","ping":81},{"user_id":29,"name":"Noyour","steam_id":76561198323259830,"connected_time":2293000000000,"state":"active","ping":114},{"user_id":33,"name":"Level 3 sentry","steam_id":76561198979802944,"connected_time":2154000000000,"state":"active","ping":66},{"user_id":49,"name":"S c u m p","steam_id":76561199172582978,"connected_time":487000000000,"state":"active","ping":144},{"user_id":53,"name":"Cheekyknob","steam_id":76561198122243165,"connected_time":86000000000,"state":"active","ping":90},{"user_id":54,"name":"bathtub","steam_id":76561198967804087,"connected_time":70000000000,"state":"active","ping":105},{"user_id":50,"name":"derek.patriarca30","steam_id":76561199427230206,"connected_time":274000000000,"state":"active","ping":59},{"user_id":55,"name":"★ Snowstorm ★","steam_id":76561198351866308,"connected_time":29000000000,"state":"spawning","ping":82}]},{"server_id":1,"name":"Uncletopia | Los Angeles | 1 | All Maps","name_short":"lax-1","host":"lax-1.us.uncletopia.com","port":27015,"enabled":true,"region":"us-west","cc":"us","latitude":33.94279,"longitude":-118.41004,"reserved":0,"last_update":"0001-01-01T00:00:00Z","name_a2s":"Uncletopia | Los Angeles | 1 | All Maps","protocol":17,"map":"pl_snowycoast","folder":"tf","game":"Team Fortress","app_id":440,"player_count":23,"max_players":24,"Bots":0,"server_type":"Dedicated","server_os":"Linux","password":true,"vac":true,"version":"7708610","steam_id":85568392924469991,"keywords":["nocrits","nodmgspread","payload","uncletopia"],"game_id":440,"stv_port":27016,"stv_name":"Uncletopia | Los Angeles | 1 | All Maps | STV","players":[{"user_id":397,"name":"Robyn Goodfellowe","steam_id":76561198074719241,"connected_time":1168000000000,"state":"active","ping":109},{"user_id":340,"name":"ice cream (冰淇淋)","steam_id":76561198976530881,"connected_time":6299000000000,"state":"active","ping":41},{"user_id":407,"name":"OxOoxen841","steam_id":76561198297981993,"connected_time":227000000000,"state":"active","ping":110},{"user_id":387,"name":"HAT-WEARING™ Maggot Gamer Cat","steam_id":76561197973992705,"connected_time":1978000000000,"state":"active","ping":61},{"user_id":399,"name":"Arbiter Soul","steam_id":76561198067798973,"connected_time":687000000000,"state":"active","ping":58},{"user_id":368,"name":"Ecliptica","steam_id":76561198171951333,"connected_time":3071000000000,"state":"active","ping":113},{"user_id":404,"name":"tobrehto","steam_id":76561198097544038,"connected_time":517000000000,"state":"active","ping":57},{"user_id":398,"name":"BoomieMcBoomPants","steam_id":76561198144516828,"connected_time":1111000000000,"state":"active","ping":74},{"user_id":372,"name":"hoOmIN","steam_id":76561198334947079,"connected_time":2979000000000,"state":"active","ping":47},{"user_id":400,"name":"[PINGU™] Tiny Tuna","steam_id":76561198193611579,"connected_time":665000000000,"state":"active","ping":103},{"user_id":402,"name":"fumo","steam_id":76561199089453214,"connected_time":565000000000,"state":"active","ping":107},{"user_id":336,"name":"Jax O'Gaytor","steam_id":76561198288922168,"connected_time":6422000000000,"state":"active","ping":66},{"user_id":391,"name":"Quest1onable1","steam_id":76561199114459845,"connected_time":1564000000000,"state":"active","ping":65},{"user_id":403,"name":"Zamypkernoob","steam_id":76561198236850594,"connected_time":552000000000,"state":"active","ping":65},{"user_id":394,"name":"SonnyMarsh","steam_id":76561198188103746,"connected_time":1469000000000,"state":"active","ping":61},{"user_id":395,"name":"stoned pope","steam_id":76561198040281464,"connected_time":1430000000000,"state":"active","ping":93},{"user_id":382,"name":"-BRH- Tangled up in Bluegrass","steam_id":76561197987181139,"connected_time":2319000000000,"state":"active","ping":102},{"user_id":383,"name":"Rusty","steam_id":76561198055585129,"connected_time":2105000000000,"state":"active","ping":71},{"user_id":401,"name":"Temper","steam_id":76561198044123690,"connected_time":664000000000,"state":"active","ping":118},{"user_id":376,"name":"Gugomo","steam_id":76561198121428316,"connected_time":2941000000000,"state":"active","ping":39},{"user_id":405,"name":"Ulysses","steam_id":76561199274171088,"connected_time":470000000000,"state":"active","ping":94},{"user_id":386,"name":"Altruisticailuridae","steam_id":76561198335295596,"connected_time":2011000000000,"state":"active","ping":51},{"user_id":406,"name":"Seclen","steam_id":76561198368882824,"connected_time":456000000000,"state":"active","ping":92}]},{"server_id":112,"name":"Uncletopia | Los Angeles | 2 | All Maps","name_short":"lax-2","host":"lax-1.us.uncletopia.com","port":27025,"enabled":true,"region":"us-west","cc":"us","latitude":33.94279,"longitude":-118.41004,"reserved":0,"last_update":"0001-01-01T00:00:00Z","name_a2s":"Uncletopia | Los Angeles | 2 | All Maps","protocol":17,"map":"pl_swiftwater_final1","folder":"tf","game":"Team Fortress","app_id":440,"player_count":20,"max_players":24,"Bots":0,"server_type":"Dedicated","server_os":"Linux","password":true,"vac":true,"version":"7708610","steam_id":85568392924469992,"keywords":["nocrits","nodmgspread","payload","uncletopia"],"game_id":440,"stv_port":27026,"stv_name":"Uncletopia | Los Angeles | 2 | All Maps | STV","players":[{"user_id":139,"name":"whiteout","steam_id":76561198049017271,"connected_time":77000000000,"state":"active","ping":44},{"user_id":75,"name":"Agent Q","steam_id":76561198830829003,"connected_time":4175000000000,"state":"active","ping":67},{"user_id":77,"name":"Theory-Y","steam_id":76561198116419931,"connected_time":4069000000000,"state":"active","ping":96},{"user_id":120,"name":"walrooos ✿","steam_id":76561198024521839,"connected_time":2594000000000,"state":"active","ping":54},{"user_id":116,"name":"EatSomeBEES","steam_id":76561198047334307,"connected_time":2656000000000,"state":"active","ping":83},{"user_id":103,"name":"nelly modelo","steam_id":76561198044875206,"connected_time":3059000000000,"state":"active","ping":75},{"user_id":128,"name":"dewey","steam_id":76561198132791511,"connected_time":1236000000000,"state":"active","ping":58},{"user_id":118,"name":"Swamp Fever","steam_id":76561198096836451,"connected_time":2630000000000,"state":"active","ping":45},{"user_id":138,"name":"Plasic74x","steam_id":76561199058981206,"connected_time":198000000000,"state":"active","ping":91},{"user_id":133,"name":"Spazz","steam_id":76561198036167494,"connected_time":884000000000,"state":"active","ping":87},{"user_id":131,"name":"moneymoneyganggang464","steam_id":76561199228490429,"connected_time":1185000000000,"state":"active","ping":99},{"user_id":134,"name":"Banana Distributor","steam_id":76561198969136257,"connected_time":684000000000,"state":"active","ping":51},{"user_id":104,"name":"mu","steam_id":76561197997530228,"connected_time":2981000000000,"state":"active","ping":78},{"user_id":137,"name":"Punished Jඞff #NeverSimpAgain","steam_id":76561198304252584,"connected_time":244000000000,"state":"active","ping":60},{"user_id":119,"name":"Eden","steam_id":76561198081284664,"connected_time":2596000000000,"state":"active","ping":47},{"user_id":136,"name":"CHIEF","steam_id":76561198011209422,"connected_time":293000000000,"state":"active","ping":56},{"user_id":130,"name":"oct9ber f9rever","steam_id":76561198036283992,"connected_time":1197000000000,"state":"active","ping":56},{"user_id":114,"name":"mrs. business","steam_id":76561198025454291,"connected_time":2796000000000,"state":"active","ping":64},{"user_id":100,"name":"sxgbln","steam_id":76561198921318264,"connected_time":3207000000000,"state":"active","ping":165},{"user_id":132,"name":"Amy Roxwell","steam_id":76561198303391830,"connected_time":1182000000000,"state":"active","ping":149}]},{"server_id":324,"name":"Uncletopia | Los Angeles | 3 | All Maps","name_short":"lax-3","host":"lax-1.us.uncletopia.com","port":27035,"enabled":true,"region":"us-west","cc":"us","latitude":33.94279,"longitude":-118.41004,"reserved":0,"last_update":"0001-01-01T00:00:00Z","name_a2s":"Uncletopia | Los Angeles | 3 | All Maps","protocol":17,"map":"pl_borneo","folder":"tf","game":"Team Fortress","app_id":440,"player_count":23,"max_players":24,"Bots":0,"server_type":"Dedicated","server_os":"Linux","password":true,"vac":true,"version":"7708610","steam_id":85568392924510198,"keywords":["nocrits","nodmgspread","payload","uncletopia"],"game_id":440,"stv_port":27036,"stv_name":"Uncletopia | Los Angeles | 3 | All Maps | STV","players":[{"user_id":126,"name":"CasualCakeEater","steam_id":76561199406096223,"connected_time":4835000000000,"state":"active","ping":57},{"user_id":183,"name":"collacot","steam_id":76561198243248798,"connected_time":439000000000,"state":"active","ping":101},{"user_id":174,"name":"Captin_Ciyro","steam_id":76561198861899909,"connected_time":1566000000000,"state":"active","ping":54},{"user_id":167,"name":"Subderhenge","steam_id":76561198090955892,"connected_time":2220000000000,"state":"active","ping":92},{"user_id":175,"name":"Matt","steam_id":76561199122703238,"connected_time":1510000000000,"state":"active","ping":88},{"user_id":184,"name":"Alabit","steam_id":76561198065578560,"connected_time":403000000000,"state":"active","ping":76},{"user_id":178,"name":"Ssilkyy","steam_id":76561198974587801,"connected_time":1047000000000,"state":"active","ping":66},{"user_id":192,"name":"mao zedong","steam_id":76561199060687332,"connected_time":127000000000,"state":"active","ping":47},{"user_id":171,"name":"flabber","steam_id":76561199247494538,"connected_time":1968000000000,"state":"active","ping":54},{"user_id":179,"name":"benson","steam_id":76561198105075752,"connected_time":817000000000,"state":"active","ping":100},{"user_id":185,"name":"SpiritBear","steam_id":76561198099128035,"connected_time":395000000000,"state":"active","ping":82},{"user_id":186,"name":"Nyges","steam_id":76561198139236154,"connected_time":342000000000,"state":"active","ping":47},{"user_id":187,"name":"Jykle","steam_id":76561198077352807,"connected_time":302000000000,"state":"active","ping":74},{"user_id":188,"name":"2 Point Tom","steam_id":76561198087617008,"connected_time":301000000000,"state":"active","ping":87},{"user_id":189,"name":"vacant","steam_id":76561199067153815,"connected_time":291000000000,"state":"active","ping":98},{"user_id":86,"name":"Noxus","steam_id":76561199009820852,"connected_time":7379000000000,"state":"active","ping":79},{"user_id":87,"name":"Nibotshooter","steam_id":76561199284825579,"connected_time":7374000000000,"state":"active","ping":78},{"user_id":190,"name":"Hernandez$","steam_id":76561198019324588,"connected_time":225000000000,"state":"active","ping":54},{"user_id":191,"name":"A UsedNom","steam_id":76561198402832756,"connected_time":147000000000,"state":"active","ping":62},{"user_id":193,"name":"AnalConquest666","steam_id":76561198218558897,"connected_time":104000000000,"state":"active","ping":96},{"user_id":194,"name":"vedett","steam_id":76561198055433423,"connected_time":79000000000,"state":"active","ping":49},{"user_id":195,"name":"young thug weaponry","steam_id":76561198363821364,"connected_time":43000000000,"state":"active","ping":48},{"user_id":196,"name":"no sound (no smell)","steam_id":76561198062712676,"connected_time":6000000000,"state":"spawning","ping":69}]},{"server_id":25,"name":"Uncletopia | Los Angeles | 4 | No Payload","name_short":"lax-4","host":"lax-1.us.uncletopia.com","port":27045,"enabled":true,"region":"us-west","cc":"us","latitude":33.94279,"longitude":-118.41004,"reserved":0,"last_update":"0001-01-01T00:00:00Z","name_a2s":"Uncletopia | Los Angeles | 4 | No Payload","protocol":17,"map":"ctf_turbine","folder":"tf","game":"Team Fortress","app_id":440,"player_count":0,"max_players":24,"Bots":0,"server_type":"Dedicated","server_os":"Linux","password":true,"vac":true,"version":"7708610","steam_id":85568392924510199,"keywords":["ctf","nocrits","nodmgspread","uncletopia"],"game_id":440,"stv_port":27046,"stv_name":"Uncletopia | Los Angeles | 4 | No Payload | STV","players":null},{"server_id":11,"name":"Uncletopia | London | 1 | All Maps","name_short":"lon-1","host":"lon-1.uk.uncletopia.com","port":27015,"enabled":true,"region":"eu","cc":"gb","latitude":51.509865,"longitude":-0.118092,"reserved":0,"last_update":"0001-01-01T00:00:00Z","name_a2s":"Uncletopia | London | 1 | All Maps","protocol":17,"map":"koth_badlands","folder":"tf","game":"Team Fortress","app_id":440,"player_count":2,"max_players":24,"Bots":0,"server_type":"Dedicated","server_os":"Linux","password":true,"vac":true,"version":"7708610","steam_id":85568392924367362,"keywords":["cp","nocrits","nodmgspread","uncletopia"],"game_id":440,"stv_port":27016,"stv_name":"Uncletopia | London | 1 | All Maps | STV","players":[{"user_id":1078,"name":"E1s","steam_id":76561198894958917,"connected_time":3862000000000,"state":"active","ping":45},{"user_id":1079,"name":"IQ","steam_id":76561199198830142,"connected_time":3777000000000,"state":"active","ping":145}]},{"server_id":114,"name":"Uncletopia | London | 2 | All Maps","name_short":"lon-2","host":"lon-1.uk.uncletopia.com","port":27025,"enabled":true,"region":"eu","cc":"gb","latitude":51.509865,"longitude":-0.118092,"reserved":0,"last_update":"0001-01-01T00:00:00Z","name_a2s":"Uncletopia | London | 2 | All Maps","protocol":17,"map":"koth_viaduct","folder":"tf","game":"Team Fortress","app_id":440,"player_count":0,"max_players":24,"Bots":0,"server_type":"Dedicated","server_os":"Linux","password":true,"vac":true,"version":"7708610","steam_id":85568392924470941,"keywords":["cp","nocrits","nodmgspread","uncletopia"],"game_id":440,"stv_port":27026,"stv_name":"Uncletopia | London | 2 | All Maps | STV","players":null},{"server_id":320,"name":"Uncletopia | London | 3 | All Maps","name_short":"lon-3","host":"lon-1.uk.uncletopia.com","port":27035,"enabled":true,"region":"eu","cc":"gb","latitude":51.509865,"longitude":-0.118092,"reserved":0,"last_update":"0001-01-01T00:00:00Z","name_a2s":"Uncletopia | London | 3 | All Maps","protocol":17,"map":"koth_viaduct","folder":"tf","game":"Team Fortress","app_id":440,"player_count":0,"max_players":24,"Bots":0,"server_type":"Dedicated","server_os":"Linux","password":true,"vac":true,"version":"7708610","steam_id":85568392924510192,"keywords":["cp","nocrits","nodmgspread","uncletopia"],"game_id":440,"stv_port":27036,"stv_name":"Uncletopia | London | 3 | All Maps | STV","players":null},{"server_id":321,"name":"Uncletopia | London | 4 | All Maps","name_short":"lon-4","host":"lon-1.uk.uncletopia.com","port":27045,"enabled":true,"region":"eu","cc":"gb","latitude":51.509865,"longitude":-0.118092,"reserved":0,"last_update":"0001-01-01T00:00:00Z","name_a2s":"Uncletopia | London | 4 | All Maps","protocol":17,"map":"koth_lakeside_final","folder":"tf","game":"Team Fortress","app_id":440,"player_count":0,"max_players":24,"Bots":0,"server_type":"Dedicated","server_os":"Linux","password":true,"vac":true,"version":"7708610","steam_id":85568392924510193,"keywords":["cp","nocrits","nodmgspread","uncletopia"],"game_id":440,"stv_port":27046,"stv_name":"Uncletopia | London | 4 | All Maps | STV","players":null},{"server_id":21,"name":"Uncletopia | London | 5 | All Maps","name_short":"lon-5","host":"lon-1.uk.uncletopia.com","port":27055,"enabled":true,"region":"eu","cc":"gb","latitude":51.509865,"longitude":-0.118092,"reserved":0,"last_update":"0001-01-01T00:00:00Z","name_a2s":"Uncletopia | London | 5 | All Maps","protocol":17,"map":"koth_lakeside_final","folder":"tf","game":"Team Fortress","app_id":440,"player_count":0,"max_players":24,"Bots":0,"server_type":"Dedicated","server_os":"Linux","password":true,"vac":true,"version":"7708610","steam_id":85568392924742829,"keywords":["cp","nocrits","nodmgspread","uncletopia"],"game_id":440,"stv_port":27056,"stv_name":"Uncletopia | London | 5 | All Maps | STV","players":null},{"server_id":22,"name":"Uncletopia | London | 6 | All Maps","name_short":"lon-6","host":"lon-1.uk.uncletopia.com","port":27065,"enabled":true,"region":"eu","cc":"gb","latitude":51.509865,"longitude":-0.118092,"reserved":0,"last_update":"0001-01-01T00:00:00Z","name_a2s":"Uncletopia | London | 6 | All Maps","protocol":17,"map":"cp_dustbowl","folder":"tf","game":"Team Fortress","app_id":440,"player_count":0,"max_players":24,"Bots":0,"server_type":"Dedicated","server_os":"Linux","password":true,"vac":true,"version":"7708610","steam_id":85568392924742830,"keywords":["cp","nocrits","nodmgspread","uncletopia"],"game_id":440,"stv_port":27066,"stv_name":"Uncletopia | London | 6 | All Maps | STV","players":null},{"server_id":40,"name":"Uncletopia | London | 7 | No Payload","name_short":"lon-7","host":"lon-1.uk.uncletopia.com","port":27075,"enabled":true,"region":"eu","cc":"gb","latitude":51.509865,"longitude":-0.118092,"reserved":0,"last_update":"0001-01-01T00:00:00Z","name_a2s":"Uncletopia | London | 7 | No Payload","protocol":17,"map":"cp_metalworks","folder":"tf","game":"Team Fortress","app_id":440,"player_count":0,"max_players":24,"Bots":0,"server_type":"Dedicated","server_os":"Linux","password":true,"vac":true,"version":"7708610","steam_id":85568392924964314,"keywords":["cp","nocrits","nodmgspread","uncletopia"],"game_id":440,"stv_port":27076,"stv_name":"Uncletopia | London | 7 | No Payload | STV","players":null},{"server_id":41,"name":"Uncletopia | London | 8 | Community","name_short":"lon-8","host":"lon-1.uk.uncletopia.com","port":27085,"enabled":true,"region":"eu","cc":"gb","latitude":51.509865,"longitude":-0.118092,"reserved":0,"last_update":"0001-01-01T00:00:00Z","name_a2s":"Uncletopia | London | 8 | Community","protocol":17,"map":"workshop/pl_cactuscanyon_redux_rc4b.ugc2579644293","folder":"tf","game":"Team Fortress","app_id":440,"player_count":0,"max_players":24,"Bots":0,"server_type":"Dedicated","server_os":"Linux","password":true,"vac":true,"version":"7708610","steam_id":85568392924964315,"keywords":["nocrits","nodmgspread","payload","uncletopia"],"game_id":440,"stv_port":27086,"stv_name":"Uncletopia | London | 8 | Community | STV","players":null},{"server_id":300,"name":"Uncletopia | Montréal | 1 | All Maps","name_short":"mtl-1","host":"mtl-1.ca.uncletopia.com","port":27015,"enabled":true,"region":"us-east","cc":"ca","latitude":45.50889,"longitude":-73.56167,"reserved":0,"last_update":"0001-01-01T00:00:00Z","name_a2s":"Uncletopia | Montréal | 1 | All Maps","protocol":17,"map":"koth_viaduct","folder":"tf","game":"Team Fortress","app_id":440,"player_count":0,"max_players":24,"Bots":0,"server_type":"Dedicated","server_os":"Linux","password":true,"vac":true,"version":"7708610","steam_id":85568392924500087,"keywords":["cp","nocrits","nodmgspread","uncletopia"],"game_id":440,"stv_port":27016,"stv_name":"Uncletopia | Montréal | 1 | All Maps | STV","players":null},{"server_id":301,"name":"Uncletopia | Montréal | 2 | All Maps","name_short":"mtl-2","host":"mtl-1.ca.uncletopia.com","port":27025,"enabled":true,"region":"us-east","cc":"ca","latitude":45.50889,"longitude":-73.56167,"reserved":0,"last_update":"0001-01-01T00:00:00Z","name_a2s":"Uncletopia | Montréal | 2 | All Maps","protocol":17,"map":"koth_highpass","folder":"tf","game":"Team Fortress","app_id":440,"player_count":0,"max_players":24,"Bots":0,"server_type":"Dedicated","server_os":"Linux","password":true,"vac":true,"version":"7708610","steam_id":85568392924500088,"keywords":["cp","nocrits","nodmgspread","uncletopia"],"game_id":440,"stv_port":27026,"stv_name":"Uncletopia | Montréal | 2 | All Maps | STV","players":null},{"server_id":302,"name":"Uncletopia | Montréal | 3 | All Maps","name_short":"mtl-3","host":"mtl-1.ca.uncletopia.com","port":27035,"enabled":true,"region":"us-east","cc":"ca","latitude":45.50889,"longitude":-73.56167,"reserved":0,"last_update":"0001-01-01T00:00:00Z","name_a2s":"Uncletopia | Montréal | 3 | All Maps","protocol":17,"map":"cp_process_final","folder":"tf","game":"Team Fortress","app_id":440,"player_count":0,"max_players":24,"Bots":0,"server_type":"Dedicated","server_os":"Linux","password":true,"vac":true,"version":"7708610","steam_id":85568392924500089,"keywords":["cp","nocrits","nodmgspread","uncletopia"],"game_id":440,"stv_port":27036,"stv_name":"Uncletopia | Montréal | 3 | All Maps | STV","players":null},{"server_id":303,"name":"Uncletopia | Montréal | 4 | No Payload","name_short":"mtl-4","host":"mtl-1.ca.uncletopia.com","port":27045,"enabled":true,"region":"us-east","cc":"ca","latitude":45.50889,"longitude":-73.56167,"reserved":0,"last_update":"0001-01-01T00:00:00Z","name_a2s":"Uncletopia | Montréal | 4 | No Payload","protocol":17,"map":"cp_granary","folder":"tf","game":"Team Fortress","app_id":440,"player_count":0,"max_players":24,"Bots":0,"server_type":"Dedicated","server_os":"Linux","password":true,"vac":true,"version":"7708610","steam_id":85568392924500090,"keywords":["cp","nocrits","nodmgspread","uncletopia"],"game_id":440,"stv_port":27046,"stv_name":"Uncletopia | Montréal | 4 | No Payload | STV","players":null},{"server_id":13,"name":"Uncletopia | New York City | 1 | All Maps","name_short":"nyc-1","host":"nyc-1.us.uncletopia.com","port":27015,"enabled":true,"region":"us-east","cc":"us","latitude":40.73061,"longitude":-73.93524,"reserved":0,"last_update":"0001-01-01T00:00:00Z","name_a2s":"Uncletopia | New York City | 1 | All Maps","protocol":17,"map":"cp_altitude","folder":"tf","game":"Team Fortress","app_id":440,"player_count":24,"max_players":24,"Bots":0,"server_type":"Dedicated","server_os":"Linux","password":true,"vac":true,"version":"7708610","steam_id":85568392924469993,"keywords":["cp","nocrits","nodmgspread","uncletopia"],"game_id":440,"stv_port":27016,"stv_name":"Uncletopia | New York City | 1 | All Maps | STV","players":[{"user_id":406,"name":"fish","steam_id":76561198229957260,"connected_time":447000000000,"state":"active","ping":51},{"user_id":414,"name":"colorfulg70","steam_id":76561199010363371,"connected_time":17000000000,"state":"spawning","ping":655},{"user_id":405,"name":"Mr. Pink","steam_id":76561198065858172,"connected_time":473000000000,"state":"active","ping":42},{"user_id":394,"name":"womit","steam_id":76561198333675595,"connected_time":1594000000000,"state":"active","ping":97},{"user_id":397,"name":"Architect","steam_id":76561198015242016,"connected_time":1406000000000,"state":"active","ping":67},{"user_id":398,"name":"ṽ⧉ cookie","steam_id":76561197998884823,"connected_time":1347000000000,"state":"active","ping":77},{"user_id":235,"name":"lil caesars employee","steam_id":76561198026589960,"connected_time":14524000000000,"state":"active","ping":76},{"user_id":368,"name":"TheGhostThatWas","steam_id":76561198055836483,"connected_time":3584000000000,"state":"active","ping":45},{"user_id":402,"name":"blarthour","steam_id":76561198151534880,"connected_time":669000000000,"state":"active","ping":67},{"user_id":408,"name":"lukethepumpkin","steam_id":76561198204158335,"connected_time":393000000000,"state":"active","ping":49},{"user_id":369,"name":"Electric Camel","steam_id":76561198065589663,"connected_time":3568000000000,"state":"active","ping":51},{"user_id":409,"name":"PrinceOf314","steam_id":76561198110930450,"connected_time":362000000000,"state":"active","ping":68},{"user_id":393,"name":"Diamond Jack","steam_id":76561198321304762,"connected_time":1606000000000,"state":"active","ping":45},{"user_id":410,"name":"Echo Gaming","steam_id":76561198242890502,"connected_time":287000000000,"state":"active","ping":122},{"user_id":411,"name":"Memoirist","steam_id":76561198026002842,"connected_time":246000000000,"state":"active","ping":63},{"user_id":412,"name":"Sapphireblitz","steam_id":76561198272635379,"connected_time":222000000000,"state":"active","ping":73},{"user_id":413,"name":"fishmonger steve","steam_id":76561198138977304,"connected_time":171000000000,"state":"active","ping":68},{"user_id":390,"name":"Amaretto Sour","steam_id":76561198063112844,"connected_time":2245000000000,"state":"active","ping":63},{"user_id":357,"name":"Fudge_Cake","steam_id":76561198059218167,"connected_time":4396000000000,"state":"active","ping":79},{"user_id":377,"name":"Dusty Bucket","steam_id":76561198037064732,"connected_time":3152000000000,"state":"active","ping":56},{"user_id":375,"name":"Sideshow Penguin","steam_id":76561198128024135,"connected_time":3229000000000,"state":"active","ping":38},{"user_id":367,"name":"MitcheyHD","steam_id":76561198066489645,"connected_time":3638000000000,"state":"active","ping":63},{"user_id":391,"name":"korean makeup tutorial","steam_id":76561198135648823,"connected_time":2223000000000,"state":"active","ping":110},{"user_id":392,"name":"werecat","steam_id":76561198005091213,"connected_time":2132000000000,"state":"active","ping":46}]},{"server_id":14,"name":"Uncletopia | New York City | 2 | All Maps","name_short":"nyc-2","host":"nyc-1.us.uncletopia.com","port":27025,"enabled":true,"region":"us-east","cc":"us","latitude":40.73061,"longitude":-73.93524,"reserved":0,"last_update":"0001-01-01T00:00:00Z","name_a2s":"Uncletopia | New York City | 2 | All Maps","protocol":17,"map":"cp_steel","folder":"tf","game":"Team Fortress","app_id":440,"player_count":23,"max_players":24,"Bots":0,"server_type":"Dedicated","server_os":"Linux","password":true,"vac":true,"version":"7708610","steam_id":85568392924469994,"keywords":["cp","nocrits","nodmgspread","uncletopia"],"game_id":440,"stv_port":27026,"stv_name":"Uncletopia | New York City | 2 | All Maps | STV","players":[{"user_id":408,"name":"ExtraSoap","steam_id":76561198008712409,"connected_time":1167000000000,"state":"active","ping":46},{"user_id":415,"name":"rainwarden","steam_id":76561198085183458,"connected_time":805000000000,"state":"active","ping":45},{"user_id":373,"name":"josh","steam_id":76561198111565081,"connected_time":3741000000000,"state":"active","ping":122},{"user_id":391,"name":"AceDeuce","steam_id":76561198049904924,"connected_time":2539000000000,"state":"active","ping":61},{"user_id":354,"name":"DREW PEACOCK","steam_id":76561198065057392,"connected_time":4708000000000,"state":"active","ping":76},{"user_id":365,"name":"KRELLAH","steam_id":76561198287045069,"connected_time":4097000000000,"state":"active","ping":84},{"user_id":407,"name":"japanese cowboy","steam_id":76561198072105269,"connected_time":1191000000000,"state":"active","ping":45},{"user_id":409,"name":"Leppystyle","steam_id":76561198077316300,"connected_time":1129000000000,"state":"active","ping":59},{"user_id":348,"name":"keyboardHarpist","steam_id":76561198045916049,"connected_time":4819000000000,"state":"active","ping":55},{"user_id":402,"name":"FrostStorm","steam_id":76561198142685151,"connected_time":1887000000000,"state":"active","ping":78},{"user_id":258,"name":"InkQuil","steam_id":76561198135315642,"connected_time":7670000000000,"state":"active","ping":80},{"user_id":400,"name":"|AG| Level","steam_id":76561198063633592,"connected_time":1896000000000,"state":"active","ping":63},{"user_id":410,"name":"MrLeftTurn","steam_id":76561198856743969,"connected_time":1115000000000,"state":"active","ping":144},{"user_id":387,"name":"jt","steam_id":76561198059575962,"connected_time":2624000000000,"state":"active","ping":50},{"user_id":405,"name":"Got Hat?","steam_id":76561197998486431,"connected_time":1582000000000,"state":"active","ping":52},{"user_id":411,"name":"Marshall","steam_id":76561198367918440,"connected_time":1070000000000,"state":"active","ping":120},{"user_id":417,"name":"SquirrelAway™","steam_id":76561197998828619,"connected_time":385000000000,"state":"active","ping":86},{"user_id":416,"name":"weeb_whacker #Jenius","steam_id":76561198187098041,"connected_time":580000000000,"state":"active","ping":72},{"user_id":357,"name":"juliusgem","steam_id":76561198206751192,"connected_time":4621000000000,"state":"active","ping":178},{"user_id":399,"name":"McNamJam","steam_id":76561198028128686,"connected_time":2026000000000,"state":"active","ping":129},{"user_id":394,"name":"Shemply","steam_id":76561198193658910,"connected_time":2445000000000,"state":"active","ping":89},{"user_id":418,"name":"Disco Chewbacca","steam_id":76561198004324301,"connected_time":367000000000,"state":"active","ping":118},{"user_id":372,"name":"averted","steam_id":76561198067784310,"connected_time":3916000000000,"state":"active","ping":43}]},{"server_id":15,"name":"Uncletopia | New York City | 3 | All Maps","name_short":"nyc-3","host":"nyc-1.us.uncletopia.com","port":27035,"enabled":true,"region":"us-east","cc":"us","latitude":40.73061,"longitude":-73.93524,"reserved":0,"last_update":"0001-01-01T00:00:00Z","name_a2s":"Uncletopia | New York City | 3 | All Maps","protocol":17,"map":"koth_viaduct","folder":"tf","game":"Team Fortress","app_id":440,"player_count":0,"max_players":24,"Bots":0,"server_type":"Dedicated","server_os":"Linux","password":true,"vac":true,"version":"7708610","steam_id":85568392924742820,"keywords":["cp","nocrits","nodmgspread","uncletopia"],"game_id":440,"stv_port":27036,"stv_name":"Uncletopia | New York City | 3 | All Maps | STV","players":null},{"server_id":16,"name":"Uncletopia | New York City | 4 | Community","name_short":"nyc-4","host":"nyc-1.us.uncletopia.com","port":27045,"enabled":true,"region":"us-east","cc":"us","latitude":40.73061,"longitude":-73.93524,"reserved":0,"last_update":"0001-01-01T00:00:00Z","name_a2s":"Uncletopia | New York City | 4 | Community","protocol":17,"map":"workshop/koth_synthetic_rc6a.ugc1549817316","folder":"tf","game":"Team Fortress","app_id":440,"player_count":0,"max_players":24,"Bots":0,"server_type":"Dedicated","server_os":"Linux","password":true,"vac":true,"version":"7708610","steam_id":85568392924742821,"keywords":["cp","nocrits","nodmgspread","uncletopia"],"game_id":440,"stv_port":27046,"stv_name":"Uncletopia | New York City | 4 | Community | STV","players":null},{"server_id":142,"name":"Uncletopia | São Paulo | 1 | All Maps","name_short":"sao-1","host":"sao-1.br.uncletopia.com","port":27015,"enabled":true,"region":"sa","cc":"br","latitude":-23.533773,"longitude":-46.62529,"reserved":0,"last_update":"0001-01-01T00:00:00Z","name_a2s":"Uncletopia | São Paulo | 1 | All Maps","protocol":17,"map":"pl_snowycoast","folder":"tf","game":"Team Fortress","app_id":440,"player_count":0,"max_players":24,"Bots":0,"server_type":"Dedicated","server_os":"Linux","password":true,"vac":true,"version":"7708610","steam_id":85568392924469996,"keywords":["nocrits","nodmgspread","payload","uncletopia"],"game_id":440,"stv_port":27016,"stv_name":"Uncletopia | São Paulo | 1 | All Maps | STV","players":null},{"server_id":143,"name":"Uncletopia | São Paulo | 2 | All Maps","name_short":"sao-2","host":"sao-2.br.uncletopia.com","port":27015,"enabled":true,"region":"sa","cc":"br","latitude":-23.533773,"longitude":-46.62529,"reserved":0,"last_update":"0001-01-01T00:00:00Z","name_a2s":"Uncletopia | São Paulo | 2 | All Maps","protocol":17,"map":"koth_cascade","folder":"tf","game":"Team Fortress","app_id":440,"player_count":0,"max_players":24,"Bots":0,"server_type":"Dedicated","server_os":"Linux","password":true,"vac":true,"version":"7708610","steam_id":85568392924485349,"keywords":["cp","nocrits","nodmgspread","uncletopia"],"game_id":440,"stv_port":27016,"stv_name":"Uncletopia | São Paulo | 2 | All Maps | STV","players":null},{"server_id":7,"name":"Uncletopia | Seattle | 1 | All Maps","name_short":"sea-1","host":"sea-1.us.uncletopia.com","port":27015,"enabled":true,"region":"us-west","cc":"us","latitude":47.608013,"longitude":-122.33517,"reserved":0,"last_update":"0001-01-01T00:00:00Z","name_a2s":"Uncletopia | Seattle | 1 | All Maps","protocol":17,"map":"koth_nucleus","folder":"tf","game":"Team Fortress","app_id":440,"player_count":24,"max_players":24,"Bots":0,"server_type":"Dedicated","server_os":"Linux","password":true,"vac":true,"version":"7708610","steam_id":85568392924469997,"keywords":["cp","nocrits","nodmgspread","uncletopia"],"game_id":440,"stv_port":27016,"stv_name":"Uncletopia | Seattle | 1 | All Maps | STV","players":[{"user_id":679,"name":"incineratedbread","steam_id":76561198133619079,"connected_time":623000000000,"state":"active","ping":46},{"user_id":680,"name":"Whip_the_Rabbit","steam_id":76561198049896057,"connected_time":572000000000,"state":"active","ping":83},{"user_id":686,"name":"Jacob Highrise","steam_id":76561198346327753,"connected_time":320000000000,"state":"active","ping":56},{"user_id":673,"name":"[TrC] Dackstrus","steam_id":76561197973518509,"connected_time":911000000000,"state":"active","ping":60},{"user_id":682,"name":"Sir Galahad","steam_id":76561198195999859,"connected_time":384000000000,"state":"active","ping":47},{"user_id":591,"name":"[DATS➡] Sugar Meowth","steam_id":76561197995251793,"connected_time":7856000000000,"state":"active","ping":45},{"user_id":687,"name":"I stole your bike seat","steam_id":76561197975625699,"connected_time":150000000000,"state":"active","ping":89},{"user_id":674,"name":"Geight","steam_id":76561197991645292,"connected_time":668000000000,"state":"active","ping":49},{"user_id":683,"name":"giggity","steam_id":76561198197643703,"connected_time":367000000000,"state":"active","ping":47},{"user_id":669,"name":"Sykes10","steam_id":76561198279623105,"connected_time":1577000000000,"state":"active","ping":75},{"user_id":652,"name":"Faust","steam_id":76561198125178567,"connected_time":3001000000000,"state":"active","ping":60},{"user_id":667,"name":"A-Train","steam_id":76561199031775779,"connected_time":1767000000000,"state":"active","ping":88},{"user_id":557,"name":"Level 99 Mudcrab","steam_id":76561198077452771,"connected_time":10822000000000,"state":"active","ping":59},{"user_id":671,"name":"shplunker","steam_id":76561198169291327,"connected_time":1459000000000,"state":"active","ping":125},{"user_id":672,"name":"Savant","steam_id":76561197969881916,"connected_time":1370000000000,"state":"active","ping":55},{"user_id":650,"name":"squash","steam_id":76561198150281353,"connected_time":3236000000000,"state":"active","ping":58},{"user_id":670,"name":"smeasly","steam_id":76561198028718812,"connected_time":1500000000000,"state":"active","ping":38},{"user_id":684,"name":"brian griffin","steam_id":76561198846480611,"connected_time":360000000000,"state":"active","ping":45},{"user_id":643,"name":"Lord Hater","steam_id":76561199158148782,"connected_time":3687000000000,"state":"active","ping":64},{"user_id":677,"name":"[TrC] Nosy","steam_id":76561197978859310,"connected_time":644000000000,"state":"active","ping":56},{"user_id":685,"name":"mandr","steam_id":76561198152473589,"connected_time":360000000000,"state":"active","ping":113},{"user_id":661,"name":"......","steam_id":76561198067612741,"connected_time":2344000000000,"state":"active","ping":45},{"user_id":678,"name":"Cinna Mon","steam_id":76561198005840633,"connected_time":643000000000,"state":"active","ping":55},{"user_id":560,"name":"soup","steam_id":76561198043209046,"connected_time":10569000000000,"state":"active","ping":68}]},{"server_id":119,"name":"Uncletopia | Seattle | 2 | All Maps","name_short":"sea-2","host":"sea-1.us.uncletopia.com","port":27025,"enabled":true,"region":"us-west","cc":"us","latitude":47.608013,"longitude":-122.33517,"reserved":0,"last_update":"0001-01-01T00:00:00Z","name_a2s":"Uncletopia | Seattle | 2 | All Maps","protocol":17,"map":"koth_lakeside_final","folder":"tf","game":"Team Fortress","app_id":440,"player_count":23,"max_players":24,"Bots":0,"server_type":"Dedicated","server_os":"Linux","password":true,"vac":true,"version":"7708610","steam_id":85568392924469998,"keywords":["cp","nocrits","nodmgspread","uncletopia"],"game_id":440,"stv_port":27026,"stv_name":"Uncletopia | Seattle | 2 | All Maps | STV","players":[{"user_id":230,"name":"Dogg wader","steam_id":76561199090314340,"connected_time":1928000000000,"state":"active","ping":57},{"user_id":246,"name":"Lily Thorn","steam_id":76561198305488625,"connected_time":605000000000,"state":"active","ping":62},{"user_id":227,"name":"Winter the Witchie","steam_id":76561198151971178,"connected_time":2176000000000,"state":"active","ping":103},{"user_id":247,"name":"Flyingcat9000","steam_id":76561198179561797,"connected_time":596000000000,"state":"active","ping":60},{"user_id":226,"name":"hypotenuse","steam_id":76561198062479158,"connected_time":2211000000000,"state":"active","ping":60},{"user_id":241,"name":"CEO of Bonk! Corporations","steam_id":76561198374199513,"connected_time":1286000000000,"state":"active","ping":68},{"user_id":248,"name":"K.A.R.M.A.","steam_id":76561198240750142,"connected_time":561000000000,"state":"active","ping":77},{"user_id":144,"name":"Goofy Goober","steam_id":76561198128299594,"connected_time":8413000000000,"state":"active","ping":104},{"user_id":249,"name":"Gull","steam_id":76561198161560332,"connected_time":499000000000,"state":"active","ping":73},{"user_id":250,"name":"bullet man","steam_id":76561198080058079,"connected_time":481000000000,"state":"active","ping":52},{"user_id":207,"name":"ReformedOrthodoxRabbiBillClinto","steam_id":76561198401455467,"connected_time":3518000000000,"state":"active","ping":76},{"user_id":255,"name":"Seal","steam_id":76561197970204043,"connected_time":107000000000,"state":"active","ping":32},{"user_id":233,"name":"Goldbug","steam_id":76561198025221202,"connected_time":1747000000000,"state":"active","ping":135},{"user_id":179,"name":"Quantify45","steam_id":76561198044400135,"connected_time":5959000000000,"state":"active","ping":89},{"user_id":242,"name":"Frongus","steam_id":76561197979056451,"connected_time":1242000000000,"state":"active","ping":45},{"user_id":236,"name":"Bevan(The Manager)","steam_id":76561198073890273,"connected_time":1590000000000,"state":"active","ping":62},{"user_id":212,"name":"Jacasola","steam_id":76561198055460402,"connected_time":3424000000000,"state":"active","ping":62},{"user_id":251,"name":"ayaya?","steam_id":76561199000188109,"connected_time":479000000000,"state":"active","ping":71},{"user_id":254,"name":"twackpad","steam_id":76561198386955785,"connected_time":246000000000,"state":"active","ping":119},{"user_id":253,"name":"Maxx","steam_id":76561198045405304,"connected_time":370000000000,"state":"active","ping":52},{"user_id":162,"name":"CheeseCake488","steam_id":76561199407617942,"connected_time":7205000000000,"state":"active","ping":126},{"user_id":252,"name":"eryn 🗺","steam_id":76561198004433070,"connected_time":433000000000,"state":"active","ping":109}]},{"server_id":17,"name":"Uncletopia | San Francisco | 1 | All Maps","name_short":"sfo-1","host":"sfo-1.us.uncletopia.com","port":27015,"enabled":true,"region":"us-west","cc":"us","latitude":37.77397,"longitude":-122.4313,"reserved":0,"last_update":"0001-01-01T00:00:00Z","name_a2s":"Uncletopia | San Francisco | 1 | All Maps","protocol":17,"map":"koth_highpass","folder":"tf","game":"Team Fortress","app_id":440,"player_count":0,"max_players":24,"Bots":0,"server_type":"Dedicated","server_os":"Linux","password":true,"vac":true,"version":"7708610","steam_id":85568392924469999,"keywords":["cp","nocrits","nodmgspread","uncletopia"],"game_id":440,"stv_port":27016,"stv_name":"Uncletopia | San Francisco | 1 | All Maps | STV","players":null},{"server_id":18,"name":"Uncletopia | San Francisco | 2 | All Maps","name_short":"sfo-2","host":"sfo-1.us.uncletopia.com","port":27025,"enabled":true,"region":"us-west","cc":"us","latitude":37.77397,"longitude":-122.4313,"reserved":0,"last_update":"0001-01-01T00:00:00Z","name_a2s":"Uncletopia | San Francisco | 2 | All Maps","protocol":17,"map":"cp_mountainlab","folder":"tf","game":"Team Fortress","app_id":440,"player_count":24,"max_players":24,"Bots":0,"server_type":"Dedicated","server_os":"Linux","password":true,"vac":true,"version":"7708610","steam_id":85568392924470000,"keywords":["cp","nocrits","nodmgspread","uncletopia"],"game_id":440,"stv_port":27026,"stv_name":"Uncletopia | San Francisco | 2 | All Maps | STV","players":[{"user_id":6,"name":"stump","steam_id":76561198143450904,"connected_time":2910000000000,"state":"active","ping":66},{"user_id":7,"name":"Purple Crush mmm","steam_id":76561198256909502,"connected_time":2904000000000,"state":"active","ping":83},{"user_id":8,"name":"Shampoo","steam_id":76561198230195864,"connected_time":2859000000000,"state":"active","ping":89},{"user_id":33,"name":"Seriously Bruh","steam_id":76561198070408485,"connected_time":634000000000,"state":"active","ping":75},{"user_id":39,"name":"Larry Gooseman","steam_id":76561198018696922,"connected_time":411000000000,"state":"active","ping":64},{"user_id":15,"name":"Forgot to change my name","steam_id":76561198057399996,"connected_time":1366000000000,"state":"active","ping":46},{"user_id":34,"name":"SmallErection","steam_id":76561198071770147,"connected_time":630000000000,"state":"active","ping":77},{"user_id":16,"name":"Cardjitsu Blackbelt","steam_id":76561199099203623,"connected_time":1153000000000,"state":"active","ping":86},{"user_id":28,"name":"Swag6","steam_id":76561198064110837,"connected_time":867000000000,"state":"active","ping":48},{"user_id":18,"name":"FuzzyIggyPoyo","steam_id":76561198093205022,"connected_time":1112000000000,"state":"active","ping":84},{"user_id":19,"name":"omgitisme321","steam_id":76561198437173029,"connected_time":1100000000000,"state":"active","ping":69},{"user_id":20,"name":"I'mFromSpace","steam_id":76561198808969653,"connected_time":1097000000000,"state":"active","ping":69},{"user_id":40,"name":"Asolator0","steam_id":76561198095809798,"connected_time":388000000000,"state":"active","ping":58},{"user_id":22,"name":"Kehorn","steam_id":76561199407586534,"connected_time":1091000000000,"state":"active","ping":79},{"user_id":35,"name":"Jeb the Kerb","steam_id":76561198245329988,"connected_time":618000000000,"state":"active","ping":65},{"user_id":25,"name":"gary i need trenbolone","steam_id":76561198991938829,"connected_time":899000000000,"state":"active","ping":61},{"user_id":32,"name":"yule goat","steam_id":76561198293617465,"connected_time":755000000000,"state":"active","ping":131},{"user_id":27,"name":"Icy_Rhyse","steam_id":76561198155661147,"connected_time":876000000000,"state":"active","ping":63},{"user_id":29,"name":"Eggnog","steam_id":76561197968179862,"connected_time":844000000000,"state":"active","ping":68},{"user_id":36,"name":"RefriedToast","steam_id":76561198166187853,"connected_time":613000000000,"state":"active","ping":91},{"user_id":41,"name":"Trashamedly","steam_id":76561199049488718,"connected_time":386000000000,"state":"active","ping":95},{"user_id":42,"name":"Tritium","steam_id":76561198043305626,"connected_time":331000000000,"state":"active","ping":51},{"user_id":43,"name":"puffer","steam_id":76561199049164456,"connected_time":146000000000,"state":"active","ping":62},{"user_id":44,"name":"Amogous Supreme","steam_id":76561198025476774,"connected_time":138000000000,"state":"active","ping":58}]},{"server_id":19,"name":"Uncletopia | San Francisco | 3 | No Payload","name_short":"sfo-3","host":"sfo-1.us.uncletopia.com","port":27035,"enabled":true,"region":"us-west","cc":"us","latitude":37.77397,"longitude":-122.4313,"reserved":0,"last_update":"0001-01-01T00:00:00Z","name_a2s":"Uncletopia | San Francisco | 3 | No Payload","protocol":17,"map":"koth_lazarus","folder":"tf","game":"Team Fortress","app_id":440,"player_count":0,"max_players":24,"Bots":0,"server_type":"Dedicated","server_os":"Linux","password":true,"vac":true,"version":"7708610","steam_id":85568392924742824,"keywords":["cp","nocrits","nodmgspread","uncletopia"],"game_id":440,"stv_port":27036,"stv_name":"Uncletopia | San Francisco | 3 | No Payload | STV","players":null},{"server_id":20,"name":"Uncletopia | San Francisco | 4 | Community","name_short":"sfo-4","host":"sfo-1.us.uncletopia.com","port":27045,"enabled":true,"region":"us-west","cc":"us","latitude":37.77397,"longitude":-122.4313,"reserved":0,"last_update":"0001-01-01T00:00:00Z","name_a2s":"Uncletopia | San Francisco | 4 | Community","protocol":17,"map":"workshop/koth_slaughter_rc1.ugc1712845210","folder":"tf","game":"Team Fortress","app_id":440,"player_count":0,"max_players":24,"Bots":0,"server_type":"Dedicated","server_os":"Linux","password":true,"vac":true,"version":"7708610","steam_id":85568392924742826,"keywords":["cp","nocrits","nodmgspread","uncletopia"],"game_id":440,"stv_port":27046,"stv_name":"Uncletopia | San Francisco | 4 | Community | STV","players":null},{"server_id":141,"name":"Uncletopia | Sydney | 1 | All Maps","name_short":"syd-1","host":"syd-1.au.uncletopia.com","port":27015,"enabled":true,"region":"au","cc":"au","latitude":-33.865143,"longitude":151.2099,"reserved":0,"last_update":"0001-01-01T00:00:00Z","name_a2s":"Uncletopia | Sydney | 1 | All Maps","protocol":17,"map":"pl_pier","folder":"tf","game":"Team Fortress","app_id":440,"player_count":22,"max_players":24,"Bots":0,"server_type":"Dedicated","server_os":"Linux","password":true,"vac":true,"version":"7708610","steam_id":85568392924470001,"keywords":["nocrits","nodmgspread","payload","uncletopia"],"game_id":440,"stv_port":27016,"stv_name":"Uncletopia | Sydney | 1 | All Maps | STV","players":[{"user_id":274,"name":"The Goon","steam_id":76561198967034272,"connected_time":1140000000000,"state":"active","ping":71},{"user_id":287,"name":"toots","steam_id":76561198094589768,"connected_time":230000000000,"state":"active","ping":69},{"user_id":275,"name":"Dr Barry Mundy PhD","steam_id":76561198034512686,"connected_time":1127000000000,"state":"active","ping":38},{"user_id":235,"name":"MineSweeper2048","steam_id":76561198338746543,"connected_time":4206000000000,"state":"active","ping":52},{"user_id":245,"name":"bigdaddykane","steam_id":76561198867224434,"connected_time":3412000000000,"state":"active","ping":40},{"user_id":262,"name":"Ashes","steam_id":76561198105820742,"connected_time":1859000000000,"state":"active","ping":64},{"user_id":273,"name":"Tiger_Tan","steam_id":76561198221733844,"connected_time":1295000000000,"state":"active","ping":60},{"user_id":277,"name":"jcoll444","steam_id":76561198143025380,"connected_time":690000000000,"state":"active","ping":55},{"user_id":256,"name":"Egg","steam_id":76561198191266994,"connected_time":2284000000000,"state":"active","ping":183},{"user_id":278,"name":"Dankered","steam_id":76561198195891217,"connected_time":632000000000,"state":"active","ping":52},{"user_id":276,"name":"Azzy","steam_id":76561198096245286,"connected_time":826000000000,"state":"active","ping":45},{"user_id":285,"name":"cimpact","steam_id":76561198452258917,"connected_time":264000000000,"state":"active","ping":139},{"user_id":279,"name":"fanc","steam_id":76561198071106796,"connected_time":621000000000,"state":"active","ping":50},{"user_id":281,"name":"gimmick","steam_id":76561198449368846,"connected_time":458000000000,"state":"active","ping":66},{"user_id":288,"name":"Trins","steam_id":76561198040922808,"connected_time":154000000000,"state":"active","ping":52},{"user_id":172,"name":"Flak","steam_id":76561198205833232,"connected_time":8154000000000,"state":"active","ping":45},{"user_id":286,"name":"hyak","steam_id":76561198175700625,"connected_time":257000000000,"state":"active","ping":88},{"user_id":283,"name":"JuzwaPol","steam_id":76561199207322978,"connected_time":355000000000,"state":"active","ping":177},{"user_id":252,"name":"Huski","steam_id":76561198108956967,"connected_time":2561000000000,"state":"active","ping":63},{"user_id":284,"name":"xdxdhilarious | #SaveTF2","steam_id":76561199012042116,"connected_time":331000000000,"state":"active","ping":40},{"user_id":290,"name":"Epic Xbox Gamer","steam_id":76561198400649622,"connected_time":1000000000,"state":"spawning","ping":34},{"user_id":272,"name":"Neil Goodman","steam_id":76561198133545113,"connected_time":1390000000000,"state":"active","ping":47}]},{"server_id":123,"name":"Uncletopia | Sydney | 2 | All Maps","name_short":"syd-2","host":"syd-1.au.uncletopia.com","port":27025,"enabled":true,"region":"au","cc":"au","latitude":-33.865143,"longitude":151.2099,"reserved":0,"last_update":"0001-01-01T00:00:00Z","name_a2s":"Uncletopia | Sydney | 2 | All Maps","protocol":17,"map":"pl_frontier_final","folder":"tf","game":"Team Fortress","app_id":440,"player_count":0,"max_players":24,"Bots":0,"server_type":"Dedicated","server_os":"Linux","password":true,"vac":true,"version":"7708610","steam_id":85568392924470002,"keywords":["nocrits","nodmgspread","payload","uncletopia"],"game_id":440,"stv_port":27026,"stv_name":"Uncletopia | Sydney | 2 | All Maps | STV","players":null},{"server_id":395,"name":"Uncletopia | Sydney | 3 | All Maps","name_short":"syd-3","host":"syd-1.au.uncletopia.com","port":27035,"enabled":true,"region":"au","cc":"au","latitude":-33.865143,"longitude":151.2099,"reserved":0,"last_update":"0001-01-01T00:00:00Z","name_a2s":"Uncletopia | Sydney | 3 | All Maps","protocol":17,"map":"koth_viaduct","folder":"tf","game":"Team Fortress","app_id":440,"player_count":0,"max_players":24,"Bots":0,"server_type":"Dedicated","server_os":"Linux","password":true,"vac":true,"version":"7708610","steam_id":85568392925194467,"keywords":["cp","nocrits","nodmgspread","uncletopia"],"game_id":440,"stv_port":27036,"stv_name":"Uncletopia | Sydney | 3 | All Maps | STV","players":null},{"server_id":396,"name":"Uncletopia | Sydney | 4 | All Maps","name_short":"syd-4","host":"syd-1.au.uncletopia.com","port":27045,"enabled":true,"region":"au","cc":"au","latitude":-33.865143,"longitude":151.2099,"reserved":0,"last_update":"0001-01-01T00:00:00Z","name_a2s":"Uncletopia | Sydney | 4 | All Maps","protocol":17,"map":"pl_frontier_final","folder":"tf","game":"Team Fortress","app_id":440,"player_count":0,"max_players":24,"Bots":0,"server_type":"Dedicated","server_os":"Linux","password":true,"vac":true,"version":"7708610","steam_id":85568392925397958,"keywords":["nocrits","nodmgspread","payload","uncletopia"],"game_id":440,"stv_port":27046,"stv_name":"Uncletopia | Sydney | 4 | All Maps | STV","players":null},{"server_id":58,"name":"Uncletopia | Sydney | 5 | No Payload","name_short":"syd-5","host":"syd-1.au.uncletopia.com","port":27055,"enabled":true,"region":"au","cc":"au","latitude":-33.865143,"longitude":151.2099,"reserved":0,"last_update":"0001-01-01T00:00:00Z","name_a2s":"Uncletopia | Sydney | 5 | No Payload","protocol":17,"map":"pl_pier","folder":"tf","game":"Team Fortress","app_id":440,"player_count":0,"max_players":24,"Bots":0,"server_type":"Dedicated","server_os":"Linux","password":true,"vac":true,"version":"7708610","steam_id":85568392925397959,"keywords":["nocrits","nodmgspread","payload","uncletopia"],"game_id":440,"stv_port":27056,"stv_name":"Uncletopia | Sydney | 5 | No Payload | STV","players":null},{"server_id":59,"name":"Uncletopia | Sydney | 6 | Community","name_short":"syd-6","host":"syd-1.au.uncletopia.com","port":27065,"enabled":true,"region":"au","cc":"au","latitude":-33.865143,"longitude":151.2099,"reserved":0,"last_update":"0001-01-01T00:00:00Z","name_a2s":"Uncletopia | Sydney | 6 | Community","protocol":17,"map":"workshop/pl_barnblitz_pro7.ugc582280235","folder":"tf","game":"Team Fortress","app_id":440,"player_count":0,"max_players":24,"Bots":0,"server_type":"Dedicated","server_os":"Linux","password":true,"vac":true,"version":"7708610","steam_id":85568392925397960,"keywords":["nocrits","nodmgspread","payload","uncletopia"],"game_id":440,"stv_port":27066,"stv_name":"Uncletopia | Sydney | 6 | Community | STV","players":null},{"server_id":49,"name":"Uncletopia | Warsaw | 1 | All Maps","name_short":"waw-1","host":"waw-1.pl.uncletopia.com","port":27015,"enabled":true,"region":"eu","cc":"pl","latitude":52.2297,"longitude":21.017532,"reserved":0,"last_update":"0001-01-01T00:00:00Z","name_a2s":"Uncletopia | Warsaw | 1 | All Maps","protocol":17,"map":"pl_upward","folder":"tf","game":"Team Fortress","app_id":440,"player_count":0,"max_players":24,"Bots":0,"server_type":"Dedicated","server_os":"Linux","password":true,"vac":true,"version":"7708610","steam_id":85568392925397850,"keywords":["nocrits","nodmgspread","payload","uncletopia"],"game_id":440,"stv_port":27016,"stv_name":"Uncletopia | Warsaw | 1 | All Maps | STV","players":null},{"server_id":50,"name":"Uncletopia | Warsaw | 2 | All Maps","name_short":"waw-2","host":"waw-1.pl.uncletopia.com","port":27025,"enabled":true,"region":"eu","cc":"pl","latitude":52.2297,"longitude":21.017532,"reserved":0,"last_update":"0001-01-01T00:00:00Z","name_a2s":"Uncletopia | Warsaw | 2 | All Maps","protocol":17,"map":"koth_highpass","folder":"tf","game":"Team Fortress","app_id":440,"player_count":0,"max_players":24,"Bots":0,"server_type":"Dedicated","server_os":"Linux","password":true,"vac":true,"version":"7708610","steam_id":85568392925397851,"keywords":["cp","nocrits","nodmgspread","uncletopia"],"game_id":440,"stv_port":27026,"stv_name":"Uncletopia | Warsaw | 2 | All Maps | STV","players":null},{"server_id":51,"name":"Uncletopia | Warsaw | 3 | All Maps","name_short":"waw-3","host":"waw-1.pl.uncletopia.com","port":27035,"enabled":true,"region":"eu","cc":"pl","latitude":52.2297,"longitude":21.017532,"reserved":0,"last_update":"0001-01-01T00:00:00Z","name_a2s":"Uncletopia | Warsaw | 3 | All Maps","protocol":17,"map":"cp_yukon_final","folder":"tf","game":"Team Fortress","app_id":440,"player_count":0,"max_players":24,"Bots":0,"server_type":"Dedicated","server_os":"Linux","password":true,"vac":true,"version":"7708610","steam_id":85568392925397852,"keywords":["cp","nocrits","nodmgspread","uncletopia"],"game_id":440,"stv_port":27036,"stv_name":"Uncletopia | Warsaw | 3 | All Maps | STV","players":null},{"server_id":52,"name":"Uncletopia | Warsaw | 4 | All Maps","name_short":"waw-4","host":"waw-1.pl.uncletopia.com","port":27045,"enabled":true,"region":"eu","cc":"pl","latitude":52.2297,"longitude":21.017532,"reserved":0,"last_update":"0001-01-01T00:00:00Z","name_a2s":"Uncletopia | Warsaw | 4 | All Maps","protocol":17,"map":"pl_pier","folder":"tf","game":"Team Fortress","app_id":440,"player_count":0,"max_players":24,"Bots":0,"server_type":"Dedicated","server_os":"Linux","password":true,"vac":true,"version":"7708610","steam_id":85568392925397853,"keywords":["nocrits","nodmgspread","payload","uncletopia"],"game_id":440,"stv_port":27046,"stv_name":"Uncletopia | Warsaw | 4 | All Maps | STV","players":null},{"server_id":53,"name":"Uncletopia | Warsaw | 5 | No Payload","name_short":"waw-5","host":"waw-1.pl.uncletopia.com","port":27055,"enabled":true,"region":"eu","cc":"pl","latitude":52.2297,"longitude":21.017532,"reserved":0,"last_update":"0001-01-01T00:00:00Z","name_a2s":"Uncletopia | Warsaw | 5 | No Payload","protocol":17,"map":"pl_borneo","folder":"tf","game":"Team Fortress","app_id":440,"player_count":0,"max_players":24,"Bots":0,"server_type":"Dedicated","server_os":"Linux","password":true,"vac":true,"version":"7708610","steam_id":85568392925397854,"keywords":["nocrits","nodmgspread","payload","uncletopia"],"game_id":440,"stv_port":27056,"stv_name":"Uncletopia | Warsaw | 5 | No Payload | STV","players":null},{"server_id":54,"name":"Uncletopia | Warsaw | 6 | Community","name_short":"waw-6","host":"waw-1.pl.uncletopia.com","port":27065,"enabled":true,"region":"eu","cc":"pl","latitude":52.2297,"longitude":21.017532,"reserved":0,"last_update":"0001-01-01T00:00:00Z","name_a2s":"Uncletopia | Warsaw | 6 | Community","protocol":17,"map":"workshop/pl_barnblitz_pro7.ugc582280235","folder":"tf","game":"Team Fortress","app_id":440,"player_count":0,"max_players":24,"Bots":0,"server_type":"Dedicated","server_os":"Linux","password":true,"vac":true,"version":"7708610","steam_id":85568392925397856,"keywords":["nocrits","nodmgspread","payload","uncletopia"],"game_id":440,"stv_port":27066,"stv_name":"Uncletopia | Warsaw | 6 | Community | STV","players":null}]}