{"status":true,"message":"","result":[{"server_id":9,"name":"Uncletopia | Atlanta | 1 | All Maps","name_short":"atl-1","host":"atl-1.us.uncletopia.com","port":27015,"enabled":true,"region":"us-east","cc":"us","latitude":33.753746,"longitude":-84.38633,"reserved":0,"last_update":"0001-01-01T00:00:00Z","name_a2s":"Uncletopia | Atlanta | 1 | All Maps","protocol":17,"map":"pl_pier","folder":"tf","game":"Team Fortress","app_id":440,"player_count":24,"max_players":24,"Bots":0,"server_type":"Dedicated","server_os":"Linux","password":true,"vac":true,"version":"7757534","steam_id":85568392924469982,"keywords":["nocrits","nodmgspread","payload","uncletopia"],"game_id":440,"stv_port":27016,"stv_name":"Uncletopia | Atlanta | 1 | All Maps | STV","players":[{"user_id":381,"name":"G_Bob","steam_id":76561198098133233,"connected_time":6362000000000,"state":"active","ping":57},{"user_id":429,"name":"NEM","steam_id":76561199241131104,"connected_time":1975000000000,"state":"active","ping":81},{"user_id":442,"name":"ATL1 | on my hunting trip","steam_id":76561198315341646,"connected_time":670000000000,"state":"active","ping":69},{"user_id":441,"name":"Matt","steam_id":76561198008108521,"connected_time":810000000000,"state":"active","ping":90},{"user_id":378,"name":"You Want Me","steam_id":76561198135492119,"connected_time":6521000000000,"state":"active","ping":75},{"user_id":445,"name":"Mara Roo","steam_id":76561198279341789,"connected_time":592000000000,"state":"active","ping":84},{"user_id":428,"name":"Daisy the Pitbull","steam_id":76561198150327877,"connected_time":1981000000000,"state":"active","ping":40},{"user_id":385,"name":"O'Keearns","steam_id":76561198042213797,"connected_time":5807000000000,"state":"active","ping":45},{"user_id":430,"name":"Snoball","steam_id":76561198205838372,"connected_time":1874000000000,"state":"active","ping":54},{"user_id":434,"name":"Monster","steam_id":76561198189429665,"connected_time":1313000000000,"state":"active","ping":58},{"user_id":426,"name":"Decolour","steam_id":76561199045608372,"connected_time":2000000000000,"state":"active","ping":83},{"user_id":386,"name":"cola","steam_id":76561198374390458,"connected_time":5683000000000,"state":"active","ping":59},{"user_id":421,"name":"BambuBabyPackRunner","steam_id":76561198320866421,"connected_time":2456000000000,"state":"active","ping":50},{"user_id":319,"name":"Mage","steam_id":76561198285026879,"connected_time":10118000000000,"state":"active","ping":83},{"user_id":438,"name":"Basement Grandpa","steam_id":76561198014574925,"connected_time":889000000000,"state":"active","ping":90},{"user_id":435,"name":"Broadsword","steam_id":76561198011160411,"connected_time":1216000000000,"state":"active","ping":69},{"user_id":406,"name":"fortnite.jimmy.2014","steam_id":76561199177672325,"connected_time":4354000000000,"state":"active","ping":44},{"user_id":432,"name":"ATL1 | Bandi","steam_id":76561198432036026,"connected_time":1565000000000,"state":"active","ping":57},{"user_id":422,"name":"Young-OG","steam_id":76561198058800479,"connected_time":2401000000000,"state":"active","ping":70},{"user_id":446,"name":"eish","steam_id":76561198089463603,"connected_time":98000000000,"state":"active","ping":124},{"user_id":444,"name":"Doodleshy","steam_id":76561198103799866,"connected_time":652000000000,"state":"active","ping":56},{"user_id":412,"name":"mountain","steam_id":76561198078395002,"connected_time":3931000000000,"state":"active","ping":82},{"user_id":420,"name":"Tyler\u0026Fingers","steam_id":76561198085154485,"connected_time":2474000000000,"state":"active","ping":90},{"user_id":427,"name":"Motorol¬™","steam_id":76561198358119669,"connected_time":1990000000000,"state":"active","ping":103}]},{"server_id":400,"name":"Uncletopia | Atlanta | 3 | Community","name_short":"atl-3","host":"atl-1.us.uncletopia.com","port":27035,"enabled":true,"region":"us-east","cc":"us","latitude":33.753746,"longitude":-84.38633,"reserved":0,"last_update":"0001-01-01T00:00:00Z","name_a2s":"Uncletopia | Atlanta | 3 | Community","protocol":17,"map":"workshop/cp_propaganda_b18.ugc1603743849","folder":"tf","game":"Team Fortress","app_id":440,"player_count":0,"max_players":24,"Bots":0,"server_type":"Dedicated","server_os":"Linux","password":true,"vac":true,"version":"7757534","steam_id":85568392924515187,"keywords":["cp","nocrits","nodmgspread","uncletopia"],"game_id":440,"stv_port":27036,"stv_name":"Uncletopia | Atlanta | 3 | Community | STV","players":null},{"server_id":401,"name":"Uncletopia | Atlanta | 4 | No Payload","name_short":"atl-4","host":"atl-1.us.uncletopia.com","port":27045,"enabled":true,"region":"us-east","cc":"us","latitude":33.753746,"longitude":-84.38633,"reserved":0,"last_update":"0001-01-01T00:00:00Z","name_a2s":"","protocol":0,"map":"","folder":"","game":"","app_id":0,"player_count":0,"max_players":0,"Bots":0,"server_type":"","server_os":"","password":false,"vac":false,"version":"","steam_id":0,"keywords":null,"game_id":0,"stv_port":0,"stv_name":"","players":null},{"server_id":2,"name":"Uncletopia | Chicago | 1 | All Maps","name_short":"chi-1","host":"chi-1.us.uncletopia.com","port":27015,"enabled":true,"region":"us-central","cc":"us","latitude":41.881832,"longitude":-87.62318,"reserved":0,"last_update":"0001-01-01T00:00:00Z","name_a2s":"Uncletopia | Chicago | 1 | All Maps","protocol":17,"map":"pl_badwater","folder":"tf","game":"Team Fortress","app_id":440,"player_count":24,"max_players":24,"Bots":0,"server_type":"Dedicated","server_os":"Linux","password":true,"vac":true,"version":"7757534","steam_id":85568392924469984,"keywords":["nocrits","nodmgspread","payload","uncletopia"],"game_id":440,"stv_port":27016,"stv_name":"Uncletopia | Chicago | 1 | All Maps | STV","players":[{"user_id":159,"name":"mel","steam_id":76561198097124190,"connected_time":484000000000,"state":"active","ping":75},{"user_id":160,"name":"Stormz64","steam_id":76561198239036482,"connected_time":469000000000,"state":"active","ping":71},{"user_id":161,"name":"pablo","steam_id":76561198395577807,"connected_time":386000000000,"state":"active","ping":56},{"user_id":151,"name":"Julia","steam_id":76561198175727790,"connected_time":1182000000000,"state":"active","ping":103},{"user_id":153,"name":"MrrPamplemousse","steam_id":76561198072241333,"connected_time":1004000000000,"state":"active","ping":62},{"user_id":158,"name":"Smeller","steam_id":76561198041767882,"connected_time":772000000000,"state":"active","ping":45},{"user_id":139,"name":"Tones","steam_id":76561198039572032,"connected_time":2007000000000,"state":"active","ping":59},{"user_id":162,"name":"Orange Triangle","steam_id":76561198320498182,"connected_time":356000000000,"state":"active","ping":92},{"user_id":141,"name":"Ginger Jesus","steam_id":76561198052386458,"connected_time":1690000000000,"state":"active","ping":60},{"user_id":154,"name":"Mr. Dry Lips","steam_id":76561198028157625,"connected_time":1001000000000,"state":"active","ping":82},{"user_id":134,"name":"fish (2:3)","steam_id":76561198134331073,"connected_time":2329000000000,"state":"active","ping":112},{"user_id":132,"name":"Kapitan Bomba","steam_id":76561199102087660,"connected_time":2659000000000,"state":"active","ping":67},{"user_id":164,"name":"cam","steam_id":76561198030171717,"connected_time":222000000000,"state":"active","ping":117},{"user_id":90,"name":"Malevo","steam_id":76561198148606522,"connected_time":6991000000000,"state":"active","ping":84},{"user_id":163,"name":"loafe","steam_id":76561198119679320,"connected_time":333000000000,"state":"active","ping":48},{"user_id":143,"name":"Amazingamerhawk","steam_id":76561199064935924,"connected_time":1668000000000,"state":"active","ping":58},{"user_id":136,"name":"augs","steam_id":76561199120607417,"connected_time":2160000000000,"state":"active","ping":71},{"user_id":144,"name":"Dip-Shit Dave","steam_id":76561198357468325,"connected_time":1667000000000,"state":"active","ping":69},{"user_id":146,"name":"jstn","steam_id":76561198845283665,"connected_time":1643000000000,"state":"active","ping":76},{"user_id":156,"name":"Frozen-Traveler","steam_id":76561198121748166,"connected_time":900000000000,"state":"active","ping":74},{"user_id":166,"name":"Ursus Ludius","steam_id":76561198025470722,"connected_time":50000000000,"state":"active","ping":89},{"user_id":148,"name":"AidenWTD","steam_id":76561198212217552,"connected_time":1612000000000,"state":"active","ping":74},{"user_id":149,"name":"4 life","steam_id":76561198175961598,"connected_time":1562000000000,"state":"active","ping":116},{"user_id":152,"name":"chains","steam_id":76561197988802856,"connected_time":1061000000000,"state":"active","ping":151}]},{"server_id":106,"name":"Uncletopia | Chicago | 2 | All Maps","name_short":"chi-2","host":"chi-1.us.uncletopia.com","port":27025,"enabled":true,"region":"us-central","cc":"us","latitude":41.881832,"longitude":-87.62318,"reserved":0,"last_update":"0001-01-01T00:00:00Z","name_a2s":"Uncletopia | Chicago | 2 | All Maps","protocol":17,"map":"pl_borneo","folder":"tf","game":"Team Fortress","app_id":440,"player_count":24,"max_players":24,"Bots":0,"server_type":"Dedicated","server_os":"Linux","password":true,"vac":true,"version":"7757534","steam_id":85568392924469985,"keywords":["nocrits","nodmgspread","payload","uncletopia"],"game_id":440,"stv_port":27026,"stv_name":"Uncletopia | Chicago | 2 | All Maps | STV","players":[{"user_id":352,"name":"rice white","steam_id":76561198320732910,"connected_time":1533000000000,"state":"active","ping":75},{"user_id":363,"name":"AX0L_","steam_id":76561199008960175,"connected_time":397000000000,"state":"active","ping":49},{"user_id":337,"name":"spimtmot733","steam_id":76561199029189825,"connected_time":2415000000000,"state":"active","ping":64},{"user_id":364,"name":"swan","steam_id":76561198012569200,"connected_time":397000000000,"state":"active","ping":73},{"user_id":362,"name":"Exidy Buying Backpacks","steam_id":76561198036216584,"connected_time":404000000000,"state":"active","ping":85},{"user_id":359,"name":"Donkski","steam_id":76561198406895347,"connected_time":1362000000000,"state":"active","ping":62},{"user_id":365,"name":"frank","steam_id":76561198045436159,"connected_time":391000000000,"state":"active","ping":81},{"user_id":366,"name":"Cave","steam_id":76561198263551216,"connected_time":390000000000,"state":"active","ping":87},{"user_id":351,"name":"King of The Wood","steam_id":76561198132147358,"connected_time":1551000000000,"state":"active","ping":65},{"user_id":348,"name":"Greg69420","steam_id":76561198211335128,"connected_time":1730000000000,"state":"active","ping":102},{"user_id":326,"name":"Hammerhead","steam_id":76561198897122890,"connected_time":3425000000000,"state":"active","ping":58},{"user_id":371,"name":"Jill the Owl","steam_id":76561197999210583,"connected_time":327000000000,"state":"active","ping":75},{"user_id":345,"name":"TimTam Tom","steam_id":76561198045988062,"connected_time":1968000000000,"state":"active","ping":97},{"user_id":354,"name":"THRILLHO","steam_id":76561198371663047,"connected_time":1518000000000,"state":"active","ping":62},{"user_id":369,"name":"Bolgerp","steam_id":76561198007792525,"connected_time":372000000000,"state":"active","ping":129},{"user_id":342,"name":"Garfield","steam_id":76561198427292932,"connected_time":2091000000000,"state":"active","ping":58},{"user_id":370,"name":"Candy Sparkles","steam_id":76561198126871264,"connected_time":362000000000,"state":"active","ping":88},{"user_id":332,"name":"Johnny Lawrence #JohnnyMaxxing","steam_id":76561199367141671,"connected_time":2834000000000,"state":"active","ping":70},{"user_id":176,"name":"Wahooka","steam_id":76561197962240925,"connected_time":13485000000000,"state":"active","ping":60},{"user_id":372,"name":"Snazzi","steam_id":76561198085208276,"connected_time":322000000000,"state":"active","ping":93},{"user_id":325,"name":"Applesauce","steam_id":76561198049642811,"connected_time":3469000000000,"state":"active","ping":78},{"user_id":214,"name":"gettysburg","steam_id":76561198016157051,"connected_time":10708000000000,"state":"active","ping":74},{"user_id":350,"name":"Dottie [She/They]","steam_id":76561198282046179,"connected_time":1718000000000,"state":"active","ping":80},{"user_id":284,"name":"Reversed","steam_id":76561198136433466,"connected_time":5951000000000,"state":"active","ping":53}]},{"server_id":402,"name":"Uncletopia | Chicago | 3 | All Maps","name_short":"chi-3","host":"chi-1.us.uncletopia.com","port":27035,"enabled":true,"region":"us-central","cc":"us","latitude":41.881832,"longitude":-87.62318,"reserved":0,"last_update":"0001-01-01T00:00:00Z","name_a2s":"Uncletopia | Chicago | 3 | All Maps","protocol":17,"map":"pl_badwater","folder":"tf","game":"Team Fortress","app_id":440,"player_count":24,"max_players":24,"Bots":0,"server_type":"Dedicated","server_os":"Linux","password":true,"vac":true,"version":"7757534","steam_id":85568392924515191,"keywords":["nocrits","nodmgspread","payload","uncletopia"],"game_id":440,"stv_port":27036,"stv_name":"Uncletopia | Chicago | 3 | All Maps | STV","players":[{"user_id":21,"name":"ButterScotch","steam_id":76561199389314894,"connected_time":2753000000000,"state":"active","ping":62},{"user_id":69,"name":"Fredrick","steam_id":76561197981419964,"connected_time":45000000000,"state":"active","ping":60},{"user_id":22,"name":"princess musky paws","steam_id":76561198054925421,"connected_time":2745000000000,"state":"active","ping":51},{"user_id":66,"name":"extinct111","steam_id":76561199013696367,"connected_time":1098000000000,"state":"active","ping":65},{"user_id":50,"name":"gps","steam_id":76561198067492304,"connected_time":2217000000000,"state":"active","ping":84},{"user_id":36,"name":"DesolateCabbage","steam_id":76561198064467423,"connected_time":2477000000000,"state":"active","ping":70},{"user_id":67,"name":"BigBear","steam_id":76561198105227261,"connected_time":1023000000000,"state":"active","ping":90},{"user_id":53,"name":"Poptart From Mars","steam_id":76561197979930960,"connected_time":2055000000000,"state":"active","ping":70},{"user_id":62,"name":"Dot.","steam_id":76561198149463984,"connected_time":1283000000000,"state":"active","ping":49},{"user_id":31,"name":"Wild_Rumpus","steam_id":76561198066393719,"connected_time":2542000000000,"state":"active","ping":50},{"user_id":57,"name":"Macko","steam_id":76561198452005461,"connected_time":1665000000000,"state":"active","ping":81},{"user_id":49,"name":"sibling bane","steam_id":76561198196769297,"connected_time":2228000000000,"state":"active","ping":57},{"user_id":56,"name":"RockMan","steam_id":76561199228684720,"connected_time":1722000000000,"state":"active","ping":76},{"user_id":38,"name":"tree","steam_id":76561198116885731,"connected_time":2468000000000,"state":"active","ping":48},{"user_id":39,"name":"Lane","steam_id":76561197965828506,"connected_time":2461000000000,"state":"active","ping":40},{"user_id":58,"name":"tlm","steam_id":76561198178457461,"connected_time":1463000000000,"state":"active","ping":60},{"user_id":61,"name":"Bread Baker","steam_id":76561198185335103,"connected_time":1289000000000,"state":"active","ping":51},{"user_id":42,"name":"1994","steam_id":76561198868600487,"connected_time":2425000000000,"state":"active","ping":136},{"user_id":52,"name":"LegendaryMister151","steam_id":76561198064890524,"connected_time":2142000000000,"state":"active","ping":88},{"user_id":54,"name":"ùï≠ùñîùñùùñäùñò","steam_id":76561198892028667,"connected_time":1987000000000,"state":"active","ping":65},{"user_id":68,"name":"The Horselords and Animal Gods","steam_id":76561197975094050,"connected_time":789000000000,"state":"active","ping":111},{"user_id":47,"name":"REALLINUSJEWTIP.","steam_id":76561198056647983,"connected_time":2256000000000,"state":"active","ping":75},{"user_id":48,"name":"paisano","steam_id":76561198065575472,"connected_time":2251000000000,"state":"active","ping":57},{"user_id":51,"name":"aversa","steam_id":76561198840460101,"connected_time":2214000000000,"state":"active","ping":73}]},{"server_id":403,"name":"Uncletopia | Chicago | 4 | All Maps","name_short":"chi-4","host":"chi-1.us.uncletopia.com","port":27045,"enabled":true,"region":"us-central","cc":"us","latitude":41.881832,"longitude":-87.62318,"reserved":0,"last_update":"0001-01-01T00:00:00Z","name_a2s":"Uncletopia | Chicago | 4 | All Maps","protocol":17,"map":"pl_upward","folder":"tf","game":"Team Fortress","app_id":440,"player_count":24,"max_players":24,"Bots":0,"server_type":"Dedicated","server_os":"Linux","password":true,"vac":true,"version":"7757534","steam_id":85568392924515193,"keywords":["nocrits","nodmgspread","payload","uncletopia"],"game_id":440,"stv_port":27046,"stv_name":"Uncletopia | Chicago | 4 | All Maps | STV","players":[{"user_id":596,"name":"Goober","steam_id":76561198988863807,"connected_time":903000000000,"state":"active","ping":74},{"user_id":606,"name":"Alpha Goose","steam_id":76561198038927852,"connected_time":367000000000,"state":"active","ping":69},{"user_id":539,"name":"Jh0n","steam_id":76561198059013774,"connected_time":4850000000000,"state":"active","ping":148},{"user_id":597,"name":"radproturtle","steam_id":76561199227373885,"connected_time":896000000000,"state":"active","ping":55},{"user_id":594,"name":"Malphas, harbinger of finality.","steam_id":76561198103503066,"connected_time":966000000000,"state":"active","ping":88},{"user_id":575,"name":"TheTruthOfTheCessationOfDukkha","steam_id":76561198214370515,"connected_time":1909000000000,"state":"active","ping":53},{"user_id":583,"name":"GhostCoffee","steam_id":76561198105228900,"connected_time":1476000000000,"state":"active","ping":59},{"user_id":576,"name":"Bee","steam_id":76561198074681324,"connected_time":1900000000000,"state":"active","ping":57},{"user_id":584,"name":"Ground Control to Majortom","steam_id":76561198065589126,"connected_time":1464000000000,"state":"active","ping":83},{"user_id":591,"name":"Colepie","steam_id":76561198037853211,"connected_time":1241000000000,"state":"active","ping":76},{"user_id":598,"name":"Luciender","steam_id":76561198029833049,"connected_time":847000000000,"state":"active","ping":90},{"user_id":590,"name":"catrick bateman :3","steam_id":76561198211308328,"connected_time":1262000000000,"state":"active","ping":60},{"user_id":586,"name":"Quibbli","steam_id":76561199214866732,"connected_time":1445000000000,"state":"active","ping":70},{"user_id":603,"name":"VX_","steam_id":76561198211529143,"connected_time":676000000000,"state":"active","ping":58},{"user_id":578,"name":"human (real)","steam_id":76561197962607364,"connected_time":1861000000000,"state":"active","ping":68},{"user_id":593,"name":"cube","steam_id":76561197991759721,"connected_time":1084000000000,"state":"active","ping":60},{"user_id":601,"name":"bobbybeachchair","steam_id":76561198170939290,"connected_time":795000000000,"state":"active","ping":59},{"user_id":543,"name":"Watatsuki no Yorihime","steam_id":76561198063315650,"connected_time":4840000000000,"state":"active","ping":76},{"user_id":561,"name":"Fudgely","steam_id":76561198039425862,"connected_time":3377000000000,"state":"active","ping":75},{"user_id":608,"name":"Panckakebro","steam_id":76561198106419992,"connected_time":266000000000,"state":"active","ping":86},{"user_id":587,"name":"IamDSLAM","steam_id":76561198053546275,"connected_time":1416000000000,"state":"active","ping":60},{"user_id":605,"name":"6kre_1t","steam_id":76561198106157810,"connected_time":421000000000,"state":"active","ping":60},{"user_id":589,"name":"Alara","steam_id":76561198083144491,"connected_time":1406000000000,"state":"active","ping":65},{"user_id":609,"name":"Free F 2","steam_id":76561198045309016,"connected_time":117000000000,"state":"active","ping":72}]},{"server_id":36,"name":"Uncletopia | Chicago | 5 | All Maps","name_short":"chi-5","host":"chi-2.us.uncletopia.com","port":27015,"enabled":true,"region":"us-central","cc":"us","latitude":41.881832,"longitude":-87.62318,"reserved":0,"last_update":"0001-01-01T00:00:00Z","name_a2s":"Uncletopia | Chicago | 5 | All Maps","protocol":17,"map":"koth_lakeside_final","folder":"tf","game":"Team Fortress","app_id":440,"player_count":3,"max_players":24,"Bots":0,"server_type":"Dedicated","server_os":"Linux","password":true,"vac":true,"version":"7757534","steam_id":85568392924866362,"keywords":["cp","nocrits","nodmgspread","uncletopia"],"game_id":440,"stv_port":27016,"stv_name":"Uncletopia | Chicago | 5 | All Maps | STV","players":[{"user_id":20,"name":"Lakhesis","steam_id":76561197969796919,"connected_time":414000000000,"state":"active","ping":55},{"user_id":21,"name":"FartExploder01","steam_id":76561199124760806,"connected_time":393000000000,"state":"active","ping":56},{"user_id":22,"name":"BigDogStatus","steam_id":76561198393184741,"connected_time":103000000000,"state":"active","ping":64}]},{"server_id":37,"name":"Uncletopia | Chicago | 6 | All Maps","name_short":"chi-6","host":"chi-2.us.uncletopia.com","port":27025,"enabled":true,"region":"us-central","cc":"us","latitude":41.881832,"longitude":-87.62318,"reserved":0,"last_update":"0001-01-01T00:00:00Z","name_a2s":"Uncletopia | Chicago | 6 | All Maps","protocol":17,"map":"cp_process_final","folder":"tf","game":"Team Fortress","app_id":440,"player_count":24,"max_players":24,"Bots":0,"server_type":"Dedicated","server_os":"Linux","password":true,"vac":true,"version":"7757534","steam_id":85568392924866363,"keywords":["cp","nocrits","nodmgspread","uncletopia"],"game_id":440,"stv_port":27026,"stv_name":"Uncletopia | Chicago | 6 | All Maps | STV","players":[{"user_id":396,"name":"Owl Pacino","steam_id":76561197979970666,"connected_time":1638000000000,"state":"active","ping":54},{"user_id":413,"name":"Bird","steam_id":76561198247484514,"connected_time":1149000000000,"state":"active","ping":71},{"user_id":408,"name":"Dyson","steam_id":76561199081837220,"connected_time":1256000000000,"state":"active","ping":87},{"user_id":379,"name":"PINGAS DISPENSER‚Ñ¢","steam_id":76561198014868070,"connected_time":2988000000000,"state":"active","ping":100},{"user_id":409,"name":"shut #saveTF2","steam_id":76561199052847189,"connected_time":1246000000000,"state":"active","ping":68},{"user_id":404,"name":"CinnamonBoy","steam_id":76561198882330338,"connected_time":1303000000000,"state":"active","ping":74},{"user_id":410,"name":"DagyDin","steam_id":76561199212257554,"connected_time":1218000000000,"state":"active","ping":71},{"user_id":414,"name":"GamerMan","steam_id":76561199058616824,"connected_time":1134000000000,"state":"active","ping":74},{"user_id":343,"name":"dismissy","steam_id":76561198073904781,"connected_time":5101000000000,"state":"active","ping":146},{"user_id":412,"name":"Raptorria","steam_id":76561198105613110,"connected_time":1159000000000,"state":"active","ping":60},{"user_id":415,"name":"Kubloo","steam_id":76561198067391168,"connected_time":1113000000000,"state":"active","ping":65},{"user_id":426,"name":"Kitt(eh) ‚àë:3","steam_id":76561198110858518,"connected_time":356000000000,"state":"active","ping":58},{"user_id":402,"name":"Crumceral","steam_id":76561198276174282,"connected_time":1346000000000,"state":"active","ping":49},{"user_id":321,"name":"Fresh0c0","steam_id":76561198271933283,"connected_time":5978000000000,"state":"active","ping":57},{"user_id":424,"name":"Jammer","steam_id":76561198435691014,"connected_time":562000000000,"state":"active","ping":82},{"user_id":425,"name":"fish","steam_id":76561198054070811,"connected_time":515000000000,"state":"active","ping":105},{"user_id":423,"name":"Anomet","steam_id":76561198060246255,"connected_time":876000000000,"state":"active","ping":59},{"user_id":419,"name":"Huntpk","steam_id":76561198340591674,"connected_time":1039000000000,"state":"active","ping":43},{"user_id":364,"name":"=7Cav=CPL.Smith.V","steam_id":76561198104044042,"connected_time":4046000000000,"state":"active","ping":73},{"user_id":422,"name":"UberOffizer","steam_id":76561198283000429,"connected_time":929000000000,"state":"active","ping":94},{"user_id":403,"name":"CreativeCoffeeCake","steam_id":76561198323542875,"connected_time":1343000000000,"state":"active","ping":96},{"user_id":428,"name":"Squeejj","steam_id":76561198149250974,"connected_time":79000000000,"state":"active","ping":45},{"user_id":427,"name":"Chesh","steam_id":76561197990316722,"connected_time":150000000000,"state":"active","ping":83},{"user_id":401,"name":"Crazy__Biscuit","steam_id":76561198399851872,"connected_time":1425000000000,"state":"active","ping":76}]},{"server_id":38,"name":"Uncletopia | Chicago | 7 | Stopwatch Beta","name_short":"chi-7","host":"chi-2.us.uncletopia.com","port":27035,"enabled":true,"region":"us-central","cc":"us","latitude":41.881832,"longitude":-87.62318,"reserved":0,"last_update":"0001-01-01T00:00:00Z","name_a2s":"Uncletopia | Chicago | 7 | Stopwatch Beta","protocol":17,"map":"koth_lakeside_final","folder":"tf","game":"Team Fortress","app_id":440,"player_count":0,"max_players":24,"Bots":0,"server_type":"Dedicated","server_os":"Linux","password":true,"vac":true,"version":"7757534","steam_id":85568392924866364,"keywords":["cp","nocrits","nodmgspread","uncletopia"],"game_id":440,"stv_port":27036,"stv_name":"Uncletopia | Chicago | 7 | Stopwatch Beta | STV","players":null},{"server_id":39,"name":"Uncletopia | Chicago | 8 | Community","name_short":"chi-8","host":"chi-2.us.uncletopia.com","port":27045,"enabled":true,"region":"us-central","cc":"us","latitude":41.881832,"longitude":-87.62318,"reserved":0,"last_update":"0001-01-01T00:00:00Z","name_a2s":"Uncletopia | Chicago | 8 | Community","protocol":17,"map":"koth_lakeside_final","folder":"tf","game":"Team Fortress","app_id":440,"player_count":0,"max_players":24,"Bots":0,"server_type":"Dedicated","server_os":"Linux","password":true,"vac":true,"version":"7757534","steam_id":85568392924866365,"keywords":["cp","nocrits","nodmgspread","uncletopia"],"game_id":440,"stv_port":27046,"stv_name":"Uncletopia | Chicago | 8 | Community | STV","players":null},{"server_id":8,"name":"Uncletopia | Dallas | 1 | All Maps","name_short":"dal-1","host":"dal-1.us.uncletopia.com","port":27015,"enabled":true,"region":"us-central","cc":"us","latitude":32.779167,"longitude":-96.80889,"reserved":0,"last_update":"0001-01-01T00:00:00Z","name_a2s":"Uncletopia | Dallas | 1 | All Maps","protocol":17,"map":"pl_upward","folder":"tf","game":"Team Fortress","app_id":440,"player_count":24,"max_players":24,"Bots":0,"server_type":"Dedicated","server_os":"Linux","password":true,"vac":true,"version":"7757534","steam_id":85568392924469986,"keywords":["nocrits","nodmgspread","payload","uncletopia"],"game_id":440,"stv_port":27016,"stv_name":"Uncletopia | Dallas | 1 | All Maps | STV","players":[{"user_id":148,"name":"karbomb","steam_id":76561198120744480,"connected_time":6377000000000,"state":"active","ping":45},{"user_id":230,"name":"TheMightyClippy","steam_id":76561198036954331,"connected_time":176000000000,"state":"active","ping":63},{"user_id":222,"name":"Godmode","steam_id":76561198076240365,"connected_time":721000000000,"state":"active","ping":81},{"user_id":208,"name":"Akkawi","steam_id":76561198203159952,"connected_time":1802000000000,"state":"active","ping":83},{"user_id":226,"name":"Trench","steam_id":76561198251607766,"connected_time":442000000000,"state":"active","ping":120},{"user_id":157,"name":"TTV/PolperLane","steam_id":76561198079439317,"connected_time":5819000000000,"state":"active","ping":63},{"user_id":227,"name":"dad vibes","steam_id":76561197990714447,"connected_time":355000000000,"state":"active","ping":47},{"user_id":194,"name":"Scrombello Portabello","steam_id":76561198193574042,"connected_time":2787000000000,"state":"active","ping":99},{"user_id":231,"name":"SapphicBees","steam_id":76561198046767574,"connected_time":171000000000,"state":"active","ping":102},{"user_id":213,"name":"bottom pride burger","steam_id":76561198322247602,"connected_time":1421000000000,"state":"active","ping":87},{"user_id":216,"name":"Skrunkly","steam_id":76561198241629912,"connected_time":945000000000,"state":"active","ping":72},{"user_id":205,"name":"FleX","steam_id":76561198127374452,"connected_time":2355000000000,"state":"active","ping":90},{"user_id":215,"name":"TTV/ChadMorningWood","steam_id":76561198139832291,"connected_time":983000000000,"state":"active","ping":61},{"user_id":151,"name":"pour","steam_id":76561198127525888,"connected_time":6309000000000,"state":"active","ping":49},{"user_id":223,"name":"creamfilling","steam_id":76561198056328408,"connected_time":682000000000,"state":"active","ping":60},{"user_id":211,"name":"adam0o0","steam_id":76561198052250279,"connected_time":1585000000000,"state":"active","ping":75},{"user_id":197,"name":"CopperBox","steam_id":76561198068217248,"connected_time":2504000000000,"state":"active","ping":72},{"user_id":224,"name":"[DEEP] Roz257","steam_id":76561198842844532,"connected_time":573000000000,"state":"active","ping":79},{"user_id":228,"name":"Grumby","steam_id":76561198149175262,"connected_time":355000000000,"state":"active","ping":55},{"user_id":185,"name":"EmptyB33R","steam_id":76561198993166528,"connected_time":3723000000000,"state":"active","ping":130},{"user_id":229,"name":"[_Dr.Scythe_]","steam_id":76561198845245858,"connected_time":315000000000,"state":"active","ping":96},{"user_id":175,"name":"Bunny of Epicness","steam_id":76561198003897012,"connected_time":4107000000000,"state":"active","ping":46},{"user_id":178,"name":"mushroom taco","steam_id":76561198097554694,"connected_time":4042000000000,"state":"active","ping":45},{"user_id":219,"name":"Big G","steam_id":76561198067496197,"connected_time":938000000000,"state":"active","ping":75}]},{"server_id":108,"name":"Uncletopia | Dallas | 2 | All Maps","name_short":"dal-2","host":"dal-1.us.uncletopia.com","port":27025,"enabled":true,"region":"us-central","cc":"us","latitude":32.779167,"longitude":-96.80889,"reserved":0,"last_update":"0001-01-01T00:00:00Z","name_a2s":"Uncletopia | Dallas | 2 | All Maps","protocol":17,"map":"cp_steel","folder":"tf","game":"Team Fortress","app_id":440,"player_count":25,"max_players":24,"Bots":0,"server_type":"Dedicated","server_os":"Linux","password":true,"vac":true,"version":"7757534","steam_id":85568392924469988,"keywords":["cp","nocrits","nodmgspread","uncletopia"],"game_id":440,"stv_port":27026,"stv_name":"Uncletopia | Dallas | 2 | All Maps | STV","players":[{"user_id":18,"name":"Derply","steam_id":76561198871211642,"connected_time":2279000000000,"state":"active","ping":79},{"user_id":19,"name":"GoldenPear","steam_id":76561199019468811,"connected_time":2276000000000,"state":"active","ping":56},{"user_id":24,"name":"Kenku","steam_id":76561199086762926,"connected_time":1548000000000,"state":"active","ping":63},{"user_id":21,"name":"Agent Bowtie","steam_id":76561198175839279,"connected_time":1836000000000,"state":"active","ping":60},{"user_id":53,"name":"Crows!","steam_id":76561198150086324,"connected_time":300000000000,"state":"active","ping":60},{"user_id":23,"name":"mmorpgkitty","steam_id":76561198304456893,"connected_time":1728000000000,"state":"active","ping":55},{"user_id":25,"name":"federal agent","steam_id":76561198136278172,"connected_time":1480000000000,"state":"active","ping":83},{"user_id":38,"name":"nalls pebis","steam_id":76561198986534519,"connected_time":1001000000000,"state":"active","ping":90},{"user_id":27,"name":"TV12Lime","steam_id":76561199036195384,"connected_time":1353000000000,"state":"active","ping":61},{"user_id":28,"name":"catrinaisahuman","steam_id":76561198281355729,"connected_time":1304000000000,"state":"active","ping":61},{"user_id":29,"name":"mkl","steam_id":76561197986401685,"connected_time":1286000000000,"state":"active","ping":59},{"user_id":48,"name":"Gary Budussy","steam_id":76561197969793969,"connected_time":755000000000,"state":"active","ping":69},{"user_id":31,"name":"magotago","steam_id":76561198013650292,"connected_time":1204000000000,"state":"active","ping":111},{"user_id":47,"name":"Aeris","steam_id":76561198287271028,"connected_time":764000000000,"state":"active","ping":85},{"user_id":40,"name":"Chaotic Rushu","steam_id":76561198170054407,"connected_time":956000000000,"state":"active","ping":149},{"user_id":41,"name":"candied mosquito","steam_id":76561199060494678,"connected_time":928000000000,"state":"active","ping":77},{"user_id":35,"name":"Titar Industries","steam_id":76561198143078476,"connected_time":1126000000000,"state":"active","ping":99},{"user_id":55,"name":"MARIOPARTYDSFAN","steam_id":76561198872122117,"connected_time":5000000000,"state":"spawning","ping":71},{"user_id":42,"name":"SCATTER","steam_id":76561198405168492,"connected_time":917000000000,"state":"active","ping":104},{"user_id":54,"name":"DMM","steam_id":76561198065426171,"connected_time":89000000000,"state":"active","ping":59},{"user_id":44,"name":"Commissar","steam_id":76561198137223253,"connected_time":869000000000,"state":"active","ping":48},{"user_id":52,"name":"That","steam_id":76561198072293791,"connected_time":730000000000,"state":"active","ping":116},{"user_id":49,"name":"Al3x","steam_id":76561198056006234,"connected_time":752000000000,"state":"active","ping":79},{"user_id":51,"name":"931 GB","steam_id":76561198021133284,"connected_time":737000000000,"state":"active","ping":120},{"user_id":56,"name":"Dark","steam_id":76561198043073636,"connected_time":5000000000,"state":"spawning","ping":81}]},{"server_id":5,"name":"Uncletopia | Frankfurt | 1 | All Maps","name_short":"frk-1","host":"frk-1.de.uncletopia.com","port":27015,"enabled":true,"region":"eu","cc":"de","latitude":50.110924,"longitude":8.682127,"reserved":0,"last_update":"0001-01-01T00:00:00Z","name_a2s":"Uncletopia | Frankfurt | 1 | All Maps","protocol":17,"map":"cp_altitude","folder":"tf","game":"Team Fortress","app_id":440,"player_count":0,"max_players":24,"Bots":0,"server_type":"Dedicated","server_os":"Linux","password":true,"vac":true,"version":"7757534","steam_id":85568392924469989,"keywords":["cp","nocrits","nodmgspread","uncletopia"],"game_id":440,"stv_port":27016,"stv_name":"Uncletopia | Frankfurt | 1 | All Maps | STV","players":null},{"server_id":110,"name":"Uncletopia | Frankfurt | 2 | All Maps","name_short":"frk-2","host":"frk-1.de.uncletopia.com","port":27025,"enabled":true,"region":"eu","cc":"de","latitude":50.110924,"longitude":8.682127,"reserved":0,"last_update":"0001-01-01T00:00:00Z","name_a2s":"Uncletopia | Frankfurt | 2 | All Maps","protocol":17,"map":"pl_frontier_final","folder":"tf","game":"Team Fortress","app_id":440,"player_count":1,"max_players":24,"Bots":0,"server_type":"Dedicated","server_os":"Linux","password":true,"vac":true,"version":"7757534","steam_id":85568392924469990,"keywords":["nocrits","nodmgspread","payload","uncletopia"],"game_id":440,"stv_port":27026,"stv_name":"Uncletopia | Frankfurt | 2 | All Maps | STV","players":[{"user_id":27,"name":"Seb, Comrade","steam_id":76561198040279587,"connected_time":82000000000,"state":"active","ping":92}]},{"server_id":308,"name":"Uncletopia | Frankfurt | 3 | All Maps","name_short":"frk-3","host":"frk-1.de.uncletopia.com","port":27035,"enabled":true,"region":"eu","cc":"de","latitude":50.110924,"longitude":8.682127,"reserved":0,"last_update":"0001-01-01T00:00:00Z","name_a2s":"Uncletopia | Frankfurt | 3 | All Maps","protocol":17,"map":"pl_badwater","folder":"tf","game":"Team Fortress","app_id":440,"player_count":24,"max_players":24,"Bots":0,"server_type":"Dedicated","server_os":"Linux","password":true,"vac":true,"version":"7757534","steam_id":85568392924504274,"keywords":["nocrits","nodmgspread","payload","uncletopia"],"game_id":440,"stv_port":27036,"stv_name":"Uncletopia | Frankfurt | 3 | All Maps | STV","players":[{"user_id":219,"name":"Erebus","steam_id":76561199061956673,"connected_time":2355000000000,"state":"active","ping":164},{"user_id":229,"name":"Zonts","steam_id":76561198850176432,"connected_time":1820000000000,"state":"active","ping":77},{"user_id":236,"name":"addicted","steam_id":76561199129801006,"connected_time":974000000000,"state":"active","ping":45},{"user_id":223,"name":"zak","steam_id":76561197998895428,"connected_time":2314000000000,"state":"active","ping":46},{"user_id":242,"name":"Lucan","steam_id":76561198219195135,"connected_time":682000000000,"state":"active","ping":56},{"user_id":218,"name":"Malkuth","steam_id":76561198058567662,"connected_time":2377000000000,"state":"active","ping":98},{"user_id":211,"name":"grant'd","steam_id":76561198056152479,"connected_time":2640000000000,"state":"active","ping":58},{"user_id":198,"name":"R","steam_id":76561199379233899,"connected_time":3396000000000,"state":"active","ping":84},{"user_id":186,"name":"Ar|es","steam_id":76561198819160313,"connected_time":4497000000000,"state":"active","ping":86},{"user_id":163,"name":"gragos","steam_id":76561199379401262,"connected_time":6257000000000,"state":"active","ping":81},{"user_id":232,"name":"Raingnome @SaveTF2","steam_id":76561198007394958,"connected_time":1493000000000,"state":"active","ping":69},{"user_id":235,"name":"Minimi","steam_id":76561198873850443,"connected_time":1012000000000,"state":"active","ping":60},{"user_id":244,"name":"subway vergil","steam_id":76561199110064166,"connected_time":548000000000,"state":"active","ping":85},{"user_id":234,"name":"lolimsogreat21","steam_id":76561199052033788,"connected_time":1228000000000,"state":"active","ping":77},{"user_id":195,"name":"Havers√°c","steam_id":76561198807525396,"connected_time":3545000000000,"state":"active","ping":91},{"user_id":238,"name":"Shibe","steam_id":76561198071312153,"connected_time":889000000000,"state":"active","ping":58},{"user_id":230,"name":"Pinkchup","steam_id":76561198106802803,"connected_time":1818000000000,"state":"active","ping":75},{"user_id":173,"name":"Baki ‡∂û","steam_id":76561198193615529,"connected_time":5695000000000,"state":"active","ping":52},{"user_id":239,"name":"Cane","steam_id":76561197976831215,"connected_time":883000000000,"state":"active","ping":95},{"user_id":185,"name":"( ÃøƒπÃØ Ãø Ãø)","steam_id":76561198001136365,"connected_time":4719000000000,"state":"active","ping":88},{"user_id":202,"name":"minespweper","steam_id":76561199096919345,"connected_time":2958000000000,"state":"active","ping":83},{"user_id":226,"name":"sHIFTINGvORTEX","steam_id":76561198231648332,"connected_time":2159000000000,"state":"active","ping":82},{"user_id":240,"name":"Eleren","steam_id":76561198123361225,"connected_time":870000000000,"state":"active","ping":63},{"user_id":241,"name":"tiia (cold hends)","steam_id":76561198046196005,"connected_time":835000000000,"state":"active","ping":42}]},{"server_id":309,"name":"Uncletopia | Frankfurt | 4 | All Maps","name_short":"frk-4","host":"frk-1.de.uncletopia.com","port":27045,"enabled":true,"region":"eu","cc":"de","latitude":50.110924,"longitude":8.682127,"reserved":0,"last_update":"0001-01-01T00:00:00Z","name_a2s":"Uncletopia | Frankfurt | 4 | All Maps","protocol":17,"map":"cp_granary","folder":"tf","game":"Team Fortress","app_id":440,"player_count":24,"max_players":24,"Bots":0,"server_type":"Dedicated","server_os":"Linux","password":true,"vac":true,"version":"7757534","steam_id":85568392924504275,"keywords":["cp","nocrits","nodmgspread","uncletopia"],"game_id":440,"stv_port":27046,"stv_name":"Uncletopia | Frankfurt | 4 | All Maps | STV","players":[{"user_id":387,"name":"xd","steam_id":76561198066523881,"connected_time":760000000000,"state":"active","ping":51},{"user_id":378,"name":"Zatusrex","steam_id":76561198104147805,"connected_time":1416000000000,"state":"active","ping":70},{"user_id":402,"name":"DeCypher [She/Her]","steam_id":76561198171992619,"connected_time":254000000000,"state":"active","ping":73},{"user_id":403,"name":"eduardo","steam_id":76561198014491925,"connected_time":231000000000,"state":"active","ping":74},{"user_id":381,"name":"jar","steam_id":76561198156384007,"connected_time":1348000000000,"state":"active","ping":65},{"user_id":401,"name":"Cobb Salads","steam_id":76561197971140507,"connected_time":392000000000,"state":"active","ping":75},{"user_id":398,"name":"Auntie Jane The Demo Main","steam_id":76561199154515506,"connected_time":432000000000,"state":"active","ping":60},{"user_id":404,"name":"HamsterPi","steam_id":76561198079430842,"connected_time":221000000000,"state":"active","ping":75},{"user_id":405,"name":"Zoombie","steam_id":76561198041219518,"connected_time":220000000000,"state":"active","ping":69},{"user_id":406,"name":"Stone Cold Jane Austen","steam_id":76561198072017971,"connected_time":215000000000,"state":"active","ping":78},{"user_id":407,"name":"when you sleep","steam_id":76561198028164246,"connected_time":192000000000,"state":"active","ping":76},{"user_id":386,"name":"Blondie","steam_id":76561198080631634,"connected_time":1073000000000,"state":"active","ping":72},{"user_id":408,"name":"usia","steam_id":76561198120406679,"connected_time":177000000000,"state":"active","ping":74},{"user_id":409,"name":"DeKritteh","steam_id":76561198113945397,"connected_time":175000000000,"state":"active","ping":68},{"user_id":410,"name":"waffle toaster","steam_id":76561198799089628,"connected_time":175000000000,"state":"active","ping":61},{"user_id":411,"name":"Long Lost Soul","steam_id":76561198187090805,"connected_time":161000000000,"state":"active","ping":88},{"user_id":412,"name":"pijacka","steam_id":76561198103899658,"connected_time":154000000000,"state":"active","ping":47},{"user_id":413,"name":"cockwater","steam_id":76561198209101861,"connected_time":150000000000,"state":"active","ping":62},{"user_id":414,"name":"fogings","steam_id":76561198044165284,"connected_time":147000000000,"state":"active","ping":45},{"user_id":415,"name":"torn","steam_id":76561198223003236,"connected_time":143000000000,"state":"active","ping":54},{"user_id":416,"name":"Zenos","steam_id":76561198058829310,"connected_time":136000000000,"state":"active","ping":53},{"user_id":417,"name":"N3lly","steam_id":76561198815271970,"connected_time":128000000000,"state":"active","ping":60},{"user_id":418,"name":"dairy","steam_id":76561198117033273,"connected_time":112000000000,"state":"active","ping":73},{"user_id":419,"name":"Hank J Wimbleton","steam_id":76561198408623293,"connected_time":102000000000,"state":"active","ping":88}]},{"server_id":310,"name":"Uncletopia | Frankfurt | 5 | All Maps","name_short":"frk-5","host":"frk-1.de.uncletopia.com","port":27055,"enabled":true,"region":"eu","cc":"de","latitude":50.110924,"longitude":8.682127,"reserved":0,"last_update":"0001-01-01T00:00:00Z","name_a2s":"Uncletopia | Frankfurt | 5 | All Maps","protocol":17,"map":"pl_barnblitz","folder":"tf","game":"Team Fortress","app_id":440,"player_count":0,"max_players":24,"Bots":0,"server_type":"Dedicated","server_os":"Linux","password":true,"vac":true,"version":"7757534","steam_id":85568392924504277,"keywords":["nocrits","nodmgspread","payload","uncletopia"],"game_id":440,"stv_port":27056,"stv_name":"Uncletopia | Frankfurt | 5 | All Maps | STV","players":null},{"server_id":311,"name":"Uncletopia | Frankfurt | 6 | All Maps","name_short":"frk-6","host":"frk-1.de.uncletopia.com","port":27065,"enabled":true,"region":"eu","cc":"de","latitude":50.110924,"longitude":8.682127,"reserved":0,"last_update":"0001-01-01T00:00:00Z","name_a2s":"Uncletopia | Frankfurt | 6 | All Maps","protocol":17,"map":"pl_barnblitz","folder":"tf","game":"Team Fortress","app_id":440,"player_count":23,"max_players":24,"Bots":0,"server_type":"Dedicated","server_os":"Linux","password":true,"vac":true,"version":"7757534","steam_id":85568392924504278,"keywords":["nocrits","nodmgspread","payload","uncletopia"],"game_id":440,"stv_port":27066,"stv_name":"Uncletopia | Frankfurt | 6 | All Maps | STV","players":[{"user_id":333,"name":"brainrot","steam_id":76561199414716848,"connected_time":1314000000000,"state":"active","ping":68},{"user_id":327,"name":"Zelmor","steam_id":76561197997708311,"connected_time":1445000000000,"state":"active","ping":59},{"user_id":334,"name":"DarthMurloc_OW","steam_id":76561198075577711,"connected_time":1285000000000,"state":"active","ping":72},{"user_id":330,"name":"Mlanky","steam_id":76561198047796778,"connected_time":1324000000000,"state":"active","ping":51},{"user_id":335,"name":"fl1p","steam_id":76561198148565659,"connected_time":1282000000000,"state":"active","ping":74},{"user_id":318,"name":"0","steam_id":76561198267909207,"connected_time":1821000000000,"state":"active","ping":85},{"user_id":344,"name":"Lexios","steam_id":76561198079780864,"connected_time":600000000000,"state":"active","ping":46},{"user_id":321,"name":"quaddmg -∆í$-","steam_id":76561198119449463,"connected_time":1539000000000,"state":"active","ping":74},{"user_id":322,"name":"Drdarlekzzz","steam_id":76561198160141785,"connected_time":1530000000000,"state":"active","ping":60},{"user_id":329,"name":"Cheshireycat","steam_id":76561198067204908,"connected_time":1366000000000,"state":"active","ping":74},{"user_id":288,"name":"dagadt_ty√∫k.69","steam_id":76561198147173457,"connected_time":4718000000000,"state":"active","ping":57},{"user_id":324,"name":"MS","steam_id":76561198037560108,"connected_time":1477000000000,"state":"active","ping":57},{"user_id":293,"name":"Lahti","steam_id":76561198131356110,"connected_time":4568000000000,"state":"active","ping":106},{"user_id":342,"name":"tapeworms!","steam_id":76561198069649097,"connected_time":951000000000,"state":"active","ping":65},{"user_id":328,"name":"gruzicki","steam_id":76561198159532886,"connected_time":1443000000000,"state":"active","ping":86},{"user_id":336,"name":"KittyKate ‚ù§","steam_id":76561198116340817,"connected_time":1271000000000,"state":"active","ping":62},{"user_id":315,"name":"Foxer","steam_id":76561198015003642,"connected_time":1936000000000,"state":"active","ping":86},{"user_id":332,"name":"Phalcon","steam_id":76561197987051394,"connected_time":1317000000000,"state":"active","ping":75},{"user_id":343,"name":"yamsi","steam_id":76561198297753260,"connected_time":615000000000,"state":"active","ping":75},{"user_id":295,"name":"üñ§Ôº°Ôº≥Ôº≤Ôº©Ôº•Ôº¨üñ§","steam_id":76561198040246293,"connected_time":4490000000000,"state":"active","ping":73},{"user_id":346,"name":"S. ARMSTRONG","steam_id":76561198038748489,"connected_time":508000000000,"state":"active","ping":70},{"user_id":228,"name":"s a i","steam_id":76561197970379754,"connected_time":9650000000000,"state":"active","ping":57},{"user_id":341,"name":"BuzzBees ‚ù§","steam_id":76561198101502273,"connected_time":1157000000000,"state":"active","ping":68}]},{"server_id":23,"name":"Uncletopia | Frankfurt | 7 | Stopwatch Beta","name_short":"frk-7","host":"frk-1.de.uncletopia.com","port":27075,"enabled":true,"region":"eu","cc":"de","latitude":50.110924,"longitude":8.682127,"reserved":0,"last_update":"0001-01-01T00:00:00Z","name_a2s":"Uncletopia | Frankfurt | 7 | Stopwatch Beta","protocol":17,"map":"workshop/koth_ashville_final.ugc2130459942","folder":"tf","game":"Team Fortress","app_id":440,"player_count":0,"max_players":24,"Bots":0,"server_type":"Dedicated","server_os":"Linux","password":true,"vac":true,"version":"7757534","steam_id":85568392924742827,"keywords":["cp","nocrits","nodmgspread","uncletopia"],"game_id":440,"stv_port":27076,"stv_name":"Uncletopia | Frankfurt | 7 | Stopwatch Beta | STV","players":null},{"server_id":24,"name":"Uncletopia | Frankfurt | 8 | Community","name_short":"frk-8","host":"frk-1.de.uncletopia.com","port":27085,"enabled":true,"region":"eu","cc":"de","latitude":50.110924,"longitude":8.682127,"reserved":0,"last_update":"0001-01-01T00:00:00Z","name_a2s":"Uncletopia | Frankfurt | 8 | Community","protocol":17,"map":"workshop/cp_caldera_rc2.ugc2834196889","folder":"tf","game":"Team Fortress","app_id":440,"player_count":0,"max_players":24,"Bots":0,"server_type":"Dedicated","server_os":"Linux","password":true,"vac":true,"version":"7757534","steam_id":85568392924742828,"keywords":["cp","nocrits","nodmgspread","uncletopia"],"game_id":440,"stv_port":27086,"stv_name":"Uncletopia | Frankfurt | 8 | Community | STV","players":null},{"server_id":202,"name":"Uncletopia | Hong Kong | 1 | All Maps","name_short":"hgk-1","host":"hgk-1.hk.uncletopia.com","port":27015,"enabled":true,"region":"asia","cc":"hk","latitude":22.302711,"longitude":114.177216,"reserved":0,"last_update":"0001-01-01T00:00:00Z","name_a2s":"Uncletopia | Hong Kong | 1 | All Maps","protocol":17,"map":"cp_sunshine","folder":"tf","game":"Team Fortress","app_id":440,"player_count":0,"max_players":24,"Bots":0,"server_type":"Dedicated","server_os":"Linux","password":true,"vac":true,"version":"7757534","steam_id":85568392924494504,"keywords":["cp","nocrits","nodmgspread","uncletopia"],"game_id":440,"stv_port":27016,"stv_name":"Uncletopia | Hong Kong | 1 | All Maps | STV","players":null},{"server_id":1,"name":"Uncletopia | Los Angeles | 1 | All Maps","name_short":"lax-1","host":"lax-1.us.uncletopia.com","port":27015,"enabled":true,"region":"us-west","cc":"us","latitude":33.94279,"longitude":-118.41004,"reserved":0,"last_update":"0001-01-01T00:00:00Z","name_a2s":"Uncletopia | Los Angeles | 1 | All Maps","protocol":17,"map":"koth_lakeside_final","folder":"tf","game":"Team Fortress","app_id":440,"player_count":0,"max_players":24,"Bots":0,"server_type":"Dedicated","server_os":"Linux","password":true,"vac":true,"version":"7757534","steam_id":85568392924469991,"keywords":["cp","nocrits","nodmgspread","uncletopia"],"game_id":440,"stv_port":27016,"stv_name":"Uncletopia | Los Angeles | 1 | All Maps | STV","players":null},{"server_id":112,"name":"Uncletopia | Los Angeles | 2 | All Maps","name_short":"lax-2","host":"lax-1.us.uncletopia.com","port":27025,"enabled":true,"region":"us-west","cc":"us","latitude":33.94279,"longitude":-118.41004,"reserved":0,"last_update":"0001-01-01T00:00:00Z","name_a2s":"Uncletopia | Los Angeles | 2 | All Maps","protocol":17,"map":"koth_viaduct","folder":"tf","game":"Team Fortress","app_id":440,"player_count":0,"max_players":24,"Bots":0,"server_type":"Dedicated","server_os":"Linux","password":true,"vac":true,"version":"7757534","steam_id":85568392924469992,"keywords":["cp","nocrits","nodmgspread","uncletopia"],"game_id":440,"stv_port":27026,"stv_name":"Uncletopia | Los Angeles | 2 | All Maps | STV","players":null},{"server_id":324,"name":"Uncletopia | Los Angeles | 3 | All Maps","name_short":"lax-3","host":"lax-1.us.uncletopia.com","port":27035,"enabled":true,"region":"us-west","cc":"us","latitude":33.94279,"longitude":-118.41004,"reserved":0,"last_update":"0001-01-01T00:00:00Z","name_a2s":"Uncletopia | Los Angeles | 3 | All Maps","protocol":17,"map":"cp_dustbowl","folder":"tf","game":"Team Fortress","app_id":440,"player_count":0,"max_players":24,"Bots":0,"server_type":"Dedicated","server_os":"Linux","password":true,"vac":true,"version":"7757534","steam_id":85568392924510198,"keywords":["cp","nocrits","nodmgspread","uncletopia"],"game_id":440,"stv_port":27036,"stv_name":"Uncletopia | Los Angeles | 3 | All Maps | STV","players":null},{"server_id":25,"name":"Uncletopia | Los Angeles | 4 | Stopwatch Beta","name_short":"lax-4","host":"lax-1.us.uncletopia.com","port":27045,"enabled":true,"region":"us-west","cc":"us","latitude":33.94279,"longitude":-118.41004,"reserved":0,"last_update":"0001-01-01T00:00:00Z","name_a2s":"Uncletopia | Los Angeles | 4 | Stopwatch Beta","protocol":17,"map":"cp_dustbowl","folder":"tf","game":"Team Fortress","app_id":440,"player_count":0,"max_players":24,"Bots":0,"server_type":"Dedicated","server_os":"Linux","password":true,"vac":true,"version":"7757534","steam_id":85568392924510199,"keywords":["cp","nocrits","nodmgspread","uncletopia"],"game_id":440,"stv_port":27046,"stv_name":"Uncletopia | Los Angeles | 4 | Stopwatch Beta | STV","players":null},{"server_id":11,"name":"Uncletopia | London | 1 | All Maps","name_short":"lon-1","host":"lon-1.uk.uncletopia.com","port":27015,"enabled":true,"region":"eu","cc":"gb","latitude":51.509865,"longitude":-0.118092,"reserved":0,"last_update":"0001-01-01T00:00:00Z","name_a2s":"Uncletopia | London | 1 | All Maps","protocol":17,"map":"cp_sunshine","folder":"tf","game":"Team Fortress","app_id":440,"player_count":24,"max_players":24,"Bots":0,"server_type":"Dedicated","server_os":"Linux","password":true,"vac":true,"version":"7757534","steam_id":85568392924367362,"keywords":["cp","nocrits","nodmgspread","uncletopia"],"game_id":440,"stv_port":27016,"stv_name":"Uncletopia | London | 1 | All Maps | STV","players":[{"user_id":605,"name":"gnarly business","steam_id":76561198832688767,"connected_time":2582000000000,"state":"active","ping":47},{"user_id":634,"name":"Dougie","steam_id":76561198072245471,"connected_time":1137000000000,"state":"active","ping":44},{"user_id":632,"name":"ali.","steam_id":76561198148359093,"connected_time":1145000000000,"state":"active","ping":45},{"user_id":620,"name":"true","steam_id":76561198031145243,"connected_time":1933000000000,"state":"active","ping":81},{"user_id":649,"name":"Skinny101","steam_id":76561197985599360,"connected_time":56000000000,"state":"active","ping":54},{"user_id":646,"name":"ag-7","steam_id":76561198068027379,"connected_time":177000000000,"state":"active","ping":78},{"user_id":630,"name":"makarov","steam_id":76561198363892870,"connected_time":1216000000000,"state":"active","ping":71},{"user_id":640,"name":"shr1mple","steam_id":76561198173537027,"connected_time":667000000000,"state":"active","ping":53},{"user_id":588,"name":"mommyüñ§x_x","steam_id":76561199204257697,"connected_time":4448000000000,"state":"active","ping":58},{"user_id":641,"name":"Videogamer","steam_id":76561198106012909,"connected_time":625000000000,"state":"active","ping":84},{"user_id":614,"name":"R","steam_id":76561198148030229,"connected_time":2335000000000,"state":"active","ping":74},{"user_id":628,"name":"Deepo","steam_id":76561198347756595,"connected_time":1254000000000,"state":"active","ping":75},{"user_id":598,"name":"=^_^=","steam_id":76561198076494034,"connected_time":3752000000000,"state":"active","ping":46},{"user_id":644,"name":"Purps","steam_id":76561198053886680,"connected_time":287000000000,"state":"active","ping":43},{"user_id":595,"name":"Kvicha Kvaratskhelia","steam_id":76561198179339326,"connected_time":4141000000000,"state":"active","ping":88},{"user_id":621,"name":"Great recession of 2008","steam_id":76561198881151562,"connected_time":1844000000000,"state":"active","ping":87},{"user_id":606,"name":"Mr Manager","steam_id":76561198021775885,"connected_time":2565000000000,"state":"active","ping":45},{"user_id":619,"name":"Joe * tf2cases.com","steam_id":76561198061717026,"connected_time":1972000000000,"state":"active","ping":45},{"user_id":629,"name":"snakeHiiii","steam_id":76561198097712283,"connected_time":1232000000000,"state":"active","ping":78},{"user_id":638,"name":"Superiumentarius","steam_id":76561198081642249,"connected_time":1033000000000,"state":"active","ping":70},{"user_id":610,"name":"Vershal Smershal","steam_id":76561198116223995,"connected_time":2516000000000,"state":"active","ping":57},{"user_id":627,"name":"tralalaOuiOui","steam_id":76561197963471507,"connected_time":1606000000000,"state":"active","ping":52},{"user_id":592,"name":"Smurph","steam_id":76561197996539360,"connected_time":4369000000000,"state":"active","ping":76},{"user_id":648,"name":"Bogg","steam_id":76561199362109830,"connected_time":71000000000,"state":"active","ping":49}]},{"server_id":114,"name":"Uncletopia | London | 2 | All Maps","name_short":"lon-2","host":"lon-1.uk.uncletopia.com","port":27025,"enabled":true,"region":"eu","cc":"gb","latitude":51.509865,"longitude":-0.118092,"reserved":0,"last_update":"0001-01-01T00:00:00Z","name_a2s":"Uncletopia | London | 2 | All Maps","protocol":17,"map":"pl_barnblitz","folder":"tf","game":"Team Fortress","app_id":440,"player_count":0,"max_players":24,"Bots":0,"server_type":"Dedicated","server_os":"Linux","password":true,"vac":true,"version":"7757534","steam_id":85568392924470941,"keywords":["nocrits","nodmgspread","payload","uncletopia"],"game_id":440,"stv_port":27026,"stv_name":"Uncletopia | London | 2 | All Maps | STV","players":null},{"server_id":320,"name":"Uncletopia | London | 3 | All Maps","name_short":"lon-3","host":"lon-1.uk.uncletopia.com","port":27035,"enabled":true,"region":"eu","cc":"gb","latitude":51.509865,"longitude":-0.118092,"reserved":0,"last_update":"0001-01-01T00:00:00Z","name_a2s":"Uncletopia | London | 3 | All Maps","protocol":17,"map":"pl_snowycoast","folder":"tf","game":"Team Fortress","app_id":440,"player_count":24,"max_players":24,"Bots":0,"server_type":"Dedicated","server_os":"Linux","password":true,"vac":true,"version":"7757534","steam_id":85568392924510192,"keywords":["nocrits","nodmgspread","payload","uncletopia"],"game_id":440,"stv_port":27036,"stv_name":"Uncletopia | London | 3 | All Maps | STV","players":[{"user_id":599,"name":"Szymekc","steam_id":76561198009541119,"connected_time":3809000000000,"state":"active","ping":83},{"user_id":600,"name":"nynon","steam_id":76561197998432126,"connected_time":3804000000000,"state":"active","ping":86},{"user_id":603,"name":"sv_opor 13123","steam_id":76561198002229612,"connected_time":3772000000000,"state":"active","ping":83},{"user_id":633,"name":"Creature from the piss drawer","steam_id":76561198055949151,"connected_time":1577000000000,"state":"active","ping":45},{"user_id":595,"name":"Alibi","steam_id":76561198061845595,"connected_time":3941000000000,"state":"active","ping":54},{"user_id":639,"name":"Haha?","steam_id":76561198056882245,"connected_time":1490000000000,"state":"active","ping":35},{"user_id":605,"name":"Aroo","steam_id":76561198132601368,"connected_time":3691000000000,"state":"active","ping":87},{"user_id":635,"name":"skai","steam_id":76561198184881255,"connected_time":1567000000000,"state":"active","ping":65},{"user_id":637,"name":"Holz is sleepy","steam_id":76561197994205997,"connected_time":1543000000000,"state":"active","ping":53},{"user_id":648,"name":"gibb (official)","steam_id":76561198074097655,"connected_time":909000000000,"state":"active","ping":39},{"user_id":625,"name":"Nope","steam_id":76561198069066522,"connected_time":2625000000000,"state":"active","ping":67},{"user_id":614,"name":"666sammy","steam_id":76561198016607625,"connected_time":3339000000000,"state":"active","ping":82},{"user_id":641,"name":"Breadcrab","steam_id":76561198015924039,"connected_time":1458000000000,"state":"active","ping":54},{"user_id":663,"name":"Niki","steam_id":76561198028601798,"connected_time":433000000000,"state":"active","ping":91},{"user_id":665,"name":"1 toke 4 mars bars","steam_id":76561198056460000,"connected_time":423000000000,"state":"active","ping":62},{"user_id":619,"name":"beheading video from 2009","steam_id":76561198834897089,"connected_time":3023000000000,"state":"active","ping":74},{"user_id":649,"name":"foof","steam_id":76561198308439257,"connected_time":800000000000,"state":"active","ping":52},{"user_id":622,"name":"Archer","steam_id":76561198132860299,"connected_time":2790000000000,"state":"active","ping":58},{"user_id":632,"name":"doc","steam_id":76561198000050301,"connected_time":1604000000000,"state":"active","ping":51},{"user_id":615,"name":"D_Ink","steam_id":76561198267716662,"connected_time":3331000000000,"state":"active","ping":44},{"user_id":644,"name":"Joy","steam_id":76561198155314925,"connected_time":1371000000000,"state":"active","ping":55},{"user_id":629,"name":"demon","steam_id":76561198192080711,"connected_time":2421000000000,"state":"active","ping":61},{"user_id":662,"name":"Redkor","steam_id":76561198027812829,"connected_time":443000000000,"state":"active","ping":81},{"user_id":647,"name":"wingo","steam_id":76561198254576930,"connected_time":1316000000000,"state":"active","ping":69}]},{"server_id":321,"name":"Uncletopia | London | 4 | All Maps","name_short":"lon-4","host":"lon-1.uk.uncletopia.com","port":27045,"enabled":true,"region":"eu","cc":"gb","latitude":51.509865,"longitude":-0.118092,"reserved":0,"last_update":"0001-01-01T00:00:00Z","name_a2s":"Uncletopia | London | 4 | All Maps","protocol":17,"map":"cp_dustbowl","folder":"tf","game":"Team Fortress","app_id":440,"player_count":0,"max_players":24,"Bots":0,"server_type":"Dedicated","server_os":"Linux","password":true,"vac":true,"version":"7757534","steam_id":85568392924510193,"keywords":["cp","nocrits","nodmgspread","uncletopia"],"game_id":440,"stv_port":27046,"stv_name":"Uncletopia | London | 4 | All Maps | STV","players":null},{"server_id":21,"name":"Uncletopia | London | 5 | All Maps","name_short":"lon-5","host":"lon-1.uk.uncletopia.com","port":27055,"enabled":true,"region":"eu","cc":"gb","latitude":51.509865,"longitude":-0.118092,"reserved":0,"last_update":"0001-01-01T00:00:00Z","name_a2s":"Uncletopia | London | 5 | All Maps","protocol":17,"map":"cp_altitude","folder":"tf","game":"Team Fortress","app_id":440,"player_count":0,"max_players":24,"Bots":0,"server_type":"Dedicated","server_os":"Linux","password":true,"vac":true,"version":"7757534","steam_id":85568392924742829,"keywords":["cp","nocrits","nodmgspread","uncletopia"],"game_id":440,"stv_port":27056,"stv_name":"Uncletopia | London | 5 | All Maps | STV","players":null},{"server_id":22,"name":"Uncletopia | London | 6 | All Maps","name_short":"lon-6","host":"lon-1.uk.uncletopia.com","port":27065,"enabled":true,"region":"eu","cc":"gb","latitude":51.509865,"longitude":-0.118092,"reserved":0,"last_update":"0001-01-01T00:00:00Z","name_a2s":"Uncletopia | London | 6 | All Maps","protocol":17,"map":"cp_altitude","folder":"tf","game":"Team Fortress","app_id":440,"player_count":0,"max_players":24,"Bots":0,"server_type":"Dedicated","server_os":"Linux","password":true,"vac":true,"version":"7757534","steam_id":85568392924742830,"keywords":["cp","nocrits","nodmgspread","uncletopia"],"game_id":440,"stv_port":27066,"stv_name":"Uncletopia | London | 6 | All Maps | STV","players":null},{"server_id":40,"name":"Uncletopia | London | 7 | No Payload","name_short":"lon-7","host":"lon-1.uk.uncletopia.com","port":27075,"enabled":true,"region":"eu","cc":"gb","latitude":51.509865,"longitude":-0.118092,"reserved":0,"last_update":"0001-01-01T00:00:00Z","name_a2s":"Uncletopia | London | 7 | No Payload","protocol":17,"map":"koth_highpass","folder":"tf","game":"Team Fortress","app_id":440,"player_count":0,"max_players":24,"Bots":0,"server_type":"Dedicated","server_os":"Linux","password":true,"vac":true,"version":"7757534","steam_id":85568392924964314,"keywords":["cp","nocrits","nodmgspread","uncletopia"],"game_id":440,"stv_port":27076,"stv_name":"Uncletopia | London | 7 | No Payload | STV","players":null},{"server_id":41,"name":"Uncletopia | London | 8 | Community","name_short":"lon-8","host":"lon-1.uk.uncletopia.com","port":27085,"enabled":true,"region":"eu","cc":"gb","latitude":51.509865,"longitude":-0.118092,"reserved":0,"last_update":"0001-01-01T00:00:00Z","name_a2s":"Uncletopia | London | 8 | Community","protocol":17,"map":"workshop/cp_snowbase_b18.ugc2081770490","folder":"tf","game":"Team Fortress","app_id":440,"player_count":24,"max_players":24,"Bots":0,"server_type":"Dedicated","server_os":"Linux","password":true,"vac":true,"version":"7757534","steam_id":85568392924964315,"keywords":["cp","nocrits","nodmgspread","uncletopia"],"game_id":440,"stv_port":27086,"stv_name":"Uncletopia | London | 8 | Community | STV","players":[{"user_id":268,"name":"nedilya","steam_id":76561198039692077,"connected_time":481000000000,"state":"active","ping":67},{"user_id":274,"name":"tomi","steam_id":76561198001769573,"connected_time":278000000000,"state":"active","ping":67},{"user_id":255,"name":"*Monkey Noises*","steam_id":76561198136529691,"connected_time":1312000000000,"state":"active","ping":35},{"user_id":248,"name":"Pampered Pyro","steam_id":76561199027981643,"connected_time":2466000000000,"state":"active","ping":136},{"user_id":262,"name":"!Trying to have fun!","steam_id":76561198151370212,"connected_time":619000000000,"state":"active","ping":72},{"user_id":260,"name":"Juiceydough","steam_id":76561197997323419,"connected_time":923000000000,"state":"active","ping":81},{"user_id":276,"name":"hud_saytext_time 0","steam_id":76561198010327228,"connected_time":41000000000,"state":"active","ping":68},{"user_id":261,"name":"AYE","steam_id":76561198181368101,"connected_time":851000000000,"state":"active","ping":66},{"user_id":263,"name":"Piros","steam_id":76561198193785653,"connected_time":616000000000,"state":"active","ping":82},{"user_id":172,"name":"Yaire","steam_id":76561198017343510,"connected_time":8122000000000,"state":"active","ping":54},{"user_id":207,"name":"vani","steam_id":76561197991778291,"connected_time":4772000000000,"state":"active","ping":76},{"user_id":272,"name":"mai‚ú®","steam_id":76561198008959448,"connected_time":315000000000,"state":"active","ping":80},{"user_id":270,"name":"Khaki","steam_id":76561197991523078,"connected_time":419000000000,"state":"active","ping":153},{"user_id":264,"name":"Dylanardo","steam_id":76561198294726950,"connected_time":599000000000,"state":"active","ping":137},{"user_id":265,"name":"Prox","steam_id":76561198351490981,"connected_time":594000000000,"state":"active","ping":35},{"user_id":209,"name":"tosti_tower","steam_id":76561198153445364,"connected_time":4750000000000,"state":"active","ping":52},{"user_id":162,"name":"Ushlus","steam_id":76561199225270732,"connected_time":8555000000000,"state":"active","ping":112},{"user_id":266,"name":"goofyemo2009","steam_id":76561198121260981,"connected_time":585000000000,"state":"active","ping":40},{"user_id":273,"name":"Melon","steam_id":76561198150893860,"connected_time":313000000000,"state":"active","ping":75},{"user_id":271,"name":"paranoia","steam_id":76561198274105878,"connected_time":396000000000,"state":"active","ping":91},{"user_id":243,"name":"B1urred","steam_id":76561198263657694,"connected_time":2585000000000,"state":"active","ping":50},{"user_id":249,"name":"Spootnak","steam_id":76561198049052518,"connected_time":2281000000000,"state":"active","ping":51},{"user_id":254,"name":"‚à∞","steam_id":76561198078237303,"connected_time":1344000000000,"state":"active","ping":85},{"user_id":275,"name":"rattle","steam_id":76561198062747590,"connected_time":254000000000,"state":"active","ping":48}]},{"server_id":300,"name":"Uncletopia | Montr√©al | 1 | All Maps","name_short":"mtl-1","host":"mtl-1.ca.uncletopia.com","port":27015,"enabled":true,"region":"us-east","cc":"ca","latitude":45.50889,"longitude":-73.56167,"reserved":0,"last_update":"0001-01-01T00:00:00Z","name_a2s":"Uncletopia | Montr√©al | 1 | All Maps","protocol":17,"map":"cp_sunshine","folder":"tf","game":"Team Fortress","app_id":440,"player_count":0,"max_players":24,"Bots":0,"server_type":"Dedicated","server_os":"Linux","password":true,"vac":true,"version":"7757534","steam_id":85568392924500087,"keywords":["cp","nocrits","nodmgspread","uncletopia"],"game_id":440,"stv_port":27016,"stv_name":"Uncletopia | Montr√©al | 1 | All Maps | STV","players":null},{"server_id":301,"name":"Uncletopia | Montr√©al | 2 | All Maps","name_short":"mtl-2","host":"mtl-1.ca.uncletopia.com","port":27025,"enabled":true,"region":"us-east","cc":"ca","latitude":45.50889,"longitude":-73.56167,"reserved":0,"last_update":"0001-01-01T00:00:00Z","name_a2s":"Uncletopia | Montr√©al | 2 | All Maps","protocol":17,"map":"cp_sunshine","folder":"tf","game":"Team Fortress","app_id":440,"player_count":0,"max_players":24,"Bots":0,"server_type":"Dedicated","server_os":"Linux","password":true,"vac":true,"version":"7757534","steam_id":85568392924500088,"keywords":["cp","nocrits","nodmgspread","uncletopia"],"game_id":440,"stv_port":27026,"stv_name":"Uncletopia | Montr√©al | 2 | All Maps | STV","players":null},{"server_id":302,"name":"Uncletopia | Montr√©al | 3 | All Maps","name_short":"mtl-3","host":"mtl-1.ca.uncletopia.com","port":27035,"enabled":true,"region":"us-east","cc":"ca","latitude":45.50889,"longitude":-73.56167,"reserved":0,"last_update":"0001-01-01T00:00:00Z","name_a2s":"Uncletopia | Montr√©al | 3 | All Maps","protocol":17,"map":"cp_dustbowl","folder":"tf","game":"Team Fortress","app_id":440,"player_count":0,"max_players":24,"Bots":0,"server_type":"Dedicated","server_os":"Linux","password":true,"vac":true,"version":"7757534","steam_id":85568392924500089,"keywords":["cp","nocrits","nodmgspread","uncletopia"],"game_id":440,"stv_port":27036,"stv_name":"Uncletopia | Montr√©al | 3 | All Maps | STV","players":null},{"server_id":303,"name":"Uncletopia | Montr√©al | 4 | No Payload","name_short":"mtl-4","host":"mtl-1.ca.uncletopia.com","port":27045,"enabled":true,"region":"us-east","cc":"ca","latitude":45.50889,"longitude":-73.56167,"reserved":0,"last_update":"0001-01-01T00:00:00Z","name_a2s":"Uncletopia | Montr√©al | 4 | No Payload","protocol":17,"map":"pl_pier","folder":"tf","game":"Team Fortress","app_id":440,"player_count":0,"max_players":24,"Bots":0,"server_type":"Dedicated","server_os":"Linux","password":true,"vac":true,"version":"7757534","steam_id":85568392924500090,"keywords":["nocrits","nodmgspread","payload","uncletopia"],"game_id":440,"stv_port":27046,"stv_name":"Uncletopia | Montr√©al | 4 | No Payload | STV","players":null},{"server_id":13,"name":"Uncletopia | New York City | 1 | All Maps","name_short":"nyc-1","host":"nyc-1.us.uncletopia.com","port":27015,"enabled":true,"region":"us-east","cc":"us","latitude":40.73061,"longitude":-73.93524,"reserved":0,"last_update":"0001-01-01T00:00:00Z","name_a2s":"Uncletopia | New York City | 1 | All Maps","protocol":17,"map":"cp_snakewater_final1","folder":"tf","game":"Team Fortress","app_id":440,"player_count":0,"max_players":24,"Bots":0,"server_type":"Dedicated","server_os":"Linux","password":true,"vac":true,"version":"7757534","steam_id":85568392924469993,"keywords":["cp","nocrits","nodmgspread","uncletopia"],"game_id":440,"stv_port":27016,"stv_name":"Uncletopia | New York City | 1 | All Maps | STV","players":null},{"server_id":14,"name":"Uncletopia | New York City | 2 | All Maps","name_short":"nyc-2","host":"nyc-1.us.uncletopia.com","port":27025,"enabled":true,"region":"us-east","cc":"us","latitude":40.73061,"longitude":-73.93524,"reserved":0,"last_update":"0001-01-01T00:00:00Z","name_a2s":"Uncletopia | New York City | 2 | All Maps","protocol":17,"map":"koth_suijin","folder":"tf","game":"Team Fortress","app_id":440,"player_count":24,"max_players":24,"Bots":0,"server_type":"Dedicated","server_os":"Linux","password":true,"vac":true,"version":"7757534","steam_id":85568392924469994,"keywords":["cp","nocrits","nodmgspread","uncletopia"],"game_id":440,"stv_port":27026,"stv_name":"Uncletopia | New York City | 2 | All Maps | STV","players":[{"user_id":375,"name":"·µê'À¢f'·µóÀ¢","steam_id":76561198090271815,"connected_time":106000000000,"state":"active","ping":130},{"user_id":362,"name":"Uncle Majic the Hip Hop Magicia","steam_id":76561198107924303,"connected_time":501000000000,"state":"active","ping":32},{"user_id":364,"name":"Futureguy33","steam_id":76561198101336564,"connected_time":375000000000,"state":"active","ping":82},{"user_id":325,"name":"Leviathan","steam_id":76561197997528907,"connected_time":1998000000000,"state":"active","ping":45},{"user_id":363,"name":"Charlie Sheen","steam_id":76561198136160579,"connected_time":420000000000,"state":"active","ping":132},{"user_id":276,"name":"BetoelAff es","steam_id":76561198377842585,"connected_time":6027000000000,"state":"active","ping":172},{"user_id":244,"name":"Baron von Whoopsie","steam_id":76561197996691013,"connected_time":7619000000000,"state":"active","ping":60},{"user_id":365,"name":"Joy #savetf2","steam_id":76561198073690173,"connected_time":360000000000,"state":"active","ping":55},{"user_id":374,"name":"/Loss/-Soul-","steam_id":76561198096899089,"connected_time":119000000000,"state":"active","ping":127},{"user_id":373,"name":"EmeraldCola","steam_id":76561198066663687,"connected_time":160000000000,"state":"active","ping":56},{"user_id":346,"name":"Ceiling Man","steam_id":76561198003959902,"connected_time":1306000000000,"state":"active","ping":39},{"user_id":378,"name":"POGTRONAS","steam_id":76561198061214216,"connected_time":61000000000,"state":"active","ping":116},{"user_id":356,"name":"experienced virgin","steam_id":76561198174428289,"connected_time":826000000000,"state":"active","ping":92},{"user_id":367,"name":"Mak Daddy","steam_id":76561199178572492,"connected_time":302000000000,"state":"active","ping":67},{"user_id":279,"name":"roman","steam_id":76561198170066797,"connected_time":5760000000000,"state":"active","ping":49},{"user_id":368,"name":"jingojay","steam_id":76561198878551745,"connected_time":271000000000,"state":"active","ping":139},{"user_id":377,"name":"no trouble at all","steam_id":76561198138221795,"connected_time":74000000000,"state":"active","ping":94},{"user_id":369,"name":"wool","steam_id":76561198869689933,"connected_time":267000000000,"state":"active","ping":55},{"user_id":336,"name":"Spyoru","steam_id":76561199422949621,"connected_time":1671000000000,"state":"active","ping":141},{"user_id":299,"name":"self-cannibalizing customer. \ufffd\ufffd","steam_id":76561198294013916,"connected_time":3349000000000,"state":"active","ping":45},{"user_id":349,"name":"Loxic","steam_id":76561198043617388,"connected_time":1301000000000,"state":"active","ping":75},{"user_id":370,"name":"Prof. Oli","steam_id":76561198980241587,"connected_time":244000000000,"state":"active","ping":58},{"user_id":361,"name":"Xavibite","steam_id":76561198209380493,"connected_time":554000000000,"state":"active","ping":47},{"user_id":376,"name":"^^","steam_id":76561198101993323,"connected_time":99000000000,"state":"active","ping":88}]},{"server_id":15,"name":"Uncletopia | New York City | 3 | Stopwatch Beta","name_short":"nyc-3","host":"nyc-1.us.uncletopia.com","port":27035,"enabled":true,"region":"us-east","cc":"us","latitude":40.73061,"longitude":-73.93524,"reserved":0,"last_update":"0001-01-01T00:00:00Z","name_a2s":"Uncletopia | New York City | 3 | Stopwatch Beta","protocol":17,"map":"koth_lakeside_final","folder":"tf","game":"Team Fortress","app_id":440,"player_count":0,"max_players":24,"Bots":0,"server_type":"Dedicated","server_os":"Linux","password":true,"vac":true,"version":"7757534","steam_id":85568392924742820,"keywords":["cp","nocrits","nodmgspread","uncletopia"],"game_id":440,"stv_port":27036,"stv_name":"Uncletopia | New York City | 3 | Stopwatch Beta | STV","players":null},{"server_id":16,"name":"Uncletopia | New York City | 4 | Community","name_short":"nyc-4","host":"nyc-1.us.uncletopia.com","port":27045,"enabled":true,"region":"us-east","cc":"us","latitude":40.73061,"longitude":-73.93524,"reserved":0,"last_update":"0001-01-01T00:00:00Z","name_a2s":"Uncletopia | New York City | 4 | Community","protocol":17,"map":"workshop/pl_emerge_rc2.ugc888027758","folder":"tf","game":"Team Fortress","app_id":440,"player_count":0,"max_players":24,"Bots":0,"server_type":"Dedicated","server_os":"Linux","password":true,"vac":true,"version":"7757534","steam_id":85568392924742821,"keywords":["nocrits","nodmgspread","payload","uncletopia"],"game_id":440,"stv_port":27046,"stv_name":"Uncletopia | New York City | 4 | Community | STV","players":null},{"server_id":142,"name":"Uncletopia | S√£o Paulo | 1 | All Maps","name_short":"sao-1","host":"sao-1.br.uncletopia.com","port":27015,"enabled":true,"region":"sa","cc":"br","latitude":-23.533773,"longitude":-46.62529,"reserved":0,"last_update":"0001-01-01T00:00:00Z","name_a2s":"Uncletopia | S√£o Paulo | 1 | All Maps","protocol":17,"map":"koth_cascade","folder":"tf","game":"Team Fortress","app_id":440,"player_count":0,"max_players":24,"Bots":0,"server_type":"Dedicated","server_os":"Linux","password":true,"vac":true,"version":"7757534","steam_id":85568392924469996,"keywords":["cp","nocrits","nodmgspread","uncletopia"],"game_id":440,"stv_port":27016,"stv_name":"Uncletopia | S√£o Paulo | 1 | All Maps | STV","players":null},{"server_id":143,"name":"Uncletopia | S√£o Paulo | 2 | All Maps","name_short":"sao-2","host":"sao-2.br.uncletopia.com","port":27015,"enabled":true,"region":"sa","cc":"br","latitude":-23.533773,"longitude":-46.62529,"reserved":0,"last_update":"0001-01-01T00:00:00Z","name_a2s":"Uncletopia | S√£o Paulo | 2 | All Maps","protocol":17,"map":"cp_mountainlab","folder":"tf","game":"Team Fortress","app_id":440,"player_count":0,"max_players":24,"Bots":0,"server_type":"Dedicated","server_os":"Linux","password":true,"vac":true,"version":"7757534","steam_id":85568392924485349,"keywords":["cp","nocrits","nodmgspread","uncletopia"],"game_id":440,"stv_port":27016,"stv_name":"Uncletopia | S√£o Paulo | 2 | All Maps | STV","players":null},{"server_id":7,"name":"Uncletopia | Seattle | 1 | All Maps","name_short":"sea-1","host":"sea-1.us.uncletopia.com","port":27015,"enabled":true,"region":"us-west","cc":"us","latitude":47.608013,"longitude":-122.33517,"reserved":0,"last_update":"0001-01-01T00:00:00Z","name_a2s":"Uncletopia | Seattle | 1 | All Maps","protocol":17,"map":"cp_process_final","folder":"tf","game":"Team Fortress","app_id":440,"player_count":24,"max_players":24,"Bots":0,"server_type":"Dedicated","server_os":"Linux","password":true,"vac":true,"version":"7757534","steam_id":85568392924469997,"keywords":["cp","nocrits","nodmgspread","uncletopia"],"game_id":440,"stv_port":27016,"stv_name":"Uncletopia | Seattle | 1 | All Maps | STV","players":[{"user_id":240,"name":"Korey","steam_id":76561198210734407,"connected_time":1184000000000,"state":"active","ping":106},{"user_id":254,"name":"Tmiracle","steam_id":76561198052375275,"connected_time":724000000000,"state":"active","ping":81},{"user_id":136,"name":"dust | she/it","steam_id":76561198045218909,"connected_time":8916000000000,"state":"active","ping":42},{"user_id":249,"name":"enolteiii","steam_id":76561198140843225,"connected_time":873000000000,"state":"active","ping":102},{"user_id":231,"name":"soda","steam_id":76561198105924953,"connected_time":1553000000000,"state":"active","ping":73},{"user_id":268,"name":"Lesbian Futa Mommy","steam_id":76561198130479030,"connected_time":145000000000,"state":"active","ping":55},{"user_id":236,"name":"stabby stabby","steam_id":76561197975080641,"connected_time":1241000000000,"state":"active","ping":64},{"user_id":255,"name":"oil","steam_id":76561198099980149,"connected_time":714000000000,"state":"active","ping":78},{"user_id":167,"name":"SpinetinglingToast","steam_id":76561198099470670,"connected_time":5850000000000,"state":"active","ping":123},{"user_id":257,"name":"smelly boy james(he stinkin)","steam_id":76561197997006216,"connected_time":671000000000,"state":"active","ping":95},{"user_id":233,"name":"Cpt. Dingle","steam_id":76561198025720199,"connected_time":1442000000000,"state":"active","ping":68},{"user_id":264,"name":"John Johnson","steam_id":76561198347510093,"connected_time":469000000000,"state":"active","ping":64},{"user_id":258,"name":"fudo myoo","steam_id":76561198456258164,"connected_time":666000000000,"state":"active","ping":121},{"user_id":237,"name":"kodynotcody","steam_id":76561198340685758,"connected_time":1240000000000,"state":"active","ping":63},{"user_id":263,"name":"Wedgelord0‚Ñ¢","steam_id":76561198307648112,"connected_time":612000000000,"state":"active","ping":83},{"user_id":193,"name":"XxX_B1G_B33F1N_D0NG_XxX","steam_id":76561198145440269,"connected_time":4273000000000,"state":"active","ping":82},{"user_id":267,"name":"Leaderofthe00fkins","steam_id":76561198281999872,"connected_time":243000000000,"state":"active","ping":88},{"user_id":253,"name":"Milotic","steam_id":76561198047995713,"connected_time":795000000000,"state":"active","ping":100},{"user_id":270,"name":"[TrC] Dackstrus","steam_id":76561197973518509,"connected_time":9000000000,"state":"spawning","ping":60},{"user_id":239,"name":"athena","steam_id":76561198179408597,"connected_time":1226000000000,"state":"active","ping":72},{"user_id":261,"name":"dave strider","steam_id":76561198065112186,"connected_time":651000000000,"state":"active","ping":62},{"user_id":266,"name":"Earl","steam_id":76561198076915652,"connected_time":268000000000,"state":"active","ping":76},{"user_id":246,"name":"TheOreo","steam_id":76561198289219099,"connected_time":914000000000,"state":"active","ping":53},{"user_id":223,"name":"Siegfried Stern","steam_id":76561198012453523,"connected_time":2623000000000,"state":"active","ping":64}]},{"server_id":119,"name":"Uncletopia | Seattle | 2 | All Maps","name_short":"sea-2","host":"sea-1.us.uncletopia.com","port":27025,"enabled":true,"region":"us-west","cc":"us","latitude":47.608013,"longitude":-122.33517,"reserved":0,"last_update":"0001-01-01T00:00:00Z","name_a2s":"Uncletopia | Seattle | 2 | All Maps","protocol":17,"map":"pl_frontier_final","folder":"tf","game":"Team Fortress","app_id":440,"player_count":22,"max_players":24,"Bots":0,"server_type":"Dedicated","server_os":"Linux","password":true,"vac":true,"version":"7757534","steam_id":85568392924469998,"keywords":["nocrits","nodmgspread","payload","uncletopia"],"game_id":440,"stv_port":27026,"stv_name":"Uncletopia | Seattle | 2 | All Maps | STV","players":[{"user_id":538,"name":"MisterManne","steam_id":76561198106598600,"connected_time":304000000000,"state":"active","ping":56},{"user_id":545,"name":"Whys there a level 3 there?","steam_id":76561198309696109,"connected_time":120000000000,"state":"active","ping":127},{"user_id":541,"name":"FiddyFoMike","steam_id":76561198057072581,"connected_time":189000000000,"state":"active","ping":60},{"user_id":403,"name":"XX_gamer2001_XxX","steam_id":76561198105405869,"connected_time":10389000000000,"state":"active","ping":118},{"user_id":544,"name":"xerro","steam_id":76561198323340524,"connected_time":159000000000,"state":"active","ping":126},{"user_id":536,"name":"Antonpirulero10","steam_id":76561198253036781,"connected_time":357000000000,"state":"active","ping":108},{"user_id":533,"name":"Metal Head","steam_id":76561198102176850,"connected_time":724000000000,"state":"active","ping":128},{"user_id":530,"name":"THE GOOP","steam_id":76561199058211576,"connected_time":842000000000,"state":"active","ping":128},{"user_id":516,"name":"Novaside","steam_id":76561198079461961,"connected_time":1772000000000,"state":"active","ping":128},{"user_id":518,"name":"doctor large","steam_id":76561199195836752,"connected_time":1545000000000,"state":"active","ping":112},{"user_id":521,"name":"THE NUT","steam_id":76561198067813626,"connected_time":1382000000000,"state":"active","ping":52},{"user_id":539,"name":"jake","steam_id":76561199406261605,"connected_time":293000000000,"state":"active","ping":97},{"user_id":498,"name":"poopdog288","steam_id":76561199090287513,"connected_time":3497000000000,"state":"active","ping":71},{"user_id":547,"name":"--)YawgMoss(-- \"The Salt\"","steam_id":76561198072971649,"connected_time":2000000000,"state":"spawning","ping":73},{"user_id":534,"name":"„Äê‚äö ”© ‚äö„Äë","steam_id":76561198263895597,"connected_time":660000000000,"state":"active","ping":129},{"user_id":537,"name":"Pixieon","steam_id":76561199144348429,"connected_time":316000000000,"state":"active","ping":148},{"user_id":540,"name":"RipHunter77","steam_id":76561198272973014,"connected_time":284000000000,"state":"active","ping":83},{"user_id":542,"name":"MAGGOT!","steam_id":76561198213290696,"connected_time":189000000000,"state":"active","ping":46},{"user_id":523,"name":"Keamy","steam_id":76561199471434875,"connected_time":1141000000000,"state":"active","ping":38},{"user_id":543,"name":"A Duck With Socks","steam_id":76561198018844227,"connected_time":171000000000,"state":"active","ping":58},{"user_id":525,"name":"O bez","steam_id":76561198841579939,"connected_time":979000000000,"state":"active","ping":87},{"user_id":514,"name":"Coco","steam_id":76561198066858513,"connected_time":1954000000000,"state":"active","ping":72}]},{"server_id":406,"name":"Uncletopia | Seattle | 3 | Stopwatch Beta","name_short":"sea-3","host":"sea-1.us.uncletopia.com","port":27035,"enabled":true,"region":"us-west","cc":"us","latitude":47.608013,"longitude":-122.33517,"reserved":0,"last_update":"0001-01-01T00:00:00Z","name_a2s":"Uncletopia | Seattle | 3 | Stopwatch Beta","protocol":17,"map":"workshop/koth_ramjam_rc1.ugc459778887","folder":"tf","game":"Team Fortress","app_id":440,"player_count":0,"max_players":24,"Bots":0,"server_type":"Dedicated","server_os":"Linux","password":true,"vac":true,"version":"7757534","steam_id":85568392924515217,"keywords":["cp","nocrits","nodmgspread","uncletopia"],"game_id":440,"stv_port":27036,"stv_name":"Uncletopia | Seattle | 3 | Stopwatch Beta | STV","players":null},{"server_id":17,"name":"Uncletopia | San Francisco | 1 | All Maps","name_short":"sfo-1","host":"sfo-1.us.uncletopia.com","port":27015,"enabled":true,"region":"us-west","cc":"us","latitude":37.77397,"longitude":-122.4313,"reserved":0,"last_update":"0001-01-01T00:00:00Z","name_a2s":"Uncletopia | San Francisco | 1 | All Maps","protocol":17,"map":"cp_snakewater_final1","folder":"tf","game":"Team Fortress","app_id":440,"player_count":0,"max_players":24,"Bots":0,"server_type":"Dedicated","server_os":"Linux","password":true,"vac":true,"version":"7757534","steam_id":85568392924469999,"keywords":["cp","nocrits","nodmgspread","uncletopia"],"game_id":440,"stv_port":27016,"stv_name":"Uncletopia | San Francisco | 1 | All Maps | STV","players":null},{"server_id":18,"name":"Uncletopia | San Francisco | 2 | All Maps","name_short":"sfo-2","host":"sfo-1.us.uncletopia.com","port":27025,"enabled":true,"region":"us-west","cc":"us","latitude":37.77397,"longitude":-122.4313,"reserved":0,"last_update":"0001-01-01T00:00:00Z","name_a2s":"Uncletopia | San Francisco | 2 | All Maps","protocol":17,"map":"koth_viaduct","folder":"tf","game":"Team Fortress","app_id":440,"player_count":0,"max_players":24,"Bots":0,"server_type":"Dedicated","server_os":"Linux","password":true,"vac":true,"version":"7757534","steam_id":85568392924470000,"keywords":["cp","nocrits","nodmgspread","uncletopia"],"game_id":440,"stv_port":27026,"stv_name":"Uncletopia | San Francisco | 2 | All Maps | STV","players":null},{"server_id":19,"name":"Uncletopia | San Francisco | 3 | Stopwatch Beta","name_short":"sfo-3","host":"sfo-1.us.uncletopia.com","port":27035,"enabled":true,"region":"us-west","cc":"us","latitude":37.77397,"longitude":-122.4313,"reserved":0,"last_update":"0001-01-01T00:00:00Z","name_a2s":"Uncletopia | San Francisco | 3 | Stopwatch Beta","protocol":17,"map":"cp_snakewater_final1","folder":"tf","game":"Team Fortress","app_id":440,"player_count":0,"max_players":24,"Bots":0,"server_type":"Dedicated","server_os":"Linux","password":true,"vac":true,"version":"7757534","steam_id":85568392924742824,"keywords":["cp","nocrits","nodmgspread","uncletopia"],"game_id":440,"stv_port":27036,"stv_name":"Uncletopia | San Francisco | 3 | Stopwatch Beta | STV","players":null},{"server_id":20,"name":"Uncletopia | San Francisco | 4 | Community","name_short":"sfo-4","host":"sfo-1.us.uncletopia.com","port":27045,"enabled":true,"region":"us-west","cc":"us","latitude":37.77397,"longitude":-122.4313,"reserved":0,"last_update":"0001-01-01T00:00:00Z","name_a2s":"Uncletopia | San Francisco | 4 | Community","protocol":17,"map":"workshop/cp_kalinka_rc6a.ugc1272700588","folder":"tf","game":"Team Fortress","app_id":440,"player_count":24,"max_players":24,"Bots":0,"server_type":"Dedicated","server_os":"Linux","password":true,"vac":true,"version":"7757534","steam_id":85568392924742826,"keywords":["cp","nocrits","nodmgspread","uncletopia"],"game_id":440,"stv_port":27046,"stv_name":"Uncletopia | San Francisco | 4 | Community | STV","players":[{"user_id":205,"name":"SilverMango","steam_id":76561198091243252,"connected_time":954000000000,"state":"active","ping":64},{"user_id":163,"name":"aisu","steam_id":76561198043768507,"connected_time":3859000000000,"state":"active","ping":102},{"user_id":190,"name":"Bandit","steam_id":76561199087543553,"connected_time":2060000000000,"state":"active","ping":67},{"user_id":125,"name":"emerge","steam_id":76561198186882891,"connected_time":6167000000000,"state":"active","ping":113},{"user_id":186,"name":"sppmorris","steam_id":76561199055512312,"connected_time":2131000000000,"state":"active","ping":118},{"user_id":217,"name":"ZodiacThundaga","steam_id":76561199025117814,"connected_time":17000000000,"state":"connecting","ping":0},{"user_id":176,"name":"jawnymac","steam_id":76561198179529599,"connected_time":2976000000000,"state":"active","ping":47},{"user_id":164,"name":"Boyaredeen","steam_id":76561198880492636,"connected_time":3855000000000,"state":"active","ping":64},{"user_id":197,"name":"vortex","steam_id":76561199037197794,"connected_time":1675000000000,"state":"active","ping":81},{"user_id":198,"name":"oddlyobtuselemon1654","steam_id":76561198877069773,"connected_time":1662000000000,"state":"active","ping":115},{"user_id":208,"name":"Green_GarBear","steam_id":76561199468912415,"connected_time":717000000000,"state":"active","ping":56},{"user_id":212,"name":"FALRayne","steam_id":76561198113348816,"connected_time":420000000000,"state":"active","ping":77},{"user_id":199,"name":"MintGum","steam_id":76561199230191554,"connected_time":1650000000000,"state":"active","ping":109},{"user_id":191,"name":"Aiko","steam_id":76561198262395873,"connected_time":1966000000000,"state":"active","ping":69},{"user_id":122,"name":"oo","steam_id":76561198119626492,"connected_time":6626000000000,"state":"active","ping":96},{"user_id":194,"name":"Mr.Indian Jokar","steam_id":76561198381343086,"connected_time":1790000000000,"state":"active","ping":51},{"user_id":166,"name":"Reiidaya","steam_id":76561198325306660,"connected_time":3810000000000,"state":"active","ping":71},{"user_id":201,"name":"Á≤æÊ∂≤Blev BlevÁ≤æÊ∂≤","steam_id":76561198208972565,"connected_time":1607000000000,"state":"active","ping":134},{"user_id":215,"name":"2 Fort goblin","steam_id":76561199174242639,"connected_time":308000000000,"state":"active","ping":125},{"user_id":216,"name":"Thequirka","steam_id":76561198968058652,"connected_time":36000000000,"state":"active","ping":71},{"user_id":203,"name":"K2f","steam_id":76561198049600563,"connected_time":1389000000000,"state":"active","ping":59},{"user_id":202,"name":"unsafequeen","steam_id":76561199088126900,"connected_time":1594000000000,"state":"active","ping":137},{"user_id":211,"name":"The Assistant Regional Manager","steam_id":76561199221484936,"connected_time":531000000000,"state":"active","ping":67},{"user_id":204,"name":"therealdeal680","steam_id":76561199190330316,"connected_time":1384000000000,"state":"active","ping":109}]},{"server_id":141,"name":"Uncletopia | Sydney | 1 | All Maps","name_short":"syd-1","host":"syd-1.au.uncletopia.com","port":27015,"enabled":true,"region":"au","cc":"au","latitude":-33.865143,"longitude":151.2099,"reserved":0,"last_update":"0001-01-01T00:00:00Z","name_a2s":"Uncletopia | Sydney | 1 | All Maps","protocol":17,"map":"koth_viaduct","folder":"tf","game":"Team Fortress","app_id":440,"player_count":8,"max_players":24,"Bots":0,"server_type":"Dedicated","server_os":"Linux","password":true,"vac":true,"version":"7757534","steam_id":85568392924470001,"keywords":["cp","nocrits","nodmgspread","uncletopia"],"game_id":440,"stv_port":27016,"stv_name":"Uncletopia | Sydney | 1 | All Maps | STV","players":[{"user_id":5,"name":"doris","steam_id":76561198985688207,"connected_time":5329000000000,"state":"active","ping":49},{"user_id":9,"name":"Ironical","steam_id":76561198184873390,"connected_time":3092000000000,"state":"active","ping":49},{"user_id":10,"name":"Dad","steam_id":76561198190255859,"connected_time":3022000000000,"state":"active","ping":58},{"user_id":25,"name":"Not A F2P","steam_id":76561198376756608,"connected_time":186000000000,"state":"active","ping":60},{"user_id":16,"name":"mochi(buying strange warpaints)","steam_id":76561198204590389,"connected_time":1330000000000,"state":"active","ping":54},{"user_id":26,"name":"FrozenPopcorn24","steam_id":76561199431867051,"connected_time":177000000000,"state":"active","ping":312},{"user_id":22,"name":"ŒúŒëŒõŒÜŒöŒë","steam_id":76561198304105258,"connected_time":406000000000,"state":"active","ping":64},{"user_id":23,"name":"maize","steam_id":76561199388029472,"connected_time":405000000000,"state":"active","ping":60}]},{"server_id":123,"name":"Uncletopia | Sydney | 2 | All Maps","name_short":"syd-2","host":"syd-1.au.uncletopia.com","port":27025,"enabled":true,"region":"au","cc":"au","latitude":-33.865143,"longitude":151.2099,"reserved":0,"last_update":"0001-01-01T00:00:00Z","name_a2s":"Uncletopia | Sydney | 2 | All Maps","protocol":17,"map":"cp_snakewater_final1","folder":"tf","game":"Team Fortress","app_id":440,"player_count":0,"max_players":24,"Bots":0,"server_type":"Dedicated","server_os":"Linux","password":true,"vac":true,"version":"7757534","steam_id":85568392924470002,"keywords":["cp","nocrits","nodmgspread","uncletopia"],"game_id":440,"stv_port":27026,"stv_name":"Uncletopia | Sydney | 2 | All Maps | STV","players":null},{"server_id":395,"name":"Uncletopia | Sydney | 3 | All Maps","name_short":"syd-3","host":"syd-1.au.uncletopia.com","port":27035,"enabled":true,"region":"au","cc":"au","latitude":-33.865143,"longitude":151.2099,"reserved":0,"last_update":"0001-01-01T00:00:00Z","name_a2s":"Uncletopia | Sydney | 3 | All Maps","protocol":17,"map":"cp_altitude","folder":"tf","game":"Team Fortress","app_id":440,"player_count":0,"max_players":24,"Bots":0,"server_type":"Dedicated","server_os":"Linux","password":true,"vac":true,"version":"7757534","steam_id":85568392925194467,"keywords":["cp","nocrits","nodmgspread","uncletopia"],"game_id":440,"stv_port":27036,"stv_name":"Uncletopia | Sydney | 3 | All Maps | STV","players":null},{"server_id":396,"name":"Uncletopia | Sydney | 4 | All Maps","name_short":"syd-4","host":"syd-1.au.uncletopia.com","port":27045,"enabled":true,"region":"au","cc":"au","latitude":-33.865143,"longitude":151.2099,"reserved":0,"last_update":"0001-01-01T00:00:00Z","name_a2s":"Uncletopia | Sydney | 4 | All Maps","protocol":17,"map":"cp_process_final","folder":"tf","game":"Team Fortress","app_id":440,"player_count":0,"max_players":24,"Bots":0,"server_type":"Dedicated","server_os":"Linux","password":true,"vac":true,"version":"7757534","steam_id":85568392925397958,"keywords":["cp","nocrits","nodmgspread","uncletopia"],"game_id":440,"stv_port":27046,"stv_name":"Uncletopia | Sydney | 4 | All Maps | STV","players":null},{"server_id":58,"name":"Uncletopia | Sydney | 5 | Stopwatch Beta","name_short":"syd-5","host":"syd-1.au.uncletopia.com","port":27055,"enabled":true,"region":"au","cc":"au","latitude":-33.865143,"longitude":151.2099,"reserved":0,"last_update":"0001-01-01T00:00:00Z","name_a2s":"Uncletopia | Sydney | 5 | Stopwatch Beta","protocol":17,"map":"koth_cascade","folder":"tf","game":"Team Fortress","app_id":440,"player_count":0,"max_players":24,"Bots":0,"server_type":"Dedicated","server_os":"Linux","password":true,"vac":true,"version":"7757534","steam_id":85568392925397959,"keywords":["cp","nocrits","nodmgspread","uncletopia"],"game_id":440,"stv_port":27056,"stv_name":"Uncletopia | Sydney | 5 | Stopwatch Beta | STV","players":null},{"server_id":59,"name":"Uncletopia | Sydney | 6 | Community","name_short":"syd-6","host":"syd-1.au.uncletopia.com","port":27065,"enabled":true,"region":"au","cc":"au","latitude":-33.865143,"longitude":151.2099,"reserved":0,"last_update":"0001-01-01T00:00:00Z","name_a2s":"Uncletopia | Sydney | 6 | Community","protocol":17,"map":"pl_badwater","folder":"tf","game":"Team Fortress","app_id":440,"player_count":0,"max_players":24,"Bots":0,"server_type":"Dedicated","server_os":"Linux","password":true,"vac":true,"version":"7757534","steam_id":85568392925397960,"keywords":["nocrits","nodmgspread","payload","uncletopia"],"game_id":440,"stv_port":27066,"stv_name":"Uncletopia | Sydney | 6 | Community | STV","players":null},{"server_id":49,"name":"Uncletopia | Warsaw | 1 | All Maps","name_short":"waw-1","host":"waw-1.pl.uncletopia.com","port":27015,"enabled":true,"region":"eu","cc":"pl","latitude":52.2297,"longitude":21.017532,"reserved":0,"last_update":"0001-01-01T00:00:00Z","name_a2s":"","protocol":0,"map":"","folder":"","game":"","app_id":0,"player_count":0,"max_players":0,"Bots":0,"server_type":"","server_os":"","password":false,"vac":false,"version":"","steam_id":0,"keywords":null,"game_id":0,"stv_port":0,"stv_name":"","players":null},{"server_id":50,"name":"Uncletopia | Warsaw | 2 | All Maps","name_short":"waw-2","host":"waw-1.pl.uncletopia.com","port":27025,"enabled":true,"region":"eu","cc":"pl","latitude":52.2297,"longitude":21.017532,"reserved":0,"last_update":"0001-01-01T00:00:00Z","name_a2s":"Uncletopia | Warsaw | 2 | All Maps","protocol":17,"map":"koth_lakeside_final","folder":"tf","game":"Team Fortress","app_id":440,"player_count":0,"max_players":24,"Bots":0,"server_type":"Dedicated","server_os":"Linux","password":true,"vac":true,"version":"7757534","steam_id":85568392925397851,"keywords":["cp","nocrits","nodmgspread","uncletopia"],"game_id":440,"stv_port":27026,"stv_name":"Uncletopia | Warsaw | 2 | All Maps | STV","players":null},{"server_id":51,"name":"Uncletopia | Warsaw | 3 | All Maps","name_short":"waw-3","host":"waw-1.pl.uncletopia.com","port":27035,"enabled":true,"region":"eu","cc":"pl","latitude":52.2297,"longitude":21.017532,"reserved":0,"last_update":"0001-01-01T00:00:00Z","name_a2s":"Uncletopia | Warsaw | 3 | All Maps","protocol":17,"map":"pl_upward","folder":"tf","game":"Team Fortress","app_id":440,"player_count":0,"max_players":24,"Bots":0,"server_type":"Dedicated","server_os":"Linux","password":true,"vac":true,"version":"7757534","steam_id":85568392925397852,"keywords":["nocrits","nodmgspread","payload","uncletopia"],"game_id":440,"stv_port":27036,"stv_name":"Uncletopia | Warsaw | 3 | All Maps | STV","players":null},{"server_id":52,"name":"Uncletopia | Warsaw | 4 | All Maps","name_short":"waw-4","host":"waw-1.pl.uncletopia.com","port":27045,"enabled":true,"region":"eu","cc":"pl","latitude":52.2297,"longitude":21.017532,"reserved":0,"last_update":"0001-01-01T00:00:00Z","name_a2s":"Uncletopia | Warsaw | 4 | All Maps","protocol":17,"map":"pl_frontier_final","folder":"tf","game":"Team Fortress","app_id":440,"player_count":0,"max_players":24,"Bots":0,"server_type":"Dedicated","server_os":"Linux","password":true,"vac":true,"version":"7757534","steam_id":85568392925397853,"keywords":["nocrits","nodmgspread","payload","uncletopia"],"game_id":440,"stv_port":27046,"stv_name":"Uncletopia | Warsaw | 4 | All Maps | STV","players":null},{"server_id":53,"name":"Uncletopia | Warsaw | 5 | Stopwatch Beta","name_short":"waw-5","host":"waw-1.pl.uncletopia.com","port":27055,"enabled":true,"region":"eu","cc":"pl","latitude":52.2297,"longitude":21.017532,"reserved":0,"last_update":"0001-01-01T00:00:00Z","name_a2s":"Uncletopia | Warsaw | 5 | Stopwatch Beta","protocol":17,"map":"workshop/pl_badwater_pro_v12.ugc2142942074","folder":"tf","game":"Team Fortress","app_id":440,"player_count":0,"max_players":24,"Bots":0,"server_type":"Dedicated","server_os":"Linux","password":true,"vac":true,"version":"7757534","steam_id":85568392925397854,"keywords":["nocrits","nodmgspread","payload","uncletopia"],"game_id":440,"stv_port":27056,"stv_name":"Uncletopia | Warsaw | 5 | Stopwatch Beta | STV","players":null},{"server_id":54,"name":"Uncletopia | Warsaw | 6 | Community","name_short":"waw-6","host":"waw-1.pl.uncletopia.com","port":27065,"enabled":true,"region":"eu","cc":"pl","latitude":52.2297,"longitude":21.017532,"reserved":0,"last_update":"0001-01-01T00:00:00Z","name_a2s":"Uncletopia | Warsaw | 6 | Community","protocol":17,"map":"koth_highpass","folder":"tf","game":"Team Fortress","app_id":440,"player_count":0,"max_players":24,"Bots":0,"server_type":"Dedicated","server_os":"Linux","password":true,"vac":true,"version":"7757534","steam_id":85568392925397856,"keywords":["cp","nocrits","nodmgspread","uncletopia"],"game_id":440,"stv_port":27066,"stv_name":"Uncletopia | Warsaw | 6 | Community | STV","players":null}]}