{"status":true,"message":"","result":[{"server_id":9,"name":"Uncletopia | Atlanta | 1 | All Maps","name_short":"atl-1","host":"atl-1.us.uncletopia.com","port":27015,"enabled":true,"region":"us-east","cc":"us","latitude":33.753746,"longitude":-84.38633,"reserved":0,"last_update":"0001-01-01T00:00:00Z","name_a2s":"Uncletopia | Atlanta | 1 | All Maps","protocol":17,"map":"cp_metalworks","folder":"tf","game":"Team Fortress","app_id":440,"player_count":24,"max_players":24,"Bots":0,"server_type":"Dedicated","server_os":"Linux","password":true,"vac":true,"version":"7708610","steam_id":85568392924469982,"keywords":["cp","nocrits","nodmgspread","uncletopia"],"game_id":440,"stv_port":27016,"stv_name":"Uncletopia | Atlanta | 1 | All Maps | STV","players":[{"user_id":327,"name":"rose","steam_id":76561198048882285,"connected_time":786000000000,"state":"active","ping":60},{"user_id":323,"name":"The Dead Weight","steam_id":76561198056694098,"connected_time":1308000000000,"state":"active","ping":68},{"user_id":291,"name":"Intestinal Straw","steam_id":76561198082095303,"connected_time":3889000000000,"state":"active","ping":63},{"user_id":285,"name":"abomination","steam_id":76561198167974713,"connected_time":5055000000000,"state":"active","ping":53},{"user_id":255,"name":"Pills","steam_id":76561198799440163,"connected_time":7490000000000,"state":"active","ping":91},{"user_id":325,"name":"Rockgraham101","steam_id":76561198171740458,"connected_time":1237000000000,"state":"active","ping":67},{"user_id":263,"name":"Wug","steam_id":76561198084112264,"connected_time":6295000000000,"state":"active","ping":98},{"user_id":298,"name":"gummie","steam_id":76561198998340318,"connected_time":3205000000000,"state":"active","ping":144},{"user_id":289,"name":"cola","steam_id":76561198374390458,"connected_time":4093000000000,"state":"active","ping":59},{"user_id":326,"name":"David De Bergerac","steam_id":76561198010306294,"connected_time":1076000000000,"state":"active","ping":82},{"user_id":328,"name":"--_Cook_--","steam_id":76561198080855748,"connected_time":703000000000,"state":"active","ping":45},{"user_id":296,"name":"Jhon Ultrakill","steam_id":76561198207877387,"connected_time":3350000000000,"state":"active","ping":67},{"user_id":316,"name":"soup#savetf2","steam_id":76561198972506893,"connected_time":1843000000000,"state":"active","ping":60},{"user_id":256,"name":"shaderoses","steam_id":76561198070800500,"connected_time":7433000000000,"state":"active","ping":69},{"user_id":330,"name":"ATL1 | J O V A","steam_id":76561198090333536,"connected_time":633000000000,"state":"active","ping":74},{"user_id":275,"name":"Uung","steam_id":76561198183956731,"connected_time":6031000000000,"state":"active","ping":43},{"user_id":332,"name":"James","steam_id":76561198081313916,"connected_time":60000000000,"state":"active","ping":93},{"user_id":286,"name":"inebriated newt fancier","steam_id":76561197985428155,"connected_time":4799000000000,"state":"active","ping":87},{"user_id":276,"name":"IMPACT CPU","steam_id":76561198001344879,"connected_time":5957000000000,"state":"active","ping":95},{"user_id":313,"name":"ATL6 Deez Noel","steam_id":76561198246700372,"connected_time":2417000000000,"state":"active","ping":75},{"user_id":314,"name":"Bogg","steam_id":76561198111417325,"connected_time":2095000000000,"state":"active","ping":70},{"user_id":308,"name":"SwooWoop","steam_id":76561199244312225,"connected_time":3025000000000,"state":"active","ping":110},{"user_id":294,"name":"cl","steam_id":76561199436640904,"connected_time":3842000000000,"state":"active","ping":171},{"user_id":312,"name":"joe","steam_id":76561198045781320,"connected_time":2625000000000,"state":"active","ping":70}]},{"server_id":400,"name":"Uncletopia | Atlanta | 3 | All Maps","name_short":"atl-3","host":"atl-1.us.uncletopia.com","port":27035,"enabled":true,"region":"us-east","cc":"us","latitude":33.753746,"longitude":-84.38633,"reserved":0,"last_update":"0001-01-01T00:00:00Z","name_a2s":"Uncletopia | Atlanta | 3 | All Maps","protocol":17,"map":"pl_upward","folder":"tf","game":"Team Fortress","app_id":440,"player_count":0,"max_players":24,"Bots":0,"server_type":"Dedicated","server_os":"Linux","password":true,"vac":true,"version":"7708610","steam_id":85568392924515187,"keywords":["nocrits","nodmgspread","payload","uncletopia"],"game_id":440,"stv_port":27036,"stv_name":"Uncletopia | Atlanta | 3 | All Maps | STV","players":null},{"server_id":401,"name":"Uncletopia | Atlanta | 4 | No Payload","name_short":"atl-4","host":"atl-1.us.uncletopia.com","port":27045,"enabled":true,"region":"us-east","cc":"us","latitude":33.753746,"longitude":-84.38633,"reserved":0,"last_update":"0001-01-01T00:00:00Z","name_a2s":"Uncletopia | Atlanta | 4 | No Payload","protocol":17,"map":"pl_snowycoast","folder":"tf","game":"Team Fortress","app_id":440,"player_count":5,"max_players":24,"Bots":0,"server_type":"Dedicated","server_os":"Linux","password":true,"vac":true,"version":"7708610","steam_id":85568392924515188,"keywords":["nocrits","nodmgspread","payload","uncletopia"],"game_id":440,"stv_port":27046,"stv_name":"Uncletopia | Atlanta | 4 | No Payload | STV","players":[{"user_id":4,"name":"GiantGummyLizard","steam_id":76561198998278930,"connected_time":1837000000000,"state":"active","ping":60},{"user_id":5,"name":"9:02","steam_id":76561198795862574,"connected_time":1394000000000,"state":"active","ping":62},{"user_id":8,"name":"Blue Collar","steam_id":76561198354781722,"connected_time":508000000000,"state":"active","ping":91},{"user_id":9,"name":"bradolf hilter","steam_id":76561198300928877,"connected_time":471000000000,"state":"active","ping":48},{"user_id":10,"name":"rat","steam_id":76561198034177197,"connected_time":207000000000,"state":"active","ping":60}]},{"server_id":2,"name":"Uncletopia | Chicago | 1 | All Maps","name_short":"chi-1","host":"chi-1.us.uncletopia.com","port":27015,"enabled":true,"region":"us-central","cc":"us","latitude":41.881832,"longitude":-87.62318,"reserved":0,"last_update":"0001-01-01T00:00:00Z","name_a2s":"Uncletopia | Chicago | 1 | All Maps","protocol":17,"map":"pl_wutville_event","folder":"tf","game":"Team Fortress","app_id":440,"player_count":23,"max_players":24,"Bots":0,"server_type":"Dedicated","server_os":"Linux","password":true,"vac":true,"version":"7708610","steam_id":85568392924469984,"keywords":["nocrits","nodmgspread","payload","uncletopia"],"game_id":440,"stv_port":27016,"stv_name":"Uncletopia | Chicago | 1 | All Maps | STV","players":[{"user_id":206,"name":"asbestos","steam_id":76561198079178866,"connected_time":5751000000000,"state":"spawning","ping":70},{"user_id":270,"name":"floof","steam_id":76561198167756375,"connected_time":426000000000,"state":"spawning","ping":87},{"user_id":250,"name":"Wang of Wall St","steam_id":76561198047460598,"connected_time":2305000000000,"state":"spawning","ping":78},{"user_id":266,"name":"WizzyKitty","steam_id":76561199063342104,"connected_time":1084000000000,"state":"spawning","ping":64},{"user_id":269,"name":"Hylic","steam_id":76561199051314589,"connected_time":499000000000,"state":"spawning","ping":67},{"user_id":257,"name":"[K.Y.L.L.]Logic (They/Them)","steam_id":76561198027321950,"connected_time":2188000000000,"state":"spawning","ping":97},{"user_id":251,"name":"月 (tsuki)","steam_id":76561198053829724,"connected_time":2257000000000,"state":"spawning","ping":90},{"user_id":224,"name":"dr peppah chug!","steam_id":76561198068835693,"connected_time":4064000000000,"state":"spawning","ping":124},{"user_id":252,"name":"jacospoo","steam_id":76561198076364156,"connected_time":2254000000000,"state":"spawning","ping":93},{"user_id":259,"name":"Ras","steam_id":76561198123546775,"connected_time":1928000000000,"state":"spawning","ping":64},{"user_id":271,"name":"blob","steam_id":76561198122375328,"connected_time":33000000000,"state":"spawning","ping":62},{"user_id":245,"name":"Errrmmett","steam_id":76561198041314051,"connected_time":2413000000000,"state":"spawning","ping":59},{"user_id":207,"name":"Kevin Y.","steam_id":76561198364331423,"connected_time":5751000000000,"state":"spawning","ping":113},{"user_id":111,"name":"Potato-Protein-Pancake","steam_id":76561198027198306,"connected_time":12841000000000,"state":"spawning","ping":78},{"user_id":246,"name":"CAdaverOusPRophet","steam_id":76561198045304110,"connected_time":2412000000000,"state":"spawning","ping":47},{"user_id":268,"name":"IGotTheLettuce","steam_id":76561198062473897,"connected_time":852000000000,"state":"spawning","ping":78},{"user_id":267,"name":"Owen","steam_id":76561198025446908,"connected_time":884000000000,"state":"spawning","ping":63},{"user_id":272,"name":"Kevin","steam_id":76561198035625423,"connected_time":28000000000,"state":"connecting","ping":169},{"user_id":273,"name":"Catboy Potemkin","steam_id":76561198078474420,"connected_time":22000000000,"state":"spawning","ping":65},{"user_id":262,"name":"SeaBass","steam_id":76561198278914206,"connected_time":1731000000000,"state":"spawning","ping":99},{"user_id":255,"name":"BlueStripe355","steam_id":76561198144211518,"connected_time":2217000000000,"state":"spawning","ping":63},{"user_id":263,"name":"PKBEAST_7","steam_id":76561198177136537,"connected_time":1694000000000,"state":"spawning","ping":87},{"user_id":258,"name":"Be Gay, Do Crimes, Smoke Weed!","steam_id":76561198092419868,"connected_time":1939000000000,"state":"spawning","ping":112}]},{"server_id":106,"name":"Uncletopia | Chicago | 2 | All Maps","name_short":"chi-2","host":"chi-1.us.uncletopia.com","port":27025,"enabled":true,"region":"us-central","cc":"us","latitude":41.881832,"longitude":-87.62318,"reserved":0,"last_update":"0001-01-01T00:00:00Z","name_a2s":"Uncletopia | Chicago | 2 | All Maps","protocol":17,"map":"koth_nucleus","folder":"tf","game":"Team Fortress","app_id":440,"player_count":24,"max_players":24,"Bots":0,"server_type":"Dedicated","server_os":"Linux","password":true,"vac":true,"version":"7708610","steam_id":85568392924469985,"keywords":["cp","nocrits","nodmgspread","uncletopia"],"game_id":440,"stv_port":27026,"stv_name":"Uncletopia | Chicago | 2 | All Maps | STV","players":[{"user_id":79,"name":"IRAcide","steam_id":76561198236149504,"connected_time":2438000000000,"state":"active","ping":95},{"user_id":125,"name":"Stark","steam_id":76561198132871151,"connected_time":310000000000,"state":"active","ping":60},{"user_id":120,"name":"Qrow","steam_id":76561198355935693,"connected_time":658000000000,"state":"active","ping":46},{"user_id":126,"name":"Crazy__Biscuit","steam_id":76561198399851872,"connected_time":174000000000,"state":"active","ping":51},{"user_id":111,"name":"Soliton","steam_id":76561198085286373,"connected_time":1135000000000,"state":"active","ping":56},{"user_id":109,"name":"Merchants of Misery","steam_id":76561199188142396,"connected_time":1200000000000,"state":"active","ping":70},{"user_id":127,"name":"Le","steam_id":76561198817754233,"connected_time":128000000000,"state":"active","ping":58},{"user_id":96,"name":"Big Tobacco","steam_id":76561198130165656,"connected_time":1406000000000,"state":"active","ping":50},{"user_id":113,"name":"GLURRIN","steam_id":76561198315690955,"connected_time":985000000000,"state":"active","ping":51},{"user_id":115,"name":"|-HyperCube-|","steam_id":76561198167133597,"connected_time":878000000000,"state":"active","ping":58},{"user_id":83,"name":"Rornir","steam_id":76561198081829615,"connected_time":2363000000000,"state":"active","ping":32},{"user_id":104,"name":"The Potato Romancer","steam_id":76561198204197648,"connected_time":1350000000000,"state":"active","ping":98},{"user_id":105,"name":"no i wont pocket you","steam_id":76561199095310302,"connected_time":1339000000000,"state":"active","ping":78},{"user_id":121,"name":"qory","steam_id":76561198152064890,"connected_time":634000000000,"state":"active","ping":56},{"user_id":38,"name":"Griffin.","steam_id":76561197994750414,"connected_time":5328000000000,"state":"active","ping":75},{"user_id":75,"name":"MikeLovesRabbit","steam_id":76561197997742625,"connected_time":2644000000000,"state":"active","ping":55},{"user_id":106,"name":"ReformedOrthodoxRabbiBillClinto","steam_id":76561198401455467,"connected_time":1326000000000,"state":"active","ping":105},{"user_id":112,"name":"TATARA","steam_id":76561199098759517,"connected_time":1046000000000,"state":"active","ping":143},{"user_id":117,"name":"Fitts1099","steam_id":76561198044986906,"connected_time":809000000000,"state":"active","ping":47},{"user_id":128,"name":"Soda","steam_id":76561198219209367,"connected_time":1000000000,"state":"spawning","ping":0},{"user_id":86,"name":"Super Noob","steam_id":76561199179611350,"connected_time":2334000000000,"state":"active","ping":49},{"user_id":95,"name":"Gaming Pro","steam_id":76561198979637556,"connected_time":1436000000000,"state":"active","ping":53},{"user_id":90,"name":"goop","steam_id":76561198214461775,"connected_time":1700000000000,"state":"active","ping":75},{"user_id":71,"name":"Zeadros","steam_id":76561198170158482,"connected_time":3240000000000,"state":"active","ping":61}]},{"server_id":402,"name":"Uncletopia | Chicago | 3 | All Maps","name_short":"chi-3","host":"chi-1.us.uncletopia.com","port":27035,"enabled":true,"region":"us-central","cc":"us","latitude":41.881832,"longitude":-87.62318,"reserved":0,"last_update":"0001-01-01T00:00:00Z","name_a2s":"Uncletopia | Chicago | 3 | All Maps","protocol":17,"map":"cp_process_final","folder":"tf","game":"Team Fortress","app_id":440,"player_count":0,"max_players":24,"Bots":0,"server_type":"Dedicated","server_os":"Linux","password":true,"vac":true,"version":"7708610","steam_id":85568392924515191,"keywords":["cp","nocrits","nodmgspread","uncletopia"],"game_id":440,"stv_port":27036,"stv_name":"Uncletopia | Chicago | 3 | All Maps | STV","players":null},{"server_id":403,"name":"Uncletopia | Chicago | 4 | All Maps","name_short":"chi-4","host":"chi-1.us.uncletopia.com","port":27045,"enabled":true,"region":"us-central","cc":"us","latitude":41.881832,"longitude":-87.62318,"reserved":0,"last_update":"0001-01-01T00:00:00Z","name_a2s":"Uncletopia | Chicago | 4 | All Maps","protocol":17,"map":"pl_swiftwater_final1","folder":"tf","game":"Team Fortress","app_id":440,"player_count":0,"max_players":24,"Bots":0,"server_type":"Dedicated","server_os":"Linux","password":true,"vac":true,"version":"7708610","steam_id":85568392924515193,"keywords":["nocrits","nodmgspread","payload","uncletopia"],"game_id":440,"stv_port":27046,"stv_name":"Uncletopia | Chicago | 4 | All Maps | STV","players":null},{"server_id":36,"name":"Uncletopia | Chicago | 5 | All Maps","name_short":"chi-5","host":"chi-2.us.uncletopia.com","port":27015,"enabled":true,"region":"us-central","cc":"us","latitude":41.881832,"longitude":-87.62318,"reserved":0,"last_update":"0001-01-01T00:00:00Z","name_a2s":"Uncletopia | Chicago | 5 | All Maps","protocol":17,"map":"koth_lakeside_final","folder":"tf","game":"Team Fortress","app_id":440,"player_count":0,"max_players":24,"Bots":0,"server_type":"Dedicated","server_os":"Linux","password":true,"vac":true,"version":"7708610","steam_id":85568392924866362,"keywords":["cp","nocrits","nodmgspread","uncletopia"],"game_id":440,"stv_port":27016,"stv_name":"Uncletopia | Chicago | 5 | All Maps | STV","players":null},{"server_id":37,"name":"Uncletopia | Chicago | 6 | All Maps","name_short":"chi-6","host":"chi-2.us.uncletopia.com","port":27025,"enabled":true,"region":"us-central","cc":"us","latitude":41.881832,"longitude":-87.62318,"reserved":0,"last_update":"0001-01-01T00:00:00Z","name_a2s":"Uncletopia | Chicago | 6 | All Maps","protocol":17,"map":"pl_swiftwater_final1","folder":"tf","game":"Team Fortress","app_id":440,"player_count":0,"max_players":24,"Bots":0,"server_type":"Dedicated","server_os":"Linux","password":true,"vac":true,"version":"7708610","steam_id":85568392924866363,"keywords":["nocrits","nodmgspread","payload","uncletopia"],"game_id":440,"stv_port":27026,"stv_name":"Uncletopia | Chicago | 6 | All Maps | STV","players":null},{"server_id":38,"name":"Uncletopia | Chicago | 7 | No Payload","name_short":"chi-7","host":"chi-2.us.uncletopia.com","port":27035,"enabled":true,"region":"us-central","cc":"us","latitude":41.881832,"longitude":-87.62318,"reserved":0,"last_update":"0001-01-01T00:00:00Z","name_a2s":"Uncletopia | Chicago | 7 | No Payload","protocol":17,"map":"koth_badlands","folder":"tf","game":"Team Fortress","app_id":440,"player_count":0,"max_players":24,"Bots":0,"server_type":"Dedicated","server_os":"Linux","password":true,"vac":true,"version":"7708610","steam_id":85568392924866364,"keywords":["cp","nocrits","nodmgspread","uncletopia"],"game_id":440,"stv_port":27036,"stv_name":"Uncletopia | Chicago | 7 | No Payload | STV","players":null},{"server_id":39,"name":"Uncletopia | Chicago | 8 | Community","name_short":"chi-8","host":"chi-2.us.uncletopia.com","port":27045,"enabled":true,"region":"us-central","cc":"us","latitude":41.881832,"longitude":-87.62318,"reserved":0,"last_update":"0001-01-01T00:00:00Z","name_a2s":"Uncletopia | Chicago | 8 | Community","protocol":17,"map":"workshop/koth_ashville_final.ugc2130459942","folder":"tf","game":"Team Fortress","app_id":440,"player_count":0,"max_players":24,"Bots":0,"server_type":"Dedicated","server_os":"Linux","password":true,"vac":true,"version":"7708610","steam_id":85568392924866365,"keywords":["cp","nocrits","nodmgspread","uncletopia"],"game_id":440,"stv_port":27046,"stv_name":"Uncletopia | Chicago | 8 | Community | STV","players":null},{"server_id":8,"name":"Uncletopia | Dallas | 1 | All Maps","name_short":"dal-1","host":"dal-1.us.uncletopia.com","port":27015,"enabled":true,"region":"us-central","cc":"us","latitude":32.779167,"longitude":-96.80889,"reserved":0,"last_update":"0001-01-01T00:00:00Z","name_a2s":"Uncletopia | Dallas | 1 | All Maps","protocol":17,"map":"pl_swiftwater_final1","folder":"tf","game":"Team Fortress","app_id":440,"player_count":24,"max_players":24,"Bots":0,"server_type":"Dedicated","server_os":"Linux","password":true,"vac":true,"version":"7708610","steam_id":85568392924469986,"keywords":["nocrits","nodmgspread","payload","uncletopia"],"game_id":440,"stv_port":27016,"stv_name":"Uncletopia | Dallas | 1 | All Maps | STV","players":[{"user_id":121,"name":"M.L.JEW","steam_id":76561198997375055,"connected_time":673000000000,"state":"active","ping":77},{"user_id":116,"name":"Winter the Witchie","steam_id":76561198151971178,"connected_time":987000000000,"state":"active","ping":88},{"user_id":113,"name":"Gian","steam_id":76561198041434512,"connected_time":1305000000000,"state":"active","ping":107},{"user_id":132,"name":"Throckmorton","steam_id":76561198083636412,"connected_time":380000000000,"state":"active","ping":90},{"user_id":17,"name":"katryna","steam_id":76561198023440304,"connected_time":7992000000000,"state":"active","ping":74},{"user_id":102,"name":"Oakspace_","steam_id":76561198132487015,"connected_time":2068000000000,"state":"active","ping":96},{"user_id":114,"name":"Oak","steam_id":76561198092135570,"connected_time":1279000000000,"state":"active","ping":45},{"user_id":99,"name":"Donkski","steam_id":76561198406895347,"connected_time":2512000000000,"state":"active","ping":65},{"user_id":120,"name":"=PB=","steam_id":76561197999146612,"connected_time":678000000000,"state":"active","ping":151},{"user_id":117,"name":"wahooka","steam_id":76561197981211922,"connected_time":700000000000,"state":"active","ping":80},{"user_id":122,"name":"Heti","steam_id":76561197972832497,"connected_time":671000000000,"state":"active","ping":92},{"user_id":134,"name":"Pillow Man","steam_id":76561198841357708,"connected_time":206000000000,"state":"active","ping":78},{"user_id":69,"name":"cosmik","steam_id":76561198071193180,"connected_time":4830000000000,"state":"active","ping":64},{"user_id":135,"name":"Krazzle","steam_id":76561198029782412,"connected_time":111000000000,"state":"active","ping":54},{"user_id":129,"name":"Texas Man","steam_id":76561198353412986,"connected_time":526000000000,"state":"active","ping":90},{"user_id":125,"name":"i aint hard to find","steam_id":76561198017539604,"connected_time":616000000000,"state":"active","ping":74},{"user_id":96,"name":"Tmiracle","steam_id":76561198052375275,"connected_time":2829000000000,"state":"active","ping":61},{"user_id":105,"name":"SanitysEdge","steam_id":76561198130732813,"connected_time":2061000000000,"state":"active","ping":81},{"user_id":126,"name":"kangaroo gaming","steam_id":76561198017002866,"connected_time":569000000000,"state":"active","ping":60},{"user_id":36,"name":"denk","steam_id":76561198049702548,"connected_time":7043000000000,"state":"active","ping":76},{"user_id":109,"name":"the biggest bird","steam_id":76561198026393621,"connected_time":1795000000000,"state":"active","ping":90},{"user_id":127,"name":"nmg5789","steam_id":76561198257278888,"connected_time":543000000000,"state":"active","ping":72},{"user_id":131,"name":"Satori","steam_id":76561198214370515,"connected_time":437000000000,"state":"active","ping":84},{"user_id":128,"name":"j4miecl4rk","steam_id":76561198404312721,"connected_time":543000000000,"state":"active","ping":81}]},{"server_id":108,"name":"Uncletopia | Dallas | 2 | All Maps","name_short":"dal-2","host":"dal-1.us.uncletopia.com","port":27025,"enabled":true,"region":"us-central","cc":"us","latitude":32.779167,"longitude":-96.80889,"reserved":0,"last_update":"0001-01-01T00:00:00Z","name_a2s":"Uncletopia | Dallas | 2 | All Maps","protocol":17,"map":"koth_highpass","folder":"tf","game":"Team Fortress","app_id":440,"player_count":0,"max_players":24,"Bots":0,"server_type":"Dedicated","server_os":"Linux","password":true,"vac":true,"version":"7708610","steam_id":85568392924469988,"keywords":["cp","nocrits","nodmgspread","uncletopia"],"game_id":440,"stv_port":27026,"stv_name":"Uncletopia | Dallas | 2 | All Maps | STV","players":null},{"server_id":5,"name":"Uncletopia | Frankfurt | 1 | All Maps","name_short":"frk-1","host":"frk-1.de.uncletopia.com","port":27015,"enabled":true,"region":"eu","cc":"de","latitude":50.110924,"longitude":8.682127,"reserved":0,"last_update":"0001-01-01T00:00:00Z","name_a2s":"Uncletopia | Frankfurt | 1 | All Maps","protocol":17,"map":"cp_snakewater_final1","folder":"tf","game":"Team Fortress","app_id":440,"player_count":24,"max_players":24,"Bots":0,"server_type":"Dedicated","server_os":"Linux","password":true,"vac":true,"version":"7708610","steam_id":85568392924469989,"keywords":["cp","nocrits","nodmgspread","uncletopia"],"game_id":440,"stv_port":27016,"stv_name":"Uncletopia | Frankfurt | 1 | All Maps | STV","players":[{"user_id":802,"name":"fruit bowl","steam_id":76561198232398568,"connected_time":464000000000,"state":"active","ping":80},{"user_id":803,"name":"dongus","steam_id":76561198042774930,"connected_time":441000000000,"state":"active","ping":82},{"user_id":804,"name":"snowii","steam_id":76561198836246326,"connected_time":434000000000,"state":"active","ping":82},{"user_id":800,"name":"Krios","steam_id":76561199198145670,"connected_time":639000000000,"state":"active","ping":46},{"user_id":787,"name":"Arch","steam_id":76561198079416022,"connected_time":924000000000,"state":"active","ping":66},{"user_id":788,"name":"manure merchant","steam_id":76561198010109316,"connected_time":894000000000,"state":"active","ping":61},{"user_id":805,"name":"mt","steam_id":76561197961319303,"connected_time":341000000000,"state":"active","ping":45},{"user_id":807,"name":"Fat Pigeon","steam_id":76561198817940142,"connected_time":303000000000,"state":"active","ping":53},{"user_id":808,"name":"D *","steam_id":76561198086304421,"connected_time":291000000000,"state":"active","ping":74},{"user_id":809,"name":"Aydin Channel","steam_id":76561198138031624,"connected_time":214000000000,"state":"active","ping":123},{"user_id":810,"name":"Fran","steam_id":76561199070516960,"connected_time":181000000000,"state":"active","ping":65},{"user_id":778,"name":"charlag_khan","steam_id":76561197991768268,"connected_time":1134000000000,"state":"active","ping":56},{"user_id":811,"name":"Constantin","steam_id":76561198241151628,"connected_time":160000000000,"state":"active","ping":59},{"user_id":812,"name":"don cheadle","steam_id":76561198032841675,"connected_time":128000000000,"state":"active","ping":66},{"user_id":813,"name":"Tonne","steam_id":76561197970856766,"connected_time":106000000000,"state":"active","ping":54},{"user_id":815,"name":"Rasmusson [29th ID]","steam_id":76561198191451713,"connected_time":101000000000,"state":"active","ping":89},{"user_id":817,"name":"Laxslow","steam_id":76561198065361846,"connected_time":76000000000,"state":"active","ping":59},{"user_id":795,"name":"Pyrokaliptyk","steam_id":76561198013065105,"connected_time":809000000000,"state":"active","ping":59},{"user_id":693,"name":"Mannifest Destiny","steam_id":76561198253006719,"connected_time":6734000000000,"state":"active","ping":74},{"user_id":674,"name":"dotdotdot","steam_id":76561198057628751,"connected_time":8434000000000,"state":"active","ping":63},{"user_id":801,"name":"|==[шприц]\u003e--- RAMA","steam_id":76561198040423618,"connected_time":638000000000,"state":"active","ping":82},{"user_id":790,"name":"autotopilot","steam_id":76561198261922138,"connected_time":886000000000,"state":"active","ping":74},{"user_id":820,"name":"ThighLove","steam_id":76561198055373332,"connected_time":6000000000,"state":"spawning","ping":168},{"user_id":796,"name":"Pasta sauce","steam_id":76561198232919072,"connected_time":756000000000,"state":"active","ping":56}]},{"server_id":110,"name":"Uncletopia | Frankfurt | 2 | All Maps","name_short":"frk-2","host":"frk-1.de.uncletopia.com","port":27025,"enabled":true,"region":"eu","cc":"de","latitude":50.110924,"longitude":8.682127,"reserved":0,"last_update":"0001-01-01T00:00:00Z","name_a2s":"Uncletopia | Frankfurt | 2 | All Maps","protocol":17,"map":"cp_sunshine","folder":"tf","game":"Team Fortress","app_id":440,"player_count":23,"max_players":24,"Bots":0,"server_type":"Dedicated","server_os":"Linux","password":true,"vac":true,"version":"7708610","steam_id":85568392924469990,"keywords":["cp","nocrits","nodmgspread","uncletopia"],"game_id":440,"stv_port":27026,"stv_name":"Uncletopia | Frankfurt | 2 | All Maps | STV","players":[{"user_id":551,"name":"Mantis Toboggan, M.D","steam_id":76561197963562704,"connected_time":600000000000,"state":"active","ping":61},{"user_id":538,"name":"desnot","steam_id":76561198862581894,"connected_time":1556000000000,"state":"active","ping":73},{"user_id":539,"name":"FeeXy","steam_id":76561198028633251,"connected_time":1529000000000,"state":"active","ping":46},{"user_id":540,"name":"OVERLORDMALARKEY","steam_id":76561198098267117,"connected_time":1506000000000,"state":"active","ping":73},{"user_id":535,"name":"ldshwt","steam_id":76561198090364357,"connected_time":1805000000000,"state":"active","ping":59},{"user_id":552,"name":"Browlin","steam_id":76561198860807512,"connected_time":561000000000,"state":"active","ping":82},{"user_id":511,"name":"VibeCheck","steam_id":76561198425961218,"connected_time":3064000000000,"state":"active","ping":110},{"user_id":506,"name":"Bones","steam_id":76561198091494675,"connected_time":4092000000000,"state":"active","ping":85},{"user_id":457,"name":"dansci","steam_id":76561198269530717,"connected_time":8243000000000,"state":"active","ping":159},{"user_id":513,"name":"SkullBurner","steam_id":76561198357531846,"connected_time":3036000000000,"state":"active","ping":70},{"user_id":542,"name":"Lag","steam_id":76561198159360376,"connected_time":1380000000000,"state":"active","ping":65},{"user_id":546,"name":"business spy","steam_id":76561198215876044,"connected_time":1314000000000,"state":"active","ping":109},{"user_id":543,"name":"Mr.Schnittlauch","steam_id":76561198295868113,"connected_time":1359000000000,"state":"active","ping":59},{"user_id":550,"name":"Jonathan","steam_id":76561198087988880,"connected_time":737000000000,"state":"active","ping":55},{"user_id":496,"name":"aion","steam_id":76561198980665401,"connected_time":5286000000000,"state":"active","ping":84},{"user_id":518,"name":"87rubberducks","steam_id":76561198992460116,"connected_time":2876000000000,"state":"active","ping":86},{"user_id":553,"name":"Dominus.","steam_id":76561199065917088,"connected_time":236000000000,"state":"active","ping":69},{"user_id":529,"name":"a Sin","steam_id":76561198114382011,"connected_time":2414000000000,"state":"active","ping":123},{"user_id":530,"name":"BrickBobBrick","steam_id":76561198931770279,"connected_time":2409000000000,"state":"active","ping":62},{"user_id":548,"name":"Vince","steam_id":76561199103000131,"connected_time":1066000000000,"state":"active","ping":60},{"user_id":547,"name":"Bullshit 氣","steam_id":76561197996184186,"connected_time":1216000000000,"state":"active","ping":103},{"user_id":534,"name":"The demoman bottle wizard","steam_id":76561199050127577,"connected_time":1825000000000,"state":"active","ping":150},{"user_id":545,"name":"Kapitan Polska","steam_id":76561197968069413,"connected_time":1348000000000,"state":"active","ping":59}]},{"server_id":308,"name":"Uncletopia | Frankfurt | 3 | All Maps","name_short":"frk-3","host":"frk-1.de.uncletopia.com","port":27035,"enabled":true,"region":"eu","cc":"de","latitude":50.110924,"longitude":8.682127,"reserved":0,"last_update":"0001-01-01T00:00:00Z","name_a2s":"Uncletopia | Frankfurt | 3 | All Maps","protocol":17,"map":"pl_wutville_event","folder":"tf","game":"Team Fortress","app_id":440,"player_count":20,"max_players":24,"Bots":0,"server_type":"Dedicated","server_os":"Linux","password":true,"vac":true,"version":"7708610","steam_id":85568392924504274,"keywords":["nocrits","nodmgspread","payload","uncletopia"],"game_id":440,"stv_port":27036,"stv_name":"Uncletopia | Frankfurt | 3 | All Maps | STV","players":[{"user_id":495,"name":"BigZZZ","steam_id":76561197998461614,"connected_time":3047000000000,"state":"active","ping":67},{"user_id":524,"name":"tshirt","steam_id":76561198040757844,"connected_time":1889000000000,"state":"active","ping":75},{"user_id":502,"name":"wasto-/-™","steam_id":76561198102888038,"connected_time":2764000000000,"state":"active","ping":45},{"user_id":543,"name":"MeBandae","steam_id":76561198910770432,"connected_time":559000000000,"state":"active","ping":115},{"user_id":503,"name":"BMJ","steam_id":76561198256866267,"connected_time":2667000000000,"state":"active","ping":93},{"user_id":528,"name":"3te Liga","steam_id":76561198009922500,"connected_time":1637000000000,"state":"active","ping":57},{"user_id":546,"name":"fallingpencil","steam_id":76561199230233148,"connected_time":413000000000,"state":"active","ping":57},{"user_id":506,"name":"Manbagi","steam_id":76561198318637309,"connected_time":2568000000000,"state":"active","ping":74},{"user_id":535,"name":"Assy Page","steam_id":76561199238148627,"connected_time":811000000000,"state":"active","ping":73},{"user_id":529,"name":"Honest Tom's Discount Beef","steam_id":76561198029971392,"connected_time":1635000000000,"state":"active","ping":73},{"user_id":531,"name":"blonerocks","steam_id":76561199153891186,"connected_time":1079000000000,"state":"active","ping":76},{"user_id":510,"name":"Flostro","steam_id":76561198259793697,"connected_time":2520000000000,"state":"active","ping":56},{"user_id":542,"name":"tzlil","steam_id":76561198399916290,"connected_time":584000000000,"state":"active","ping":143},{"user_id":473,"name":"mr sir","steam_id":76561198047828651,"connected_time":3501000000000,"state":"active","ping":60},{"user_id":513,"name":"Bancsli (Help me pls)","steam_id":76561198144783422,"connected_time":2468000000000,"state":"active","ping":66},{"user_id":514,"name":"Hahaha rifle go brrrr","steam_id":76561198002162167,"connected_time":2423000000000,"state":"active","ping":72},{"user_id":548,"name":"Swedde","steam_id":76561198297296440,"connected_time":36000000000,"state":"active","ping":76},{"user_id":534,"name":"Ran33","steam_id":76561197991474499,"connected_time":938000000000,"state":"active","ping":87},{"user_id":539,"name":"baldski gaming","steam_id":76561198986260493,"connected_time":729000000000,"state":"active","ping":97},{"user_id":392,"name":"links7890","steam_id":76561199322683109,"connected_time":5241000000000,"state":"active","ping":87}]},{"server_id":309,"name":"Uncletopia | Frankfurt | 4 | All Maps","name_short":"frk-4","host":"frk-1.de.uncletopia.com","port":27045,"enabled":true,"region":"eu","cc":"de","latitude":50.110924,"longitude":8.682127,"reserved":0,"last_update":"0001-01-01T00:00:00Z","name_a2s":"Uncletopia | Frankfurt | 4 | All Maps","protocol":17,"map":"pl_thundermountain","folder":"tf","game":"Team Fortress","app_id":440,"player_count":23,"max_players":24,"Bots":0,"server_type":"Dedicated","server_os":"Linux","password":true,"vac":true,"version":"7708610","steam_id":85568392924504275,"keywords":["nocrits","nodmgspread","payload","uncletopia"],"game_id":440,"stv_port":27046,"stv_name":"Uncletopia | Frankfurt | 4 | All Maps | STV","players":[{"user_id":241,"name":"Luke SpyWalker","steam_id":76561198008643276,"connected_time":3787000000000,"state":"active","ping":64},{"user_id":205,"name":"Towercat","steam_id":76561198013141793,"connected_time":6409000000000,"state":"active","ping":62},{"user_id":225,"name":"Somario","steam_id":76561198046598526,"connected_time":5050000000000,"state":"active","ping":65},{"user_id":256,"name":"Welder","steam_id":76561198355300561,"connected_time":2652000000000,"state":"active","ping":67},{"user_id":260,"name":"omnibombulator","steam_id":76561198025858897,"connected_time":2528000000000,"state":"active","ping":65},{"user_id":263,"name":"Ged The Bombad General","steam_id":76561198079288943,"connected_time":1690000000000,"state":"active","ping":110},{"user_id":252,"name":"Dewotter","steam_id":76561198007653168,"connected_time":2914000000000,"state":"active","ping":75},{"user_id":168,"name":"Mari Christmas","steam_id":76561197997020707,"connected_time":8493000000000,"state":"active","ping":67},{"user_id":274,"name":"Dr Sex","steam_id":76561198029044617,"connected_time":545000000000,"state":"active","ping":64},{"user_id":264,"name":"kreeekz","steam_id":76561198014431602,"connected_time":1552000000000,"state":"active","ping":76},{"user_id":280,"name":"Rabizen","steam_id":76561198133242816,"connected_time":74000000000,"state":"active","ping":73},{"user_id":262,"name":"it just ain't fair","steam_id":76561198418538887,"connected_time":1813000000000,"state":"active","ping":89},{"user_id":275,"name":"Hannü","steam_id":76561197969886128,"connected_time":467000000000,"state":"active","ping":59},{"user_id":276,"name":"UNRL","steam_id":76561198167986695,"connected_time":415000000000,"state":"active","ping":51},{"user_id":279,"name":"SoulEater","steam_id":76561198343354416,"connected_time":163000000000,"state":"active","ping":90},{"user_id":243,"name":"JujuBalu","steam_id":76561198207253071,"connected_time":3678000000000,"state":"active","ping":51},{"user_id":218,"name":"nedilya","steam_id":76561198039692077,"connected_time":5827000000000,"state":"active","ping":54},{"user_id":267,"name":"Klonky","steam_id":76561199068329886,"connected_time":1208000000000,"state":"active","ping":69},{"user_id":238,"name":"Bobo","steam_id":76561198052308399,"connected_time":3989000000000,"state":"active","ping":57},{"user_id":270,"name":"Kutuzov","steam_id":76561198060988694,"connected_time":1002000000000,"state":"active","ping":150},{"user_id":251,"name":"CactusFarms","steam_id":76561199009131802,"connected_time":3076000000000,"state":"active","ping":63},{"user_id":212,"name":"maxugo","steam_id":76561198444339944,"connected_time":6110000000000,"state":"active","ping":64},{"user_id":239,"name":"Zerfesh","steam_id":76561198117534358,"connected_time":3985000000000,"state":"active","ping":89}]},{"server_id":310,"name":"Uncletopia | Frankfurt | 5 | All Maps","name_short":"frk-5","host":"frk-1.de.uncletopia.com","port":27055,"enabled":true,"region":"eu","cc":"de","latitude":50.110924,"longitude":8.682127,"reserved":0,"last_update":"0001-01-01T00:00:00Z","name_a2s":"Uncletopia | Frankfurt | 5 | All Maps","protocol":17,"map":"ctf_doublecross","folder":"tf","game":"Team Fortress","app_id":440,"player_count":22,"max_players":24,"Bots":0,"server_type":"Dedicated","server_os":"Linux","password":true,"vac":true,"version":"7708610","steam_id":85568392924504277,"keywords":["ctf","nocrits","nodmgspread","uncletopia"],"game_id":440,"stv_port":27056,"stv_name":"Uncletopia | Frankfurt | 5 | All Maps | STV","players":[{"user_id":430,"name":"girth gremlin","steam_id":76561198436424012,"connected_time":2660000000000,"state":"active","ping":59},{"user_id":444,"name":"Frazzles","steam_id":76561199228009586,"connected_time":1698000000000,"state":"active","ping":65},{"user_id":471,"name":"TheRibbOfIt","steam_id":76561199438313265,"connected_time":838000000000,"state":"active","ping":80},{"user_id":461,"name":"Madoga0 EU","steam_id":76561198102371701,"connected_time":1313000000000,"state":"active","ping":101},{"user_id":445,"name":"BD[PL]","steam_id":76561198115995871,"connected_time":1679000000000,"state":"active","ping":83},{"user_id":466,"name":"xFayden","steam_id":76561199088873813,"connected_time":1018000000000,"state":"active","ping":62},{"user_id":468,"name":"Gloteran","steam_id":76561199092623161,"connected_time":883000000000,"state":"active","ping":58},{"user_id":435,"name":"busy busy bee :D","steam_id":76561198128222331,"connected_time":2360000000000,"state":"active","ping":143},{"user_id":469,"name":"dustwrld","steam_id":76561198152576682,"connected_time":867000000000,"state":"active","ping":78},{"user_id":447,"name":"LuGiO","steam_id":76561198404105206,"connected_time":1621000000000,"state":"active","ping":50},{"user_id":448,"name":"wieto","steam_id":76561198050626427,"connected_time":1610000000000,"state":"active","ping":51},{"user_id":478,"name":"Burgoo_King","steam_id":76561198133572225,"connected_time":37000000000,"state":"active","ping":58},{"user_id":465,"name":"Dr. Mario","steam_id":76561199125182282,"connected_time":1147000000000,"state":"active","ping":46},{"user_id":455,"name":"Ork","steam_id":76561197968575924,"connected_time":1531000000000,"state":"active","ping":67},{"user_id":459,"name":"round object","steam_id":76561198136239861,"connected_time":1355000000000,"state":"active","ping":62},{"user_id":450,"name":"chachiply","steam_id":76561198316355509,"connected_time":1585000000000,"state":"active","ping":75},{"user_id":475,"name":"curse these metal hands","steam_id":76561198056531586,"connected_time":637000000000,"state":"active","ping":60},{"user_id":479,"name":"Flip","steam_id":76561198012142254,"connected_time":26000000000,"state":"active","ping":57},{"user_id":473,"name":"Mecro","steam_id":76561198331574409,"connected_time":804000000000,"state":"active","ping":75},{"user_id":476,"name":"lofimonkeyjazz","steam_id":76561198117059662,"connected_time":566000000000,"state":"active","ping":80},{"user_id":477,"name":".bRdyyy","steam_id":76561198057256978,"connected_time":372000000000,"state":"active","ping":52},{"user_id":474,"name":"KarlRanzeier","steam_id":76561198066281337,"connected_time":783000000000,"state":"active","ping":57}]},{"server_id":311,"name":"Uncletopia | Frankfurt | 6 | All Maps","name_short":"frk-6","host":"frk-1.de.uncletopia.com","port":27065,"enabled":true,"region":"eu","cc":"de","latitude":50.110924,"longitude":8.682127,"reserved":0,"last_update":"0001-01-01T00:00:00Z","name_a2s":"Uncletopia | Frankfurt | 6 | All Maps","protocol":17,"map":"koth_viaduct","folder":"tf","game":"Team Fortress","app_id":440,"player_count":0,"max_players":24,"Bots":0,"server_type":"Dedicated","server_os":"Linux","password":true,"vac":true,"version":"7708610","steam_id":85568392924504278,"keywords":["cp","nocrits","nodmgspread","uncletopia"],"game_id":440,"stv_port":27066,"stv_name":"Uncletopia | Frankfurt | 6 | All Maps | STV","players":null},{"server_id":23,"name":"Uncletopia | Frankfurt | 7 | No Payload","name_short":"frk-7","host":"frk-1.de.uncletopia.com","port":27075,"enabled":true,"region":"eu","cc":"de","latitude":50.110924,"longitude":8.682127,"reserved":0,"last_update":"0001-01-01T00:00:00Z","name_a2s":"Uncletopia | Frankfurt | 7 | No Payload","protocol":17,"map":"cp_foundry","folder":"tf","game":"Team Fortress","app_id":440,"player_count":0,"max_players":24,"Bots":0,"server_type":"Dedicated","server_os":"Linux","password":true,"vac":true,"version":"7708610","steam_id":85568392924742827,"keywords":["cp","nocrits","nodmgspread","uncletopia"],"game_id":440,"stv_port":27076,"stv_name":"Uncletopia | Frankfurt | 7 | No Payload | STV","players":null},{"server_id":24,"name":"Uncletopia | Frankfurt | 8 | Community","name_short":"frk-8","host":"frk-1.de.uncletopia.com","port":27085,"enabled":true,"region":"eu","cc":"de","latitude":50.110924,"longitude":8.682127,"reserved":0,"last_update":"0001-01-01T00:00:00Z","name_a2s":"Uncletopia | Frankfurt | 8 | Community","protocol":17,"map":"workshop/koth_ramjam_v2_b2.ugc2865676487","folder":"tf","game":"Team Fortress","app_id":440,"player_count":0,"max_players":24,"Bots":0,"server_type":"Dedicated","server_os":"Linux","password":true,"vac":true,"version":"7708610","steam_id":85568392924742828,"keywords":["cp","nocrits","nodmgspread","uncletopia"],"game_id":440,"stv_port":27086,"stv_name":"Uncletopia | Frankfurt | 8 | Community | STV","players":null},{"server_id":202,"name":"Uncletopia | Hong Kong | 1 | All Maps","name_short":"hgk-1","host":"hgk-1.hk.uncletopia.com","port":27015,"enabled":true,"region":"asia","cc":"hk","latitude":22.302711,"longitude":114.177216,"reserved":0,"last_update":"0001-01-01T00:00:00Z","name_a2s":"Uncletopia | Hong Kong | 1 | All Maps","protocol":17,"map":"koth_cascade","folder":"tf","game":"Team Fortress","app_id":440,"player_count":0,"max_players":24,"Bots":0,"server_type":"Dedicated","server_os":"Linux","password":true,"vac":true,"version":"7708610","steam_id":85568392924494504,"keywords":["cp","nocrits","nodmgspread","uncletopia"],"game_id":440,"stv_port":27016,"stv_name":"Uncletopia | Hong Kong | 1 | All Maps | STV","players":null},{"server_id":1,"name":"Uncletopia | Los Angeles | 1 | All Maps","name_short":"lax-1","host":"lax-1.us.uncletopia.com","port":27015,"enabled":true,"region":"us-west","cc":"us","latitude":33.94279,"longitude":-118.41004,"reserved":0,"last_update":"0001-01-01T00:00:00Z","name_a2s":"Uncletopia | Los Angeles | 1 | All Maps","protocol":17,"map":"pl_upward","folder":"tf","game":"Team Fortress","app_id":440,"player_count":24,"max_players":24,"Bots":0,"server_type":"Dedicated","server_os":"Linux","password":true,"vac":true,"version":"7708610","steam_id":85568392924469991,"keywords":["nocrits","nodmgspread","payload","uncletopia"],"game_id":440,"stv_port":27016,"stv_name":"Uncletopia | Los Angeles | 1 | All Maps | STV","players":[{"user_id":34,"name":"cheddabob","steam_id":76561198993259948,"connected_time":457000000000,"state":"active","ping":73},{"user_id":24,"name":"❤ Alice","steam_id":76561198869945051,"connected_time":1304000000000,"state":"active","ping":97},{"user_id":33,"name":"ChoccyMiltank","steam_id":76561198981474284,"connected_time":743000000000,"state":"active","ping":40},{"user_id":35,"name":"existential dread","steam_id":76561198041907345,"connected_time":408000000000,"state":"active","ping":59},{"user_id":15,"name":"BlockBurst","steam_id":76561199220851075,"connected_time":2112000000000,"state":"active","ping":33},{"user_id":26,"name":"Varry","steam_id":76561198093696872,"connected_time":1280000000000,"state":"active","ping":140},{"user_id":16,"name":"marrimae","steam_id":76561198077579990,"connected_time":1868000000000,"state":"active","ping":126},{"user_id":22,"name":"Jimmy Foo","steam_id":76561198119623731,"connected_time":1465000000000,"state":"active","ping":121},{"user_id":29,"name":"S p a f f y","steam_id":76561198047892151,"connected_time":941000000000,"state":"active","ping":48},{"user_id":27,"name":"B-0-D-I-E ✓","steam_id":76561198079474904,"connected_time":1266000000000,"state":"active","ping":89},{"user_id":20,"name":"Neco sk8er","steam_id":76561198296295074,"connected_time":1535000000000,"state":"active","ping":116},{"user_id":21,"name":"StarGuyVI","steam_id":76561199366304746,"connected_time":1484000000000,"state":"active","ping":95},{"user_id":36,"name":"SHADOW (he/him)","steam_id":76561198207768148,"connected_time":375000000000,"state":"active","ping":60},{"user_id":31,"name":"ElShaggy","steam_id":76561198148870214,"connected_time":924000000000,"state":"active","ping":48},{"user_id":37,"name":"zinnk","steam_id":76561198092081825,"connected_time":330000000000,"state":"active","ping":60},{"user_id":38,"name":"god's gothest girlfriend","steam_id":76561198004113005,"connected_time":300000000000,"state":"active","ping":108},{"user_id":39,"name":"Lord GabeN","steam_id":76561198140862723,"connected_time":257000000000,"state":"active","ping":112},{"user_id":40,"name":"Johnny Esports","steam_id":76561198115812405,"connected_time":192000000000,"state":"active","ping":137},{"user_id":41,"name":"The Sinister Potion","steam_id":76561198131280715,"connected_time":165000000000,"state":"active","ping":128},{"user_id":42,"name":"☃️Festive Wormhole☃","steam_id":76561199008302939,"connected_time":97000000000,"state":"active","ping":73},{"user_id":45,"name":"baseba8311","steam_id":76561198327711144,"connected_time":36000000000,"state":"active","ping":122},{"user_id":44,"name":"2 Point Tom","steam_id":76561198087617008,"connected_time":51000000000,"state":"active","ping":85},{"user_id":46,"name":"IncogNeeto","steam_id":76561199091278006,"connected_time":16000000000,"state":"spawning","ping":83},{"user_id":47,"name":"Colonel Chikara","steam_id":76561198010021087,"connected_time":10000000000,"state":"spawning","ping":59}]},{"server_id":112,"name":"Uncletopia | Los Angeles | 2 | All Maps","name_short":"lax-2","host":"lax-1.us.uncletopia.com","port":27025,"enabled":true,"region":"us-west","cc":"us","latitude":33.94279,"longitude":-118.41004,"reserved":0,"last_update":"0001-01-01T00:00:00Z","name_a2s":"Uncletopia | Los Angeles | 2 | All Maps","protocol":17,"map":"pl_snowycoast","folder":"tf","game":"Team Fortress","app_id":440,"player_count":0,"max_players":24,"Bots":0,"server_type":"Dedicated","server_os":"Linux","password":true,"vac":true,"version":"7708610","steam_id":85568392924469992,"keywords":["nocrits","nodmgspread","payload","uncletopia"],"game_id":440,"stv_port":27026,"stv_name":"Uncletopia | Los Angeles | 2 | All Maps | STV","players":null},{"server_id":324,"name":"Uncletopia | Los Angeles | 3 | All Maps","name_short":"lax-3","host":"lax-1.us.uncletopia.com","port":27035,"enabled":true,"region":"us-west","cc":"us","latitude":33.94279,"longitude":-118.41004,"reserved":0,"last_update":"0001-01-01T00:00:00Z","name_a2s":"Uncletopia | Los Angeles | 3 | All Maps","protocol":17,"map":"koth_viaduct","folder":"tf","game":"Team Fortress","app_id":440,"player_count":0,"max_players":24,"Bots":0,"server_type":"Dedicated","server_os":"Linux","password":true,"vac":true,"version":"7708610","steam_id":85568392924510198,"keywords":["cp","nocrits","nodmgspread","uncletopia"],"game_id":440,"stv_port":27036,"stv_name":"Uncletopia | Los Angeles | 3 | All Maps | STV","players":null},{"server_id":25,"name":"Uncletopia | Los Angeles | 4 | No Payload","name_short":"lax-4","host":"lax-1.us.uncletopia.com","port":27045,"enabled":true,"region":"us-west","cc":"us","latitude":33.94279,"longitude":-118.41004,"reserved":0,"last_update":"0001-01-01T00:00:00Z","name_a2s":"Uncletopia | Los Angeles | 4 | No Payload","protocol":17,"map":"ctf_well","folder":"tf","game":"Team Fortress","app_id":440,"player_count":0,"max_players":24,"Bots":0,"server_type":"Dedicated","server_os":"Linux","password":true,"vac":true,"version":"7708610","steam_id":85568392924510199,"keywords":["ctf","nocrits","nodmgspread","uncletopia"],"game_id":440,"stv_port":27046,"stv_name":"Uncletopia | Los Angeles | 4 | No Payload | STV","players":null},{"server_id":11,"name":"Uncletopia | London | 1 | All Maps","name_short":"lon-1","host":"lon-1.uk.uncletopia.com","port":27015,"enabled":true,"region":"eu","cc":"gb","latitude":51.509865,"longitude":-0.118092,"reserved":0,"last_update":"0001-01-01T00:00:00Z","name_a2s":"Uncletopia | London | 1 | All Maps","protocol":17,"map":"pl_borneo","folder":"tf","game":"Team Fortress","app_id":440,"player_count":24,"max_players":24,"Bots":0,"server_type":"Dedicated","server_os":"Linux","password":true,"vac":true,"version":"7708610","steam_id":85568392924367362,"keywords":["nocrits","nodmgspread","payload","uncletopia"],"game_id":440,"stv_port":27016,"stv_name":"Uncletopia | London | 1 | All Maps | STV","players":[{"user_id":821,"name":"LuigiCultLeader","steam_id":76561199179841147,"connected_time":933000000000,"state":"active","ping":53},{"user_id":808,"name":"Davidoff","steam_id":76561199099163283,"connected_time":2680000000000,"state":"active","ping":75},{"user_id":800,"name":"Talento","steam_id":76561198163890959,"connected_time":3695000000000,"state":"active","ping":33},{"user_id":830,"name":"Founder","steam_id":76561198193763778,"connected_time":470000000000,"state":"active","ping":58},{"user_id":813,"name":"LordTrap.exe","steam_id":76561198318089716,"connected_time":2224000000000,"state":"active","ping":54},{"user_id":823,"name":"Toaster1337","steam_id":76561198103706881,"connected_time":850000000000,"state":"active","ping":72},{"user_id":832,"name":"ÃNVS DRÃNVS","steam_id":76561198138733015,"connected_time":248000000000,"state":"active","ping":117},{"user_id":831,"name":"Sebtacular","steam_id":76561198334284616,"connected_time":284000000000,"state":"active","ping":76},{"user_id":816,"name":"Senior","steam_id":76561198065014164,"connected_time":2170000000000,"state":"active","ping":47},{"user_id":818,"name":"Posho","steam_id":76561198062396436,"connected_time":1875000000000,"state":"active","ping":42},{"user_id":819,"name":"Big_Bunda","steam_id":76561198429058028,"connected_time":1469000000000,"state":"active","ping":64},{"user_id":778,"name":"soft G","steam_id":76561198109876007,"connected_time":5716000000000,"state":"active","ping":150},{"user_id":812,"name":"Linus Mudrocket","steam_id":76561197979606110,"connected_time":2419000000000,"state":"active","ping":53},{"user_id":833,"name":"Choruptian","steam_id":76561198017686366,"connected_time":243000000000,"state":"active","ping":64},{"user_id":825,"name":"√(-Wolf)","steam_id":76561198024769704,"connected_time":833000000000,"state":"active","ping":93},{"user_id":826,"name":"Acheron","steam_id":76561198306593373,"connected_time":818000000000,"state":"active","ping":83},{"user_id":835,"name":"KillerPotato!","steam_id":76561198071283721,"connected_time":231000000000,"state":"active","ping":95},{"user_id":745,"name":"lvl. 50 honkler","steam_id":76561198061688660,"connected_time":8382000000000,"state":"active","ping":110},{"user_id":804,"name":"Whyx","steam_id":76561198064909404,"connected_time":3138000000000,"state":"active","ping":82},{"user_id":794,"name":"KPhii","steam_id":76561198970587061,"connected_time":4213000000000,"state":"active","ping":63},{"user_id":836,"name":"SuperBob103","steam_id":76561199175360012,"connected_time":229000000000,"state":"active","ping":57},{"user_id":822,"name":"tim_ka_","steam_id":76561198174946801,"connected_time":900000000000,"state":"active","ping":103},{"user_id":828,"name":"hamude.alsarhan2011","steam_id":76561199259727736,"connected_time":671000000000,"state":"active","ping":67},{"user_id":814,"name":"sova","steam_id":76561199040246790,"connected_time":2221000000000,"state":"active","ping":53}]},{"server_id":114,"name":"Uncletopia | London | 2 | All Maps","name_short":"lon-2","host":"lon-1.uk.uncletopia.com","port":27025,"enabled":true,"region":"eu","cc":"gb","latitude":51.509865,"longitude":-0.118092,"reserved":0,"last_update":"0001-01-01T00:00:00Z","name_a2s":"Uncletopia | London | 2 | All Maps","protocol":17,"map":"cp_mercenarypark","folder":"tf","game":"Team Fortress","app_id":440,"player_count":23,"max_players":24,"Bots":0,"server_type":"Dedicated","server_os":"Linux","password":true,"vac":true,"version":"7708610","steam_id":85568392924470941,"keywords":["cp","nocrits","nodmgspread","uncletopia"],"game_id":440,"stv_port":27026,"stv_name":"Uncletopia | London | 2 | All Maps | STV","players":[{"user_id":208,"name":"Kvikk","steam_id":76561198063104117,"connected_time":18000000000,"state":"active","ping":67},{"user_id":207,"name":"Willy WonkeR ^^","steam_id":76561198017814293,"connected_time":26000000000,"state":"active","ping":64},{"user_id":184,"name":"meatsoupcube","steam_id":76561198276802249,"connected_time":774000000000,"state":"active","ping":77},{"user_id":169,"name":"moser23","steam_id":76561197960543171,"connected_time":2350000000000,"state":"active","ping":52},{"user_id":192,"name":"drew","steam_id":76561198012304706,"connected_time":691000000000,"state":"active","ping":95},{"user_id":202,"name":"soil.dirt.earth","steam_id":76561198014377623,"connected_time":441000000000,"state":"active","ping":55},{"user_id":196,"name":"ILoveKey2","steam_id":76561198814559564,"connected_time":619000000000,"state":"active","ping":72},{"user_id":140,"name":"def","steam_id":76561198857396812,"connected_time":3722000000000,"state":"active","ping":53},{"user_id":193,"name":"Layton","steam_id":76561198087221314,"connected_time":690000000000,"state":"active","ping":59},{"user_id":198,"name":"ZOGG FearLand","steam_id":76561198352683491,"connected_time":559000000000,"state":"active","ping":39},{"user_id":177,"name":"Bloofred","steam_id":76561198111778052,"connected_time":1480000000000,"state":"active","ping":51},{"user_id":199,"name":"|20BB)\u003eMach","steam_id":76561198952487564,"connected_time":547000000000,"state":"active","ping":86},{"user_id":188,"name":"gatherer","steam_id":76561198378235611,"connected_time":730000000000,"state":"active","ping":79},{"user_id":139,"name":"Spajro","steam_id":76561198257383813,"connected_time":3729000000000,"state":"active","ping":54},{"user_id":194,"name":"Axio","steam_id":76561198046826031,"connected_time":680000000000,"state":"active","ping":75},{"user_id":205,"name":"xocu","steam_id":76561198248994066,"connected_time":205000000000,"state":"active","ping":60},{"user_id":164,"name":"( ]KROAN[ )","steam_id":76561198022840710,"connected_time":2499000000000,"state":"active","ping":72},{"user_id":197,"name":"Weenie Hut Jr's","steam_id":76561198050515739,"connected_time":600000000000,"state":"active","ping":48},{"user_id":204,"name":"Utvar","steam_id":76561198131838460,"connected_time":236000000000,"state":"active","ping":61},{"user_id":151,"name":"N64","steam_id":76561199077495290,"connected_time":3323000000000,"state":"active","ping":85},{"user_id":173,"name":"Krabs","steam_id":76561198161679477,"connected_time":1719000000000,"state":"active","ping":44},{"user_id":189,"name":"Command","steam_id":76561198339873745,"connected_time":729000000000,"state":"active","ping":85},{"user_id":191,"name":"DeepBlue","steam_id":76561198140075795,"connected_time":728000000000,"state":"active","ping":63}]},{"server_id":320,"name":"Uncletopia | London | 3 | All Maps","name_short":"lon-3","host":"lon-1.uk.uncletopia.com","port":27035,"enabled":true,"region":"eu","cc":"gb","latitude":51.509865,"longitude":-0.118092,"reserved":0,"last_update":"0001-01-01T00:00:00Z","name_a2s":"Uncletopia | London | 3 | All Maps","protocol":17,"map":"pl_pier","folder":"tf","game":"Team Fortress","app_id":440,"player_count":24,"max_players":24,"Bots":0,"server_type":"Dedicated","server_os":"Linux","password":true,"vac":true,"version":"7708610","steam_id":85568392924510192,"keywords":["nocrits","nodmgspread","payload","uncletopia"],"game_id":440,"stv_port":27036,"stv_name":"Uncletopia | London | 3 | All Maps | STV","players":[{"user_id":254,"name":"Nassu","steam_id":76561198147367577,"connected_time":1867000000000,"state":"active","ping":156},{"user_id":292,"name":"_Starlight_","steam_id":76561197993885738,"connected_time":111000000000,"state":"active","ping":72},{"user_id":283,"name":"Ross from F.R.I.E.N.D.S.","steam_id":76561198008511665,"connected_time":376000000000,"state":"active","ping":49},{"user_id":255,"name":"Zelmor","steam_id":76561197997708311,"connected_time":1865000000000,"state":"active","ping":50},{"user_id":285,"name":"jerma enthusiast","steam_id":76561198359466264,"connected_time":302000000000,"state":"active","ping":159},{"user_id":286,"name":"Mr. Huntsman","steam_id":76561197981910397,"connected_time":297000000000,"state":"active","ping":61},{"user_id":287,"name":"Thors","steam_id":76561197968739075,"connected_time":289000000000,"state":"active","ping":44},{"user_id":273,"name":"crafteen","steam_id":76561198362185755,"connected_time":973000000000,"state":"active","ping":56},{"user_id":256,"name":"BepisR47","steam_id":76561198084515716,"connected_time":1857000000000,"state":"active","ping":35},{"user_id":279,"name":"Windows Vista Cruiser","steam_id":76561198064102233,"connected_time":716000000000,"state":"active","ping":64},{"user_id":259,"name":"Rappin' Sebastian","steam_id":76561198453928256,"connected_time":1802000000000,"state":"active","ping":60},{"user_id":260,"name":"Blink","steam_id":76561198144033005,"connected_time":1748000000000,"state":"active","ping":52},{"user_id":288,"name":"Zembis","steam_id":76561198008017918,"connected_time":281000000000,"state":"active","ping":91},{"user_id":289,"name":"CaptainMac","steam_id":76561198273156139,"connected_time":267000000000,"state":"active","ping":57},{"user_id":290,"name":"Tort","steam_id":76561198329646769,"connected_time":257000000000,"state":"active","ping":48},{"user_id":281,"name":"seneca","steam_id":76561198189243221,"connected_time":522000000000,"state":"active","ping":126},{"user_id":274,"name":"Breadcrab","steam_id":76561198015924039,"connected_time":924000000000,"state":"active","ping":60},{"user_id":267,"name":"Washed up","steam_id":76561198347336086,"connected_time":1624000000000,"state":"active","ping":45},{"user_id":276,"name":"Valoxi","steam_id":76561197995042938,"connected_time":853000000000,"state":"active","ping":67},{"user_id":282,"name":"My name is Spencer, Di Spencer","steam_id":76561198152697674,"connected_time":386000000000,"state":"active","ping":60},{"user_id":264,"name":"Pizza/Cheese/Pepperoni","steam_id":76561198174510235,"connected_time":1667000000000,"state":"active","ping":55},{"user_id":278,"name":"Clitorina","steam_id":76561198077570815,"connected_time":787000000000,"state":"active","ping":44},{"user_id":291,"name":"cazador","steam_id":76561198123096922,"connected_time":250000000000,"state":"active","ping":108},{"user_id":235,"name":"jo bidn' | ETLARTORM","steam_id":76561198869576262,"connected_time":3504000000000,"state":"active","ping":124}]},{"server_id":321,"name":"Uncletopia | London | 4 | All Maps","name_short":"lon-4","host":"lon-1.uk.uncletopia.com","port":27045,"enabled":true,"region":"eu","cc":"gb","latitude":51.509865,"longitude":-0.118092,"reserved":0,"last_update":"0001-01-01T00:00:00Z","name_a2s":"Uncletopia | London | 4 | All Maps","protocol":17,"map":"koth_lakeside_final","folder":"tf","game":"Team Fortress","app_id":440,"player_count":0,"max_players":24,"Bots":0,"server_type":"Dedicated","server_os":"Linux","password":true,"vac":true,"version":"7708610","steam_id":85568392924510193,"keywords":["cp","nocrits","nodmgspread","uncletopia"],"game_id":440,"stv_port":27046,"stv_name":"Uncletopia | London | 4 | All Maps | STV","players":null},{"server_id":21,"name":"Uncletopia | London | 5 | All Maps","name_short":"lon-5","host":"lon-1.uk.uncletopia.com","port":27055,"enabled":true,"region":"eu","cc":"gb","latitude":51.509865,"longitude":-0.118092,"reserved":0,"last_update":"0001-01-01T00:00:00Z","name_a2s":"Uncletopia | London | 5 | All Maps","protocol":17,"map":"cp_process_final","folder":"tf","game":"Team Fortress","app_id":440,"player_count":23,"max_players":24,"Bots":0,"server_type":"Dedicated","server_os":"Linux","password":true,"vac":true,"version":"7708610","steam_id":85568392924742829,"keywords":["cp","nocrits","nodmgspread","uncletopia"],"game_id":440,"stv_port":27056,"stv_name":"Uncletopia | London | 5 | All Maps | STV","players":[{"user_id":399,"name":"Dora","steam_id":76561198072207649,"connected_time":285000000000,"state":"active","ping":75},{"user_id":378,"name":"bored","steam_id":76561198981796805,"connected_time":1765000000000,"state":"active","ping":72},{"user_id":398,"name":"PierogiMan","steam_id":76561198071666305,"connected_time":312000000000,"state":"active","ping":75},{"user_id":400,"name":"red square","steam_id":76561198295305088,"connected_time":281000000000,"state":"active","ping":64},{"user_id":385,"name":"MMS21","steam_id":76561198059351269,"connected_time":1014000000000,"state":"active","ping":59},{"user_id":381,"name":"fénix","steam_id":76561198083199151,"connected_time":1719000000000,"state":"active","ping":57},{"user_id":384,"name":"tf2 enjoyer","steam_id":76561199043416615,"connected_time":1426000000000,"state":"active","ping":71},{"user_id":403,"name":"Sexy Medic","steam_id":76561199137711547,"connected_time":202000000000,"state":"active","ping":89},{"user_id":360,"name":"greenilus","steam_id":76561199107086705,"connected_time":2247000000000,"state":"active","ping":33},{"user_id":404,"name":"AforeKingDwarf","steam_id":76561198043562926,"connected_time":187000000000,"state":"active","ping":41},{"user_id":386,"name":"Eden","steam_id":76561198180281859,"connected_time":1009000000000,"state":"active","ping":63},{"user_id":382,"name":"Some dude who plays tf2","steam_id":76561199257287496,"connected_time":1509000000000,"state":"active","ping":124},{"user_id":379,"name":"your dads bald spot","steam_id":76561199383437138,"connected_time":1762000000000,"state":"active","ping":122},{"user_id":330,"name":"When Life gives you Lemons","steam_id":76561198318290663,"connected_time":4350000000000,"state":"active","ping":60},{"user_id":365,"name":"Valfezant","steam_id":76561199063983797,"connected_time":2039000000000,"state":"active","ping":74},{"user_id":405,"name":"scout TF2","steam_id":76561198072037878,"connected_time":187000000000,"state":"active","ping":58},{"user_id":397,"name":"kingpurplebros","steam_id":76561199097703104,"connected_time":391000000000,"state":"active","ping":61},{"user_id":363,"name":"Oak","steam_id":76561198067315672,"connected_time":2198000000000,"state":"active","ping":45},{"user_id":407,"name":"sentry man","steam_id":76561197993103138,"connected_time":134000000000,"state":"active","ping":41},{"user_id":327,"name":"coachnetworkoperared514","steam_id":76561198236015392,"connected_time":4569000000000,"state":"active","ping":121},{"user_id":408,"name":"Mor'du","steam_id":76561198274105878,"connected_time":127000000000,"state":"active","ping":84},{"user_id":410,"name":"NUTHUT","steam_id":76561198138834947,"connected_time":113000000000,"state":"active","ping":56}]},{"server_id":22,"name":"Uncletopia | London | 6 | All Maps","name_short":"lon-6","host":"lon-1.uk.uncletopia.com","port":27065,"enabled":true,"region":"eu","cc":"gb","latitude":51.509865,"longitude":-0.118092,"reserved":0,"last_update":"0001-01-01T00:00:00Z","name_a2s":"Uncletopia | London | 6 | All Maps","protocol":17,"map":"cp_sunshine","folder":"tf","game":"Team Fortress","app_id":440,"player_count":0,"max_players":24,"Bots":0,"server_type":"Dedicated","server_os":"Linux","password":true,"vac":true,"version":"7708610","steam_id":85568392924742830,"keywords":["cp","nocrits","nodmgspread","uncletopia"],"game_id":440,"stv_port":27066,"stv_name":"Uncletopia | London | 6 | All Maps | STV","players":null},{"server_id":40,"name":"Uncletopia | London | 7 | No Payload","name_short":"lon-7","host":"lon-1.uk.uncletopia.com","port":27075,"enabled":true,"region":"eu","cc":"gb","latitude":51.509865,"longitude":-0.118092,"reserved":0,"last_update":"0001-01-01T00:00:00Z","name_a2s":"Uncletopia | London | 7 | No Payload","protocol":17,"map":"koth_lazarus","folder":"tf","game":"Team Fortress","app_id":440,"player_count":1,"max_players":24,"Bots":0,"server_type":"Dedicated","server_os":"Linux","password":true,"vac":true,"version":"7708610","steam_id":85568392924964314,"keywords":["cp","nocrits","nodmgspread","uncletopia"],"game_id":440,"stv_port":27076,"stv_name":"Uncletopia | London | 7 | No Payload | STV","players":[{"user_id":9,"name":"dipigcookie","steam_id":76561198394235929,"connected_time":59000000000,"state":"active","ping":89}]},{"server_id":41,"name":"Uncletopia | London | 8 | Community","name_short":"lon-8","host":"lon-1.uk.uncletopia.com","port":27085,"enabled":true,"region":"eu","cc":"gb","latitude":51.509865,"longitude":-0.118092,"reserved":0,"last_update":"0001-01-01T00:00:00Z","name_a2s":"Uncletopia | London | 8 | Community","protocol":17,"map":"workshop/pl_cactuscanyon_redux_rc4b.ugc2579644293","folder":"tf","game":"Team Fortress","app_id":440,"player_count":0,"max_players":24,"Bots":0,"server_type":"Dedicated","server_os":"Linux","password":true,"vac":true,"version":"7708610","steam_id":85568392924964315,"keywords":["nocrits","nodmgspread","payload","uncletopia"],"game_id":440,"stv_port":27086,"stv_name":"Uncletopia | London | 8 | Community | STV","players":null},{"server_id":300,"name":"Uncletopia | Montréal | 1 | All Maps","name_short":"mtl-1","host":"mtl-1.ca.uncletopia.com","port":27015,"enabled":true,"region":"us-east","cc":"ca","latitude":45.50889,"longitude":-73.56167,"reserved":0,"last_update":"0001-01-01T00:00:00Z","name_a2s":"Uncletopia | Montréal | 1 | All Maps","protocol":17,"map":"pl_borneo","folder":"tf","game":"Team Fortress","app_id":440,"player_count":0,"max_players":24,"Bots":0,"server_type":"Dedicated","server_os":"Linux","password":true,"vac":true,"version":"7708610","steam_id":85568392924500087,"keywords":["nocrits","nodmgspread","payload","uncletopia"],"game_id":440,"stv_port":27016,"stv_name":"Uncletopia | Montréal | 1 | All Maps | STV","players":null},{"server_id":301,"name":"Uncletopia | Montréal | 2 | All Maps","name_short":"mtl-2","host":"mtl-1.ca.uncletopia.com","port":27025,"enabled":true,"region":"us-east","cc":"ca","latitude":45.50889,"longitude":-73.56167,"reserved":0,"last_update":"0001-01-01T00:00:00Z","name_a2s":"Uncletopia | Montréal | 2 | All Maps","protocol":17,"map":"pl_borneo","folder":"tf","game":"Team Fortress","app_id":440,"player_count":0,"max_players":24,"Bots":0,"server_type":"Dedicated","server_os":"Linux","password":true,"vac":true,"version":"7708610","steam_id":85568392924500088,"keywords":["nocrits","nodmgspread","payload","uncletopia"],"game_id":440,"stv_port":27026,"stv_name":"Uncletopia | Montréal | 2 | All Maps | STV","players":null},{"server_id":302,"name":"Uncletopia | Montréal | 3 | All Maps","name_short":"mtl-3","host":"mtl-1.ca.uncletopia.com","port":27035,"enabled":true,"region":"us-east","cc":"ca","latitude":45.50889,"longitude":-73.56167,"reserved":0,"last_update":"0001-01-01T00:00:00Z","name_a2s":"Uncletopia | Montréal | 3 | All Maps","protocol":17,"map":"cp_process_final","folder":"tf","game":"Team Fortress","app_id":440,"player_count":0,"max_players":24,"Bots":0,"server_type":"Dedicated","server_os":"Linux","password":true,"vac":true,"version":"7708610","steam_id":85568392924500089,"keywords":["cp","nocrits","nodmgspread","uncletopia"],"game_id":440,"stv_port":27036,"stv_name":"Uncletopia | Montréal | 3 | All Maps | STV","players":null},{"server_id":303,"name":"Uncletopia | Montréal | 4 | No Payload","name_short":"mtl-4","host":"mtl-1.ca.uncletopia.com","port":27045,"enabled":true,"region":"us-east","cc":"ca","latitude":45.50889,"longitude":-73.56167,"reserved":0,"last_update":"0001-01-01T00:00:00Z","name_a2s":"Uncletopia | Montréal | 4 | No Payload","protocol":17,"map":"cp_gorge","folder":"tf","game":"Team Fortress","app_id":440,"player_count":0,"max_players":24,"Bots":0,"server_type":"Dedicated","server_os":"Linux","password":true,"vac":true,"version":"7708610","steam_id":85568392924500090,"keywords":["cp","nocrits","nodmgspread","uncletopia"],"game_id":440,"stv_port":27046,"stv_name":"Uncletopia | Montréal | 4 | No Payload | STV","players":null},{"server_id":13,"name":"Uncletopia | New York City | 1 | All Maps","name_short":"nyc-1","host":"nyc-1.us.uncletopia.com","port":27015,"enabled":true,"region":"us-east","cc":"us","latitude":40.73061,"longitude":-73.93524,"reserved":0,"last_update":"0001-01-01T00:00:00Z","name_a2s":"Uncletopia | New York City | 1 | All Maps","protocol":17,"map":"cp_sunshine","folder":"tf","game":"Team Fortress","app_id":440,"player_count":24,"max_players":24,"Bots":0,"server_type":"Dedicated","server_os":"Linux","password":true,"vac":true,"version":"7708610","steam_id":85568392924469993,"keywords":["cp","nocrits","nodmgspread","uncletopia"],"game_id":440,"stv_port":27016,"stv_name":"Uncletopia | New York City | 1 | All Maps | STV","players":[{"user_id":49,"name":"swiffie","steam_id":76561198226286700,"connected_time":2476000000000,"state":"active","ping":146},{"user_id":65,"name":"OrangeShoes","steam_id":76561197971249940,"connected_time":1291000000000,"state":"active","ping":95},{"user_id":66,"name":"Bychopy","steam_id":76561198356288911,"connected_time":1286000000000,"state":"active","ping":124},{"user_id":69,"name":"Strike The Earth!","steam_id":76561198090891781,"connected_time":1174000000000,"state":"active","ping":45},{"user_id":76,"name":"hoboways","steam_id":76561198168035195,"connected_time":860000000000,"state":"active","ping":88},{"user_id":15,"name":"Daksuki","steam_id":76561198084127751,"connected_time":4079000000000,"state":"active","ping":95},{"user_id":67,"name":"Goreguy122","steam_id":76561198063359352,"connected_time":1280000000000,"state":"active","ping":70},{"user_id":70,"name":"BreadSlice","steam_id":76561198983781385,"connected_time":1172000000000,"state":"active","ping":61},{"user_id":64,"name":"veewon","steam_id":76561198276513608,"connected_time":1416000000000,"state":"active","ping":154},{"user_id":55,"name":"static","steam_id":76561199093261935,"connected_time":2367000000000,"state":"active","ping":54},{"user_id":21,"name":"azzy","steam_id":76561198825918211,"connected_time":3827000000000,"state":"active","ping":163},{"user_id":33,"name":"M14","steam_id":76561199238019920,"connected_time":3590000000000,"state":"active","ping":86},{"user_id":71,"name":"Chesh","steam_id":76561197990316722,"connected_time":1135000000000,"state":"active","ping":71},{"user_id":78,"name":"Tover","steam_id":76561198918156397,"connected_time":135000000000,"state":"active","ping":45},{"user_id":26,"name":"Jeffenthropus","steam_id":76561198134204248,"connected_time":3746000000000,"state":"active","ping":49},{"user_id":41,"name":"JelloMotion","steam_id":76561198045892038,"connected_time":2828000000000,"state":"active","ping":74},{"user_id":53,"name":"Diamond Jack","steam_id":76561198321304762,"connected_time":2401000000000,"state":"active","ping":41},{"user_id":68,"name":"flappyflap2","steam_id":76561198285048973,"connected_time":1250000000000,"state":"active","ping":42},{"user_id":72,"name":"Corbe","steam_id":76561198353893927,"connected_time":1113000000000,"state":"active","ping":60},{"user_id":56,"name":"Monolate","steam_id":76561199081379410,"connected_time":2313000000000,"state":"active","ping":68},{"user_id":73,"name":"Soldier Impact","steam_id":76561198157004224,"connected_time":1062000000000,"state":"active","ping":79},{"user_id":75,"name":"LeTonzy","steam_id":76561198005806699,"connected_time":933000000000,"state":"active","ping":121},{"user_id":77,"name":"frid","steam_id":76561198005806915,"connected_time":695000000000,"state":"active","ping":69},{"user_id":63,"name":"kametro4","steam_id":76561198835430429,"connected_time":1504000000000,"state":"active","ping":84}]},{"server_id":14,"name":"Uncletopia | New York City | 2 | All Maps","name_short":"nyc-2","host":"nyc-1.us.uncletopia.com","port":27025,"enabled":true,"region":"us-east","cc":"us","latitude":40.73061,"longitude":-73.93524,"reserved":0,"last_update":"0001-01-01T00:00:00Z","name_a2s":"Uncletopia | New York City | 2 | All Maps","protocol":17,"map":"cp_dustbowl","folder":"tf","game":"Team Fortress","app_id":440,"player_count":0,"max_players":24,"Bots":0,"server_type":"Dedicated","server_os":"Linux","password":true,"vac":true,"version":"7708610","steam_id":85568392924469994,"keywords":["cp","nocrits","nodmgspread","uncletopia"],"game_id":440,"stv_port":27026,"stv_name":"Uncletopia | New York City | 2 | All Maps | STV","players":null},{"server_id":15,"name":"Uncletopia | New York City | 3 | All Maps","name_short":"nyc-3","host":"nyc-1.us.uncletopia.com","port":27035,"enabled":true,"region":"us-east","cc":"us","latitude":40.73061,"longitude":-73.93524,"reserved":0,"last_update":"0001-01-01T00:00:00Z","name_a2s":"Uncletopia | New York City | 3 | All Maps","protocol":17,"map":"koth_cascade","folder":"tf","game":"Team Fortress","app_id":440,"player_count":0,"max_players":24,"Bots":0,"server_type":"Dedicated","server_os":"Linux","password":true,"vac":true,"version":"7708610","steam_id":85568392924742820,"keywords":["cp","nocrits","nodmgspread","uncletopia"],"game_id":440,"stv_port":27036,"stv_name":"Uncletopia | New York City | 3 | All Maps | STV","players":null},{"server_id":16,"name":"Uncletopia | New York City | 4 | Community","name_short":"nyc-4","host":"nyc-1.us.uncletopia.com","port":27045,"enabled":true,"region":"us-east","cc":"us","latitude":40.73061,"longitude":-73.93524,"reserved":0,"last_update":"0001-01-01T00:00:00Z","name_a2s":"Uncletopia | New York City | 4 | Community","protocol":17,"map":"workshop/rd_asteroid_redux_rc9.ugc2154902912","folder":"tf","game":"Team Fortress","app_id":440,"player_count":0,"max_players":24,"Bots":0,"server_type":"Dedicated","server_os":"Linux","password":true,"vac":true,"version":"7708610","steam_id":85568392924742821,"keywords":["beta","nocrits","nodmgspread","rd","uncletopia"],"game_id":440,"stv_port":27046,"stv_name":"Uncletopia | New York City | 4 | Community | STV","players":null},{"server_id":142,"name":"Uncletopia | São Paulo | 1 | All Maps","name_short":"sao-1","host":"sao-1.br.uncletopia.com","port":27015,"enabled":true,"region":"sa","cc":"br","latitude":-23.533773,"longitude":-46.62529,"reserved":0,"last_update":"0001-01-01T00:00:00Z","name_a2s":"Uncletopia | São Paulo | 1 | All Maps","protocol":17,"map":"cp_sunshine","folder":"tf","game":"Team Fortress","app_id":440,"player_count":2,"max_players":24,"Bots":0,"server_type":"Dedicated","server_os":"Linux","password":true,"vac":true,"version":"7708610","steam_id":85568392924469996,"keywords":["cp","nocrits","nodmgspread","uncletopia"],"game_id":440,"stv_port":27016,"stv_name":"Uncletopia | São Paulo | 1 | All Maps | STV","players":[{"user_id":46,"name":"Vic Rattlehead","steam_id":76561199232899925,"connected_time":1173000000000,"state":"spawning","ping":61},{"user_id":48,"name":"YekkuUwU","steam_id":76561199349215012,"connected_time":1109000000000,"state":"connecting","ping":43}]},{"server_id":143,"name":"Uncletopia | São Paulo | 2 | All Maps","name_short":"sao-2","host":"sao-2.br.uncletopia.com","port":27015,"enabled":true,"region":"sa","cc":"br","latitude":-23.533773,"longitude":-46.62529,"reserved":0,"last_update":"0001-01-01T00:00:00Z","name_a2s":"Uncletopia | São Paulo | 2 | All Maps","protocol":17,"map":"koth_nucleus","folder":"tf","game":"Team Fortress","app_id":440,"player_count":0,"max_players":24,"Bots":0,"server_type":"Dedicated","server_os":"Linux","password":true,"vac":true,"version":"7708610","steam_id":85568392924485349,"keywords":["cp","nocrits","nodmgspread","uncletopia"],"game_id":440,"stv_port":27016,"stv_name":"Uncletopia | São Paulo | 2 | All Maps | STV","players":null},{"server_id":7,"name":"Uncletopia | Seattle | 1 | All Maps","name_short":"sea-1","host":"sea-1.us.uncletopia.com","port":27015,"enabled":true,"region":"us-west","cc":"us","latitude":47.608013,"longitude":-122.33517,"reserved":0,"last_update":"0001-01-01T00:00:00Z","name_a2s":"Uncletopia | Seattle | 1 | All Maps","protocol":17,"map":"pl_swiftwater_final1","folder":"tf","game":"Team Fortress","app_id":440,"player_count":24,"max_players":24,"Bots":0,"server_type":"Dedicated","server_os":"Linux","password":true,"vac":true,"version":"7708610","steam_id":85568392924469997,"keywords":["nocrits","nodmgspread","payload","uncletopia"],"game_id":440,"stv_port":27016,"stv_name":"Uncletopia | Seattle | 1 | All Maps | STV","players":[{"user_id":331,"name":"[AS]","steam_id":76561198094990358,"connected_time":1723000000000,"state":"active","ping":74},{"user_id":325,"name":"WildCard","steam_id":76561198314058014,"connected_time":2175000000000,"state":"active","ping":45},{"user_id":355,"name":"xenolith","steam_id":76561198041496496,"connected_time":362000000000,"state":"active","ping":104},{"user_id":270,"name":"MY FAVORITE TYPE OF VIOLENCE","steam_id":76561198011675372,"connected_time":6130000000000,"state":"active","ping":56},{"user_id":337,"name":"¿skitt1eS?","steam_id":76561198330093211,"connected_time":1458000000000,"state":"active","ping":156},{"user_id":339,"name":"a chicken","steam_id":76561198313121580,"connected_time":1394000000000,"state":"active","ping":76},{"user_id":308,"name":"Wind Fucker","steam_id":76561198275362375,"connected_time":2969000000000,"state":"active","ping":65},{"user_id":327,"name":"NotAWeeb","steam_id":76561198165530739,"connected_time":1991000000000,"state":"active","ping":60},{"user_id":346,"name":"delta eight is from god","steam_id":76561198045926594,"connected_time":817000000000,"state":"active","ping":71},{"user_id":340,"name":"DJHyper777","steam_id":76561198304548526,"connected_time":1283000000000,"state":"active","ping":69},{"user_id":311,"name":"mega","steam_id":76561198089520959,"connected_time":2771000000000,"state":"active","ping":86},{"user_id":344,"name":"Socialism Doesn't Work","steam_id":76561198044115698,"connected_time":1040000000000,"state":"active","ping":120},{"user_id":348,"name":"Korky Buchek","steam_id":76561198164689254,"connected_time":772000000000,"state":"active","ping":118},{"user_id":345,"name":"toodles","steam_id":76561198025463883,"connected_time":1036000000000,"state":"active","ping":46},{"user_id":357,"name":"Servitz #savetf2","steam_id":76561198194446835,"connected_time":218000000000,"state":"active","ping":121},{"user_id":353,"name":"ImaLilWeirdo","steam_id":76561198171653353,"connected_time":512000000000,"state":"active","ping":57},{"user_id":274,"name":"Mr.Pan","steam_id":76561198069030613,"connected_time":6074000000000,"state":"active","ping":76},{"user_id":341,"name":"cookiegenius2398.r2","steam_id":76561198970759258,"connected_time":1282000000000,"state":"active","ping":61},{"user_id":324,"name":"Seriously Bruh","steam_id":76561198070408485,"connected_time":2191000000000,"state":"active","ping":65},{"user_id":356,"name":"mhmyeah_yeahmhm","steam_id":76561198341190679,"connected_time":296000000000,"state":"active","ping":56},{"user_id":286,"name":"Croxsbow","steam_id":76561198893327481,"connected_time":4957000000000,"state":"active","ping":48},{"user_id":292,"name":"EatSomeBEES","steam_id":76561198047334307,"connected_time":4637000000000,"state":"active","ping":78},{"user_id":185,"name":"THUD","steam_id":76561198009630323,"connected_time":11571000000000,"state":"active","ping":54},{"user_id":360,"name":"charcoal","steam_id":76561198356860204,"connected_time":19000000000,"state":"spawning","ping":56}]},{"server_id":119,"name":"Uncletopia | Seattle | 2 | All Maps","name_short":"sea-2","host":"sea-1.us.uncletopia.com","port":27025,"enabled":true,"region":"us-west","cc":"us","latitude":47.608013,"longitude":-122.33517,"reserved":0,"last_update":"0001-01-01T00:00:00Z","name_a2s":"Uncletopia | Seattle | 2 | All Maps","protocol":17,"map":"pl_badwater","folder":"tf","game":"Team Fortress","app_id":440,"player_count":0,"max_players":24,"Bots":0,"server_type":"Dedicated","server_os":"Linux","password":true,"vac":true,"version":"7708610","steam_id":85568392924469998,"keywords":["nocrits","nodmgspread","payload","uncletopia"],"game_id":440,"stv_port":27026,"stv_name":"Uncletopia | Seattle | 2 | All Maps | STV","players":null},{"server_id":17,"name":"Uncletopia | San Francisco | 1 | All Maps","name_short":"sfo-1","host":"sfo-1.us.uncletopia.com","port":27015,"enabled":true,"region":"us-west","cc":"us","latitude":37.77397,"longitude":-122.4313,"reserved":0,"last_update":"0001-01-01T00:00:00Z","name_a2s":"Uncletopia | San Francisco | 1 | All Maps","protocol":17,"map":"pl_barnblitz","folder":"tf","game":"Team Fortress","app_id":440,"player_count":0,"max_players":24,"Bots":0,"server_type":"Dedicated","server_os":"Linux","password":true,"vac":true,"version":"7708610","steam_id":85568392924469999,"keywords":["nocrits","nodmgspread","payload","uncletopia"],"game_id":440,"stv_port":27016,"stv_name":"Uncletopia | San Francisco | 1 | All Maps | STV","players":null},{"server_id":18,"name":"Uncletopia | San Francisco | 2 | All Maps","name_short":"sfo-2","host":"sfo-1.us.uncletopia.com","port":27025,"enabled":true,"region":"us-west","cc":"us","latitude":37.77397,"longitude":-122.4313,"reserved":0,"last_update":"0001-01-01T00:00:00Z","name_a2s":"Uncletopia | San Francisco | 2 | All Maps","protocol":17,"map":"pl_upward","folder":"tf","game":"Team Fortress","app_id":440,"player_count":0,"max_players":24,"Bots":0,"server_type":"Dedicated","server_os":"Linux","password":true,"vac":true,"version":"7708610","steam_id":85568392924470000,"keywords":["nocrits","nodmgspread","payload","uncletopia"],"game_id":440,"stv_port":27026,"stv_name":"Uncletopia | San Francisco | 2 | All Maps | STV","players":null},{"server_id":19,"name":"Uncletopia | San Francisco | 3 | No Payload","name_short":"sfo-3","host":"sfo-1.us.uncletopia.com","port":27035,"enabled":true,"region":"us-west","cc":"us","latitude":37.77397,"longitude":-122.4313,"reserved":0,"last_update":"0001-01-01T00:00:00Z","name_a2s":"Uncletopia | San Francisco | 3 | No Payload","protocol":17,"map":"koth_lazarus","folder":"tf","game":"Team Fortress","app_id":440,"player_count":0,"max_players":24,"Bots":0,"server_type":"Dedicated","server_os":"Linux","password":true,"vac":true,"version":"7708610","steam_id":85568392924742824,"keywords":["cp","nocrits","nodmgspread","uncletopia"],"game_id":440,"stv_port":27036,"stv_name":"Uncletopia | San Francisco | 3 | No Payload | STV","players":null},{"server_id":20,"name":"Uncletopia | San Francisco | 4 | Community","name_short":"sfo-4","host":"sfo-1.us.uncletopia.com","port":27045,"enabled":true,"region":"us-west","cc":"us","latitude":37.77397,"longitude":-122.4313,"reserved":0,"last_update":"0001-01-01T00:00:00Z","name_a2s":"Uncletopia | San Francisco | 4 | Community","protocol":17,"map":"pl_frontier_final","folder":"tf","game":"Team Fortress","app_id":440,"player_count":0,"max_players":24,"Bots":0,"server_type":"Dedicated","server_os":"Linux","password":true,"vac":true,"version":"7708610","steam_id":85568392924742826,"keywords":["nocrits","nodmgspread","payload","uncletopia"],"game_id":440,"stv_port":27046,"stv_name":"Uncletopia | San Francisco | 4 | Community | STV","players":null},{"server_id":141,"name":"Uncletopia | Sydney | 1 | All Maps","name_short":"syd-1","host":"syd-1.au.uncletopia.com","port":27015,"enabled":true,"region":"au","cc":"au","latitude":-33.865143,"longitude":151.2099,"reserved":0,"last_update":"0001-01-01T00:00:00Z","name_a2s":"Uncletopia | Sydney | 1 | All Maps","protocol":17,"map":"koth_cascade","folder":"tf","game":"Team Fortress","app_id":440,"player_count":0,"max_players":24,"Bots":0,"server_type":"Dedicated","server_os":"Linux","password":true,"vac":true,"version":"7708610","steam_id":85568392924470001,"keywords":["cp","nocrits","nodmgspread","uncletopia"],"game_id":440,"stv_port":27016,"stv_name":"Uncletopia | Sydney | 1 | All Maps | STV","players":null},{"server_id":123,"name":"Uncletopia | Sydney | 2 | All Maps","name_short":"syd-2","host":"syd-1.au.uncletopia.com","port":27025,"enabled":true,"region":"au","cc":"au","latitude":-33.865143,"longitude":151.2099,"reserved":0,"last_update":"0001-01-01T00:00:00Z","name_a2s":"Uncletopia | Sydney | 2 | All Maps","protocol":17,"map":"pl_barnblitz","folder":"tf","game":"Team Fortress","app_id":440,"player_count":0,"max_players":24,"Bots":0,"server_type":"Dedicated","server_os":"Linux","password":true,"vac":true,"version":"7708610","steam_id":85568392924470002,"keywords":["nocrits","nodmgspread","payload","uncletopia"],"game_id":440,"stv_port":27026,"stv_name":"Uncletopia | Sydney | 2 | All Maps | STV","players":null},{"server_id":395,"name":"Uncletopia | Sydney | 3 | All Maps","name_short":"syd-3","host":"syd-1.au.uncletopia.com","port":27035,"enabled":true,"region":"au","cc":"au","latitude":-33.865143,"longitude":151.2099,"reserved":0,"last_update":"0001-01-01T00:00:00Z","name_a2s":"Uncletopia | Sydney | 3 | All Maps","protocol":17,"map":"koth_viaduct","folder":"tf","game":"Team Fortress","app_id":440,"player_count":0,"max_players":24,"Bots":0,"server_type":"Dedicated","server_os":"Linux","password":true,"vac":true,"version":"7708610","steam_id":85568392925194467,"keywords":["cp","nocrits","nodmgspread","uncletopia"],"game_id":440,"stv_port":27036,"stv_name":"Uncletopia | Sydney | 3 | All Maps | STV","players":null},{"server_id":396,"name":"Uncletopia | Sydney | 4 | All Maps","name_short":"syd-4","host":"syd-1.au.uncletopia.com","port":27045,"enabled":true,"region":"au","cc":"au","latitude":-33.865143,"longitude":151.2099,"reserved":0,"last_update":"0001-01-01T00:00:00Z","name_a2s":"Uncletopia | Sydney | 4 | All Maps","protocol":17,"map":"pl_frontier_final","folder":"tf","game":"Team Fortress","app_id":440,"player_count":0,"max_players":24,"Bots":0,"server_type":"Dedicated","server_os":"Linux","password":true,"vac":true,"version":"7708610","steam_id":85568392925397958,"keywords":["nocrits","nodmgspread","payload","uncletopia"],"game_id":440,"stv_port":27046,"stv_name":"Uncletopia | Sydney | 4 | All Maps | STV","players":null},{"server_id":58,"name":"Uncletopia | Sydney | 5 | No Payload","name_short":"syd-5","host":"syd-1.au.uncletopia.com","port":27055,"enabled":true,"region":"au","cc":"au","latitude":-33.865143,"longitude":151.2099,"reserved":0,"last_update":"0001-01-01T00:00:00Z","name_a2s":"Uncletopia | Sydney | 5 | No Payload","protocol":17,"map":"pl_pier","folder":"tf","game":"Team Fortress","app_id":440,"player_count":0,"max_players":24,"Bots":0,"server_type":"Dedicated","server_os":"Linux","password":true,"vac":true,"version":"7708610","steam_id":85568392925397959,"keywords":["nocrits","nodmgspread","payload","uncletopia"],"game_id":440,"stv_port":27056,"stv_name":"Uncletopia | Sydney | 5 | No Payload | STV","players":null},{"server_id":59,"name":"Uncletopia | Sydney | 6 | Community","name_short":"syd-6","host":"syd-1.au.uncletopia.com","port":27065,"enabled":true,"region":"au","cc":"au","latitude":-33.865143,"longitude":151.2099,"reserved":0,"last_update":"0001-01-01T00:00:00Z","name_a2s":"Uncletopia | Sydney | 6 | Community","protocol":17,"map":"pl_badwater","folder":"tf","game":"Team Fortress","app_id":440,"player_count":0,"max_players":24,"Bots":0,"server_type":"Dedicated","server_os":"Linux","password":true,"vac":true,"version":"7708610","steam_id":85568392925397960,"keywords":["nocrits","nodmgspread","payload","uncletopia"],"game_id":440,"stv_port":27066,"stv_name":"Uncletopia | Sydney | 6 | Community | STV","players":null},{"server_id":49,"name":"Uncletopia | Warsaw | 1 | All Maps","name_short":"waw-1","host":"waw-1.pl.uncletopia.com","port":27015,"enabled":true,"region":"eu","cc":"pl","latitude":52.2297,"longitude":21.017532,"reserved":0,"last_update":"0001-01-01T00:00:00Z","name_a2s":"Uncletopia | Warsaw | 1 | All Maps","protocol":17,"map":"cp_5gorge","folder":"tf","game":"Team Fortress","app_id":440,"player_count":0,"max_players":24,"Bots":0,"server_type":"Dedicated","server_os":"Linux","password":true,"vac":true,"version":"7708610","steam_id":85568392925397850,"keywords":["cp","nocrits","nodmgspread","uncletopia"],"game_id":440,"stv_port":27016,"stv_name":"Uncletopia | Warsaw | 1 | All Maps | STV","players":null},{"server_id":50,"name":"Uncletopia | Warsaw | 2 | All Maps","name_short":"waw-2","host":"waw-1.pl.uncletopia.com","port":27025,"enabled":true,"region":"eu","cc":"pl","latitude":52.2297,"longitude":21.017532,"reserved":0,"last_update":"0001-01-01T00:00:00Z","name_a2s":"Uncletopia | Warsaw | 2 | All Maps","protocol":17,"map":"koth_highpass","folder":"tf","game":"Team Fortress","app_id":440,"player_count":0,"max_players":24,"Bots":0,"server_type":"Dedicated","server_os":"Linux","password":true,"vac":true,"version":"7708610","steam_id":85568392925397851,"keywords":["cp","nocrits","nodmgspread","uncletopia"],"game_id":440,"stv_port":27026,"stv_name":"Uncletopia | Warsaw | 2 | All Maps | STV","players":null},{"server_id":51,"name":"Uncletopia | Warsaw | 3 | All Maps","name_short":"waw-3","host":"waw-1.pl.uncletopia.com","port":27035,"enabled":true,"region":"eu","cc":"pl","latitude":52.2297,"longitude":21.017532,"reserved":0,"last_update":"0001-01-01T00:00:00Z","name_a2s":"Uncletopia | Warsaw | 3 | All Maps","protocol":17,"map":"cp_sunshine","folder":"tf","game":"Team Fortress","app_id":440,"player_count":0,"max_players":24,"Bots":0,"server_type":"Dedicated","server_os":"Linux","password":true,"vac":true,"version":"7708610","steam_id":85568392925397852,"keywords":["cp","nocrits","nodmgspread","uncletopia"],"game_id":440,"stv_port":27036,"stv_name":"Uncletopia | Warsaw | 3 | All Maps | STV","players":null},{"server_id":52,"name":"Uncletopia | Warsaw | 4 | All Maps","name_short":"waw-4","host":"waw-1.pl.uncletopia.com","port":27045,"enabled":true,"region":"eu","cc":"pl","latitude":52.2297,"longitude":21.017532,"reserved":0,"last_update":"0001-01-01T00:00:00Z","name_a2s":"Uncletopia | Warsaw | 4 | All Maps","protocol":17,"map":"pl_pier","folder":"tf","game":"Team Fortress","app_id":440,"player_count":0,"max_players":24,"Bots":0,"server_type":"Dedicated","server_os":"Linux","password":true,"vac":true,"version":"7708610","steam_id":85568392925397853,"keywords":["nocrits","nodmgspread","payload","uncletopia"],"game_id":440,"stv_port":27046,"stv_name":"Uncletopia | Warsaw | 4 | All Maps | STV","players":null},{"server_id":53,"name":"Uncletopia | Warsaw | 5 | No Payload","name_short":"waw-5","host":"waw-1.pl.uncletopia.com","port":27055,"enabled":true,"region":"eu","cc":"pl","latitude":52.2297,"longitude":21.017532,"reserved":0,"last_update":"0001-01-01T00:00:00Z","name_a2s":"Uncletopia | Warsaw | 5 | No Payload","protocol":17,"map":"pl_borneo","folder":"tf","game":"Team Fortress","app_id":440,"player_count":0,"max_players":24,"Bots":0,"server_type":"Dedicated","server_os":"Linux","password":true,"vac":true,"version":"7708610","steam_id":85568392925397854,"keywords":["nocrits","nodmgspread","payload","uncletopia"],"game_id":440,"stv_port":27056,"stv_name":"Uncletopia | Warsaw | 5 | No Payload | STV","players":null},{"server_id":54,"name":"Uncletopia | Warsaw | 6 | Community","name_short":"waw-6","host":"waw-1.pl.uncletopia.com","port":27065,"enabled":true,"region":"eu","cc":"pl","latitude":52.2297,"longitude":21.017532,"reserved":0,"last_update":"0001-01-01T00:00:00Z","name_a2s":"Uncletopia | Warsaw | 6 | Community","protocol":17,"map":"workshop/pl_barnblitz_pro7.ugc582280235","folder":"tf","game":"Team Fortress","app_id":440,"player_count":0,"max_players":24,"Bots":0,"server_type":"Dedicated","server_os":"Linux","password":true,"vac":true,"version":"7708610","steam_id":85568392925397856,"keywords":["nocrits","nodmgspread","payload","uncletopia"],"game_id":440,"stv_port":27066,"stv_name":"Uncletopia | Warsaw | 6 | Community | STV","players":null}]}