{"status":true,"message":"","result":[{"server_id":9,"name":"Uncletopia | Atlanta | 1 | All Maps","name_short":"atl-1","host":"atl-1.us.uncletopia.com","port":27015,"enabled":true,"region":"us-east","cc":"us","latitude":33.753746,"longitude":-84.38633,"reserved":0,"last_update":"0001-01-01T00:00:00Z","name_a2s":"Uncletopia | Atlanta | 1 | All Maps","protocol":17,"map":"pl_pier","folder":"tf","game":"Team Fortress","app_id":440,"player_count":0,"max_players":24,"Bots":0,"server_type":"Dedicated","server_os":"Linux","password":true,"vac":true,"version":"7882260","steam_id":85568392924469982,"keywords":["nocrits","nodmgspread","payload","uncletopia"],"game_id":440,"stv_port":27016,"stv_name":"Uncletopia | Atlanta | 1 | All Maps | STV","players":null},{"server_id":104,"name":"Uncletopia | Atlanta | 2 | All Maps","name_short":"atl-2","host":"atl-1.us.uncletopia.com","port":27025,"enabled":true,"region":"us-east","cc":"us","latitude":33.753746,"longitude":-84.38633,"reserved":0,"last_update":"0001-01-01T00:00:00Z","name_a2s":"Uncletopia | Atlanta | 2 | All Maps","protocol":17,"map":"pl_borneo","folder":"tf","game":"Team Fortress","app_id":440,"player_count":24,"max_players":24,"Bots":0,"server_type":"Dedicated","server_os":"Linux","password":true,"vac":true,"version":"7882260","steam_id":85568392924469983,"keywords":["nocrits","nodmgspread","payload","uncletopia"],"game_id":440,"stv_port":27026,"stv_name":"Uncletopia | Atlanta | 2 | All Maps | STV","players":[{"user_id":753,"name":"Wormatoid","steam_id":76561199400536796,"connected_time":1593000000000,"state":"active","ping":61},{"user_id":666,"name":"PootisPowHAHA","steam_id":76561199023536209,"connected_time":6863000000000,"state":"active","ping":74},{"user_id":739,"name":"TTV_ToryStream","steam_id":76561198421203977,"connected_time":2651000000000,"state":"active","ping":119},{"user_id":774,"name":"supcupman","steam_id":76561198051513866,"connected_time":307000000000,"state":"active","ping":116},{"user_id":713,"name":"Makina","steam_id":76561198057475567,"connected_time":4287000000000,"state":"active","ping":100},{"user_id":763,"name":"lightning","steam_id":76561199214359565,"connected_time":755000000000,"state":"active","ping":105},{"user_id":765,"name":"Draxion","steam_id":76561198132263393,"connected_time":715000000000,"state":"active","ping":50},{"user_id":757,"name":"BEAT THAT WIFE 445","steam_id":76561198332877441,"connected_time":1071000000000,"state":"active","ping":69},{"user_id":776,"name":"Float","steam_id":76561198101933311,"connected_time":264000000000,"state":"active","ping":74},{"user_id":764,"name":"Gustavo Fring","steam_id":76561198132807405,"connected_time":742000000000,"state":"active","ping":79},{"user_id":777,"name":"5(x+3) -x = 59","steam_id":76561199214358977,"connected_time":252000000000,"state":"active","ping":71},{"user_id":714,"name":"Pizza","steam_id":76561198118748364,"connected_time":4268000000000,"state":"active","ping":58},{"user_id":756,"name":"Bodhi","steam_id":76561198103230995,"connected_time":1229000000000,"state":"active","ping":64},{"user_id":761,"name":"starkiller_141","steam_id":76561198162426849,"connected_time":930000000000,"state":"active","ping":54},{"user_id":734,"name":"puss backline bored sniper cuck","steam_id":76561199405181884,"connected_time":3297000000000,"state":"active","ping":48},{"user_id":649,"name":"Man Man","steam_id":76561199068338634,"connected_time":7817000000000,"state":"active","ping":86},{"user_id":778,"name":"Hippocrates","steam_id":76561198080670382,"connected_time":97000000000,"state":"active","ping":73},{"user_id":767,"name":"M249 | Spectre","steam_id":76561198118334485,"connected_time":641000000000,"state":"active","ping":73},{"user_id":768,"name":"bitch im coolin","steam_id":76561198203732449,"connected_time":628000000000,"state":"active","ping":58},{"user_id":769,"name":"OneMisguidedSlyGuy","steam_id":76561198372243261,"connected_time":592000000000,"state":"active","ping":105},{"user_id":760,"name":"BIG EVIL","steam_id":76561198065600921,"connected_time":1026000000000,"state":"active","ping":76},{"user_id":770,"name":"dipp","steam_id":76561198395577807,"connected_time":583000000000,"state":"active","ping":65},{"user_id":771,"name":"Supreme Leader Gnomedolf Slonke","steam_id":76561198310594866,"connected_time":536000000000,"state":"active","ping":64},{"user_id":775,"name":"souljaboytellem.com","steam_id":76561198111975583,"connected_time":307000000000,"state":"active","ping":77}]},{"server_id":400,"name":"Uncletopia | Atlanta | 3 | Community","name_short":"atl-3","host":"atl-1.us.uncletopia.com","port":27035,"enabled":true,"region":"us-east","cc":"us","latitude":33.753746,"longitude":-84.38633,"reserved":0,"last_update":"0001-01-01T00:00:00Z","name_a2s":"Uncletopia | Atlanta | 3 | Community","protocol":17,"map":"workshop/cp_sulfur_rc2.ugc619869471","folder":"tf","game":"Team Fortress","app_id":440,"player_count":0,"max_players":24,"Bots":0,"server_type":"Dedicated","server_os":"Linux","password":true,"vac":true,"version":"7882260","steam_id":85568392924515187,"keywords":["cp","nocrits","nodmgspread","uncletopia"],"game_id":440,"stv_port":27036,"stv_name":"Uncletopia | Atlanta | 3 | Community | STV","players":null},{"server_id":401,"name":"Uncletopia | Atlanta | 4 | No Payload","name_short":"atl-4","host":"atl-1.us.uncletopia.com","port":27045,"enabled":true,"region":"us-east","cc":"us","latitude":33.753746,"longitude":-84.38633,"reserved":0,"last_update":"0001-01-01T00:00:00Z","name_a2s":"","protocol":0,"map":"","folder":"","game":"","app_id":0,"player_count":0,"max_players":0,"Bots":0,"server_type":"","server_os":"","password":false,"vac":false,"version":"","steam_id":0,"keywords":null,"game_id":0,"stv_port":0,"stv_name":"","players":null},{"server_id":2,"name":"Uncletopia | Chicago | 1 | All Maps","name_short":"chi-1","host":"chi-1.us.uncletopia.com","port":27015,"enabled":true,"region":"us-central","cc":"us","latitude":41.881832,"longitude":-87.62318,"reserved":0,"last_update":"0001-01-01T00:00:00Z","name_a2s":"Uncletopia | Chicago | 1 | All Maps","protocol":17,"map":"pl_badwater","folder":"tf","game":"Team Fortress","app_id":440,"player_count":18,"max_players":24,"Bots":0,"server_type":"Dedicated","server_os":"Linux","password":true,"vac":true,"version":"7882260","steam_id":85568392924469984,"keywords":["nocrits","nodmgspread","payload","uncletopia"],"game_id":440,"stv_port":27016,"stv_name":"Uncletopia | Chicago | 1 | All Maps | STV","players":[{"user_id":746,"name":"cownbwead","steam_id":76561199480548883,"connected_time":929000000000,"state":"active","ping":60},{"user_id":757,"name":"STILLZ","steam_id":76561198131892406,"connected_time":573000000000,"state":"active","ping":85},{"user_id":760,"name":"Animal Slices","steam_id":76561198137545511,"connected_time":51000000000,"state":"active","ping":49},{"user_id":738,"name":"David De Bergerac","steam_id":76561198010306294,"connected_time":1216000000000,"state":"active","ping":86},{"user_id":729,"name":"dave","steam_id":76561198135961731,"connected_time":2507000000000,"state":"active","ping":87},{"user_id":743,"name":"teafalopi","steam_id":76561198406252824,"connected_time":960000000000,"state":"active","ping":105},{"user_id":672,"name":"Mank","steam_id":76561198189421005,"connected_time":6864000000000,"state":"active","ping":46},{"user_id":737,"name":"Rya‚ò∫","steam_id":76561198370128860,"connected_time":1223000000000,"state":"active","ping":75},{"user_id":696,"name":"kaputon","steam_id":76561198146299782,"connected_time":5417000000000,"state":"active","ping":59},{"user_id":673,"name":"Soap","steam_id":76561197994893383,"connected_time":6860000000000,"state":"active","ping":65},{"user_id":753,"name":"derdds","steam_id":76561198034339940,"connected_time":734000000000,"state":"active","ping":56},{"user_id":733,"name":"wraithhokage","steam_id":76561198067231684,"connected_time":2140000000000,"state":"active","ping":111},{"user_id":710,"name":"Bobby Ray","steam_id":76561198044131188,"connected_time":4262000000000,"state":"active","ping":75},{"user_id":731,"name":"evan_is_sauce","steam_id":76561199086802383,"connected_time":2449000000000,"state":"active","ping":124},{"user_id":751,"name":"l√ºh me da granky","steam_id":76561198056186750,"connected_time":770000000000,"state":"active","ping":51},{"user_id":752,"name":"CC","steam_id":76561198071226149,"connected_time":750000000000,"state":"active","ping":71},{"user_id":732,"name":"VixianUwU","steam_id":76561198948815060,"connected_time":2448000000000,"state":"active","ping":80},{"user_id":754,"name":"litroolay","steam_id":76561197995226856,"connected_time":729000000000,"state":"active","ping":90}]},{"server_id":106,"name":"Uncletopia | Chicago | 2 | All Maps","name_short":"chi-2","host":"chi-1.us.uncletopia.com","port":27025,"enabled":true,"region":"us-central","cc":"us","latitude":41.881832,"longitude":-87.62318,"reserved":0,"last_update":"0001-01-01T00:00:00Z","name_a2s":"Uncletopia | Chicago | 2 | All Maps","protocol":17,"map":"cp_sunshine","folder":"tf","game":"Team Fortress","app_id":440,"player_count":20,"max_players":24,"Bots":0,"server_type":"Dedicated","server_os":"Linux","password":true,"vac":true,"version":"7882260","steam_id":85568392924469985,"keywords":["cp","nocrits","nodmgspread","uncletopia"],"game_id":440,"stv_port":27026,"stv_name":"Uncletopia | Chicago | 2 | All Maps | STV","players":[{"user_id":678,"name":"Paul Badman","steam_id":76561198965289206,"connected_time":4547000000000,"state":"active","ping":82},{"user_id":727,"name":"REPL1C4TE","steam_id":76561198799184324,"connected_time":1140000000000,"state":"active","ping":105},{"user_id":673,"name":"Rukir","steam_id":76561198275743642,"connected_time":4781000000000,"state":"active","ping":68},{"user_id":737,"name":"Rusty","steam_id":76561198055585129,"connected_time":637000000000,"state":"active","ping":94},{"user_id":736,"name":"Lil Birb","steam_id":76561198041046100,"connected_time":898000000000,"state":"active","ping":84},{"user_id":700,"name":"[BU773T\u003e","steam_id":76561197991671942,"connected_time":3691000000000,"state":"active","ping":88},{"user_id":714,"name":"Hot Dog!","steam_id":76561198063286314,"connected_time":2095000000000,"state":"active","ping":119},{"user_id":703,"name":"Jibble","steam_id":76561198970704298,"connected_time":3478000000000,"state":"active","ping":53},{"user_id":717,"name":"Cy4nideCutie","steam_id":76561198126686695,"connected_time":2058000000000,"state":"active","ping":74},{"user_id":720,"name":"Captain Coochie","steam_id":76561198441729702,"connected_time":1594000000000,"state":"active","ping":60},{"user_id":728,"name":"Runic","steam_id":76561198025537364,"connected_time":1125000000000,"state":"active","ping":63},{"user_id":718,"name":"BigNugs","steam_id":76561198056402610,"connected_time":2032000000000,"state":"active","ping":68},{"user_id":687,"name":"seldom","steam_id":76561198166193756,"connected_time":4088000000000,"state":"active","ping":74},{"user_id":729,"name":":)","steam_id":76561198093921290,"connected_time":1110000000000,"state":"active","ping":46},{"user_id":688,"name":"Piyono","steam_id":76561197962188504,"connected_time":4085000000000,"state":"active","ping":68},{"user_id":731,"name":"samb0","steam_id":76561198055876337,"connected_time":1105000000000,"state":"active","ping":78},{"user_id":742,"name":"i suffer from ligma","steam_id":76561199158496518,"connected_time":67000000000,"state":"active","ping":126},{"user_id":695,"name":"Booty Woyer","steam_id":76561198168852050,"connected_time":3795000000000,"state":"active","ping":74},{"user_id":719,"name":"The Cool Man","steam_id":76561198096420556,"connected_time":2026000000000,"state":"active","ping":93},{"user_id":735,"name":"Laesonated","steam_id":76561198887105282,"connected_time":973000000000,"state":"active","ping":79}]},{"server_id":402,"name":"Uncletopia | Chicago | 3 | All Maps","name_short":"chi-3","host":"chi-1.us.uncletopia.com","port":27035,"enabled":true,"region":"us-central","cc":"us","latitude":41.881832,"longitude":-87.62318,"reserved":0,"last_update":"0001-01-01T00:00:00Z","name_a2s":"Uncletopia | Chicago | 3 | All Maps","protocol":17,"map":"pl_barnblitz","folder":"tf","game":"Team Fortress","app_id":440,"player_count":0,"max_players":24,"Bots":0,"server_type":"Dedicated","server_os":"Linux","password":true,"vac":true,"version":"7882260","steam_id":85568392924515191,"keywords":["nocrits","nodmgspread","payload","uncletopia"],"game_id":440,"stv_port":27036,"stv_name":"Uncletopia | Chicago | 3 | All Maps | STV","players":null},{"server_id":403,"name":"Uncletopia | Chicago | 4 | All Maps","name_short":"chi-4","host":"chi-1.us.uncletopia.com","port":27045,"enabled":true,"region":"us-central","cc":"us","latitude":41.881832,"longitude":-87.62318,"reserved":0,"last_update":"0001-01-01T00:00:00Z","name_a2s":"Uncletopia | Chicago | 4 | All Maps","protocol":17,"map":"pl_barnblitz","folder":"tf","game":"Team Fortress","app_id":440,"player_count":23,"max_players":24,"Bots":0,"server_type":"Dedicated","server_os":"Linux","password":true,"vac":true,"version":"7882260","steam_id":85568392924515193,"keywords":["nocrits","nodmgspread","payload","uncletopia"],"game_id":440,"stv_port":27046,"stv_name":"Uncletopia | Chicago | 4 | All Maps | STV","players":[{"user_id":524,"name":"Switch","steam_id":76561197982035284,"connected_time":1099000000000,"state":"active","ping":90},{"user_id":525,"name":"I AM SO FKN GOOD","steam_id":76561198100942212,"connected_time":930000000000,"state":"active","ping":75},{"user_id":537,"name":"bog","steam_id":76561198086008437,"connected_time":296000000000,"state":"active","ping":70},{"user_id":527,"name":"Lord_Manship","steam_id":76561198045168765,"connected_time":874000000000,"state":"active","ping":78},{"user_id":528,"name":"panapoly","steam_id":76561198808125985,"connected_time":806000000000,"state":"active","ping":175},{"user_id":529,"name":"marcie","steam_id":76561198170642407,"connected_time":629000000000,"state":"active","ping":61},{"user_id":538,"name":"Rock Collector","steam_id":76561198131467867,"connected_time":294000000000,"state":"active","ping":84},{"user_id":519,"name":"wolf from rust TF2EASY.COM","steam_id":76561198172732375,"connected_time":1245000000000,"state":"active","ping":64},{"user_id":481,"name":"Large Man","steam_id":76561198880396651,"connected_time":4644000000000,"state":"active","ping":90},{"user_id":545,"name":"Mr. Tako","steam_id":76561199212603905,"connected_time":47000000000,"state":"active","ping":78},{"user_id":540,"name":"Knight","steam_id":76561198154529952,"connected_time":238000000000,"state":"active","ping":97},{"user_id":541,"name":"juju_kungfu","steam_id":76561198151291219,"connected_time":211000000000,"state":"active","ping":121},{"user_id":533,"name":"Pagan min","steam_id":76561198065181538,"connected_time":504000000000,"state":"active","ping":62},{"user_id":518,"name":"cold spaghetti","steam_id":76561198983037944,"connected_time":1401000000000,"state":"active","ping":54},{"user_id":542,"name":"FiltheyCasual","steam_id":76561198288253461,"connected_time":199000000000,"state":"active","ping":111},{"user_id":516,"name":"InventorX","steam_id":76561198216912629,"connected_time":1503000000000,"state":"active","ping":48},{"user_id":544,"name":"Duende Enthusiast","steam_id":76561198354359094,"connected_time":78000000000,"state":"active","ping":50},{"user_id":522,"name":"we're so back","steam_id":76561198058485742,"connected_time":1164000000000,"state":"active","ping":70},{"user_id":506,"name":"Wingsaber","steam_id":76561198045010390,"connected_time":2650000000000,"state":"active","ping":69},{"user_id":489,"name":"Trixie Lulamoon","steam_id":76561198088638723,"connected_time":4183000000000,"state":"active","ping":126},{"user_id":507,"name":"Newt","steam_id":76561198842909288,"connected_time":2636000000000,"state":"active","ping":116},{"user_id":546,"name":"Pinto","steam_id":76561199105386998,"connected_time":36000000000,"state":"active","ping":75},{"user_id":477,"name":"twix","steam_id":76561198040912048,"connected_time":5517000000000,"state":"active","ping":47}]},{"server_id":36,"name":"Uncletopia | Chicago | 5 | All Maps","name_short":"chi-5","host":"chi-2.us.uncletopia.com","port":27015,"enabled":true,"region":"us-central","cc":"us","latitude":41.881832,"longitude":-87.62318,"reserved":0,"last_update":"0001-01-01T00:00:00Z","name_a2s":"Uncletopia | Chicago | 5 | All Maps","protocol":17,"map":"pl_badwater","folder":"tf","game":"Team Fortress","app_id":440,"player_count":21,"max_players":24,"Bots":0,"server_type":"Dedicated","server_os":"Linux","password":true,"vac":true,"version":"7882260","steam_id":85568392924866362,"keywords":["nocrits","nodmgspread","payload","uncletopia"],"game_id":440,"stv_port":27016,"stv_name":"Uncletopia | Chicago | 5 | All Maps | STV","players":[{"user_id":733,"name":"Atoc","steam_id":76561198300877325,"connected_time":307000000000,"state":"active","ping":60},{"user_id":722,"name":"eish","steam_id":76561198089463603,"connected_time":1301000000000,"state":"active","ping":134},{"user_id":726,"name":"SquishyDog","steam_id":76561198059014380,"connected_time":542000000000,"state":"active","ping":36},{"user_id":717,"name":"üü†","steam_id":76561198018213050,"connected_time":1579000000000,"state":"active","ping":46},{"user_id":732,"name":"Mantequilla","steam_id":76561198317927140,"connected_time":325000000000,"state":"active","ping":65},{"user_id":734,"name":"Mista","steam_id":76561198836172914,"connected_time":281000000000,"state":"active","ping":68},{"user_id":735,"name":"a 1930s robber","steam_id":76561198125237406,"connected_time":251000000000,"state":"active","ping":75},{"user_id":736,"name":"Hunter","steam_id":76561198050617754,"connected_time":201000000000,"state":"active","ping":104},{"user_id":591,"name":"b","steam_id":76561198118211523,"connected_time":11207000000000,"state":"active","ping":60},{"user_id":665,"name":"OffKey","steam_id":76561198017660927,"connected_time":5111000000000,"state":"active","ping":54},{"user_id":714,"name":"basil","steam_id":76561198075758026,"connected_time":1609000000000,"state":"active","ping":89},{"user_id":737,"name":"sirdancelot4u","steam_id":76561199024676738,"connected_time":187000000000,"state":"active","ping":122},{"user_id":715,"name":"corpse","steam_id":76561198108938632,"connected_time":1607000000000,"state":"active","ping":44},{"user_id":738,"name":"jonylts","steam_id":76561198280667100,"connected_time":180000000000,"state":"active","ping":115},{"user_id":716,"name":"poetato pat","steam_id":76561198025489194,"connected_time":1596000000000,"state":"active","ping":78},{"user_id":739,"name":"Zee‚ù§","steam_id":76561198274550638,"connected_time":155000000000,"state":"active","ping":60},{"user_id":741,"name":"Jamrock","steam_id":76561198316505962,"connected_time":88000000000,"state":"active","ping":65},{"user_id":700,"name":"LilGoBonkers","steam_id":76561198275780924,"connected_time":2985000000000,"state":"active","ping":106},{"user_id":725,"name":"Lemon Drop","steam_id":76561198023684559,"connected_time":684000000000,"state":"active","ping":62},{"user_id":720,"name":"Stick","steam_id":76561198001509374,"connected_time":1506000000000,"state":"active","ping":73},{"user_id":724,"name":"Za Zombie","steam_id":76561198055545262,"connected_time":1213000000000,"state":"active","ping":73}]},{"server_id":37,"name":"Uncletopia | Chicago | 6 | All Maps","name_short":"chi-6","host":"chi-2.us.uncletopia.com","port":27025,"enabled":true,"region":"us-central","cc":"us","latitude":41.881832,"longitude":-87.62318,"reserved":0,"last_update":"0001-01-01T00:00:00Z","name_a2s":"Uncletopia | Chicago | 6 | All Maps","protocol":17,"map":"pl_badwater","folder":"tf","game":"Team Fortress","app_id":440,"player_count":2,"max_players":24,"Bots":0,"server_type":"Dedicated","server_os":"Linux","password":true,"vac":true,"version":"7882260","steam_id":85568392924866363,"keywords":["nocrits","nodmgspread","payload","uncletopia"],"game_id":440,"stv_port":27026,"stv_name":"Uncletopia | Chicago | 6 | All Maps | STV","players":[{"user_id":342,"name":"THAT_guy?","steam_id":76561199149083994,"connected_time":1871000000000,"state":"active","ping":114},{"user_id":341,"name":"Linkedfurhire","steam_id":76561198149363268,"connected_time":1982000000000,"state":"active","ping":59}]},{"server_id":38,"name":"Uncletopia | Chicago | 7 | Stopwatch Beta","name_short":"chi-7","host":"chi-2.us.uncletopia.com","port":27035,"enabled":true,"region":"us-central","cc":"us","latitude":41.881832,"longitude":-87.62318,"reserved":0,"last_update":"0001-01-01T00:00:00Z","name_a2s":"Uncletopia | Chicago | 7 | Stopwatch Beta","protocol":17,"map":"workshop/pl_vigil_rc9.ugc1266210012","folder":"tf","game":"Team Fortress","app_id":440,"player_count":0,"max_players":24,"Bots":0,"server_type":"Dedicated","server_os":"Linux","password":true,"vac":true,"version":"7882260","steam_id":85568392924866364,"keywords":["nocrits","nodmgspread","payload","uncletopia"],"game_id":440,"stv_port":27036,"stv_name":"Uncletopia | Chicago | 7 | Stopwatch Beta | STV","players":null},{"server_id":39,"name":"Uncletopia | Chicago | 8 | Community","name_short":"chi-8","host":"chi-2.us.uncletopia.com","port":27045,"enabled":true,"region":"us-central","cc":"us","latitude":41.881832,"longitude":-87.62318,"reserved":0,"last_update":"0001-01-01T00:00:00Z","name_a2s":"Uncletopia | Chicago | 8 | Community","protocol":17,"map":"workshop/cp_indulge.ugc528106646","folder":"tf","game":"Team Fortress","app_id":440,"player_count":0,"max_players":24,"Bots":0,"server_type":"Dedicated","server_os":"Linux","password":true,"vac":true,"version":"7882260","steam_id":85568392924866365,"keywords":["cp","nocrits","nodmgspread","uncletopia"],"game_id":440,"stv_port":27046,"stv_name":"Uncletopia | Chicago | 8 | Community | STV","players":null},{"server_id":8,"name":"Uncletopia | Dallas | 1 | All Maps","name_short":"dal-1","host":"dal-1.us.uncletopia.com","port":27015,"enabled":true,"region":"us-central","cc":"us","latitude":32.779167,"longitude":-96.80889,"reserved":0,"last_update":"0001-01-01T00:00:00Z","name_a2s":"Uncletopia | Dallas | 1 | All Maps","protocol":17,"map":"pl_pier","folder":"tf","game":"Team Fortress","app_id":440,"player_count":24,"max_players":24,"Bots":0,"server_type":"Dedicated","server_os":"Linux","password":true,"vac":true,"version":"7882260","steam_id":85568392924469986,"keywords":["nocrits","nodmgspread","payload","uncletopia"],"game_id":440,"stv_port":27016,"stv_name":"Uncletopia | Dallas | 1 | All Maps | STV","players":[{"user_id":745,"name":"lil boogie","steam_id":76561198064059721,"connected_time":1367000000000,"state":"active","ping":91},{"user_id":744,"name":"enty","steam_id":76561199076171301,"connected_time":1707000000000,"state":"active","ping":72},{"user_id":709,"name":"aphip","steam_id":76561198084621244,"connected_time":3334000000000,"state":"active","ping":77},{"user_id":762,"name":"Dillon","steam_id":76561198191469611,"connected_time":608000000000,"state":"active","ping":95},{"user_id":732,"name":"Piunr","steam_id":76561198045703891,"connected_time":2057000000000,"state":"active","ping":85},{"user_id":751,"name":"Burny Sanders","steam_id":76561197961879048,"connected_time":1165000000000,"state":"active","ping":45},{"user_id":763,"name":"shoxidizer","steam_id":76561198981983698,"connected_time":591000000000,"state":"active","ping":93},{"user_id":765,"name":"BryGuySky","steam_id":76561199106953638,"connected_time":571000000000,"state":"active","ping":88},{"user_id":733,"name":"M0D9","steam_id":76561198853063547,"connected_time":2044000000000,"state":"active","ping":86},{"user_id":730,"name":"Belvidere","steam_id":76561198121336953,"connected_time":2114000000000,"state":"active","ping":95},{"user_id":757,"name":"Deep Fried Niki Lauda","steam_id":76561198129976826,"connected_time":998000000000,"state":"active","ping":77},{"user_id":731,"name":"MrYackles","steam_id":76561199095650797,"connected_time":2113000000000,"state":"active","ping":125},{"user_id":766,"name":"Major_Pippy","steam_id":76561198004482878,"connected_time":569000000000,"state":"active","ping":99},{"user_id":743,"name":"Fantastic","steam_id":76561198079088978,"connected_time":1872000000000,"state":"active","ping":60},{"user_id":768,"name":"IZISOO","steam_id":76561198970380577,"connected_time":536000000000,"state":"active","ping":70},{"user_id":735,"name":"LobsterPot","steam_id":76561198072225973,"connected_time":2020000000000,"state":"active","ping":68},{"user_id":713,"name":"EvilPigglet","steam_id":76561197987243470,"connected_time":3292000000000,"state":"active","ping":75},{"user_id":769,"name":"chicoTopic","steam_id":76561198327083342,"connected_time":533000000000,"state":"active","ping":41},{"user_id":759,"name":"YeshieSirYesSir","steam_id":76561198080214214,"connected_time":788000000000,"state":"active","ping":64},{"user_id":758,"name":"sunny","steam_id":76561198069380992,"connected_time":835000000000,"state":"active","ping":59},{"user_id":755,"name":"mashallah","steam_id":76561198075111427,"connected_time":1081000000000,"state":"active","ping":87},{"user_id":770,"name":"soltuno","steam_id":76561198074430565,"connected_time":502000000000,"state":"active","ping":94},{"user_id":756,"name":"AMLO 117","steam_id":76561198063521721,"connected_time":1059000000000,"state":"active","ping":51},{"user_id":771,"name":"bass mongrel","steam_id":76561198081123470,"connected_time":495000000000,"state":"active","ping":48}]},{"server_id":108,"name":"Uncletopia | Dallas | 2 | All Maps","name_short":"dal-2","host":"dal-1.us.uncletopia.com","port":27025,"enabled":true,"region":"us-central","cc":"us","latitude":32.779167,"longitude":-96.80889,"reserved":0,"last_update":"0001-01-01T00:00:00Z","name_a2s":"Uncletopia | Dallas | 2 | All Maps","protocol":17,"map":"pl_frontier_final","folder":"tf","game":"Team Fortress","app_id":440,"player_count":24,"max_players":24,"Bots":0,"server_type":"Dedicated","server_os":"Linux","password":true,"vac":true,"version":"7882260","steam_id":85568392924469988,"keywords":["nocrits","nodmgspread","payload","uncletopia"],"game_id":440,"stv_port":27026,"stv_name":"Uncletopia | Dallas | 2 | All Maps | STV","players":[{"user_id":896,"name":"oxbudy","steam_id":76561198022120207,"connected_time":2332000000000,"state":"active","ping":60},{"user_id":919,"name":"stick","steam_id":76561198134334367,"connected_time":189000000000,"state":"active","ping":100},{"user_id":910,"name":"FemFem","steam_id":76561198100162199,"connected_time":611000000000,"state":"active","ping":55},{"user_id":911,"name":"Artic_Ryuu","steam_id":76561198182194918,"connected_time":432000000000,"state":"active","ping":76},{"user_id":901,"name":"WLpeanut","steam_id":76561197981006264,"connected_time":1867000000000,"state":"active","ping":130},{"user_id":881,"name":"Nukeboy","steam_id":76561198147058560,"connected_time":3036000000000,"state":"active","ping":74},{"user_id":912,"name":"Sir Iasis","steam_id":76561198035666760,"connected_time":409000000000,"state":"active","ping":84},{"user_id":889,"name":"sora","steam_id":76561198094256973,"connected_time":2753000000000,"state":"active","ping":140},{"user_id":895,"name":"Misfit","steam_id":76561198044561021,"connected_time":2389000000000,"state":"active","ping":99},{"user_id":894,"name":"Danger Dwarf","steam_id":76561198059490571,"connected_time":2412000000000,"state":"active","ping":61},{"user_id":904,"name":"javert","steam_id":76561198325596473,"connected_time":1487000000000,"state":"active","ping":46},{"user_id":847,"name":"leopardo123atl","steam_id":76561198872648238,"connected_time":5801000000000,"state":"active","ping":67},{"user_id":918,"name":"Clawkikker","steam_id":76561198269433962,"connected_time":279000000000,"state":"active","ping":45},{"user_id":903,"name":"g0nk","steam_id":76561198838309024,"connected_time":1849000000000,"state":"active","ping":76},{"user_id":914,"name":"Zorlovo","steam_id":76561198006443283,"connected_time":373000000000,"state":"active","ping":80},{"user_id":899,"name":"the private","steam_id":76561198232500756,"connected_time":1988000000000,"state":"active","ping":60},{"user_id":915,"name":"ethanf","steam_id":76561198103930234,"connected_time":362000000000,"state":"active","ping":88},{"user_id":876,"name":"lucasgamer4life","steam_id":76561198129816242,"connected_time":3789000000000,"state":"active","ping":97},{"user_id":916,"name":"raduski","steam_id":76561198795699119,"connected_time":350000000000,"state":"active","ping":75},{"user_id":917,"name":"valvic","steam_id":76561198018982945,"connected_time":336000000000,"state":"active","ping":99},{"user_id":907,"name":"mkl","steam_id":76561197986401685,"connected_time":823000000000,"state":"active","ping":55},{"user_id":872,"name":"SleeplessCollin","steam_id":76561198968140914,"connected_time":4045000000000,"state":"active","ping":64},{"user_id":920,"name":"Xyverle","steam_id":76561198799726415,"connected_time":106000000000,"state":"active","ping":77}]},{"server_id":5,"name":"Uncletopia | Frankfurt | 1 | All Maps","name_short":"frk-1","host":"frk-1.de.uncletopia.com","port":27015,"enabled":true,"region":"eu","cc":"de","latitude":50.110924,"longitude":8.682127,"reserved":0,"last_update":"0001-01-01T00:00:00Z","name_a2s":"Uncletopia | Frankfurt | 1 | All Maps","protocol":17,"map":"pl_snowycoast","folder":"tf","game":"Team Fortress","app_id":440,"player_count":0,"max_players":24,"Bots":0,"server_type":"Dedicated","server_os":"Linux","password":true,"vac":true,"version":"7882260","steam_id":85568392924469989,"keywords":["nocrits","nodmgspread","payload","uncletopia"],"game_id":440,"stv_port":27016,"stv_name":"Uncletopia | Frankfurt | 1 | All Maps | STV","players":null},{"server_id":110,"name":"Uncletopia | Frankfurt | 2 | All Maps","name_short":"frk-2","host":"frk-1.de.uncletopia.com","port":27025,"enabled":true,"region":"eu","cc":"de","latitude":50.110924,"longitude":8.682127,"reserved":0,"last_update":"0001-01-01T00:00:00Z","name_a2s":"Uncletopia | Frankfurt | 2 | All Maps","protocol":17,"map":"koth_harvest_final","folder":"tf","game":"Team Fortress","app_id":440,"player_count":0,"max_players":24,"Bots":0,"server_type":"Dedicated","server_os":"Linux","password":true,"vac":true,"version":"7882260","steam_id":85568392924469990,"keywords":["cp","nocrits","nodmgspread","uncletopia"],"game_id":440,"stv_port":27026,"stv_name":"Uncletopia | Frankfurt | 2 | All Maps | STV","players":null},{"server_id":308,"name":"Uncletopia | Frankfurt | 3 | All Maps","name_short":"frk-3","host":"frk-1.de.uncletopia.com","port":27035,"enabled":true,"region":"eu","cc":"de","latitude":50.110924,"longitude":8.682127,"reserved":0,"last_update":"0001-01-01T00:00:00Z","name_a2s":"Uncletopia | Frankfurt | 3 | All Maps","protocol":17,"map":"cp_process_final","folder":"tf","game":"Team Fortress","app_id":440,"player_count":0,"max_players":24,"Bots":0,"server_type":"Dedicated","server_os":"Linux","password":true,"vac":true,"version":"7882260","steam_id":85568392924504274,"keywords":["cp","nocrits","nodmgspread","uncletopia"],"game_id":440,"stv_port":27036,"stv_name":"Uncletopia | Frankfurt | 3 | All Maps | STV","players":null},{"server_id":309,"name":"Uncletopia | Frankfurt | 4 | All Maps","name_short":"frk-4","host":"frk-1.de.uncletopia.com","port":27045,"enabled":true,"region":"eu","cc":"de","latitude":50.110924,"longitude":8.682127,"reserved":0,"last_update":"0001-01-01T00:00:00Z","name_a2s":"Uncletopia | Frankfurt | 4 | All Maps","protocol":17,"map":"koth_highpass","folder":"tf","game":"Team Fortress","app_id":440,"player_count":0,"max_players":24,"Bots":0,"server_type":"Dedicated","server_os":"Linux","password":true,"vac":true,"version":"7882260","steam_id":85568392924504275,"keywords":["cp","nocrits","nodmgspread","uncletopia"],"game_id":440,"stv_port":27046,"stv_name":"Uncletopia | Frankfurt | 4 | All Maps | STV","players":null},{"server_id":310,"name":"Uncletopia | Frankfurt | 5 | All Maps","name_short":"frk-5","host":"frk-1.de.uncletopia.com","port":27055,"enabled":true,"region":"eu","cc":"de","latitude":50.110924,"longitude":8.682127,"reserved":0,"last_update":"0001-01-01T00:00:00Z","name_a2s":"Uncletopia | Frankfurt | 5 | All Maps","protocol":17,"map":"pl_borneo","folder":"tf","game":"Team Fortress","app_id":440,"player_count":0,"max_players":24,"Bots":0,"server_type":"Dedicated","server_os":"Linux","password":true,"vac":true,"version":"7882260","steam_id":85568392924504277,"keywords":["nocrits","nodmgspread","payload","uncletopia"],"game_id":440,"stv_port":27056,"stv_name":"Uncletopia | Frankfurt | 5 | All Maps | STV","players":null},{"server_id":311,"name":"Uncletopia | Frankfurt | 6 | All Maps","name_short":"frk-6","host":"frk-1.de.uncletopia.com","port":27065,"enabled":true,"region":"eu","cc":"de","latitude":50.110924,"longitude":8.682127,"reserved":0,"last_update":"0001-01-01T00:00:00Z","name_a2s":"Uncletopia | Frankfurt | 6 | All Maps","protocol":17,"map":"pl_swiftwater_final1","folder":"tf","game":"Team Fortress","app_id":440,"player_count":2,"max_players":24,"Bots":0,"server_type":"Dedicated","server_os":"Linux","password":true,"vac":true,"version":"7882260","steam_id":85568392924504278,"keywords":["nocrits","nodmgspread","payload","uncletopia"],"game_id":440,"stv_port":27066,"stv_name":"Uncletopia | Frankfurt | 6 | All Maps | STV","players":[{"user_id":7,"name":"Barry Bee Benson","steam_id":76561198115199225,"connected_time":385000000000,"state":"active","ping":50},{"user_id":8,"name":"christoph","steam_id":76561198862617811,"connected_time":255000000000,"state":"active","ping":66}]},{"server_id":23,"name":"Uncletopia | Frankfurt | 7 | Stopwatch Beta","name_short":"frk-7","host":"frk-1.de.uncletopia.com","port":27075,"enabled":true,"region":"eu","cc":"de","latitude":50.110924,"longitude":8.682127,"reserved":0,"last_update":"0001-01-01T00:00:00Z","name_a2s":"Uncletopia | Frankfurt | 7 | Stopwatch Beta","protocol":17,"map":"workshop/cp_process_f12.ugc2302948105","folder":"tf","game":"Team Fortress","app_id":440,"player_count":0,"max_players":24,"Bots":0,"server_type":"Dedicated","server_os":"Linux","password":true,"vac":true,"version":"7882260","steam_id":85568392924742827,"keywords":["cp","nocrits","nodmgspread","uncletopia"],"game_id":440,"stv_port":27076,"stv_name":"Uncletopia | Frankfurt | 7 | Stopwatch Beta | STV","players":null},{"server_id":24,"name":"Uncletopia | Frankfurt | 8 | Community","name_short":"frk-8","host":"frk-1.de.uncletopia.com","port":27085,"enabled":true,"region":"eu","cc":"de","latitude":50.110924,"longitude":8.682127,"reserved":0,"last_update":"0001-01-01T00:00:00Z","name_a2s":"Uncletopia | Frankfurt | 8 | Community","protocol":17,"map":"cp_mountainlab","folder":"tf","game":"Team Fortress","app_id":440,"player_count":0,"max_players":24,"Bots":0,"server_type":"Dedicated","server_os":"Linux","password":true,"vac":true,"version":"7882260","steam_id":85568392924742828,"keywords":["cp","nocrits","nodmgspread","uncletopia"],"game_id":440,"stv_port":27086,"stv_name":"Uncletopia | Frankfurt | 8 | Community | STV","players":null},{"server_id":202,"name":"Uncletopia | Hong Kong | 1 | All Maps","name_short":"hgk-1","host":"hgk-1.hk.uncletopia.com","port":27015,"enabled":true,"region":"asia","cc":"hk","latitude":22.302711,"longitude":114.177216,"reserved":0,"last_update":"0001-01-01T00:00:00Z","name_a2s":"Uncletopia | Hong Kong | 1 | All Maps","protocol":17,"map":"pl_swiftwater_final1","folder":"tf","game":"Team Fortress","app_id":440,"player_count":24,"max_players":24,"Bots":0,"server_type":"Dedicated","server_os":"Linux","password":true,"vac":true,"version":"7882260","steam_id":85568392924494504,"keywords":["nocrits","nodmgspread","payload","uncletopia"],"game_id":440,"stv_port":27016,"stv_name":"Uncletopia | Hong Kong | 1 | All Maps | STV","players":[{"user_id":105,"name":"P","steam_id":76561198304514505,"connected_time":6740000000000,"state":"active","ping":68},{"user_id":162,"name":"[ RJN ] MeeLee","steam_id":76561199227871384,"connected_time":1851000000000,"state":"active","ping":59},{"user_id":92,"name":"1203231567","steam_id":76561198813103989,"connected_time":7468000000000,"state":"active","ping":83},{"user_id":147,"name":"stupendous sycophant","steam_id":76561198055553140,"connected_time":3689000000000,"state":"active","ping":76},{"user_id":152,"name":"Samoyed","steam_id":76561198299150410,"connected_time":2912000000000,"state":"active","ping":98},{"user_id":163,"name":"ArcticDolphin","steam_id":76561198203626319,"connected_time":1844000000000,"state":"active","ping":141},{"user_id":154,"name":"vintage","steam_id":76561198230213828,"connected_time":2689000000000,"state":"active","ping":121},{"user_id":161,"name":"cstr","steam_id":76561198125946388,"connected_time":1870000000000,"state":"active","ping":83},{"user_id":164,"name":"im_0ff","steam_id":76561198339346695,"connected_time":1114000000000,"state":"active","ping":137},{"user_id":102,"name":"TheChainsaw","steam_id":76561198312001455,"connected_time":7210000000000,"state":"active","ping":116},{"user_id":158,"name":"water tastes good","steam_id":76561199375947670,"connected_time":1913000000000,"state":"active","ping":66},{"user_id":124,"name":"MeetTeMedic99","steam_id":76561199208706868,"connected_time":5012000000000,"state":"active","ping":78},{"user_id":94,"name":"Vortex Swagger","steam_id":76561198833527091,"connected_time":7434000000000,"state":"active","ping":94},{"user_id":95,"name":"spinach (old mouse)","steam_id":76561198042539541,"connected_time":7431000000000,"state":"active","ping":83},{"user_id":165,"name":"TomProPlayer","steam_id":76561199223292521,"connected_time":1065000000000,"state":"active","ping":78},{"user_id":123,"name":"Potsu - Lungs","steam_id":76561198981987710,"connected_time":5124000000000,"state":"active","ping":101},{"user_id":166,"name":"huh :-)","steam_id":76561198293775978,"connected_time":554000000000,"state":"active","ping":95},{"user_id":160,"name":"Kessoku Band - Never Forget","steam_id":76561199020222424,"connected_time":1885000000000,"state":"active","ping":117},{"user_id":109,"name":"ÍπÄÍ¥ëÎßå","steam_id":76561198295279503,"connected_time":6457000000000,"state":"active","ping":82},{"user_id":157,"name":"bocchi the oppai!","steam_id":76561198008307645,"connected_time":2049000000000,"state":"active","ping":126},{"user_id":119,"name":"„Åµ„Çè„Åµ„ÇèÊØõÂ∏É","steam_id":76561198088403016,"connected_time":5388000000000,"state":"active","ping":102},{"user_id":127,"name":"Big Bird | F2P","steam_id":76561199206075827,"connected_time":4983000000000,"state":"active","ping":81},{"user_id":135,"name":"killman47","steam_id":76561198348487408,"connected_time":4243000000000,"state":"active","ping":44},{"user_id":150,"name":"17","steam_id":76561198241530712,"connected_time":3636000000000,"state":"active","ping":57}]},{"server_id":1,"name":"Uncletopia | Los Angeles | 1 | All Maps","name_short":"lax-1","host":"lax-1.us.uncletopia.com","port":27015,"enabled":true,"region":"us-west","cc":"us","latitude":33.94279,"longitude":-118.41004,"reserved":0,"last_update":"0001-01-01T00:00:00Z","name_a2s":"Uncletopia | Los Angeles | 1 | All Maps","protocol":17,"map":"cp_snakewater_final1","folder":"tf","game":"Team Fortress","app_id":440,"player_count":24,"max_players":24,"Bots":0,"server_type":"Dedicated","server_os":"Linux","password":true,"vac":true,"version":"7882260","steam_id":85568392924469991,"keywords":["cp","nocrits","nodmgspread","uncletopia"],"game_id":440,"stv_port":27016,"stv_name":"Uncletopia | Los Angeles | 1 | All Maps | STV","players":[{"user_id":354,"name":"Doctor X (Michiko Daemon)","steam_id":76561199106264424,"connected_time":2264000000000,"state":"active","ping":96},{"user_id":373,"name":"ena - d","steam_id":76561198072329335,"connected_time":1167000000000,"state":"active","ping":108},{"user_id":389,"name":"Swiifty","steam_id":76561198148262643,"connected_time":231000000000,"state":"active","ping":45},{"user_id":363,"name":"Danimals Crush Cup","steam_id":76561198013078854,"connected_time":2015000000000,"state":"active","ping":59},{"user_id":387,"name":"ElShaggy","steam_id":76561198148870214,"connected_time":261000000000,"state":"active","ping":59},{"user_id":356,"name":"Sayori","steam_id":76561198957479336,"connected_time":2248000000000,"state":"active","ping":93},{"user_id":359,"name":"AT‚òÜMIC","steam_id":76561198100385184,"connected_time":2147000000000,"state":"active","ping":51},{"user_id":388,"name":"rock gaming","steam_id":76561199402868311,"connected_time":249000000000,"state":"active","ping":58},{"user_id":376,"name":"checkswing","steam_id":76561198999816132,"connected_time":1101000000000,"state":"active","ping":129},{"user_id":390,"name":"guy","steam_id":76561198196443262,"connected_time":203000000000,"state":"active","ping":45},{"user_id":358,"name":"Tommy Salami","steam_id":76561198392514273,"connected_time":2204000000000,"state":"active","ping":81},{"user_id":386,"name":"tr","steam_id":76561198046944222,"connected_time":447000000000,"state":"active","ping":74},{"user_id":392,"name":"Slippy","steam_id":76561198334059206,"connected_time":128000000000,"state":"active","ping":57},{"user_id":344,"name":"Sol","steam_id":76561198121500201,"connected_time":3463000000000,"state":"active","ping":45},{"user_id":383,"name":"but why though?","steam_id":76561198091871087,"connected_time":651000000000,"state":"active","ping":48},{"user_id":345,"name":"Big Boy Beni","steam_id":76561197995469460,"connected_time":3448000000000,"state":"active","ping":31},{"user_id":357,"name":"SPG Animations","steam_id":76561199150809554,"connected_time":2242000000000,"state":"active","ping":60},{"user_id":191,"name":"riSygneD","steam_id":76561198331618687,"connected_time":14458000000000,"state":"active","ping":33},{"user_id":384,"name":"SomeRandomMail","steam_id":76561199002913110,"connected_time":648000000000,"state":"active","ping":53},{"user_id":385,"name":"Cringys","steam_id":76561199029812838,"connected_time":623000000000,"state":"active","ping":63},{"user_id":332,"name":"UneditedAndy","steam_id":76561198982544947,"connected_time":4586000000000,"state":"active","ping":55},{"user_id":331,"name":"big car","steam_id":76561198067082350,"connected_time":4655000000000,"state":"active","ping":59},{"user_id":380,"name":"SadChicken Œª","steam_id":76561198082458968,"connected_time":827000000000,"state":"active","ping":65},{"user_id":395,"name":"Dr. Bubs","steam_id":76561198011696595,"connected_time":33000000000,"state":"active","ping":60}]},{"server_id":112,"name":"Uncletopia | Los Angeles | 2 | All Maps","name_short":"lax-2","host":"lax-1.us.uncletopia.com","port":27025,"enabled":true,"region":"us-west","cc":"us","latitude":33.94279,"longitude":-118.41004,"reserved":0,"last_update":"0001-01-01T00:00:00Z","name_a2s":"Uncletopia | Los Angeles | 2 | All Maps","protocol":17,"map":"cp_sunshine","folder":"tf","game":"Team Fortress","app_id":440,"player_count":24,"max_players":24,"Bots":0,"server_type":"Dedicated","server_os":"Linux","password":true,"vac":true,"version":"7882260","steam_id":85568392924469992,"keywords":["cp","nocrits","nodmgspread","uncletopia"],"game_id":440,"stv_port":27026,"stv_name":"Uncletopia | Los Angeles | 2 | All Maps | STV","players":[{"user_id":629,"name":"RaixaR","steam_id":76561198025289430,"connected_time":604000000000,"state":"active","ping":66},{"user_id":615,"name":"Ohnohelpme","steam_id":76561199157482094,"connected_time":1017000000000,"state":"active","ping":91},{"user_id":587,"name":"Kimoshen","steam_id":76561198164758734,"connected_time":3001000000000,"state":"active","ping":63},{"user_id":635,"name":"‚ô†Silver‚ô†","steam_id":76561198206109224,"connected_time":179000000000,"state":"active","ping":112},{"user_id":614,"name":"big fish","steam_id":76561198186479818,"connected_time":1026000000000,"state":"active","ping":55},{"user_id":602,"name":"MegaBron James","steam_id":76561198066091050,"connected_time":1943000000000,"state":"active","ping":74},{"user_id":640,"name":"heisenberg","steam_id":76561198075341060,"connected_time":14000000000,"state":"active","ping":61},{"user_id":617,"name":"cream team","steam_id":76561198139043953,"connected_time":931000000000,"state":"active","ping":79},{"user_id":611,"name":"mr_angry_guy","steam_id":76561199365643094,"connected_time":1418000000000,"state":"active","ping":86},{"user_id":607,"name":"ZackPlayz","steam_id":76561198393823932,"connected_time":1565000000000,"state":"active","ping":128},{"user_id":580,"name":"Grognak","steam_id":76561198044710527,"connected_time":4070000000000,"state":"active","ping":81},{"user_id":633,"name":"James","steam_id":76561198077251918,"connected_time":248000000000,"state":"active","ping":57},{"user_id":641,"name":"lmao","steam_id":76561198303548110,"connected_time":6000000000,"state":"spawning","ping":65},{"user_id":612,"name":"lol","steam_id":76561198026491738,"connected_time":1345000000000,"state":"active","ping":54},{"user_id":618,"name":"California Jew","steam_id":76561198914032112,"connected_time":825000000000,"state":"active","ping":50},{"user_id":642,"name":"FanatAxe","steam_id":76561198796006622,"connected_time":0,"state":"spawning","ping":0},{"user_id":638,"name":"Ted","steam_id":76561198858600014,"connected_time":64000000000,"state":"active","ping":83},{"user_id":634,"name":"kree","steam_id":76561197979960008,"connected_time":247000000000,"state":"active","ping":104},{"user_id":639,"name":"RIP LANCE REDDICK","steam_id":76561198099980149,"connected_time":51000000000,"state":"active","ping":50},{"user_id":416,"name":"[√òWQJ√ò]chubacaalatake","steam_id":76561198136201697,"connected_time":17205000000000,"state":"active","ping":90},{"user_id":625,"name":"Squatter1","steam_id":76561198078987734,"connected_time":676000000000,"state":"active","ping":75},{"user_id":632,"name":"BuncusBeffer","steam_id":76561198285936616,"connected_time":349000000000,"state":"active","ping":65},{"user_id":592,"name":"Fonzee","steam_id":76561198056524236,"connected_time":2945000000000,"state":"active","ping":68},{"user_id":627,"name":"bengineer","steam_id":76561198171912174,"connected_time":654000000000,"state":"active","ping":75}]},{"server_id":324,"name":"Uncletopia | Los Angeles | 3 | All Maps","name_short":"lax-3","host":"lax-1.us.uncletopia.com","port":27035,"enabled":true,"region":"us-west","cc":"us","latitude":33.94279,"longitude":-118.41004,"reserved":0,"last_update":"0001-01-01T00:00:00Z","name_a2s":"Uncletopia | Los Angeles | 3 | All Maps","protocol":17,"map":"pl_badwater","folder":"tf","game":"Team Fortress","app_id":440,"player_count":24,"max_players":24,"Bots":0,"server_type":"Dedicated","server_os":"Linux","password":true,"vac":true,"version":"7882260","steam_id":85568392924510198,"keywords":["nocrits","nodmgspread","payload","uncletopia"],"game_id":440,"stv_port":27036,"stv_name":"Uncletopia | Los Angeles | 3 | All Maps | STV","players":[{"user_id":723,"name":"Yhimir","steam_id":76561198973439216,"connected_time":1586000000000,"state":"active","ping":81},{"user_id":735,"name":"SuaveFrenchman","steam_id":76561198043762683,"connected_time":421000000000,"state":"active","ping":58},{"user_id":705,"name":"Perrell Laquarius Brown","steam_id":76561198990902905,"connected_time":2101000000000,"state":"active","ping":51},{"user_id":727,"name":"roryisreallyoutofit","steam_id":76561198065825165,"connected_time":1147000000000,"state":"active","ping":97},{"user_id":706,"name":"Roosevelt Chadwick","steam_id":76561198278169311,"connected_time":2044000000000,"state":"active","ping":68},{"user_id":725,"name":"californjoe","steam_id":76561197965047795,"connected_time":1449000000000,"state":"active","ping":56},{"user_id":728,"name":"something elemental and  scary","steam_id":76561198984768447,"connected_time":1142000000000,"state":"active","ping":74},{"user_id":714,"name":"Chocc-_-","steam_id":76561198068070211,"connected_time":1832000000000,"state":"active","ping":54},{"user_id":703,"name":"El Gato Paranoico","steam_id":76561198116567116,"connected_time":2587000000000,"state":"active","ping":91},{"user_id":716,"name":"Bagoool","steam_id":76561198065368286,"connected_time":1801000000000,"state":"active","ping":102},{"user_id":661,"name":"NEBULA","steam_id":76561198086878595,"connected_time":6669000000000,"state":"active","ping":63},{"user_id":699,"name":"cringy","steam_id":76561198323000455,"connected_time":3158000000000,"state":"active","ping":62},{"user_id":729,"name":"Zigadox","steam_id":76561198079813479,"connected_time":1084000000000,"state":"active","ping":124},{"user_id":712,"name":"Jebediah Bushwick","steam_id":76561198843349296,"connected_time":1871000000000,"state":"active","ping":61},{"user_id":717,"name":"lite","steam_id":76561198041535914,"connected_time":1790000000000,"state":"active","ping":107},{"user_id":713,"name":"peanut ball :}","steam_id":76561198309911829,"connected_time":1867000000000,"state":"active","ping":67},{"user_id":562,"name":"Moomin","steam_id":76561198072726213,"connected_time":12153000000000,"state":"active","ping":51},{"user_id":730,"name":"Little Shuriken","steam_id":76561199020477560,"connected_time":1033000000000,"state":"active","ping":35},{"user_id":731,"name":"Lazulf","steam_id":76561198041410859,"connected_time":997000000000,"state":"active","ping":49},{"user_id":732,"name":"‡∂û#savetf2","steam_id":76561198432226673,"connected_time":940000000000,"state":"active","ping":62},{"user_id":678,"name":"Feral Femboy","steam_id":76561198130714378,"connected_time":5711000000000,"state":"active","ping":95},{"user_id":733,"name":"Anthid","steam_id":76561198074493797,"connected_time":681000000000,"state":"active","ping":78},{"user_id":693,"name":"jorts","steam_id":76561199041179985,"connected_time":4094000000000,"state":"active","ping":95},{"user_id":685,"name":"squash","steam_id":76561198150281353,"connected_time":4924000000000,"state":"active","ping":100}]},{"server_id":25,"name":"Uncletopia | Los Angeles | 4 | Stopwatch Beta","name_short":"lax-4","host":"lax-1.us.uncletopia.com","port":27045,"enabled":true,"region":"us-west","cc":"us","latitude":33.94279,"longitude":-118.41004,"reserved":0,"last_update":"0001-01-01T00:00:00Z","name_a2s":"Uncletopia | Los Angeles | 4 | Stopwatch Beta","protocol":17,"map":"koth_lakeside_final","folder":"tf","game":"Team Fortress","app_id":440,"player_count":0,"max_players":24,"Bots":0,"server_type":"Dedicated","server_os":"Linux","password":true,"vac":true,"version":"7882260","steam_id":85568392924510199,"keywords":["cp","nocrits","nodmgspread","uncletopia"],"game_id":440,"stv_port":27046,"stv_name":"Uncletopia | Los Angeles | 4 | Stopwatch Beta | STV","players":null},{"server_id":11,"name":"Uncletopia | London | 1 | All Maps","name_short":"lon-1","host":"lon-1.uk.uncletopia.com","port":27015,"enabled":true,"region":"eu","cc":"gb","latitude":51.509865,"longitude":-0.118092,"reserved":0,"last_update":"0001-01-01T00:00:00Z","name_a2s":"Uncletopia | London | 1 | All Maps","protocol":17,"map":"pl_snowycoast","folder":"tf","game":"Team Fortress","app_id":440,"player_count":0,"max_players":24,"Bots":0,"server_type":"Dedicated","server_os":"Linux","password":true,"vac":true,"version":"7882260","steam_id":85568392924367362,"keywords":["nocrits","nodmgspread","payload","uncletopia"],"game_id":440,"stv_port":27016,"stv_name":"Uncletopia | London | 1 | All Maps | STV","players":null},{"server_id":114,"name":"Uncletopia | London | 2 | All Maps","name_short":"lon-2","host":"lon-1.uk.uncletopia.com","port":27025,"enabled":true,"region":"eu","cc":"gb","latitude":51.509865,"longitude":-0.118092,"reserved":0,"last_update":"0001-01-01T00:00:00Z","name_a2s":"Uncletopia | London | 2 | All Maps","protocol":17,"map":"koth_highpass","folder":"tf","game":"Team Fortress","app_id":440,"player_count":0,"max_players":24,"Bots":0,"server_type":"Dedicated","server_os":"Linux","password":true,"vac":true,"version":"7882260","steam_id":85568392924470941,"keywords":["cp","nocrits","nodmgspread","uncletopia"],"game_id":440,"stv_port":27026,"stv_name":"Uncletopia | London | 2 | All Maps | STV","players":null},{"server_id":320,"name":"Uncletopia | London | 3 | All Maps","name_short":"lon-3","host":"lon-1.uk.uncletopia.com","port":27035,"enabled":true,"region":"eu","cc":"gb","latitude":51.509865,"longitude":-0.118092,"reserved":0,"last_update":"0001-01-01T00:00:00Z","name_a2s":"Uncletopia | London | 3 | All Maps","protocol":17,"map":"pl_upward","folder":"tf","game":"Team Fortress","app_id":440,"player_count":0,"max_players":24,"Bots":0,"server_type":"Dedicated","server_os":"Linux","password":true,"vac":true,"version":"7882260","steam_id":85568392924510192,"keywords":["nocrits","nodmgspread","payload","uncletopia"],"game_id":440,"stv_port":27036,"stv_name":"Uncletopia | London | 3 | All Maps | STV","players":null},{"server_id":321,"name":"Uncletopia | London | 4 | All Maps","name_short":"lon-4","host":"lon-1.uk.uncletopia.com","port":27045,"enabled":true,"region":"eu","cc":"gb","latitude":51.509865,"longitude":-0.118092,"reserved":0,"last_update":"0001-01-01T00:00:00Z","name_a2s":"Uncletopia | London | 4 | All Maps","protocol":17,"map":"cp_dustbowl","folder":"tf","game":"Team Fortress","app_id":440,"player_count":0,"max_players":24,"Bots":0,"server_type":"Dedicated","server_os":"Linux","password":true,"vac":true,"version":"7882260","steam_id":85568392924510193,"keywords":["cp","nocrits","nodmgspread","uncletopia"],"game_id":440,"stv_port":27046,"stv_name":"Uncletopia | London | 4 | All Maps | STV","players":null},{"server_id":21,"name":"Uncletopia | London | 5 | All Maps","name_short":"lon-5","host":"lon-1.uk.uncletopia.com","port":27055,"enabled":true,"region":"eu","cc":"gb","latitude":51.509865,"longitude":-0.118092,"reserved":0,"last_update":"0001-01-01T00:00:00Z","name_a2s":"Uncletopia | London | 5 | All Maps","protocol":17,"map":"pl_upward","folder":"tf","game":"Team Fortress","app_id":440,"player_count":24,"max_players":24,"Bots":0,"server_type":"Dedicated","server_os":"Linux","password":true,"vac":true,"version":"7882260","steam_id":85568392924742829,"keywords":["nocrits","nodmgspread","payload","uncletopia"],"game_id":440,"stv_port":27056,"stv_name":"Uncletopia | London | 5 | All Maps | STV","players":[{"user_id":3,"name":"Grey","steam_id":76561198187190267,"connected_time":2539000000000,"state":"active","ping":46},{"user_id":4,"name":"CINE191","steam_id":76561198182777486,"connected_time":2536000000000,"state":"active","ping":66},{"user_id":5,"name":"Shneg","steam_id":76561198296521365,"connected_time":2536000000000,"state":"active","ping":77},{"user_id":39,"name":"himbomccree","steam_id":76561198373330850,"connected_time":617000000000,"state":"active","ping":175},{"user_id":7,"name":"Worm","steam_id":76561198296497176,"connected_time":2531000000000,"state":"active","ping":44},{"user_id":48,"name":"kat","steam_id":76561198857464189,"connected_time":58000000000,"state":"active","ping":81},{"user_id":36,"name":"Bonduelle#Savetf2","steam_id":76561199041992422,"connected_time":919000000000,"state":"active","ping":144},{"user_id":10,"name":"Coca162","steam_id":76561198230656540,"connected_time":2517000000000,"state":"active","ping":41},{"user_id":11,"name":"Geese Goose","steam_id":76561198070903248,"connected_time":2509000000000,"state":"active","ping":60},{"user_id":12,"name":"PP_master69420","steam_id":76561199019913910,"connected_time":2505000000000,"state":"active","ping":76},{"user_id":29,"name":"DeterminedXD[HUN]","steam_id":76561199469006453,"connected_time":1183000000000,"state":"active","ping":97},{"user_id":23,"name":"Kegs","steam_id":76561198353712949,"connected_time":1703000000000,"state":"active","ping":64},{"user_id":15,"name":"turn the fridge on","steam_id":76561199480942903,"connected_time":2498000000000,"state":"active","ping":75},{"user_id":45,"name":"Razvan_Romanul","steam_id":76561199137773085,"connected_time":395000000000,"state":"active","ping":88},{"user_id":38,"name":"Holo","steam_id":76561198348567663,"connected_time":723000000000,"state":"active","ping":75},{"user_id":40,"name":"Zhang Liao","steam_id":76561198060503243,"connected_time":577000000000,"state":"active","ping":45},{"user_id":41,"name":"stainless-steel","steam_id":76561199277139390,"connected_time":531000000000,"state":"active","ping":172},{"user_id":22,"name":"THEALLSEEINGCAKE","steam_id":76561199251417876,"connected_time":1877000000000,"state":"active","ping":89},{"user_id":42,"name":"Hedge Knight","steam_id":76561198989449047,"connected_time":520000000000,"state":"active","ping":125},{"user_id":26,"name":"Brazilian Manga","steam_id":76561198075007033,"connected_time":1554000000000,"state":"active","ping":54},{"user_id":43,"name":"êÇÉ","steam_id":76561198191052349,"connected_time":508000000000,"state":"active","ping":105},{"user_id":28,"name":"SynthBox3","steam_id":76561199094075745,"connected_time":1403000000000,"state":"active","ping":105},{"user_id":47,"name":"The Traveller","steam_id":76561198105364304,"connected_time":163000000000,"state":"active","ping":100},{"user_id":33,"name":"Qdarks","steam_id":76561198013391340,"connected_time":1141000000000,"state":"active","ping":145}]},{"server_id":22,"name":"Uncletopia | London | 6 | All Maps","name_short":"lon-6","host":"lon-1.uk.uncletopia.com","port":27065,"enabled":true,"region":"eu","cc":"gb","latitude":51.509865,"longitude":-0.118092,"reserved":0,"last_update":"0001-01-01T00:00:00Z","name_a2s":"Uncletopia | London | 6 | All Maps","protocol":17,"map":"koth_lakeside_final","folder":"tf","game":"Team Fortress","app_id":440,"player_count":0,"max_players":24,"Bots":0,"server_type":"Dedicated","server_os":"Linux","password":true,"vac":true,"version":"7882260","steam_id":85568392924742830,"keywords":["cp","nocrits","nodmgspread","uncletopia"],"game_id":440,"stv_port":27066,"stv_name":"Uncletopia | London | 6 | All Maps | STV","players":null},{"server_id":40,"name":"Uncletopia | London | 7 | No Payload","name_short":"lon-7","host":"lon-1.uk.uncletopia.com","port":27075,"enabled":true,"region":"eu","cc":"gb","latitude":51.509865,"longitude":-0.118092,"reserved":0,"last_update":"0001-01-01T00:00:00Z","name_a2s":"Uncletopia | London | 7 | No Payload","protocol":17,"map":"pl_upward","folder":"tf","game":"Team Fortress","app_id":440,"player_count":0,"max_players":24,"Bots":0,"server_type":"Dedicated","server_os":"Linux","password":true,"vac":true,"version":"7882260","steam_id":85568392924964314,"keywords":["nocrits","nodmgspread","payload","uncletopia"],"game_id":440,"stv_port":27076,"stv_name":"Uncletopia | London | 7 | No Payload | STV","players":null},{"server_id":41,"name":"Uncletopia | London | 8 | Community","name_short":"lon-8","host":"lon-1.uk.uncletopia.com","port":27085,"enabled":true,"region":"eu","cc":"gb","latitude":51.509865,"longitude":-0.118092,"reserved":0,"last_update":"0001-01-01T00:00:00Z","name_a2s":"Uncletopia | London | 8 | Community","protocol":17,"map":"pl_upward","folder":"tf","game":"Team Fortress","app_id":440,"player_count":0,"max_players":24,"Bots":0,"server_type":"Dedicated","server_os":"Linux","password":true,"vac":true,"version":"7882260","steam_id":85568392924964315,"keywords":["nocrits","nodmgspread","payload","uncletopia"],"game_id":440,"stv_port":27086,"stv_name":"Uncletopia | London | 8 | Community | STV","players":null},{"server_id":300,"name":"Uncletopia | Montr√©al | 1 | All Maps","name_short":"mtl-1","host":"mtl-1.ca.uncletopia.com","port":27015,"enabled":true,"region":"us-east","cc":"ca","latitude":45.50889,"longitude":-73.56167,"reserved":0,"last_update":"0001-01-01T00:00:00Z","name_a2s":"Uncletopia | Montr√©al | 1 | All Maps","protocol":17,"map":"pl_barnblitz","folder":"tf","game":"Team Fortress","app_id":440,"player_count":0,"max_players":24,"Bots":0,"server_type":"Dedicated","server_os":"Linux","password":true,"vac":true,"version":"7882260","steam_id":85568392924500087,"keywords":["nocrits","nodmgspread","payload","uncletopia"],"game_id":440,"stv_port":27016,"stv_name":"Uncletopia | Montr√©al | 1 | All Maps | STV","players":null},{"server_id":301,"name":"Uncletopia | Montr√©al | 2 | All Maps","name_short":"mtl-2","host":"mtl-1.ca.uncletopia.com","port":27025,"enabled":true,"region":"us-east","cc":"ca","latitude":45.50889,"longitude":-73.56167,"reserved":0,"last_update":"0001-01-01T00:00:00Z","name_a2s":"Uncletopia | Montr√©al | 2 | All Maps","protocol":17,"map":"koth_cascade","folder":"tf","game":"Team Fortress","app_id":440,"player_count":0,"max_players":24,"Bots":0,"server_type":"Dedicated","server_os":"Linux","password":true,"vac":true,"version":"7882260","steam_id":85568392924500088,"keywords":["cp","nocrits","nodmgspread","uncletopia"],"game_id":440,"stv_port":27026,"stv_name":"Uncletopia | Montr√©al | 2 | All Maps | STV","players":null},{"server_id":302,"name":"Uncletopia | Montr√©al | 3 | All Maps","name_short":"mtl-3","host":"mtl-1.ca.uncletopia.com","port":27035,"enabled":true,"region":"us-east","cc":"ca","latitude":45.50889,"longitude":-73.56167,"reserved":0,"last_update":"0001-01-01T00:00:00Z","name_a2s":"Uncletopia | Montr√©al | 3 | All Maps","protocol":17,"map":"koth_viaduct","folder":"tf","game":"Team Fortress","app_id":440,"player_count":0,"max_players":24,"Bots":0,"server_type":"Dedicated","server_os":"Linux","password":true,"vac":true,"version":"7882260","steam_id":85568392924500089,"keywords":["cp","nocrits","nodmgspread","uncletopia"],"game_id":440,"stv_port":27036,"stv_name":"Uncletopia | Montr√©al | 3 | All Maps | STV","players":null},{"server_id":303,"name":"Uncletopia | Montr√©al | 4 | No Payload","name_short":"mtl-4","host":"mtl-1.ca.uncletopia.com","port":27045,"enabled":true,"region":"us-east","cc":"ca","latitude":45.50889,"longitude":-73.56167,"reserved":0,"last_update":"0001-01-01T00:00:00Z","name_a2s":"Uncletopia | Montr√©al | 4 | No Payload","protocol":17,"map":"plr_bananabay","folder":"tf","game":"Team Fortress","app_id":440,"player_count":1,"max_players":24,"Bots":0,"server_type":"Dedicated","server_os":"Linux","password":true,"vac":true,"version":"7882260","steam_id":85568392924500090,"keywords":["nocrits","nodmgspread","payload","uncletopia"],"game_id":440,"stv_port":27046,"stv_name":"Uncletopia | Montr√©al | 4 | No Payload | STV","players":[{"user_id":31,"name":"Spacebar? \"TF2PUGS.COM/PUGS\"-ye","steam_id":76561198167797009,"connected_time":65000000000,"state":"active","ping":82}]},{"server_id":13,"name":"Uncletopia | New York City | 1 | All Maps","name_short":"nyc-1","host":"nyc-1.us.uncletopia.com","port":27015,"enabled":true,"region":"us-east","cc":"us","latitude":40.73061,"longitude":-73.93524,"reserved":0,"last_update":"0001-01-01T00:00:00Z","name_a2s":"Uncletopia | New York City | 1 | All Maps","protocol":17,"map":"pl_pier","folder":"tf","game":"Team Fortress","app_id":440,"player_count":22,"max_players":24,"Bots":0,"server_type":"Dedicated","server_os":"Linux","password":true,"vac":true,"version":"7882260","steam_id":85568392924469993,"keywords":["nocrits","nodmgspread","payload","uncletopia"],"game_id":440,"stv_port":27016,"stv_name":"Uncletopia | New York City | 1 | All Maps | STV","players":[{"user_id":885,"name":"Insert Text","steam_id":76561199012348370,"connected_time":921000000000,"state":"active","ping":191},{"user_id":881,"name":"Ludcmorais","steam_id":76561198359217809,"connected_time":1086000000000,"state":"active","ping":180},{"user_id":852,"name":"TriggerHappyPacifist","steam_id":76561197963455267,"connected_time":3351000000000,"state":"active","ping":116},{"user_id":855,"name":"chainsaw chains for teeth.","steam_id":76561198294013916,"connected_time":3200000000000,"state":"active","ping":44},{"user_id":805,"name":"Norman","steam_id":76561198154715990,"connected_time":5354000000000,"state":"active","ping":105},{"user_id":870,"name":"Flex Pexico","steam_id":76561198041838930,"connected_time":2371000000000,"state":"active","ping":83},{"user_id":889,"name":"chem‚≠ë","steam_id":76561198972045654,"connected_time":363000000000,"state":"active","ping":80},{"user_id":862,"name":"A Puppy","steam_id":76561198828184456,"connected_time":2668000000000,"state":"active","ping":45},{"user_id":880,"name":"levnemcev","steam_id":76561198057205970,"connected_time":1110000000000,"state":"active","ping":158},{"user_id":892,"name":"ShibaInuLord","steam_id":76561198285267410,"connected_time":102000000000,"state":"active","ping":57},{"user_id":823,"name":"Tophu","steam_id":76561198380229671,"connected_time":4872000000000,"state":"active","ping":89},{"user_id":882,"name":"JHLO","steam_id":76561198074359967,"connected_time":1078000000000,"state":"active","ping":74},{"user_id":804,"name":"MILF Gaming","steam_id":76561198155378170,"connected_time":5481000000000,"state":"active","ping":45},{"user_id":888,"name":"Wan Shi Tong","steam_id":76561198076441225,"connected_time":661000000000,"state":"active","ping":47},{"user_id":857,"name":"DARKLY| Pumpkin","steam_id":76561198053277291,"connected_time":3111000000000,"state":"active","ping":69},{"user_id":883,"name":"Bee","steam_id":76561198074681324,"connected_time":1065000000000,"state":"active","ping":49},{"user_id":874,"name":"zee","steam_id":76561197994492154,"connected_time":2122000000000,"state":"active","ping":154},{"user_id":861,"name":"Musica Universalis","steam_id":76561198184794174,"connected_time":2950000000000,"state":"active","ping":59},{"user_id":873,"name":"·óúÀ¨·óú","steam_id":76561198049076233,"connected_time":2164000000000,"state":"active","ping":56},{"user_id":879,"name":"Virtual Zorua","steam_id":76561198196180302,"connected_time":1156000000000,"state":"active","ping":60},{"user_id":871,"name":"xXMLGDOODXx","steam_id":76561198080758365,"connected_time":2365000000000,"state":"active","ping":44},{"user_id":887,"name":"rad killl raccoon","steam_id":76561198980975595,"connected_time":918000000000,"state":"active","ping":132}]},{"server_id":14,"name":"Uncletopia | New York City | 2 | All Maps","name_short":"nyc-2","host":"nyc-1.us.uncletopia.com","port":27025,"enabled":true,"region":"us-east","cc":"us","latitude":40.73061,"longitude":-73.93524,"reserved":0,"last_update":"0001-01-01T00:00:00Z","name_a2s":"Uncletopia | New York City | 2 | All Maps","protocol":17,"map":"pl_upward","folder":"tf","game":"Team Fortress","app_id":440,"player_count":0,"max_players":24,"Bots":0,"server_type":"Dedicated","server_os":"Linux","password":true,"vac":true,"version":"7882260","steam_id":85568392924469994,"keywords":["nocrits","nodmgspread","payload","uncletopia"],"game_id":440,"stv_port":27026,"stv_name":"Uncletopia | New York City | 2 | All Maps | STV","players":null},{"server_id":15,"name":"Uncletopia | New York City | 3 | Stopwatch Beta","name_short":"nyc-3","host":"nyc-1.us.uncletopia.com","port":27035,"enabled":true,"region":"us-east","cc":"us","latitude":40.73061,"longitude":-73.93524,"reserved":0,"last_update":"0001-01-01T00:00:00Z","name_a2s":"Uncletopia | New York City | 3 | Stopwatch Beta","protocol":17,"map":"workshop/pl_vigil_rc9.ugc1266210012","folder":"tf","game":"Team Fortress","app_id":440,"player_count":0,"max_players":24,"Bots":0,"server_type":"Dedicated","server_os":"Linux","password":true,"vac":true,"version":"7882260","steam_id":85568392924742820,"keywords":["nocrits","nodmgspread","payload","uncletopia"],"game_id":440,"stv_port":27036,"stv_name":"Uncletopia | New York City | 3 | Stopwatch Beta | STV","players":null},{"server_id":16,"name":"Uncletopia | New York City | 4 | Community","name_short":"nyc-4","host":"nyc-1.us.uncletopia.com","port":27045,"enabled":true,"region":"us-east","cc":"us","latitude":40.73061,"longitude":-73.93524,"reserved":0,"last_update":"0001-01-01T00:00:00Z","name_a2s":"Uncletopia | New York City | 4 | Community","protocol":17,"map":"workshop/koth_kemptown_rc1.ugc767410655","folder":"tf","game":"Team Fortress","app_id":440,"player_count":0,"max_players":24,"Bots":0,"server_type":"Dedicated","server_os":"Linux","password":true,"vac":true,"version":"7882260","steam_id":85568392924742821,"keywords":["cp","nocrits","nodmgspread","uncletopia"],"game_id":440,"stv_port":27046,"stv_name":"Uncletopia | New York City | 4 | Community | STV","players":null},{"server_id":142,"name":"Uncletopia | S√£o Paulo | 1 | All Maps","name_short":"sao-1","host":"sao-1.br.uncletopia.com","port":27015,"enabled":true,"region":"sa","cc":"br","latitude":-23.533773,"longitude":-46.62529,"reserved":0,"last_update":"0001-01-01T00:00:00Z","name_a2s":"Uncletopia | S√£o Paulo | 1 | All Maps","protocol":17,"map":"koth_highpass","folder":"tf","game":"Team Fortress","app_id":440,"player_count":0,"max_players":24,"Bots":0,"server_type":"Dedicated","server_os":"Linux","password":true,"vac":true,"version":"7882260","steam_id":85568392924469996,"keywords":["cp","nocrits","nodmgspread","uncletopia"],"game_id":440,"stv_port":27016,"stv_name":"Uncletopia | S√£o Paulo | 1 | All Maps | STV","players":null},{"server_id":143,"name":"Uncletopia | S√£o Paulo | 2 | All Maps","name_short":"sao-2","host":"sao-2.br.uncletopia.com","port":27015,"enabled":true,"region":"sa","cc":"br","latitude":-23.533773,"longitude":-46.62529,"reserved":0,"last_update":"0001-01-01T00:00:00Z","name_a2s":"Uncletopia | S√£o Paulo | 2 | All Maps","protocol":17,"map":"pl_snowycoast","folder":"tf","game":"Team Fortress","app_id":440,"player_count":0,"max_players":24,"Bots":0,"server_type":"Dedicated","server_os":"Linux","password":true,"vac":true,"version":"7882260","steam_id":85568392924485349,"keywords":["nocrits","nodmgspread","payload","uncletopia"],"game_id":440,"stv_port":27016,"stv_name":"Uncletopia | S√£o Paulo | 2 | All Maps | STV","players":null},{"server_id":7,"name":"Uncletopia | Seattle | 1 | All Maps","name_short":"sea-1","host":"sea-1.us.uncletopia.com","port":27015,"enabled":true,"region":"us-west","cc":"us","latitude":47.608013,"longitude":-122.33517,"reserved":0,"last_update":"0001-01-01T00:00:00Z","name_a2s":"Uncletopia | Seattle | 1 | All Maps","protocol":17,"map":"cp_snakewater_final1","folder":"tf","game":"Team Fortress","app_id":440,"player_count":24,"max_players":24,"Bots":0,"server_type":"Dedicated","server_os":"Linux","password":true,"vac":true,"version":"7882260","steam_id":85568392924469997,"keywords":["cp","nocrits","nodmgspread","uncletopia"],"game_id":440,"stv_port":27016,"stv_name":"Uncletopia | Seattle | 1 | All Maps | STV","players":[{"user_id":466,"name":"Cheezbeargur","steam_id":76561198164702899,"connected_time":5376000000000,"state":"active","ping":71},{"user_id":487,"name":"ether","steam_id":76561198210322871,"connected_time":2879000000000,"state":"active","ping":72},{"user_id":502,"name":"ghostt·óù","steam_id":76561199214430703,"connected_time":1161000000000,"state":"active","ping":93},{"user_id":495,"name":"Mayo Muncher","steam_id":76561198350246784,"connected_time":1799000000000,"state":"active","ping":85},{"user_id":438,"name":"rat gets the cheese","steam_id":76561198031234032,"connected_time":7889000000000,"state":"active","ping":91},{"user_id":484,"name":"An Old Lady","steam_id":76561198047480318,"connected_time":3374000000000,"state":"active","ping":67},{"user_id":480,"name":"Mystic","steam_id":76561198088421080,"connected_time":4241000000000,"state":"active","ping":47},{"user_id":440,"name":"lili","steam_id":76561199391478575,"connected_time":7707000000000,"state":"active","ping":71},{"user_id":511,"name":"‚Ä∫ Pavvy","steam_id":76561197998662839,"connected_time":3000000000,"state":"spawning","ping":43},{"user_id":504,"name":"Henchie!","steam_id":76561198047567464,"connected_time":1146000000000,"state":"active","ping":105},{"user_id":460,"name":"RURU","steam_id":76561198039758987,"connected_time":5825000000000,"state":"active","ping":45},{"user_id":501,"name":"[TrC] Dackstrus","steam_id":76561197973518509,"connected_time":1172000000000,"state":"active","ping":60},{"user_id":475,"name":"bugsnaxdrainer","steam_id":76561198258221077,"connected_time":4382000000000,"state":"active","ping":51},{"user_id":509,"name":"ed","steam_id":76561198080475712,"connected_time":349000000000,"state":"active","ping":69},{"user_id":497,"name":"Strikerbolt","steam_id":76561199095622897,"connected_time":1781000000000,"state":"active","ping":81},{"user_id":485,"name":"Dim","steam_id":76561198061411324,"connected_time":2891000000000,"state":"active","ping":115},{"user_id":472,"name":"henroo_d","steam_id":76561198197540475,"connected_time":4509000000000,"state":"active","ping":64},{"user_id":510,"name":"raf","steam_id":76561197999439695,"connected_time":145000000000,"state":"active","ping":81},{"user_id":494,"name":"Google","steam_id":76561198857237473,"connected_time":1989000000000,"state":"active","ping":45},{"user_id":507,"name":"‚ú™ koyo Trade.tf","steam_id":76561199328582361,"connected_time":1072000000000,"state":"active","ping":80},{"user_id":461,"name":"chanoc","steam_id":76561198026734746,"connected_time":5807000000000,"state":"active","ping":68},{"user_id":481,"name":"Sky (‚åê‚ñ†_‚ñ†)","steam_id":76561198104953731,"connected_time":3832000000000,"state":"active","ping":45},{"user_id":508,"name":"Keth","steam_id":76561198155903648,"connected_time":999000000000,"state":"active","ping":54},{"user_id":499,"name":"Grill Skills","steam_id":76561198053575147,"connected_time":1348000000000,"state":"active","ping":69}]},{"server_id":119,"name":"Uncletopia | Seattle | 2 | All Maps","name_short":"sea-2","host":"sea-1.us.uncletopia.com","port":27025,"enabled":true,"region":"us-west","cc":"us","latitude":47.608013,"longitude":-122.33517,"reserved":0,"last_update":"0001-01-01T00:00:00Z","name_a2s":"Uncletopia | Seattle | 2 | All Maps","protocol":17,"map":"pl_badwater","folder":"tf","game":"Team Fortress","app_id":440,"player_count":20,"max_players":24,"Bots":0,"server_type":"Dedicated","server_os":"Linux","password":true,"vac":true,"version":"7882260","steam_id":85568392924469998,"keywords":["nocrits","nodmgspread","payload","uncletopia"],"game_id":440,"stv_port":27026,"stv_name":"Uncletopia | Seattle | 2 | All Maps | STV","players":[{"user_id":557,"name":"Agent Mania","steam_id":76561198029741272,"connected_time":1629000000000,"state":"active","ping":76},{"user_id":575,"name":"Sly Marbo","steam_id":76561198135271741,"connected_time":54000000000,"state":"active","ping":43},{"user_id":574,"name":"Ghandi","steam_id":76561198046702733,"connected_time":88000000000,"state":"active","ping":67},{"user_id":556,"name":"Faefanger","steam_id":76561198201871002,"connected_time":2281000000000,"state":"active","ping":62},{"user_id":568,"name":"HE‚ÄôS IN THE GODDAMN WALLS","steam_id":76561198363267009,"connected_time":757000000000,"state":"active","ping":95},{"user_id":576,"name":"sneaky snitch","steam_id":76561198313088312,"connected_time":9000000000,"state":"spawning","ping":64},{"user_id":553,"name":"Mango Fanta","steam_id":76561198828945468,"connected_time":2432000000000,"state":"active","ping":88},{"user_id":547,"name":"Barrett","steam_id":76561198198425399,"connected_time":2625000000000,"state":"active","ping":135},{"user_id":548,"name":"Finkly","steam_id":76561198049828110,"connected_time":2617000000000,"state":"active","ping":45},{"user_id":549,"name":"Oaky Loafs","steam_id":76561198317179010,"connected_time":2551000000000,"state":"active","ping":49},{"user_id":569,"name":"UltraLemon","steam_id":76561198353134617,"connected_time":755000000000,"state":"active","ping":53},{"user_id":562,"name":"Soda","steam_id":76561198219209367,"connected_time":1364000000000,"state":"active","ping":48},{"user_id":573,"name":"Layne Backindacutt","steam_id":76561198025020072,"connected_time":148000000000,"state":"active","ping":60},{"user_id":534,"name":"never existed","steam_id":76561198054390505,"connected_time":3630000000000,"state":"active","ping":76},{"user_id":481,"name":"jacix3 [gay wolfgirl]{she/it}","steam_id":76561198205004165,"connected_time":7714000000000,"state":"active","ping":52},{"user_id":565,"name":"Dunkin' Ponuts","steam_id":76561198082382465,"connected_time":974000000000,"state":"active","ping":63},{"user_id":542,"name":"mac_cheese","steam_id":76561198071334162,"connected_time":3151000000000,"state":"active","ping":47},{"user_id":570,"name":"Donny Q","steam_id":76561198020901703,"connected_time":720000000000,"state":"active","ping":56},{"user_id":558,"name":"2 Point Tom","steam_id":76561198087617008,"connected_time":1625000000000,"state":"active","ping":45},{"user_id":563,"name":"Medic Boyfriend","steam_id":76561198104086771,"connected_time":1326000000000,"state":"active","ping":74}]},{"server_id":406,"name":"Uncletopia | Seattle | 3 | Stopwatch Beta","name_short":"sea-3","host":"sea-1.us.uncletopia.com","port":27035,"enabled":true,"region":"us-west","cc":"us","latitude":47.608013,"longitude":-122.33517,"reserved":0,"last_update":"0001-01-01T00:00:00Z","name_a2s":"Uncletopia | Seattle | 3 | Stopwatch Beta","protocol":17,"map":"workshop/koth_ramjam_rc1.ugc459778887","folder":"tf","game":"Team Fortress","app_id":440,"player_count":0,"max_players":24,"Bots":0,"server_type":"Dedicated","server_os":"Linux","password":true,"vac":true,"version":"7882260","steam_id":85568392924515217,"keywords":["cp","nocrits","nodmgspread","uncletopia"],"game_id":440,"stv_port":27036,"stv_name":"Uncletopia | Seattle | 3 | Stopwatch Beta | STV","players":null},{"server_id":17,"name":"Uncletopia | San Francisco | 1 | All Maps","name_short":"sfo-1","host":"sfo-1.us.uncletopia.com","port":27015,"enabled":true,"region":"us-west","cc":"us","latitude":37.77397,"longitude":-122.4313,"reserved":0,"last_update":"0001-01-01T00:00:00Z","name_a2s":"Uncletopia | San Francisco | 1 | All Maps","protocol":17,"map":"cp_altitude","folder":"tf","game":"Team Fortress","app_id":440,"player_count":24,"max_players":24,"Bots":0,"server_type":"Dedicated","server_os":"Linux","password":true,"vac":true,"version":"7882260","steam_id":85568392924469999,"keywords":["cp","nocrits","nodmgspread","uncletopia"],"game_id":440,"stv_port":27016,"stv_name":"Uncletopia | San Francisco | 1 | All Maps | STV","players":[{"user_id":336,"name":"Acolyte of Goatse","steam_id":76561198046526036,"connected_time":475000000000,"state":"active","ping":48},{"user_id":327,"name":"elyina","steam_id":76561198035310295,"connected_time":575000000000,"state":"active","ping":47},{"user_id":315,"name":"rat eater","steam_id":76561198955453886,"connected_time":1410000000000,"state":"active","ping":83},{"user_id":316,"name":"Zenire","steam_id":76561199087298510,"connected_time":1317000000000,"state":"active","ping":72},{"user_id":334,"name":"Turkatron","steam_id":76561198004919257,"connected_time":498000000000,"state":"active","ping":46},{"user_id":311,"name":"Dentist","steam_id":76561198103189993,"connected_time":2069000000000,"state":"active","ping":59},{"user_id":286,"name":"Dr. Blair Chao","steam_id":76561198146027518,"connected_time":4725000000000,"state":"active","ping":120},{"user_id":262,"name":"Mapachito Lindo","steam_id":76561198031359995,"connected_time":6710000000000,"state":"active","ping":61},{"user_id":194,"name":"Amogous Supreme","steam_id":76561198025476774,"connected_time":11064000000000,"state":"active","ping":54},{"user_id":328,"name":"Orion","steam_id":76561198000418837,"connected_time":555000000000,"state":"active","ping":88},{"user_id":289,"name":"BadTad","steam_id":76561198947252709,"connected_time":4048000000000,"state":"active","ping":62},{"user_id":329,"name":"en.wikipedia.org/wiki/Nae_Nae","steam_id":76561198418288939,"connected_time":535000000000,"state":"active","ping":57},{"user_id":314,"name":"FaceLaces","steam_id":76561198194417725,"connected_time":1657000000000,"state":"active","ping":55},{"user_id":338,"name":"Constipated Barry","steam_id":76561198004482269,"connected_time":357000000000,"state":"active","ping":46},{"user_id":309,"name":"Pyrotek‚Å¥","steam_id":76561198072747672,"connected_time":2416000000000,"state":"active","ping":45},{"user_id":333,"name":"We believe in you!","steam_id":76561198219252313,"connected_time":500000000000,"state":"active","ping":113},{"user_id":335,"name":"A bendy straw in disguise","steam_id":76561198257743986,"connected_time":494000000000,"state":"active","ping":72},{"user_id":337,"name":"el wokismo","steam_id":76561198058617608,"connected_time":470000000000,"state":"active","ping":63},{"user_id":298,"name":"bobtheninjaman","steam_id":76561198066424544,"connected_time":3076000000000,"state":"active","ping":65},{"user_id":263,"name":"Lambchop","steam_id":76561198043900363,"connected_time":6701000000000,"state":"active","ping":60},{"user_id":280,"name":"Hector Salamanca","steam_id":76561199103213955,"connected_time":5286000000000,"state":"active","ping":68},{"user_id":260,"name":"SvicidalBug","steam_id":76561198221390504,"connected_time":6793000000000,"state":"active","ping":88},{"user_id":324,"name":"jBracko","steam_id":76561198019261602,"connected_time":850000000000,"state":"active","ping":45},{"user_id":312,"name":"24 carat hamster","steam_id":76561198081238227,"connected_time":2030000000000,"state":"active","ping":77}]},{"server_id":18,"name":"Uncletopia | San Francisco | 2 | All Maps","name_short":"sfo-2","host":"sfo-1.us.uncletopia.com","port":27025,"enabled":true,"region":"us-west","cc":"us","latitude":37.77397,"longitude":-122.4313,"reserved":0,"last_update":"0001-01-01T00:00:00Z","name_a2s":"Uncletopia | San Francisco | 2 | All Maps","protocol":17,"map":"cp_altitude","folder":"tf","game":"Team Fortress","app_id":440,"player_count":10,"max_players":24,"Bots":0,"server_type":"Dedicated","server_os":"Linux","password":true,"vac":true,"version":"7882260","steam_id":85568392924470000,"keywords":["cp","nocrits","nodmgspread","uncletopia"],"game_id":440,"stv_port":27026,"stv_name":"Uncletopia | San Francisco | 2 | All Maps | STV","players":[{"user_id":780,"name":"azertyJF","steam_id":76561198298442881,"connected_time":449000000000,"state":"active","ping":231},{"user_id":783,"name":"kanurkin","steam_id":76561197999718740,"connected_time":332000000000,"state":"active","ping":249},{"user_id":785,"name":"ProNoob","steam_id":76561197966068103,"connected_time":38000000000,"state":"active","ping":50},{"user_id":746,"name":"Pre Pissed Pants","steam_id":76561198042143837,"connected_time":2637000000000,"state":"active","ping":77},{"user_id":784,"name":"Your Dinosaurs","steam_id":76561198392670237,"connected_time":277000000000,"state":"active","ping":45},{"user_id":786,"name":"Mars","steam_id":76561198896022737,"connected_time":24000000000,"state":"spawning","ping":102},{"user_id":748,"name":"MultiVaC","steam_id":76561197960270728,"connected_time":2491000000000,"state":"active","ping":45},{"user_id":749,"name":"Cathulhu","steam_id":76561198029405982,"connected_time":2474000000000,"state":"active","ping":56},{"user_id":754,"name":"Lemontap","steam_id":76561198064304141,"connected_time":2172000000000,"state":"active","ping":49},{"user_id":767,"name":"nori_420","steam_id":76561199117134203,"connected_time":1635000000000,"state":"active","ping":59}]},{"server_id":19,"name":"Uncletopia | San Francisco | 3 | Stopwatch Beta","name_short":"sfo-3","host":"sfo-1.us.uncletopia.com","port":27035,"enabled":true,"region":"us-west","cc":"us","latitude":37.77397,"longitude":-122.4313,"reserved":0,"last_update":"0001-01-01T00:00:00Z","name_a2s":"Uncletopia | San Francisco | 3 | Stopwatch Beta","protocol":17,"map":"pl_snowycoast","folder":"tf","game":"Team Fortress","app_id":440,"player_count":0,"max_players":24,"Bots":0,"server_type":"Dedicated","server_os":"Linux","password":true,"vac":true,"version":"7882260","steam_id":85568392924742824,"keywords":["nocrits","nodmgspread","payload","uncletopia"],"game_id":440,"stv_port":27036,"stv_name":"Uncletopia | San Francisco | 3 | Stopwatch Beta | STV","players":null},{"server_id":20,"name":"Uncletopia | San Francisco | 4 | Community","name_short":"sfo-4","host":"sfo-1.us.uncletopia.com","port":27045,"enabled":true,"region":"us-west","cc":"us","latitude":37.77397,"longitude":-122.4313,"reserved":0,"last_update":"0001-01-01T00:00:00Z","name_a2s":"Uncletopia | San Francisco | 4 | Community","protocol":17,"map":"workshop/koth_kemptown_rc1.ugc767410655","folder":"tf","game":"Team Fortress","app_id":440,"player_count":0,"max_players":24,"Bots":0,"server_type":"Dedicated","server_os":"Linux","password":true,"vac":true,"version":"7882260","steam_id":85568392924742826,"keywords":["cp","nocrits","nodmgspread","uncletopia"],"game_id":440,"stv_port":27046,"stv_name":"Uncletopia | San Francisco | 4 | Community | STV","players":null},{"server_id":141,"name":"Uncletopia | Sydney | 1 | All Maps","name_short":"syd-1","host":"syd-1.au.uncletopia.com","port":27015,"enabled":true,"region":"au","cc":"au","latitude":-33.865143,"longitude":151.2099,"reserved":0,"last_update":"0001-01-01T00:00:00Z","name_a2s":"Uncletopia | Sydney | 1 | All Maps","protocol":17,"map":"koth_cascade","folder":"tf","game":"Team Fortress","app_id":440,"player_count":6,"max_players":24,"Bots":0,"server_type":"Dedicated","server_os":"Linux","password":true,"vac":true,"version":"7882260","steam_id":85568392924470001,"keywords":["cp","nocrits","nodmgspread","uncletopia"],"game_id":440,"stv_port":27016,"stv_name":"Uncletopia | Sydney | 1 | All Maps | STV","players":[{"user_id":155,"name":"NightSpawn","steam_id":76561199447160011,"connected_time":1740000000000,"state":"active","ping":63},{"user_id":154,"name":"Zeppy","steam_id":76561198074766231,"connected_time":1833000000000,"state":"active","ping":73},{"user_id":156,"name":"HJGuard","steam_id":76561199275636067,"connected_time":1444000000000,"state":"active","ping":60},{"user_id":157,"name":"pootisitoop","steam_id":76561197995358524,"connected_time":1154000000000,"state":"active","ping":59},{"user_id":160,"name":"Extra Exotic","steam_id":76561198045191981,"connected_time":718000000000,"state":"active","ping":55},{"user_id":162,"name":"Bobrik(300fps)","steam_id":76561198151620467,"connected_time":114000000000,"state":"active","ping":416}]},{"server_id":123,"name":"Uncletopia | Sydney | 2 | All Maps","name_short":"syd-2","host":"syd-1.au.uncletopia.com","port":27025,"enabled":true,"region":"au","cc":"au","latitude":-33.865143,"longitude":151.2099,"reserved":0,"last_update":"0001-01-01T00:00:00Z","name_a2s":"Uncletopia | Sydney | 2 | All Maps","protocol":17,"map":"koth_highpass","folder":"tf","game":"Team Fortress","app_id":440,"player_count":0,"max_players":24,"Bots":0,"server_type":"Dedicated","server_os":"Linux","password":true,"vac":true,"version":"7882260","steam_id":85568392924470002,"keywords":["cp","nocrits","nodmgspread","uncletopia"],"game_id":440,"stv_port":27026,"stv_name":"Uncletopia | Sydney | 2 | All Maps | STV","players":null},{"server_id":395,"name":"Uncletopia | Sydney | 3 | All Maps","name_short":"syd-3","host":"syd-1.au.uncletopia.com","port":27035,"enabled":true,"region":"au","cc":"au","latitude":-33.865143,"longitude":151.2099,"reserved":0,"last_update":"0001-01-01T00:00:00Z","name_a2s":"Uncletopia | Sydney | 3 | All Maps","protocol":17,"map":"pl_frontier_final","folder":"tf","game":"Team Fortress","app_id":440,"player_count":24,"max_players":24,"Bots":0,"server_type":"Dedicated","server_os":"Linux","password":true,"vac":true,"version":"7882260","steam_id":85568392925194467,"keywords":["nocrits","nodmgspread","payload","uncletopia"],"game_id":440,"stv_port":27036,"stv_name":"Uncletopia | Sydney | 3 | All Maps | STV","players":[{"user_id":259,"name":"you've left me be Wilbur'd","steam_id":76561198301282416,"connected_time":1929000000000,"state":"active","ping":56},{"user_id":280,"name":"rudra","steam_id":76561198067731912,"connected_time":1044000000000,"state":"active","ping":76},{"user_id":256,"name":"using a laptop","steam_id":76561199445302425,"connected_time":2579000000000,"state":"active","ping":155},{"user_id":257,"name":"Cris.p bacon","steam_id":76561199230423491,"connected_time":2429000000000,"state":"active","ping":97},{"user_id":260,"name":"modus","steam_id":76561198025099660,"connected_time":1924000000000,"state":"active","ping":34},{"user_id":261,"name":"Tiger_Tan","steam_id":76561198221733844,"connected_time":1903000000000,"state":"active","ping":60},{"user_id":262,"name":"carrot monster","steam_id":76561199056025092,"connected_time":1854000000000,"state":"active","ping":45},{"user_id":263,"name":"former romeo","steam_id":76561198031293430,"connected_time":1786000000000,"state":"active","ping":88},{"user_id":264,"name":"wom","steam_id":76561199375834537,"connected_time":1763000000000,"state":"active","ping":127},{"user_id":266,"name":"Bill Nye","steam_id":76561198312898168,"connected_time":1678000000000,"state":"active","ping":58},{"user_id":291,"name":"that boys a ziah","steam_id":76561198159375596,"connected_time":170000000000,"state":"active","ping":57},{"user_id":292,"name":"Treggles","steam_id":76561198042806226,"connected_time":142000000000,"state":"active","ping":73},{"user_id":270,"name":"Chris Benoit Blanc","steam_id":76561198853357056,"connected_time":1514000000000,"state":"active","ping":84},{"user_id":277,"name":"MikkyD","steam_id":76561198043452962,"connected_time":1165000000000,"state":"active","ping":61},{"user_id":273,"name":"humph","steam_id":76561198083730533,"connected_time":1236000000000,"state":"active","ping":51},{"user_id":274,"name":"ToastmanJack","steam_id":76561198145347722,"connected_time":1225000000000,"state":"active","ping":63},{"user_id":275,"name":"Omens by Candlelight","steam_id":76561197994894835,"connected_time":1225000000000,"state":"active","ping":65},{"user_id":290,"name":"broccoli","steam_id":76561198838171912,"connected_time":327000000000,"state":"active","ping":143},{"user_id":293,"name":"–º–∞—Ç–µ","steam_id":76561197986937302,"connected_time":99000000000,"state":"active","ping":59},{"user_id":279,"name":"michael","steam_id":76561198052848358,"connected_time":1127000000000,"state":"active","ping":69},{"user_id":282,"name":"you will be boiled","steam_id":76561198079351541,"connected_time":949000000000,"state":"active","ping":51},{"user_id":284,"name":"UrAvgDMG","steam_id":76561199214859141,"connected_time":877000000000,"state":"active","ping":142},{"user_id":285,"name":"Dia","steam_id":76561198096251579,"connected_time":868000000000,"state":"active","ping":45},{"user_id":286,"name":"Pompadouraus","steam_id":76561198327530525,"connected_time":812000000000,"state":"active","ping":74}]},{"server_id":396,"name":"Uncletopia | Sydney | 4 | All Maps","name_short":"syd-4","host":"syd-1.au.uncletopia.com","port":27045,"enabled":true,"region":"au","cc":"au","latitude":-33.865143,"longitude":151.2099,"reserved":0,"last_update":"0001-01-01T00:00:00Z","name_a2s":"Uncletopia | Sydney | 4 | All Maps","protocol":17,"map":"pl_badwater","folder":"tf","game":"Team Fortress","app_id":440,"player_count":0,"max_players":24,"Bots":0,"server_type":"Dedicated","server_os":"Linux","password":true,"vac":true,"version":"7882260","steam_id":85568392925397958,"keywords":["nocrits","nodmgspread","payload","uncletopia"],"game_id":440,"stv_port":27046,"stv_name":"Uncletopia | Sydney | 4 | All Maps | STV","players":null},{"server_id":58,"name":"Uncletopia | Sydney | 5 | Stopwatch Beta","name_short":"syd-5","host":"syd-1.au.uncletopia.com","port":27055,"enabled":true,"region":"au","cc":"au","latitude":-33.865143,"longitude":151.2099,"reserved":0,"last_update":"0001-01-01T00:00:00Z","name_a2s":"Uncletopia | Sydney | 5 | Stopwatch Beta","protocol":17,"map":"koth_viaduct","folder":"tf","game":"Team Fortress","app_id":440,"player_count":0,"max_players":24,"Bots":0,"server_type":"Dedicated","server_os":"Linux","password":true,"vac":true,"version":"7882260","steam_id":85568392925397959,"keywords":["cp","nocrits","nodmgspread","uncletopia"],"game_id":440,"stv_port":27056,"stv_name":"Uncletopia | Sydney | 5 | Stopwatch Beta | STV","players":null},{"server_id":59,"name":"Uncletopia | Sydney | 6 | Community","name_short":"syd-6","host":"syd-1.au.uncletopia.com","port":27065,"enabled":true,"region":"au","cc":"au","latitude":-33.865143,"longitude":151.2099,"reserved":0,"last_update":"0001-01-01T00:00:00Z","name_a2s":"Uncletopia | Sydney | 6 | Community","protocol":17,"map":"workshop/cp_kalinka_rc6a.ugc1272700588","folder":"tf","game":"Team Fortress","app_id":440,"player_count":0,"max_players":24,"Bots":0,"server_type":"Dedicated","server_os":"Linux","password":true,"vac":true,"version":"7882260","steam_id":85568392925397960,"keywords":["cp","nocrits","nodmgspread","uncletopia"],"game_id":440,"stv_port":27066,"stv_name":"Uncletopia | Sydney | 6 | Community | STV","players":null},{"server_id":49,"name":"Uncletopia | Warsaw | 1 | All Maps","name_short":"waw-1","host":"waw-1.pl.uncletopia.com","port":27015,"enabled":true,"region":"eu","cc":"pl","latitude":52.2297,"longitude":21.017532,"reserved":0,"last_update":"0001-01-01T00:00:00Z","name_a2s":"","protocol":0,"map":"","folder":"","game":"","app_id":0,"player_count":0,"max_players":0,"Bots":0,"server_type":"","server_os":"","password":false,"vac":false,"version":"","steam_id":0,"keywords":null,"game_id":0,"stv_port":0,"stv_name":"","players":null},{"server_id":50,"name":"Uncletopia | Warsaw | 2 | All Maps","name_short":"waw-2","host":"waw-1.pl.uncletopia.com","port":27025,"enabled":true,"region":"eu","cc":"pl","latitude":52.2297,"longitude":21.017532,"reserved":0,"last_update":"0001-01-01T00:00:00Z","name_a2s":"Uncletopia | Warsaw | 2 | All Maps","protocol":17,"map":"koth_viaduct","folder":"tf","game":"Team Fortress","app_id":440,"player_count":0,"max_players":24,"Bots":0,"server_type":"Dedicated","server_os":"Linux","password":true,"vac":true,"version":"7882260","steam_id":85568392925397851,"keywords":["cp","nocrits","nodmgspread","uncletopia"],"game_id":440,"stv_port":27026,"stv_name":"Uncletopia | Warsaw | 2 | All Maps | STV","players":null},{"server_id":51,"name":"Uncletopia | Warsaw | 3 | All Maps","name_short":"waw-3","host":"waw-1.pl.uncletopia.com","port":27035,"enabled":true,"region":"eu","cc":"pl","latitude":52.2297,"longitude":21.017532,"reserved":0,"last_update":"0001-01-01T00:00:00Z","name_a2s":"Uncletopia | Warsaw | 3 | All Maps","protocol":17,"map":"pl_badwater","folder":"tf","game":"Team Fortress","app_id":440,"player_count":0,"max_players":24,"Bots":0,"server_type":"Dedicated","server_os":"Linux","password":true,"vac":true,"version":"7882260","steam_id":85568392925397852,"keywords":["nocrits","nodmgspread","payload","uncletopia"],"game_id":440,"stv_port":27036,"stv_name":"Uncletopia | Warsaw | 3 | All Maps | STV","players":null},{"server_id":52,"name":"Uncletopia | Warsaw | 4 | All Maps","name_short":"waw-4","host":"waw-1.pl.uncletopia.com","port":27045,"enabled":true,"region":"eu","cc":"pl","latitude":52.2297,"longitude":21.017532,"reserved":0,"last_update":"0001-01-01T00:00:00Z","name_a2s":"Uncletopia | Warsaw | 4 | All Maps","protocol":17,"map":"koth_cascade","folder":"tf","game":"Team Fortress","app_id":440,"player_count":0,"max_players":24,"Bots":0,"server_type":"Dedicated","server_os":"Linux","password":true,"vac":true,"version":"7882260","steam_id":85568392925397853,"keywords":["cp","nocrits","nodmgspread","uncletopia"],"game_id":440,"stv_port":27046,"stv_name":"Uncletopia | Warsaw | 4 | All Maps | STV","players":null},{"server_id":53,"name":"Uncletopia | Warsaw | 5 | Stopwatch Beta","name_short":"waw-5","host":"waw-1.pl.uncletopia.com","port":27055,"enabled":true,"region":"eu","cc":"pl","latitude":52.2297,"longitude":21.017532,"reserved":0,"last_update":"0001-01-01T00:00:00Z","name_a2s":"Uncletopia | Warsaw | 5 | Stopwatch Beta","protocol":17,"map":"cp_dustbowl","folder":"tf","game":"Team Fortress","app_id":440,"player_count":0,"max_players":24,"Bots":0,"server_type":"Dedicated","server_os":"Linux","password":true,"vac":true,"version":"7882260","steam_id":85568392925397854,"keywords":["cp","nocrits","nodmgspread","uncletopia"],"game_id":440,"stv_port":27056,"stv_name":"Uncletopia | Warsaw | 5 | Stopwatch Beta | STV","players":null},{"server_id":54,"name":"Uncletopia | Warsaw | 6 | Community","name_short":"waw-6","host":"waw-1.pl.uncletopia.com","port":27065,"enabled":true,"region":"eu","cc":"pl","latitude":52.2297,"longitude":21.017532,"reserved":0,"last_update":"0001-01-01T00:00:00Z","name_a2s":"Uncletopia | Warsaw | 6 | Community","protocol":17,"map":"cp_dustbowl","folder":"tf","game":"Team Fortress","app_id":440,"player_count":0,"max_players":24,"Bots":0,"server_type":"Dedicated","server_os":"Linux","password":true,"vac":true,"version":"7882260","steam_id":85568392925397856,"keywords":["cp","nocrits","nodmgspread","uncletopia"],"game_id":440,"stv_port":27066,"stv_name":"Uncletopia | Warsaw | 6 | Community | STV","players":null}]}