{"status":true,"message":"","result":[{"server_id":9,"name":"Uncletopia | Atlanta | 1 | All Maps","name_short":"atl-1","host":"atl-1.us.uncletopia.com","port":27015,"enabled":true,"region":"us-east","cc":"us","latitude":33.753746,"longitude":-84.38633,"reserved":0,"last_update":"0001-01-01T00:00:00Z","name_a2s":"Uncletopia | Atlanta | 1 | All Maps","protocol":17,"map":"cp_dustbowl","folder":"tf","game":"Team Fortress","app_id":440,"player_count":23,"max_players":24,"Bots":0,"server_type":"Dedicated","server_os":"Linux","password":true,"vac":true,"version":"7757534","steam_id":85568392924469982,"keywords":["cp","nocrits","nodmgspread","uncletopia"],"game_id":440,"stv_port":27016,"stv_name":"Uncletopia | Atlanta | 1 | All Maps | STV","players":[{"user_id":426,"name":"Boop","steam_id":76561198376703875,"connected_time":3862000000000,"state":"active","ping":73},{"user_id":418,"name":"ATL1 | LuckyZero-_-","steam_id":76561198139891051,"connected_time":5244000000000,"state":"active","ping":72},{"user_id":437,"name":"lker","steam_id":76561197976975075,"connected_time":2719000000000,"state":"active","ping":42},{"user_id":457,"name":"Gary","steam_id":76561198133309753,"connected_time":27000000000,"state":"spawning","ping":61},{"user_id":451,"name":"Ashes!","steam_id":76561197998475441,"connected_time":1360000000000,"state":"active","ping":88},{"user_id":367,"name":"BLU1 | cola","steam_id":76561198374390458,"connected_time":10341000000000,"state":"active","ping":55},{"user_id":445,"name":"Scut","steam_id":76561198973734291,"connected_time":1762000000000,"state":"active","ping":108},{"user_id":427,"name":"blu rio\u003c3 | they/them","steam_id":76561198299175965,"connected_time":3827000000000,"state":"active","ping":57},{"user_id":428,"name":"BLU1 | ☙ Corrupt ❧","steam_id":76561197977631915,"connected_time":3760000000000,"state":"active","ping":69},{"user_id":442,"name":"years","steam_id":76561197994098627,"connected_time":1998000000000,"state":"active","ping":108},{"user_id":430,"name":"schizophrenic with a gun","steam_id":76561198016121536,"connected_time":3563000000000,"state":"active","ping":75},{"user_id":394,"name":"Karma","steam_id":76561198030565234,"connected_time":7379000000000,"state":"active","ping":74},{"user_id":438,"name":"shaderoses","steam_id":76561198070800500,"connected_time":2718000000000,"state":"active","ping":62},{"user_id":440,"name":"RED1 | Lylith!!!","steam_id":76561198386687546,"connected_time":2655000000000,"state":"active","ping":45},{"user_id":420,"name":"Spoonful","steam_id":76561198927517471,"connected_time":5195000000000,"state":"active","ping":53},{"user_id":449,"name":"BLU1 Save your wifi","steam_id":76561198286147372,"connected_time":1548000000000,"state":"active","ping":59},{"user_id":452,"name":"OOOOOOOOOOOOOOOOOOOOOOOOOOOOOOO","steam_id":76561198300375056,"connected_time":1346000000000,"state":"active","ping":75},{"user_id":384,"name":"lil hog","steam_id":76561199230929836,"connected_time":8530000000000,"state":"active","ping":78},{"user_id":375,"name":"BLU1 | Psionic Box","steam_id":76561198151019322,"connected_time":10146000000000,"state":"active","ping":76},{"user_id":435,"name":"RED1 | Le4n!!!","steam_id":76561198045522596,"connected_time":2733000000000,"state":"active","ping":69},{"user_id":456,"name":"Sudden Pyro Event","steam_id":76561198085815757,"connected_time":213000000000,"state":"active","ping":76},{"user_id":450,"name":"pipebombrater","steam_id":76561199029030831,"connected_time":1515000000000,"state":"active","ping":84},{"user_id":348,"name":"ATLS1 | SparkStorm","steam_id":76561198095817025,"connected_time":11178000000000,"state":"active","ping":41}]},{"server_id":400,"name":"Uncletopia | Atlanta | 3 | Community","name_short":"atl-3","host":"atl-1.us.uncletopia.com","port":27035,"enabled":true,"region":"us-east","cc":"us","latitude":33.753746,"longitude":-84.38633,"reserved":0,"last_update":"0001-01-01T00:00:00Z","name_a2s":"Uncletopia | Atlanta | 3 | Community","protocol":17,"map":"workshop/cp_propaganda_b18.ugc1603743849","folder":"tf","game":"Team Fortress","app_id":440,"player_count":0,"max_players":24,"Bots":0,"server_type":"Dedicated","server_os":"Linux","password":true,"vac":true,"version":"7757534","steam_id":85568392924515187,"keywords":["cp","nocrits","nodmgspread","uncletopia"],"game_id":440,"stv_port":27036,"stv_name":"Uncletopia | Atlanta | 3 | Community | STV","players":null},{"server_id":401,"name":"Uncletopia | Atlanta | 4 | No Payload","name_short":"atl-4","host":"atl-1.us.uncletopia.com","port":27045,"enabled":true,"region":"us-east","cc":"us","latitude":33.753746,"longitude":-84.38633,"reserved":0,"last_update":"0001-01-01T00:00:00Z","name_a2s":"","protocol":0,"map":"","folder":"","game":"","app_id":0,"player_count":0,"max_players":0,"Bots":0,"server_type":"","server_os":"","password":false,"vac":false,"version":"","steam_id":0,"keywords":null,"game_id":0,"stv_port":0,"stv_name":"","players":null},{"server_id":2,"name":"Uncletopia | Chicago | 1 | All Maps","name_short":"chi-1","host":"chi-1.us.uncletopia.com","port":27015,"enabled":true,"region":"us-central","cc":"us","latitude":41.881832,"longitude":-87.62318,"reserved":0,"last_update":"0001-01-01T00:00:00Z","name_a2s":"Uncletopia | Chicago | 1 | All Maps","protocol":17,"map":"pl_barnblitz","folder":"tf","game":"Team Fortress","app_id":440,"player_count":23,"max_players":24,"Bots":0,"server_type":"Dedicated","server_os":"Linux","password":true,"vac":true,"version":"7757534","steam_id":85568392924469984,"keywords":["nocrits","nodmgspread","payload","uncletopia"],"game_id":440,"stv_port":27016,"stv_name":"Uncletopia | Chicago | 1 | All Maps | STV","players":[{"user_id":834,"name":"super","steam_id":76561198800358844,"connected_time":2759000000000,"state":"active","ping":82},{"user_id":853,"name":"DODE","steam_id":76561198089528086,"connected_time":1536000000000,"state":"active","ping":84},{"user_id":860,"name":"Cheetose Intolerant","steam_id":76561198013399809,"connected_time":1488000000000,"state":"active","ping":87},{"user_id":863,"name":"Matt.jpg","steam_id":76561198132469465,"connected_time":754000000000,"state":"active","ping":34},{"user_id":862,"name":"Astro Knight","steam_id":76561198062767484,"connected_time":1291000000000,"state":"active","ping":88},{"user_id":873,"name":"pathulhu","steam_id":76561198323941614,"connected_time":157000000000,"state":"active","ping":74},{"user_id":837,"name":"TheTruthOfTheCessationOfDukkha","steam_id":76561198214370515,"connected_time":2737000000000,"state":"active","ping":71},{"user_id":874,"name":"Poladroid","steam_id":76561198032005291,"connected_time":121000000000,"state":"active","ping":97},{"user_id":868,"name":"⛧","steam_id":76561198021308963,"connected_time":243000000000,"state":"active","ping":80},{"user_id":869,"name":"festive medic gaming","steam_id":76561199386847009,"connected_time":239000000000,"state":"active","ping":76},{"user_id":870,"name":"sleepychungus45","steam_id":76561198215559840,"connected_time":231000000000,"state":"active","ping":68},{"user_id":871,"name":"Tough Puffin","steam_id":76561198024011010,"connected_time":224000000000,"state":"active","ping":65},{"user_id":875,"name":"Homosexual Pornography","steam_id":76561199001748822,"connected_time":84000000000,"state":"active","ping":125},{"user_id":842,"name":"The Assistant Regional Manager","steam_id":76561199221484936,"connected_time":2687000000000,"state":"active","ping":119},{"user_id":847,"name":"CroMaLaka","steam_id":76561198380926090,"connected_time":2564000000000,"state":"active","ping":56},{"user_id":804,"name":"Pusieeeeeee!!!!!!!!!!!!!!!!!","steam_id":76561198083175190,"connected_time":5610000000000,"state":"active","ping":68},{"user_id":820,"name":"the deadliest pyroshark","steam_id":76561198374227766,"connected_time":4465000000000,"state":"active","ping":72},{"user_id":876,"name":"ryng_","steam_id":76561198048488303,"connected_time":82000000000,"state":"active","ping":89},{"user_id":865,"name":"Lore","steam_id":76561198098407538,"connected_time":578000000000,"state":"active","ping":56},{"user_id":877,"name":"microninjeez","steam_id":76561198074936422,"connected_time":21000000000,"state":"spawning","ping":57},{"user_id":844,"name":"Kaluka","steam_id":76561198036861445,"connected_time":2682000000000,"state":"active","ping":67},{"user_id":878,"name":"Bill Johnson","steam_id":76561198066355382,"connected_time":13000000000,"state":"active","ping":112},{"user_id":879,"name":"tie dye die guy","steam_id":76561198049845337,"connected_time":3000000000,"state":"spawning","ping":99}]},{"server_id":106,"name":"Uncletopia | Chicago | 2 | All Maps","name_short":"chi-2","host":"chi-1.us.uncletopia.com","port":27025,"enabled":true,"region":"us-central","cc":"us","latitude":41.881832,"longitude":-87.62318,"reserved":0,"last_update":"0001-01-01T00:00:00Z","name_a2s":"Uncletopia | Chicago | 2 | All Maps","protocol":17,"map":"pl_badwater","folder":"tf","game":"Team Fortress","app_id":440,"player_count":18,"max_players":24,"Bots":0,"server_type":"Dedicated","server_os":"Linux","password":true,"vac":true,"version":"7757534","steam_id":85568392924469985,"keywords":["nocrits","nodmgspread","payload","uncletopia"],"game_id":440,"stv_port":27026,"stv_name":"Uncletopia | Chicago | 2 | All Maps | STV","players":[{"user_id":674,"name":"Protoshake","steam_id":76561198840276176,"connected_time":472000000000,"state":"active","ping":62},{"user_id":655,"name":"Fever Dreams","steam_id":76561198116614620,"connected_time":1904000000000,"state":"active","ping":70},{"user_id":678,"name":"Petscop03","steam_id":76561198279217854,"connected_time":364000000000,"state":"active","ping":82},{"user_id":657,"name":"Baka!⑨⑨⑨⑨","steam_id":76561198152948254,"connected_time":1848000000000,"state":"active","ping":59},{"user_id":663,"name":"the","steam_id":76561198311446636,"connected_time":1321000000000,"state":"active","ping":57},{"user_id":634,"name":"shadowjango","steam_id":76561198001475833,"connected_time":2998000000000,"state":"active","ping":60},{"user_id":685,"name":"crayonnipple","steam_id":76561198070253331,"connected_time":127000000000,"state":"active","ping":50},{"user_id":667,"name":"rkp!","steam_id":76561199053070819,"connected_time":1189000000000,"state":"active","ping":45},{"user_id":675,"name":"Dzhoshua","steam_id":76561198071915251,"connected_time":457000000000,"state":"active","ping":58},{"user_id":676,"name":"Mr. Dick™","steam_id":76561198047309044,"connected_time":399000000000,"state":"active","ping":55},{"user_id":677,"name":"UltraOmiga","steam_id":76561198080801540,"connected_time":375000000000,"state":"active","ping":80},{"user_id":686,"name":"DannyGamerXD","steam_id":76561198799224408,"connected_time":121000000000,"state":"active","ping":75},{"user_id":679,"name":"rmanimal","steam_id":76561198162305515,"connected_time":336000000000,"state":"active","ping":77},{"user_id":680,"name":"G6 habib","steam_id":76561198053621664,"connected_time":248000000000,"state":"active","ping":44},{"user_id":681,"name":"Poverty's Finest","steam_id":76561198127704044,"connected_time":231000000000,"state":"active","ping":65},{"user_id":682,"name":"None of that $9.99 bullshit","steam_id":76561198116169903,"connected_time":229000000000,"state":"active","ping":59},{"user_id":683,"name":"PurplePond","steam_id":76561199062421006,"connected_time":206000000000,"state":"active","ping":47},{"user_id":668,"name":"hamo456","steam_id":76561198111939938,"connected_time":1168000000000,"state":"active","ping":111}]},{"server_id":402,"name":"Uncletopia | Chicago | 3 | All Maps","name_short":"chi-3","host":"chi-1.us.uncletopia.com","port":27035,"enabled":true,"region":"us-central","cc":"us","latitude":41.881832,"longitude":-87.62318,"reserved":0,"last_update":"0001-01-01T00:00:00Z","name_a2s":"Uncletopia | Chicago | 3 | All Maps","protocol":17,"map":"pl_barnblitz","folder":"tf","game":"Team Fortress","app_id":440,"player_count":24,"max_players":24,"Bots":0,"server_type":"Dedicated","server_os":"Linux","password":true,"vac":true,"version":"7757534","steam_id":85568392924515191,"keywords":["nocrits","nodmgspread","payload","uncletopia"],"game_id":440,"stv_port":27036,"stv_name":"Uncletopia | Chicago | 3 | All Maps | STV","players":[{"user_id":542,"name":"General_Jack","steam_id":76561198045894433,"connected_time":412000000000,"state":"active","ping":116},{"user_id":497,"name":"motorized bar of soap","steam_id":76561198882404753,"connected_time":1803000000000,"state":"active","ping":73},{"user_id":499,"name":"RokkitFrog","steam_id":76561198046465850,"connected_time":1675000000000,"state":"active","ping":76},{"user_id":500,"name":"robert","steam_id":76561198001196512,"connected_time":1661000000000,"state":"active","ping":50},{"user_id":501,"name":"soup","steam_id":76561198099977572,"connected_time":1655000000000,"state":"active","ping":57},{"user_id":487,"name":"MissMatches_","steam_id":76561198048925904,"connected_time":2304000000000,"state":"active","ping":114},{"user_id":527,"name":"Papa Squat","steam_id":76561198045011208,"connected_time":878000000000,"state":"active","ping":74},{"user_id":549,"name":"Dirt Man Dan","steam_id":76561198071586519,"connected_time":237000000000,"state":"active","ping":82},{"user_id":547,"name":"\"The Captain\" by Leonard Cohen","steam_id":76561198121955432,"connected_time":248000000000,"state":"active","ping":58},{"user_id":551,"name":"BUFF THE SCORCH SHOT","steam_id":76561198042899484,"connected_time":137000000000,"state":"active","ping":72},{"user_id":543,"name":"Psychosis","steam_id":76561198078659070,"connected_time":336000000000,"state":"active","ping":87},{"user_id":504,"name":"Buswolley","steam_id":76561197995205571,"connected_time":1516000000000,"state":"active","ping":98},{"user_id":505,"name":"TheDarkTitan","steam_id":76561198304794068,"connected_time":1500000000000,"state":"active","ping":76},{"user_id":545,"name":"Fablor","steam_id":76561198175644926,"connected_time":283000000000,"state":"active","ping":117},{"user_id":546,"name":":3","steam_id":76561198008599033,"connected_time":255000000000,"state":"active","ping":123},{"user_id":457,"name":"inventor1214","steam_id":76561198062317696,"connected_time":4461000000000,"state":"active","ping":118},{"user_id":531,"name":"Spiderfight1","steam_id":76561199189991528,"connected_time":740000000000,"state":"active","ping":102},{"user_id":533,"name":"Artistic","steam_id":76561198118159566,"connected_time":695000000000,"state":"active","ping":96},{"user_id":552,"name":"viscodolante","steam_id":76561198013650292,"connected_time":100000000000,"state":"active","ping":114},{"user_id":534,"name":"Vinchâu","steam_id":76561198169289662,"connected_time":682000000000,"state":"active","ping":75},{"user_id":548,"name":"BloodAngel_","steam_id":76561199085593693,"connected_time":245000000000,"state":"active","ping":110},{"user_id":550,"name":"Anji's onlyfans","steam_id":76561198353160282,"connected_time":233000000000,"state":"active","ping":92},{"user_id":509,"name":"TÖZI","steam_id":76561198045268695,"connected_time":1380000000000,"state":"active","ping":68},{"user_id":520,"name":"JPMockMan","steam_id":76561198071370876,"connected_time":983000000000,"state":"active","ping":96}]},{"server_id":403,"name":"Uncletopia | Chicago | 4 | All Maps","name_short":"chi-4","host":"chi-1.us.uncletopia.com","port":27045,"enabled":true,"region":"us-central","cc":"us","latitude":41.881832,"longitude":-87.62318,"reserved":0,"last_update":"0001-01-01T00:00:00Z","name_a2s":"Uncletopia | Chicago | 4 | All Maps","protocol":17,"map":"pl_snowycoast","folder":"tf","game":"Team Fortress","app_id":440,"player_count":20,"max_players":24,"Bots":0,"server_type":"Dedicated","server_os":"Linux","password":true,"vac":true,"version":"7757534","steam_id":85568392924515193,"keywords":["nocrits","nodmgspread","payload","uncletopia"],"game_id":440,"stv_port":27046,"stv_name":"Uncletopia | Chicago | 4 | All Maps | STV","players":[{"user_id":290,"name":"Locrian","steam_id":76561198356159602,"connected_time":1240000000000,"state":"active","ping":100},{"user_id":278,"name":"Do Moose go Moo?","steam_id":76561198073550620,"connected_time":1912000000000,"state":"active","ping":45},{"user_id":276,"name":"Vulpes","steam_id":76561198038929334,"connected_time":1944000000000,"state":"active","ping":48},{"user_id":244,"name":"Groth","steam_id":76561198061888926,"connected_time":5163000000000,"state":"active","ping":86},{"user_id":279,"name":"codykurusu","steam_id":76561199468723267,"connected_time":1901000000000,"state":"active","ping":87},{"user_id":289,"name":"evilgod","steam_id":76561198890522517,"connected_time":1414000000000,"state":"active","ping":82},{"user_id":282,"name":"Dispenser (Twan)","steam_id":76561197991064908,"connected_time":1834000000000,"state":"active","ping":59},{"user_id":268,"name":"Fantastic","steam_id":76561198079088978,"connected_time":2967000000000,"state":"active","ping":36},{"user_id":280,"name":"Lorelius Hogglefart","steam_id":76561198449527009,"connected_time":1897000000000,"state":"active","ping":45},{"user_id":256,"name":"EXPERIENCED INDIVIDUAL","steam_id":76561198140231083,"connected_time":4057000000000,"state":"spawning","ping":101},{"user_id":275,"name":"Toast","steam_id":76561198234616616,"connected_time":2448000000000,"state":"active","ping":62},{"user_id":273,"name":"real scammer","steam_id":76561198063619558,"connected_time":2595000000000,"state":"active","ping":70},{"user_id":286,"name":"Bracey","steam_id":76561199092318246,"connected_time":1519000000000,"state":"active","ping":85},{"user_id":287,"name":"threethree","steam_id":76561198177354155,"connected_time":1471000000000,"state":"active","ping":39},{"user_id":259,"name":"Ranger Lugi","steam_id":76561198143611016,"connected_time":3718000000000,"state":"active","ping":94},{"user_id":257,"name":"Magikarp_Gamer","steam_id":76561198143910511,"connected_time":4054000000000,"state":"active","ping":98},{"user_id":281,"name":"All 24 Pokémon movies at once","steam_id":76561198164738311,"connected_time":1882000000000,"state":"active","ping":65},{"user_id":291,"name":"LoseThos","steam_id":76561198026610323,"connected_time":204000000000,"state":"active","ping":91},{"user_id":267,"name":"Skillz","steam_id":76561198054746727,"connected_time":2994000000000,"state":"active","ping":55},{"user_id":270,"name":"Yeshie the Dragon Layer","steam_id":76561198080214214,"connected_time":2842000000000,"state":"active","ping":39}]},{"server_id":36,"name":"Uncletopia | Chicago | 5 | All Maps","name_short":"chi-5","host":"chi-2.us.uncletopia.com","port":27015,"enabled":true,"region":"us-central","cc":"us","latitude":41.881832,"longitude":-87.62318,"reserved":0,"last_update":"0001-01-01T00:00:00Z","name_a2s":"Uncletopia | Chicago | 5 | All Maps","protocol":17,"map":"koth_highpass","folder":"tf","game":"Team Fortress","app_id":440,"player_count":0,"max_players":24,"Bots":0,"server_type":"Dedicated","server_os":"Linux","password":true,"vac":true,"version":"7757534","steam_id":85568392924866362,"keywords":["cp","nocrits","nodmgspread","uncletopia"],"game_id":440,"stv_port":27016,"stv_name":"Uncletopia | Chicago | 5 | All Maps | STV","players":null},{"server_id":37,"name":"Uncletopia | Chicago | 6 | All Maps","name_short":"chi-6","host":"chi-2.us.uncletopia.com","port":27025,"enabled":true,"region":"us-central","cc":"us","latitude":41.881832,"longitude":-87.62318,"reserved":0,"last_update":"0001-01-01T00:00:00Z","name_a2s":"Uncletopia | Chicago | 6 | All Maps","protocol":17,"map":"cp_metalworks","folder":"tf","game":"Team Fortress","app_id":440,"player_count":17,"max_players":24,"Bots":0,"server_type":"Dedicated","server_os":"Linux","password":true,"vac":true,"version":"7757534","steam_id":85568392924866363,"keywords":["cp","nocrits","nodmgspread","uncletopia"],"game_id":440,"stv_port":27026,"stv_name":"Uncletopia | Chicago | 6 | All Maps | STV","players":[{"user_id":203,"name":"last one of the tonight","steam_id":76561198099591549,"connected_time":5048000000000,"state":"active","ping":62},{"user_id":178,"name":"James","steam_id":76561198081313916,"connected_time":6914000000000,"state":"active","ping":73},{"user_id":250,"name":"Windex","steam_id":76561198105561395,"connected_time":1517000000000,"state":"active","ping":74},{"user_id":232,"name":"toastman","steam_id":76561198207073088,"connected_time":2893000000000,"state":"active","ping":72},{"user_id":219,"name":"Room","steam_id":76561199174579733,"connected_time":3941000000000,"state":"active","ping":75},{"user_id":255,"name":"Young, Hot, and Full of Grease","steam_id":76561198101092551,"connected_time":748000000000,"state":"active","ping":71},{"user_id":228,"name":"Garfield Fucker","steam_id":76561198202775853,"connected_time":3011000000000,"state":"active","ping":57},{"user_id":241,"name":"Greeble","steam_id":76561198000283892,"connected_time":2306000000000,"state":"active","ping":120},{"user_id":251,"name":"invb","steam_id":76561197998263914,"connected_time":1510000000000,"state":"active","ping":53},{"user_id":257,"name":"Prince Charles","steam_id":76561198161199653,"connected_time":318000000000,"state":"active","ping":65},{"user_id":243,"name":"Bastion","steam_id":76561199133903803,"connected_time":2280000000000,"state":"active","ping":101},{"user_id":202,"name":"ILOVEHOTMOMS","steam_id":76561198232617936,"connected_time":5131000000000,"state":"active","ping":44},{"user_id":246,"name":"HammerHead","steam_id":76561197975668646,"connected_time":2098000000000,"state":"active","ping":75},{"user_id":253,"name":"Nodin","steam_id":76561198135757376,"connected_time":1354000000000,"state":"active","ping":54},{"user_id":245,"name":"MantisTobboggan","steam_id":76561197969447887,"connected_time":2158000000000,"state":"active","ping":141},{"user_id":254,"name":"i am in missouri pls help","steam_id":76561198799420706,"connected_time":939000000000,"state":"active","ping":63},{"user_id":259,"name":"Panckakebro","steam_id":76561198106419992,"connected_time":118000000000,"state":"active","ping":78}]},{"server_id":38,"name":"Uncletopia | Chicago | 7 | Stopwatch Beta","name_short":"chi-7","host":"chi-2.us.uncletopia.com","port":27035,"enabled":true,"region":"us-central","cc":"us","latitude":41.881832,"longitude":-87.62318,"reserved":0,"last_update":"0001-01-01T00:00:00Z","name_a2s":"Uncletopia | Chicago | 7 | Stopwatch Beta","protocol":17,"map":"workshop/koth_ramjam_rc1.ugc459778887","folder":"tf","game":"Team Fortress","app_id":440,"player_count":0,"max_players":24,"Bots":0,"server_type":"Dedicated","server_os":"Linux","password":true,"vac":true,"version":"7757534","steam_id":85568392924866364,"keywords":["cp","nocrits","nodmgspread","uncletopia"],"game_id":440,"stv_port":27036,"stv_name":"Uncletopia | Chicago | 7 | Stopwatch Beta | STV","players":null},{"server_id":39,"name":"Uncletopia | Chicago | 8 | Community","name_short":"chi-8","host":"chi-2.us.uncletopia.com","port":27045,"enabled":true,"region":"us-central","cc":"us","latitude":41.881832,"longitude":-87.62318,"reserved":0,"last_update":"0001-01-01T00:00:00Z","name_a2s":"Uncletopia | Chicago | 8 | Community","protocol":17,"map":"workshop/koth_kemptown_rc1.ugc767410655","folder":"tf","game":"Team Fortress","app_id":440,"player_count":0,"max_players":24,"Bots":0,"server_type":"Dedicated","server_os":"Linux","password":true,"vac":true,"version":"7757534","steam_id":85568392924866365,"keywords":["cp","nocrits","nodmgspread","uncletopia"],"game_id":440,"stv_port":27046,"stv_name":"Uncletopia | Chicago | 8 | Community | STV","players":null},{"server_id":8,"name":"Uncletopia | Dallas | 1 | All Maps","name_short":"dal-1","host":"dal-1.us.uncletopia.com","port":27015,"enabled":true,"region":"us-central","cc":"us","latitude":32.779167,"longitude":-96.80889,"reserved":0,"last_update":"0001-01-01T00:00:00Z","name_a2s":"Uncletopia | Dallas | 1 | All Maps","protocol":17,"map":"pl_borneo","folder":"tf","game":"Team Fortress","app_id":440,"player_count":23,"max_players":24,"Bots":0,"server_type":"Dedicated","server_os":"Linux","password":true,"vac":true,"version":"7757534","steam_id":85568392924469986,"keywords":["nocrits","nodmgspread","payload","uncletopia"],"game_id":440,"stv_port":27016,"stv_name":"Uncletopia | Dallas | 1 | All Maps | STV","players":[{"user_id":886,"name":"Kirbothebrony","steam_id":76561198971911330,"connected_time":1077000000000,"state":"active","ping":71},{"user_id":887,"name":"wheresgeorge","steam_id":76561198986281248,"connected_time":1063000000000,"state":"active","ping":90},{"user_id":897,"name":"[S]Mr. X [No Monitor]","steam_id":76561197963746035,"connected_time":949000000000,"state":"active","ping":130},{"user_id":903,"name":"Riske","steam_id":76561198115840568,"connected_time":417000000000,"state":"active","ping":90},{"user_id":874,"name":"MEDIC!","steam_id":76561198149344029,"connected_time":2604000000000,"state":"active","ping":86},{"user_id":905,"name":"Dozo","steam_id":76561198011546437,"connected_time":337000000000,"state":"active","ping":55},{"user_id":906,"name":"Astro","steam_id":76561198035676106,"connected_time":307000000000,"state":"active","ping":60},{"user_id":794,"name":"M249 | Spectre","steam_id":76561198118334485,"connected_time":11260000000000,"state":"active","ping":93},{"user_id":893,"name":"Fargo","steam_id":76561198044703931,"connected_time":1038000000000,"state":"active","ping":60},{"user_id":894,"name":"Dazed","steam_id":76561198167096734,"connected_time":1016000000000,"state":"active","ping":67},{"user_id":895,"name":"deadpixel","steam_id":76561198150249843,"connected_time":1014000000000,"state":"active","ping":70},{"user_id":907,"name":"darkesther0","steam_id":76561198858282525,"connected_time":292000000000,"state":"active","ping":87},{"user_id":830,"name":"Phil Collins","steam_id":76561198068868644,"connected_time":7598000000000,"state":"active","ping":84},{"user_id":831,"name":"vvichael","steam_id":76561198238148528,"connected_time":7597000000000,"state":"active","ping":91},{"user_id":889,"name":"Black Mesa Scientist","steam_id":76561198064466577,"connected_time":1059000000000,"state":"active","ping":74},{"user_id":866,"name":"GT500\u003eJZeeba ジェイシーバ","steam_id":76561197982569975,"connected_time":3471000000000,"state":"active","ping":105},{"user_id":909,"name":"Vevo","steam_id":76561198316753540,"connected_time":182000000000,"state":"active","ping":40},{"user_id":828,"name":"M.L.JEW","steam_id":76561198997375055,"connected_time":7630000000000,"state":"active","ping":76},{"user_id":911,"name":"A lost cow.","steam_id":76561198047673765,"connected_time":109000000000,"state":"active","ping":50},{"user_id":885,"name":"Krow","steam_id":76561198010392099,"connected_time":1089000000000,"state":"active","ping":50},{"user_id":902,"name":"spot","steam_id":76561198151135298,"connected_time":508000000000,"state":"active","ping":63},{"user_id":875,"name":"bash -lc ./asshat.sh","steam_id":76561198004584315,"connected_time":2584000000000,"state":"active","ping":84},{"user_id":884,"name":"purply-ghost","steam_id":76561199204779865,"connected_time":1580000000000,"state":"active","ping":44}]},{"server_id":108,"name":"Uncletopia | Dallas | 2 | All Maps","name_short":"dal-2","host":"dal-1.us.uncletopia.com","port":27025,"enabled":true,"region":"us-central","cc":"us","latitude":32.779167,"longitude":-96.80889,"reserved":0,"last_update":"0001-01-01T00:00:00Z","name_a2s":"Uncletopia | Dallas | 2 | All Maps","protocol":17,"map":"pl_badwater","folder":"tf","game":"Team Fortress","app_id":440,"player_count":23,"max_players":24,"Bots":0,"server_type":"Dedicated","server_os":"Linux","password":true,"vac":true,"version":"7757534","steam_id":85568392924469988,"keywords":["nocrits","nodmgspread","payload","uncletopia"],"game_id":440,"stv_port":27026,"stv_name":"Uncletopia | Dallas | 2 | All Maps | STV","players":[{"user_id":613,"name":"ill draw you for 30 refined","steam_id":76561199005805984,"connected_time":6458000000000,"state":"active","ping":41},{"user_id":683,"name":"tower defense","steam_id":76561198169755734,"connected_time":1731000000000,"state":"active","ping":86},{"user_id":679,"name":"catrinaisahuman","steam_id":76561198281355729,"connected_time":1792000000000,"state":"active","ping":60},{"user_id":661,"name":"Squid121","steam_id":76561198038832034,"connected_time":2516000000000,"state":"active","ping":95},{"user_id":667,"name":"smeasly","steam_id":76561198028718812,"connected_time":2233000000000,"state":"active","ping":103},{"user_id":689,"name":"Spoofle","steam_id":76561199003655066,"connected_time":329000000000,"state":"active","ping":75},{"user_id":627,"name":"Emperor Dankatine","steam_id":76561198044741086,"connected_time":5561000000000,"state":"active","ping":82},{"user_id":668,"name":"ed","steam_id":76561198080475712,"connected_time":2227000000000,"state":"active","ping":92},{"user_id":669,"name":"I have a tapeworm","steam_id":76561198112705880,"connected_time":2206000000000,"state":"active","ping":78},{"user_id":690,"name":"lamplistener333","steam_id":76561198970261784,"connected_time":322000000000,"state":"active","ping":95},{"user_id":680,"name":"captain red","steam_id":76561198191587983,"connected_time":1763000000000,"state":"active","ping":69},{"user_id":648,"name":"brobtlcehc","steam_id":76561198043558709,"connected_time":3898000000000,"state":"active","ping":94},{"user_id":686,"name":"Harold","steam_id":76561198057317770,"connected_time":874000000000,"state":"active","ping":75},{"user_id":691,"name":"Halo","steam_id":76561198144909435,"connected_time":312000000000,"state":"active","ping":77},{"user_id":688,"name":"NEBULA","steam_id":76561198086878595,"connected_time":386000000000,"state":"active","ping":95},{"user_id":647,"name":"Junior_198X","steam_id":76561198158596794,"connected_time":4018000000000,"state":"active","ping":85},{"user_id":638,"name":"dog","steam_id":76561198263873491,"connected_time":4744000000000,"state":"active","ping":60},{"user_id":682,"name":"chanoc","steam_id":76561198026734746,"connected_time":1758000000000,"state":"active","ping":88},{"user_id":640,"name":"Yonkerbonk","steam_id":76561198097628353,"connected_time":4736000000000,"state":"active","ping":45},{"user_id":662,"name":"DeckofDragons","steam_id":76561198057398213,"connected_time":2451000000000,"state":"active","ping":77},{"user_id":641,"name":"nerfington","steam_id":76561198062785419,"connected_time":4719000000000,"state":"active","ping":85},{"user_id":672,"name":"Poptart From Mars","steam_id":76561197979930960,"connected_time":2140000000000,"state":"active","ping":87},{"user_id":650,"name":"p9 jorts","steam_id":76561199041179985,"connected_time":3652000000000,"state":"active","ping":113}]},{"server_id":5,"name":"Uncletopia | Frankfurt | 1 | All Maps","name_short":"frk-1","host":"frk-1.de.uncletopia.com","port":27015,"enabled":true,"region":"eu","cc":"de","latitude":50.110924,"longitude":8.682127,"reserved":0,"last_update":"0001-01-01T00:00:00Z","name_a2s":"Uncletopia | Frankfurt | 1 | All Maps","protocol":17,"map":"pl_snowycoast","folder":"tf","game":"Team Fortress","app_id":440,"player_count":0,"max_players":24,"Bots":0,"server_type":"Dedicated","server_os":"Linux","password":true,"vac":true,"version":"7757534","steam_id":85568392924469989,"keywords":["nocrits","nodmgspread","payload","uncletopia"],"game_id":440,"stv_port":27016,"stv_name":"Uncletopia | Frankfurt | 1 | All Maps | STV","players":null},{"server_id":110,"name":"Uncletopia | Frankfurt | 2 | All Maps","name_short":"frk-2","host":"frk-1.de.uncletopia.com","port":27025,"enabled":true,"region":"eu","cc":"de","latitude":50.110924,"longitude":8.682127,"reserved":0,"last_update":"0001-01-01T00:00:00Z","name_a2s":"Uncletopia | Frankfurt | 2 | All Maps","protocol":17,"map":"pl_snowycoast","folder":"tf","game":"Team Fortress","app_id":440,"player_count":0,"max_players":24,"Bots":0,"server_type":"Dedicated","server_os":"Linux","password":true,"vac":true,"version":"7757534","steam_id":85568392924469990,"keywords":["nocrits","nodmgspread","payload","uncletopia"],"game_id":440,"stv_port":27026,"stv_name":"Uncletopia | Frankfurt | 2 | All Maps | STV","players":null},{"server_id":308,"name":"Uncletopia | Frankfurt | 3 | All Maps","name_short":"frk-3","host":"frk-1.de.uncletopia.com","port":27035,"enabled":true,"region":"eu","cc":"de","latitude":50.110924,"longitude":8.682127,"reserved":0,"last_update":"0001-01-01T00:00:00Z","name_a2s":"Uncletopia | Frankfurt | 3 | All Maps","protocol":17,"map":"cp_altitude","folder":"tf","game":"Team Fortress","app_id":440,"player_count":0,"max_players":24,"Bots":0,"server_type":"Dedicated","server_os":"Linux","password":true,"vac":true,"version":"7757534","steam_id":85568392924504274,"keywords":["cp","nocrits","nodmgspread","uncletopia"],"game_id":440,"stv_port":27036,"stv_name":"Uncletopia | Frankfurt | 3 | All Maps | STV","players":null},{"server_id":309,"name":"Uncletopia | Frankfurt | 4 | All Maps","name_short":"frk-4","host":"frk-1.de.uncletopia.com","port":27045,"enabled":true,"region":"eu","cc":"de","latitude":50.110924,"longitude":8.682127,"reserved":0,"last_update":"0001-01-01T00:00:00Z","name_a2s":"Uncletopia | Frankfurt | 4 | All Maps","protocol":17,"map":"cp_altitude","folder":"tf","game":"Team Fortress","app_id":440,"player_count":0,"max_players":24,"Bots":0,"server_type":"Dedicated","server_os":"Linux","password":true,"vac":true,"version":"7757534","steam_id":85568392924504275,"keywords":["cp","nocrits","nodmgspread","uncletopia"],"game_id":440,"stv_port":27046,"stv_name":"Uncletopia | Frankfurt | 4 | All Maps | STV","players":null},{"server_id":310,"name":"Uncletopia | Frankfurt | 5 | All Maps","name_short":"frk-5","host":"frk-1.de.uncletopia.com","port":27055,"enabled":true,"region":"eu","cc":"de","latitude":50.110924,"longitude":8.682127,"reserved":0,"last_update":"0001-01-01T00:00:00Z","name_a2s":"Uncletopia | Frankfurt | 5 | All Maps","protocol":17,"map":"cp_altitude","folder":"tf","game":"Team Fortress","app_id":440,"player_count":0,"max_players":24,"Bots":0,"server_type":"Dedicated","server_os":"Linux","password":true,"vac":true,"version":"7757534","steam_id":85568392924504277,"keywords":["cp","nocrits","nodmgspread","uncletopia"],"game_id":440,"stv_port":27056,"stv_name":"Uncletopia | Frankfurt | 5 | All Maps | STV","players":null},{"server_id":311,"name":"Uncletopia | Frankfurt | 6 | All Maps","name_short":"frk-6","host":"frk-1.de.uncletopia.com","port":27065,"enabled":true,"region":"eu","cc":"de","latitude":50.110924,"longitude":8.682127,"reserved":0,"last_update":"0001-01-01T00:00:00Z","name_a2s":"Uncletopia | Frankfurt | 6 | All Maps","protocol":17,"map":"koth_highpass","folder":"tf","game":"Team Fortress","app_id":440,"player_count":0,"max_players":24,"Bots":0,"server_type":"Dedicated","server_os":"Linux","password":true,"vac":true,"version":"7757534","steam_id":85568392924504278,"keywords":["cp","nocrits","nodmgspread","uncletopia"],"game_id":440,"stv_port":27066,"stv_name":"Uncletopia | Frankfurt | 6 | All Maps | STV","players":null},{"server_id":23,"name":"Uncletopia | Frankfurt | 7 | Stopwatch Beta","name_short":"frk-7","host":"frk-1.de.uncletopia.com","port":27075,"enabled":true,"region":"eu","cc":"de","latitude":50.110924,"longitude":8.682127,"reserved":0,"last_update":"0001-01-01T00:00:00Z","name_a2s":"Uncletopia | Frankfurt | 7 | Stopwatch Beta","protocol":17,"map":"pl_frontier_final","folder":"tf","game":"Team Fortress","app_id":440,"player_count":0,"max_players":24,"Bots":0,"server_type":"Dedicated","server_os":"Linux","password":true,"vac":true,"version":"7757534","steam_id":85568392924742827,"keywords":["nocrits","nodmgspread","payload","uncletopia"],"game_id":440,"stv_port":27076,"stv_name":"Uncletopia | Frankfurt | 7 | Stopwatch Beta | STV","players":null},{"server_id":24,"name":"Uncletopia | Frankfurt | 8 | Community","name_short":"frk-8","host":"frk-1.de.uncletopia.com","port":27085,"enabled":true,"region":"eu","cc":"de","latitude":50.110924,"longitude":8.682127,"reserved":0,"last_update":"0001-01-01T00:00:00Z","name_a2s":"Uncletopia | Frankfurt | 8 | Community","protocol":17,"map":"pl_badwater","folder":"tf","game":"Team Fortress","app_id":440,"player_count":0,"max_players":24,"Bots":0,"server_type":"Dedicated","server_os":"Linux","password":true,"vac":true,"version":"7757534","steam_id":85568392924742828,"keywords":["nocrits","nodmgspread","payload","uncletopia"],"game_id":440,"stv_port":27086,"stv_name":"Uncletopia | Frankfurt | 8 | Community | STV","players":null},{"server_id":202,"name":"Uncletopia | Hong Kong | 1 | All Maps","name_short":"hgk-1","host":"hgk-1.hk.uncletopia.com","port":27015,"enabled":true,"region":"asia","cc":"hk","latitude":22.302711,"longitude":114.177216,"reserved":0,"last_update":"0001-01-01T00:00:00Z","name_a2s":"Uncletopia | Hong Kong | 1 | All Maps","protocol":17,"map":"pl_borneo","folder":"tf","game":"Team Fortress","app_id":440,"player_count":5,"max_players":24,"Bots":0,"server_type":"Dedicated","server_os":"Linux","password":true,"vac":true,"version":"7757534","steam_id":85568392924494504,"keywords":["nocrits","nodmgspread","payload","uncletopia"],"game_id":440,"stv_port":27016,"stv_name":"Uncletopia | Hong Kong | 1 | All Maps | STV","players":[{"user_id":75,"name":"Humpty Alexander Dumpty","steam_id":76561199116459368,"connected_time":234000000000,"state":"active","ping":68},{"user_id":13,"name":"Ice Crack, Dude","steam_id":76561199445694770,"connected_time":8411000000000,"state":"active","ping":137},{"user_id":71,"name":"duo","steam_id":76561198314216930,"connected_time":615000000000,"state":"active","ping":75},{"user_id":72,"name":"Saffron","steam_id":76561199025320247,"connected_time":514000000000,"state":"active","ping":64},{"user_id":73,"name":"Shterman","steam_id":76561198074411229,"connected_time":268000000000,"state":"active","ping":78}]},{"server_id":1,"name":"Uncletopia | Los Angeles | 1 | All Maps","name_short":"lax-1","host":"lax-1.us.uncletopia.com","port":27015,"enabled":true,"region":"us-west","cc":"us","latitude":33.94279,"longitude":-118.41004,"reserved":0,"last_update":"0001-01-01T00:00:00Z","name_a2s":"Uncletopia | Los Angeles | 1 | All Maps","protocol":17,"map":"cp_dustbowl","folder":"tf","game":"Team Fortress","app_id":440,"player_count":24,"max_players":24,"Bots":0,"server_type":"Dedicated","server_os":"Linux","password":true,"vac":true,"version":"7757534","steam_id":85568392924469991,"keywords":["cp","nocrits","nodmgspread","uncletopia"],"game_id":440,"stv_port":27016,"stv_name":"Uncletopia | Los Angeles | 1 | All Maps | STV","players":[{"user_id":520,"name":"SneekiCheekiQbone","steam_id":76561198045077980,"connected_time":131000000000,"state":"active","ping":44},{"user_id":472,"name":"intek","steam_id":76561198052705291,"connected_time":5069000000000,"state":"active","ping":87},{"user_id":433,"name":"srmoore 103","steam_id":76561198300291415,"connected_time":7394000000000,"state":"active","ping":80},{"user_id":506,"name":"MistakesWereMade","steam_id":76561199059220481,"connected_time":1839000000000,"state":"active","ping":54},{"user_id":496,"name":"Nobody","steam_id":76561199352089107,"connected_time":3619000000000,"state":"active","ping":42},{"user_id":321,"name":"Adorable Cat","steam_id":76561198165453127,"connected_time":15180000000000,"state":"active","ping":118},{"user_id":498,"name":"adultfragfinder","steam_id":76561198314145058,"connected_time":3324000000000,"state":"active","ping":97},{"user_id":511,"name":"rose","steam_id":76561197995200743,"connected_time":1734000000000,"state":"active","ping":42},{"user_id":516,"name":"TeCon","steam_id":76561198049127236,"connected_time":1305000000000,"state":"active","ping":58},{"user_id":497,"name":"ChefMike","steam_id":76561198414034069,"connected_time":3421000000000,"state":"active","ping":123},{"user_id":514,"name":"Citizen Toxie","steam_id":76561197961107982,"connected_time":1639000000000,"state":"active","ping":118},{"user_id":457,"name":"Akkawi","steam_id":76561198203159952,"connected_time":6150000000000,"state":"active","ping":54},{"user_id":503,"name":"Misterwipeout","steam_id":76561198068900320,"connected_time":2869000000000,"state":"active","ping":92},{"user_id":482,"name":"Jared","steam_id":76561198174468986,"connected_time":4843000000000,"state":"active","ping":64},{"user_id":474,"name":"L. F. Spirits","steam_id":76561198022265991,"connected_time":4992000000000,"state":"active","ping":106},{"user_id":490,"name":"Xiangote","steam_id":76561198067436825,"connected_time":3959000000000,"state":"active","ping":98},{"user_id":505,"name":"rock gaming","steam_id":76561199402868311,"connected_time":1925000000000,"state":"active","ping":62},{"user_id":517,"name":"Nugakku","steam_id":76561198082346219,"connected_time":1069000000000,"state":"active","ping":60},{"user_id":467,"name":"YourWishes","steam_id":76561198154414336,"connected_time":5412000000000,"state":"active","ping":56},{"user_id":481,"name":"LazyDoll","steam_id":76561198053186338,"connected_time":4888000000000,"state":"active","ping":54},{"user_id":483,"name":"joe","steam_id":76561198149179519,"connected_time":4839000000000,"state":"active","ping":65},{"user_id":512,"name":"Joe Grumbo","steam_id":76561198048485190,"connected_time":1704000000000,"state":"active","ping":118},{"user_id":519,"name":"❤Blunt.Babe420❤","steam_id":76561199014055970,"connected_time":521000000000,"state":"active","ping":129},{"user_id":489,"name":"ScoutBox","steam_id":76561198111539895,"connected_time":4054000000000,"state":"active","ping":48}]},{"server_id":112,"name":"Uncletopia | Los Angeles | 2 | All Maps","name_short":"lax-2","host":"lax-1.us.uncletopia.com","port":27025,"enabled":true,"region":"us-west","cc":"us","latitude":33.94279,"longitude":-118.41004,"reserved":0,"last_update":"0001-01-01T00:00:00Z","name_a2s":"Uncletopia | Los Angeles | 2 | All Maps","protocol":17,"map":"koth_cascade","folder":"tf","game":"Team Fortress","app_id":440,"player_count":0,"max_players":24,"Bots":0,"server_type":"Dedicated","server_os":"Linux","password":true,"vac":true,"version":"7757534","steam_id":85568392924469992,"keywords":["cp","nocrits","nodmgspread","uncletopia"],"game_id":440,"stv_port":27026,"stv_name":"Uncletopia | Los Angeles | 2 | All Maps | STV","players":null},{"server_id":324,"name":"Uncletopia | Los Angeles | 3 | All Maps","name_short":"lax-3","host":"lax-1.us.uncletopia.com","port":27035,"enabled":true,"region":"us-west","cc":"us","latitude":33.94279,"longitude":-118.41004,"reserved":0,"last_update":"0001-01-01T00:00:00Z","name_a2s":"Uncletopia | Los Angeles | 3 | All Maps","protocol":17,"map":"plr_bananabay","folder":"tf","game":"Team Fortress","app_id":440,"player_count":17,"max_players":24,"Bots":0,"server_type":"Dedicated","server_os":"Linux","password":true,"vac":true,"version":"7757534","steam_id":85568392924510198,"keywords":["nocrits","nodmgspread","payload","uncletopia"],"game_id":440,"stv_port":27036,"stv_name":"Uncletopia | Los Angeles | 3 | All Maps | STV","players":[{"user_id":120,"name":"El Gato Paranoico","steam_id":76561198116567116,"connected_time":723000000000,"state":"active","ping":91},{"user_id":104,"name":"FriskyDemon","steam_id":76561198043684646,"connected_time":2169000000000,"state":"active","ping":70},{"user_id":137,"name":"Uluyo","steam_id":76561198065857148,"connected_time":1000000000,"state":"spawning","ping":38},{"user_id":123,"name":"i am clinically insane","steam_id":76561199013323529,"connected_time":683000000000,"state":"active","ping":60},{"user_id":117,"name":"ChibiFerrari","steam_id":76561198825330201,"connected_time":1210000000000,"state":"active","ping":69},{"user_id":132,"name":"CheesyPoofs","steam_id":76561197998650617,"connected_time":325000000000,"state":"active","ping":90},{"user_id":111,"name":"Dennis Tight Pants (Hypertight)","steam_id":76561198023306720,"connected_time":1947000000000,"state":"active","ping":75},{"user_id":124,"name":"reverie","steam_id":76561198168158637,"connected_time":680000000000,"state":"active","ping":75},{"user_id":134,"name":"huh","steam_id":76561198272057200,"connected_time":313000000000,"state":"active","ping":57},{"user_id":94,"name":"ArVos_Crusader","steam_id":76561198224514564,"connected_time":3330000000000,"state":"active","ping":54},{"user_id":133,"name":"Ghoster","steam_id":76561198329367716,"connected_time":324000000000,"state":"active","ping":58},{"user_id":119,"name":"LX-24","steam_id":76561198016168993,"connected_time":769000000000,"state":"active","ping":79},{"user_id":90,"name":"Owl_eyes","steam_id":76561198066199203,"connected_time":3424000000000,"state":"active","ping":54},{"user_id":116,"name":"Moth","steam_id":76561198170253694,"connected_time":1574000000000,"state":"active","ping":95},{"user_id":48,"name":"Kevin McCarthy","steam_id":76561198843868609,"connected_time":6347000000000,"state":"active","ping":44},{"user_id":49,"name":"Hafez al-Assad","steam_id":76561198340989889,"connected_time":6342000000000,"state":"active","ping":44},{"user_id":135,"name":"Bread Dad","steam_id":76561198088284226,"connected_time":296000000000,"state":"active","ping":60}]},{"server_id":25,"name":"Uncletopia | Los Angeles | 4 | Stopwatch Beta","name_short":"lax-4","host":"lax-1.us.uncletopia.com","port":27045,"enabled":true,"region":"us-west","cc":"us","latitude":33.94279,"longitude":-118.41004,"reserved":0,"last_update":"0001-01-01T00:00:00Z","name_a2s":"Uncletopia | Los Angeles | 4 | Stopwatch Beta","protocol":17,"map":"workshop/koth_ashville_final.ugc2130459942","folder":"tf","game":"Team Fortress","app_id":440,"player_count":0,"max_players":24,"Bots":0,"server_type":"Dedicated","server_os":"Linux","password":true,"vac":true,"version":"7757534","steam_id":85568392924510199,"keywords":["cp","nocrits","nodmgspread","uncletopia"],"game_id":440,"stv_port":27046,"stv_name":"Uncletopia | Los Angeles | 4 | Stopwatch Beta | STV","players":null},{"server_id":11,"name":"Uncletopia | London | 1 | All Maps","name_short":"lon-1","host":"lon-1.uk.uncletopia.com","port":27015,"enabled":true,"region":"eu","cc":"gb","latitude":51.509865,"longitude":-0.118092,"reserved":0,"last_update":"0001-01-01T00:00:00Z","name_a2s":"Uncletopia | London | 1 | All Maps","protocol":17,"map":"koth_lakeside_final","folder":"tf","game":"Team Fortress","app_id":440,"player_count":0,"max_players":24,"Bots":0,"server_type":"Dedicated","server_os":"Linux","password":true,"vac":true,"version":"7757534","steam_id":85568392924367362,"keywords":["cp","nocrits","nodmgspread","uncletopia"],"game_id":440,"stv_port":27016,"stv_name":"Uncletopia | London | 1 | All Maps | STV","players":null},{"server_id":114,"name":"Uncletopia | London | 2 | All Maps","name_short":"lon-2","host":"lon-1.uk.uncletopia.com","port":27025,"enabled":true,"region":"eu","cc":"gb","latitude":51.509865,"longitude":-0.118092,"reserved":0,"last_update":"0001-01-01T00:00:00Z","name_a2s":"Uncletopia | London | 2 | All Maps","protocol":17,"map":"koth_viaduct","folder":"tf","game":"Team Fortress","app_id":440,"player_count":2,"max_players":24,"Bots":0,"server_type":"Dedicated","server_os":"Linux","password":true,"vac":true,"version":"7757534","steam_id":85568392924470941,"keywords":["cp","nocrits","nodmgspread","uncletopia"],"game_id":440,"stv_port":27026,"stv_name":"Uncletopia | London | 2 | All Maps | STV","players":[{"user_id":932,"name":"ame","steam_id":76561198166274881,"connected_time":84000000000,"state":"active","ping":55},{"user_id":933,"name":"ThighPicDealer","steam_id":76561199261767155,"connected_time":4000000000,"state":"spawning","ping":86}]},{"server_id":320,"name":"Uncletopia | London | 3 | All Maps","name_short":"lon-3","host":"lon-1.uk.uncletopia.com","port":27035,"enabled":true,"region":"eu","cc":"gb","latitude":51.509865,"longitude":-0.118092,"reserved":0,"last_update":"0001-01-01T00:00:00Z","name_a2s":"Uncletopia | London | 3 | All Maps","protocol":17,"map":"koth_cascade","folder":"tf","game":"Team Fortress","app_id":440,"player_count":0,"max_players":24,"Bots":0,"server_type":"Dedicated","server_os":"Linux","password":true,"vac":true,"version":"7757534","steam_id":85568392924510192,"keywords":["cp","nocrits","nodmgspread","uncletopia"],"game_id":440,"stv_port":27036,"stv_name":"Uncletopia | London | 3 | All Maps | STV","players":null},{"server_id":321,"name":"Uncletopia | London | 4 | All Maps","name_short":"lon-4","host":"lon-1.uk.uncletopia.com","port":27045,"enabled":true,"region":"eu","cc":"gb","latitude":51.509865,"longitude":-0.118092,"reserved":0,"last_update":"0001-01-01T00:00:00Z","name_a2s":"Uncletopia | London | 4 | All Maps","protocol":17,"map":"cp_process_final","folder":"tf","game":"Team Fortress","app_id":440,"player_count":0,"max_players":24,"Bots":0,"server_type":"Dedicated","server_os":"Linux","password":true,"vac":true,"version":"7757534","steam_id":85568392924510193,"keywords":["cp","nocrits","nodmgspread","uncletopia"],"game_id":440,"stv_port":27046,"stv_name":"Uncletopia | London | 4 | All Maps | STV","players":null},{"server_id":21,"name":"Uncletopia | London | 5 | All Maps","name_short":"lon-5","host":"lon-1.uk.uncletopia.com","port":27055,"enabled":true,"region":"eu","cc":"gb","latitude":51.509865,"longitude":-0.118092,"reserved":0,"last_update":"0001-01-01T00:00:00Z","name_a2s":"Uncletopia | London | 5 | All Maps","protocol":17,"map":"koth_king","folder":"tf","game":"Team Fortress","app_id":440,"player_count":0,"max_players":24,"Bots":0,"server_type":"Dedicated","server_os":"Linux","password":true,"vac":true,"version":"7757534","steam_id":85568392924742829,"keywords":["cp","nocrits","nodmgspread","uncletopia"],"game_id":440,"stv_port":27056,"stv_name":"Uncletopia | London | 5 | All Maps | STV","players":null},{"server_id":22,"name":"Uncletopia | London | 6 | All Maps","name_short":"lon-6","host":"lon-1.uk.uncletopia.com","port":27065,"enabled":true,"region":"eu","cc":"gb","latitude":51.509865,"longitude":-0.118092,"reserved":0,"last_update":"0001-01-01T00:00:00Z","name_a2s":"Uncletopia | London | 6 | All Maps","protocol":17,"map":"pl_barnblitz","folder":"tf","game":"Team Fortress","app_id":440,"player_count":0,"max_players":24,"Bots":0,"server_type":"Dedicated","server_os":"Linux","password":true,"vac":true,"version":"7757534","steam_id":85568392924742830,"keywords":["nocrits","nodmgspread","payload","uncletopia"],"game_id":440,"stv_port":27066,"stv_name":"Uncletopia | London | 6 | All Maps | STV","players":null},{"server_id":40,"name":"Uncletopia | London | 7 | No Payload","name_short":"lon-7","host":"lon-1.uk.uncletopia.com","port":27075,"enabled":true,"region":"eu","cc":"gb","latitude":51.509865,"longitude":-0.118092,"reserved":0,"last_update":"0001-01-01T00:00:00Z","name_a2s":"Uncletopia | London | 7 | No Payload","protocol":17,"map":"koth_badlands","folder":"tf","game":"Team Fortress","app_id":440,"player_count":0,"max_players":24,"Bots":0,"server_type":"Dedicated","server_os":"Linux","password":true,"vac":true,"version":"7757534","steam_id":85568392924964314,"keywords":["cp","nocrits","nodmgspread","uncletopia"],"game_id":440,"stv_port":27076,"stv_name":"Uncletopia | London | 7 | No Payload | STV","players":null},{"server_id":41,"name":"Uncletopia | London | 8 | Community","name_short":"lon-8","host":"lon-1.uk.uncletopia.com","port":27085,"enabled":true,"region":"eu","cc":"gb","latitude":51.509865,"longitude":-0.118092,"reserved":0,"last_update":"0001-01-01T00:00:00Z","name_a2s":"Uncletopia | London | 8 | Community","protocol":17,"map":"workshop/cp_hazyfort_rc6.ugc1365963729","folder":"tf","game":"Team Fortress","app_id":440,"player_count":0,"max_players":24,"Bots":0,"server_type":"Dedicated","server_os":"Linux","password":true,"vac":true,"version":"7757534","steam_id":85568392924964315,"keywords":["cp","nocrits","nodmgspread","uncletopia"],"game_id":440,"stv_port":27086,"stv_name":"Uncletopia | London | 8 | Community | STV","players":null},{"server_id":300,"name":"Uncletopia | Montréal | 1 | All Maps","name_short":"mtl-1","host":"mtl-1.ca.uncletopia.com","port":27015,"enabled":true,"region":"us-east","cc":"ca","latitude":45.50889,"longitude":-73.56167,"reserved":0,"last_update":"0001-01-01T00:00:00Z","name_a2s":"Uncletopia | Montréal | 1 | All Maps","protocol":17,"map":"pl_barnblitz","folder":"tf","game":"Team Fortress","app_id":440,"player_count":13,"max_players":24,"Bots":0,"server_type":"Dedicated","server_os":"Linux","password":true,"vac":true,"version":"7757534","steam_id":85568392924500087,"keywords":["nocrits","nodmgspread","payload","uncletopia"],"game_id":440,"stv_port":27016,"stv_name":"Uncletopia | Montréal | 1 | All Maps | STV","players":[{"user_id":270,"name":"《ЄṂ》 SPAZAR3LLA","steam_id":76561198078414229,"connected_time":304000000000,"state":"active","ping":57},{"user_id":256,"name":"pou123321","steam_id":76561198069211237,"connected_time":1108000000000,"state":"active","ping":58},{"user_id":209,"name":"It's a me Malario","steam_id":76561198176546013,"connected_time":4850000000000,"state":"active","ping":130},{"user_id":252,"name":"xd Clover","steam_id":76561198038905361,"connected_time":1409000000000,"state":"active","ping":59},{"user_id":257,"name":"Otis from Back at the Barnyard","steam_id":76561198051059704,"connected_time":1005000000000,"state":"active","ping":70},{"user_id":255,"name":"layabout","steam_id":76561198130892117,"connected_time":1269000000000,"state":"active","ping":59},{"user_id":258,"name":"Gutter Grime","steam_id":76561198100619417,"connected_time":984000000000,"state":"active","ping":84},{"user_id":261,"name":"Thequirka","steam_id":76561198968058652,"connected_time":627000000000,"state":"active","ping":118},{"user_id":262,"name":"Serene Salamander","steam_id":76561198001094770,"connected_time":586000000000,"state":"active","ping":131},{"user_id":263,"name":"stephenpence1","steam_id":76561198333483433,"connected_time":568000000000,"state":"active","ping":99},{"user_id":264,"name":"Quillz","steam_id":76561197996567754,"connected_time":543000000000,"state":"active","ping":59},{"user_id":266,"name":"Six","steam_id":76561198052472822,"connected_time":485000000000,"state":"active","ping":63},{"user_id":268,"name":"Eggregis-Thumbs","steam_id":76561198310566277,"connected_time":415000000000,"state":"active","ping":79}]},{"server_id":301,"name":"Uncletopia | Montréal | 2 | All Maps","name_short":"mtl-2","host":"mtl-1.ca.uncletopia.com","port":27025,"enabled":true,"region":"us-east","cc":"ca","latitude":45.50889,"longitude":-73.56167,"reserved":0,"last_update":"0001-01-01T00:00:00Z","name_a2s":"Uncletopia | Montréal | 2 | All Maps","protocol":17,"map":"koth_viaduct","folder":"tf","game":"Team Fortress","app_id":440,"player_count":0,"max_players":24,"Bots":0,"server_type":"Dedicated","server_os":"Linux","password":true,"vac":true,"version":"7757534","steam_id":85568392924500088,"keywords":["cp","nocrits","nodmgspread","uncletopia"],"game_id":440,"stv_port":27026,"stv_name":"Uncletopia | Montréal | 2 | All Maps | STV","players":null},{"server_id":302,"name":"Uncletopia | Montréal | 3 | All Maps","name_short":"mtl-3","host":"mtl-1.ca.uncletopia.com","port":27035,"enabled":true,"region":"us-east","cc":"ca","latitude":45.50889,"longitude":-73.56167,"reserved":0,"last_update":"0001-01-01T00:00:00Z","name_a2s":"Uncletopia | Montréal | 3 | All Maps","protocol":17,"map":"pl_frontier_final","folder":"tf","game":"Team Fortress","app_id":440,"player_count":0,"max_players":24,"Bots":0,"server_type":"Dedicated","server_os":"Linux","password":true,"vac":true,"version":"7757534","steam_id":85568392924500089,"keywords":["nocrits","nodmgspread","payload","uncletopia"],"game_id":440,"stv_port":27036,"stv_name":"Uncletopia | Montréal | 3 | All Maps | STV","players":null},{"server_id":303,"name":"Uncletopia | Montréal | 4 | No Payload","name_short":"mtl-4","host":"mtl-1.ca.uncletopia.com","port":27045,"enabled":true,"region":"us-east","cc":"ca","latitude":45.50889,"longitude":-73.56167,"reserved":0,"last_update":"0001-01-01T00:00:00Z","name_a2s":"Uncletopia | Montréal | 4 | No Payload","protocol":17,"map":"pl_borneo","folder":"tf","game":"Team Fortress","app_id":440,"player_count":0,"max_players":24,"Bots":0,"server_type":"Dedicated","server_os":"Linux","password":true,"vac":true,"version":"7757534","steam_id":85568392924500090,"keywords":["nocrits","nodmgspread","payload","uncletopia"],"game_id":440,"stv_port":27046,"stv_name":"Uncletopia | Montréal | 4 | No Payload | STV","players":null},{"server_id":13,"name":"Uncletopia | New York City | 1 | All Maps","name_short":"nyc-1","host":"nyc-1.us.uncletopia.com","port":27015,"enabled":true,"region":"us-east","cc":"us","latitude":40.73061,"longitude":-73.93524,"reserved":0,"last_update":"0001-01-01T00:00:00Z","name_a2s":"Uncletopia | New York City | 1 | All Maps","protocol":17,"map":"pl_badwater","folder":"tf","game":"Team Fortress","app_id":440,"player_count":24,"max_players":24,"Bots":0,"server_type":"Dedicated","server_os":"Linux","password":true,"vac":true,"version":"7757534","steam_id":85568392924469993,"keywords":["nocrits","nodmgspread","payload","uncletopia"],"game_id":440,"stv_port":27016,"stv_name":"Uncletopia | New York City | 1 | All Maps | STV","players":[{"user_id":504,"name":"ʕ•ᴥ•ʔ the bear","steam_id":76561197989591976,"connected_time":897000000000,"state":"active","ping":61},{"user_id":503,"name":"fice","steam_id":76561198860361610,"connected_time":930000000000,"state":"active","ping":54},{"user_id":509,"name":"Ghor7","steam_id":76561198025552658,"connected_time":830000000000,"state":"active","ping":85},{"user_id":516,"name":"monke","steam_id":76561198035138859,"connected_time":342000000000,"state":"active","ping":57},{"user_id":498,"name":"dookie 4hunnid","steam_id":76561198097034115,"connected_time":2041000000000,"state":"active","ping":57},{"user_id":518,"name":"CoryBaxterWH","steam_id":76561198060041823,"connected_time":69000000000,"state":"spawning","ping":45},{"user_id":426,"name":"bladee","steam_id":76561198209795841,"connected_time":8213000000000,"state":"active","ping":64},{"user_id":515,"name":"Tito","steam_id":76561198041702529,"connected_time":362000000000,"state":"active","ping":69},{"user_id":495,"name":"Araaksa","steam_id":76561198931153864,"connected_time":2855000000000,"state":"active","ping":74},{"user_id":512,"name":"[T]aKer","steam_id":76561198001778013,"connected_time":727000000000,"state":"active","ping":120},{"user_id":511,"name":"Featherless Biped","steam_id":76561198034171721,"connected_time":750000000000,"state":"active","ping":118},{"user_id":507,"name":"AzuriousAlex","steam_id":76561198158026405,"connected_time":862000000000,"state":"active","ping":100},{"user_id":517,"name":"Pineapple Okanつ ◕_◕ ༽\ufffd\ufffd","steam_id":76561198069199449,"connected_time":127000000000,"state":"active","ping":179},{"user_id":490,"name":"Architect","steam_id":76561198015242016,"connected_time":3108000000000,"state":"active","ping":58},{"user_id":519,"name":"BlixyDragon","steam_id":76561198295422834,"connected_time":47000000000,"state":"active","ping":104},{"user_id":513,"name":"Trusty","steam_id":76561198035444237,"connected_time":723000000000,"state":"active","ping":60},{"user_id":470,"name":"NovaSc6ut","steam_id":76561198277163301,"connected_time":4497000000000,"state":"active","ping":87},{"user_id":483,"name":"Kero","steam_id":76561198343231436,"connected_time":3542000000000,"state":"active","ping":69},{"user_id":520,"name":"Rakk","steam_id":76561198855176174,"connected_time":44000000000,"state":"active","ping":121},{"user_id":508,"name":"Gay Cake","steam_id":76561198004388831,"connected_time":859000000000,"state":"active","ping":83},{"user_id":425,"name":"Glad","steam_id":76561199388372220,"connected_time":8219000000000,"state":"active","ping":57},{"user_id":510,"name":"ROGUE-PLANET","steam_id":76561198116023052,"connected_time":811000000000,"state":"active","ping":95},{"user_id":492,"name":"HE’S IN THE GODDAMN WALLS","steam_id":76561198363267009,"connected_time":3087000000000,"state":"active","ping":86},{"user_id":428,"name":"SpinetinglingToast","steam_id":76561198099470670,"connected_time":8191000000000,"state":"active","ping":58}]},{"server_id":14,"name":"Uncletopia | New York City | 2 | All Maps","name_short":"nyc-2","host":"nyc-1.us.uncletopia.com","port":27025,"enabled":true,"region":"us-east","cc":"us","latitude":40.73061,"longitude":-73.93524,"reserved":0,"last_update":"0001-01-01T00:00:00Z","name_a2s":"Uncletopia | New York City | 2 | All Maps","protocol":17,"map":"koth_cascade","folder":"tf","game":"Team Fortress","app_id":440,"player_count":0,"max_players":24,"Bots":0,"server_type":"Dedicated","server_os":"Linux","password":true,"vac":true,"version":"7757534","steam_id":85568392924469994,"keywords":["cp","nocrits","nodmgspread","uncletopia"],"game_id":440,"stv_port":27026,"stv_name":"Uncletopia | New York City | 2 | All Maps | STV","players":null},{"server_id":15,"name":"Uncletopia | New York City | 3 | Stopwatch Beta","name_short":"nyc-3","host":"nyc-1.us.uncletopia.com","port":27035,"enabled":true,"region":"us-east","cc":"us","latitude":40.73061,"longitude":-73.93524,"reserved":0,"last_update":"0001-01-01T00:00:00Z","name_a2s":"Uncletopia | New York City | 3 | Stopwatch Beta","protocol":17,"map":"pl_swiftwater_final1","folder":"tf","game":"Team Fortress","app_id":440,"player_count":0,"max_players":24,"Bots":0,"server_type":"Dedicated","server_os":"Linux","password":true,"vac":true,"version":"7757534","steam_id":85568392924742820,"keywords":["nocrits","nodmgspread","payload","uncletopia"],"game_id":440,"stv_port":27036,"stv_name":"Uncletopia | New York City | 3 | Stopwatch Beta | STV","players":null},{"server_id":16,"name":"Uncletopia | New York City | 4 | Community","name_short":"nyc-4","host":"nyc-1.us.uncletopia.com","port":27045,"enabled":true,"region":"us-east","cc":"us","latitude":40.73061,"longitude":-73.93524,"reserved":0,"last_update":"0001-01-01T00:00:00Z","name_a2s":"Uncletopia | New York City | 4 | Community","protocol":17,"map":"workshop/pl_cashworks_final1.ugc2904065412","folder":"tf","game":"Team Fortress","app_id":440,"player_count":0,"max_players":24,"Bots":0,"server_type":"Dedicated","server_os":"Linux","password":true,"vac":true,"version":"7757534","steam_id":85568392924742821,"keywords":["nocrits","nodmgspread","payload","uncletopia"],"game_id":440,"stv_port":27046,"stv_name":"Uncletopia | New York City | 4 | Community | STV","players":null},{"server_id":142,"name":"Uncletopia | São Paulo | 1 | All Maps","name_short":"sao-1","host":"sao-1.br.uncletopia.com","port":27015,"enabled":true,"region":"sa","cc":"br","latitude":-23.533773,"longitude":-46.62529,"reserved":0,"last_update":"0001-01-01T00:00:00Z","name_a2s":"Uncletopia | São Paulo | 1 | All Maps","protocol":17,"map":"pl_barnblitz","folder":"tf","game":"Team Fortress","app_id":440,"player_count":0,"max_players":24,"Bots":0,"server_type":"Dedicated","server_os":"Linux","password":true,"vac":true,"version":"7757534","steam_id":85568392924469996,"keywords":["nocrits","nodmgspread","payload","uncletopia"],"game_id":440,"stv_port":27016,"stv_name":"Uncletopia | São Paulo | 1 | All Maps | STV","players":null},{"server_id":143,"name":"Uncletopia | São Paulo | 2 | All Maps","name_short":"sao-2","host":"sao-2.br.uncletopia.com","port":27015,"enabled":true,"region":"sa","cc":"br","latitude":-23.533773,"longitude":-46.62529,"reserved":0,"last_update":"0001-01-01T00:00:00Z","name_a2s":"Uncletopia | São Paulo | 2 | All Maps","protocol":17,"map":"koth_viaduct","folder":"tf","game":"Team Fortress","app_id":440,"player_count":0,"max_players":24,"Bots":0,"server_type":"Dedicated","server_os":"Linux","password":true,"vac":true,"version":"7757534","steam_id":85568392924485349,"keywords":["cp","nocrits","nodmgspread","uncletopia"],"game_id":440,"stv_port":27016,"stv_name":"Uncletopia | São Paulo | 2 | All Maps | STV","players":null},{"server_id":7,"name":"Uncletopia | Seattle | 1 | All Maps","name_short":"sea-1","host":"sea-1.us.uncletopia.com","port":27015,"enabled":true,"region":"us-west","cc":"us","latitude":47.608013,"longitude":-122.33517,"reserved":0,"last_update":"0001-01-01T00:00:00Z","name_a2s":"Uncletopia | Seattle | 1 | All Maps","protocol":17,"map":"pl_snowycoast","folder":"tf","game":"Team Fortress","app_id":440,"player_count":24,"max_players":24,"Bots":0,"server_type":"Dedicated","server_os":"Linux","password":true,"vac":true,"version":"7757534","steam_id":85568392924469997,"keywords":["nocrits","nodmgspread","payload","uncletopia"],"game_id":440,"stv_port":27016,"stv_name":"Uncletopia | Seattle | 1 | All Maps | STV","players":[{"user_id":328,"name":"Markz","steam_id":76561197996278159,"connected_time":1146000000000,"state":"active","ping":96},{"user_id":333,"name":"Rick ☆","steam_id":76561198329744369,"connected_time":546000000000,"state":"active","ping":75},{"user_id":332,"name":"Arsonist Goose","steam_id":76561198147441830,"connected_time":593000000000,"state":"active","ping":73},{"user_id":292,"name":"Level 99 Mudcrab","steam_id":76561198077452771,"connected_time":3872000000000,"state":"active","ping":60},{"user_id":336,"name":"exephur","steam_id":76561198135763234,"connected_time":421000000000,"state":"active","ping":68},{"user_id":337,"name":"lavender","steam_id":76561199069518286,"connected_time":367000000000,"state":"active","ping":75},{"user_id":257,"name":"HaphazardHazel","steam_id":76561198316812693,"connected_time":6628000000000,"state":"active","ping":136},{"user_id":294,"name":"ShredMaan","steam_id":76561198429982138,"connected_time":3522000000000,"state":"active","ping":87},{"user_id":304,"name":"Cpt. Dingle","steam_id":76561198025720199,"connected_time":2407000000000,"state":"active","ping":75},{"user_id":335,"name":"Euphoria","steam_id":76561198187168787,"connected_time":446000000000,"state":"active","ping":71},{"user_id":316,"name":"TheSpyAssassin","steam_id":76561198098007833,"connected_time":1442000000000,"state":"active","ping":94},{"user_id":320,"name":"bird","steam_id":76561199144340440,"connected_time":1334000000000,"state":"active","ping":65},{"user_id":318,"name":"LazerCannon","steam_id":76561198256696159,"connected_time":1440000000000,"state":"active","ping":87},{"user_id":300,"name":"Elbis Premsly","steam_id":76561198067717795,"connected_time":2420000000000,"state":"active","ping":69},{"user_id":322,"name":"Common","steam_id":76561198041083863,"connected_time":1273000000000,"state":"active","ping":54},{"user_id":331,"name":"doozy","steam_id":76561198033106776,"connected_time":923000000000,"state":"active","ping":86},{"user_id":340,"name":"GgDionne","steam_id":76561198079684772,"connected_time":53000000000,"state":"active","ping":65},{"user_id":312,"name":"Clemont007","steam_id":76561198030935625,"connected_time":1693000000000,"state":"active","ping":77},{"user_id":330,"name":"Truffles","steam_id":76561198095868800,"connected_time":989000000000,"state":"active","ping":116},{"user_id":324,"name":"shoe","steam_id":76561198451476220,"connected_time":1244000000000,"state":"active","ping":58},{"user_id":325,"name":"Escher","steam_id":76561198045058061,"connected_time":1233000000000,"state":"active","ping":45},{"user_id":334,"name":"Ayayahuasca","steam_id":76561199002906056,"connected_time":505000000000,"state":"active","ping":47},{"user_id":339,"name":"Tom","steam_id":76561198070630154,"connected_time":352000000000,"state":"active","ping":82},{"user_id":299,"name":"Lonestar827","steam_id":76561198035533639,"connected_time":2444000000000,"state":"active","ping":58}]},{"server_id":119,"name":"Uncletopia | Seattle | 2 | All Maps","name_short":"sea-2","host":"sea-1.us.uncletopia.com","port":27025,"enabled":true,"region":"us-west","cc":"us","latitude":47.608013,"longitude":-122.33517,"reserved":0,"last_update":"0001-01-01T00:00:00Z","name_a2s":"Uncletopia | Seattle | 2 | All Maps","protocol":17,"map":"pl_barnblitz","folder":"tf","game":"Team Fortress","app_id":440,"player_count":24,"max_players":24,"Bots":0,"server_type":"Dedicated","server_os":"Linux","password":true,"vac":true,"version":"7757534","steam_id":85568392924469998,"keywords":["nocrits","nodmgspread","payload","uncletopia"],"game_id":440,"stv_port":27026,"stv_name":"Uncletopia | Seattle | 2 | All Maps | STV","players":[{"user_id":691,"name":"brhm","steam_id":76561198199604767,"connected_time":1922000000000,"state":"active","ping":48},{"user_id":680,"name":"👁 sumixodic","steam_id":76561198090770710,"connected_time":2676000000000,"state":"active","ping":55},{"user_id":518,"name":"pizzaguy4","steam_id":76561198058821622,"connected_time":14848000000000,"state":"active","ping":93},{"user_id":630,"name":"ProtogenJake","steam_id":76561198177771255,"connected_time":7727000000000,"state":"active","ping":62},{"user_id":704,"name":"ATTENTION ALL BAJORAN WORKERS","steam_id":76561198033918106,"connected_time":405000000000,"state":"active","ping":82},{"user_id":675,"name":"Thezest","steam_id":76561198043895839,"connected_time":3197000000000,"state":"active","ping":37},{"user_id":703,"name":"YuuriDaThrilla","steam_id":76561198184814466,"connected_time":429000000000,"state":"active","ping":43},{"user_id":652,"name":"oo","steam_id":76561198119626492,"connected_time":4717000000000,"state":"active","ping":149},{"user_id":699,"name":"fragadelphia","steam_id":76561198066116363,"connected_time":1164000000000,"state":"active","ping":45},{"user_id":706,"name":"JON","steam_id":76561198057971005,"connected_time":213000000000,"state":"active","ping":41},{"user_id":689,"name":"Tom Skirrett","steam_id":76561198014600788,"connected_time":2094000000000,"state":"active","ping":72},{"user_id":687,"name":"shiftshock01","steam_id":76561199049488870,"connected_time":2213000000000,"state":"active","ping":71},{"user_id":696,"name":"R5-D4","steam_id":76561198025196439,"connected_time":1481000000000,"state":"active","ping":52},{"user_id":669,"name":"Mom","steam_id":76561198207936000,"connected_time":3412000000000,"state":"active","ping":62},{"user_id":679,"name":"Santicules","steam_id":76561198209373536,"connected_time":2821000000000,"state":"active","ping":105},{"user_id":682,"name":"BIGWELDFROMROBOTS","steam_id":76561199275349806,"connected_time":2654000000000,"state":"active","ping":105},{"user_id":670,"name":"TROY","steam_id":76561197983852176,"connected_time":3411000000000,"state":"active","ping":85},{"user_id":688,"name":"CrimsonBlue","steam_id":76561198837742649,"connected_time":2134000000000,"state":"active","ping":74},{"user_id":701,"name":"mooney","steam_id":76561199110622484,"connected_time":1163000000000,"state":"active","ping":66},{"user_id":694,"name":"J U K I E","steam_id":76561197962841151,"connected_time":1866000000000,"state":"active","ping":46},{"user_id":647,"name":"Underscore","steam_id":76561198374209415,"connected_time":5752000000000,"state":"active","ping":105},{"user_id":663,"name":"SN0W","steam_id":76561198153665468,"connected_time":4354000000000,"state":"active","ping":95},{"user_id":668,"name":"SomeGuyWhoLikesPotatoes","steam_id":76561198110276797,"connected_time":3420000000000,"state":"active","ping":58},{"user_id":672,"name":"Sivinus","steam_id":76561198025589541,"connected_time":3395000000000,"state":"active","ping":98}]},{"server_id":406,"name":"Uncletopia | Seattle | 3 | Stopwatch Beta","name_short":"sea-3","host":"sea-1.us.uncletopia.com","port":27035,"enabled":true,"region":"us-west","cc":"us","latitude":47.608013,"longitude":-122.33517,"reserved":0,"last_update":"0001-01-01T00:00:00Z","name_a2s":"Uncletopia | Seattle | 3 | Stopwatch Beta","protocol":17,"map":"workshop/pl_vigil_rc9.ugc1266210012","folder":"tf","game":"Team Fortress","app_id":440,"player_count":0,"max_players":24,"Bots":0,"server_type":"Dedicated","server_os":"Linux","password":true,"vac":true,"version":"7757534","steam_id":85568392924515217,"keywords":["nocrits","nodmgspread","payload","uncletopia"],"game_id":440,"stv_port":27036,"stv_name":"Uncletopia | Seattle | 3 | Stopwatch Beta | STV","players":null},{"server_id":17,"name":"Uncletopia | San Francisco | 1 | All Maps","name_short":"sfo-1","host":"sfo-1.us.uncletopia.com","port":27015,"enabled":true,"region":"us-west","cc":"us","latitude":37.77397,"longitude":-122.4313,"reserved":0,"last_update":"0001-01-01T00:00:00Z","name_a2s":"Uncletopia | San Francisco | 1 | All Maps","protocol":17,"map":"cp_dustbowl","folder":"tf","game":"Team Fortress","app_id":440,"player_count":0,"max_players":24,"Bots":0,"server_type":"Dedicated","server_os":"Linux","password":true,"vac":true,"version":"7757534","steam_id":85568392924469999,"keywords":["cp","nocrits","nodmgspread","uncletopia"],"game_id":440,"stv_port":27016,"stv_name":"Uncletopia | San Francisco | 1 | All Maps | STV","players":null},{"server_id":18,"name":"Uncletopia | San Francisco | 2 | All Maps","name_short":"sfo-2","host":"sfo-1.us.uncletopia.com","port":27025,"enabled":true,"region":"us-west","cc":"us","latitude":37.77397,"longitude":-122.4313,"reserved":0,"last_update":"0001-01-01T00:00:00Z","name_a2s":"Uncletopia | San Francisco | 2 | All Maps","protocol":17,"map":"pl_borneo","folder":"tf","game":"Team Fortress","app_id":440,"player_count":23,"max_players":24,"Bots":0,"server_type":"Dedicated","server_os":"Linux","password":true,"vac":true,"version":"7757534","steam_id":85568392924470000,"keywords":["nocrits","nodmgspread","payload","uncletopia"],"game_id":440,"stv_port":27026,"stv_name":"Uncletopia | San Francisco | 2 | All Maps | STV","players":[{"user_id":289,"name":"shadow wizard money gang","steam_id":76561198150406851,"connected_time":2460000000000,"state":"active","ping":56},{"user_id":304,"name":"Sadodere Grimace","steam_id":76561198008332028,"connected_time":55000000000,"state":"active","ping":59},{"user_id":292,"name":"EatSomeBEES","steam_id":76561198047334307,"connected_time":2316000000000,"state":"active","ping":67},{"user_id":267,"name":"Antzen","steam_id":76561198041343470,"connected_time":4318000000000,"state":"active","ping":57},{"user_id":299,"name":"oil","steam_id":76561198099980149,"connected_time":1067000000000,"state":"active","ping":61},{"user_id":288,"name":"HOG RIDER","steam_id":76561198298589502,"connected_time":2652000000000,"state":"active","ping":64},{"user_id":283,"name":"Quon Grene for Vice Prez","steam_id":76561198127545817,"connected_time":2953000000000,"state":"active","ping":56},{"user_id":298,"name":"Swag5","steam_id":76561198065311356,"connected_time":1068000000000,"state":"active","ping":47},{"user_id":265,"name":"Feel the bern","steam_id":76561198078824519,"connected_time":4342000000000,"state":"active","ping":53},{"user_id":180,"name":"tweet","steam_id":76561198166515735,"connected_time":10657000000000,"state":"active","ping":45},{"user_id":306,"name":"Agent Q","steam_id":76561198830829003,"connected_time":16000000000,"state":"spawning","ping":76},{"user_id":291,"name":"yolginmo","steam_id":76561198157985901,"connected_time":2434000000000,"state":"active","ping":71},{"user_id":294,"name":"QueeQuee","steam_id":76561198070804012,"connected_time":2233000000000,"state":"active","ping":90},{"user_id":208,"name":"Dosario","steam_id":76561198298095535,"connected_time":8267000000000,"state":"active","ping":74},{"user_id":303,"name":"DUBMonkey","steam_id":76561198046257506,"connected_time":361000000000,"state":"active","ping":76},{"user_id":297,"name":"Swag6","steam_id":76561198064110837,"connected_time":1287000000000,"state":"active","ping":43},{"user_id":253,"name":"Danzuniverse","steam_id":76561198179817943,"connected_time":4746000000000,"state":"active","ping":65},{"user_id":302,"name":"PonYOOOOOOO","steam_id":76561199067424111,"connected_time":485000000000,"state":"active","ping":55},{"user_id":282,"name":"TheFakeApple","steam_id":76561199090113472,"connected_time":3275000000000,"state":"active","ping":80},{"user_id":280,"name":"SvicidalBug","steam_id":76561198221390504,"connected_time":3336000000000,"state":"active","ping":77},{"user_id":300,"name":"goldhed","steam_id":76561198051751133,"connected_time":772000000000,"state":"active","ping":76},{"user_id":287,"name":"Iskcal75","steam_id":76561199446407203,"connected_time":2824000000000,"state":"active","ping":114},{"user_id":201,"name":"Anthid","steam_id":76561198074493797,"connected_time":8696000000000,"state":"active","ping":60}]},{"server_id":19,"name":"Uncletopia | San Francisco | 3 | Stopwatch Beta","name_short":"sfo-3","host":"sfo-1.us.uncletopia.com","port":27035,"enabled":true,"region":"us-west","cc":"us","latitude":37.77397,"longitude":-122.4313,"reserved":0,"last_update":"0001-01-01T00:00:00Z","name_a2s":"Uncletopia | San Francisco | 3 | Stopwatch Beta","protocol":17,"map":"workshop/koth_ramjam_rc1.ugc459778887","folder":"tf","game":"Team Fortress","app_id":440,"player_count":0,"max_players":24,"Bots":0,"server_type":"Dedicated","server_os":"Linux","password":true,"vac":true,"version":"7757534","steam_id":85568392924742824,"keywords":["cp","nocrits","nodmgspread","uncletopia"],"game_id":440,"stv_port":27036,"stv_name":"Uncletopia | San Francisco | 3 | Stopwatch Beta | STV","players":null},{"server_id":20,"name":"Uncletopia | San Francisco | 4 | Community","name_short":"sfo-4","host":"sfo-1.us.uncletopia.com","port":27045,"enabled":true,"region":"us-west","cc":"us","latitude":37.77397,"longitude":-122.4313,"reserved":0,"last_update":"0001-01-01T00:00:00Z","name_a2s":"Uncletopia | San Francisco | 4 | Community","protocol":17,"map":"workshop/pl_corrode_rc2.ugc546577989","folder":"tf","game":"Team Fortress","app_id":440,"player_count":0,"max_players":24,"Bots":0,"server_type":"Dedicated","server_os":"Linux","password":true,"vac":true,"version":"7757534","steam_id":85568392924742826,"keywords":["nocrits","nodmgspread","payload","uncletopia"],"game_id":440,"stv_port":27046,"stv_name":"Uncletopia | San Francisco | 4 | Community | STV","players":null},{"server_id":141,"name":"Uncletopia | Sydney | 1 | All Maps","name_short":"syd-1","host":"syd-1.au.uncletopia.com","port":27015,"enabled":true,"region":"au","cc":"au","latitude":-33.865143,"longitude":151.2099,"reserved":0,"last_update":"0001-01-01T00:00:00Z","name_a2s":"Uncletopia | Sydney | 1 | All Maps","protocol":17,"map":"koth_highpass","folder":"tf","game":"Team Fortress","app_id":440,"player_count":0,"max_players":24,"Bots":0,"server_type":"Dedicated","server_os":"Linux","password":true,"vac":true,"version":"7757534","steam_id":85568392924470001,"keywords":["cp","nocrits","nodmgspread","uncletopia"],"game_id":440,"stv_port":27016,"stv_name":"Uncletopia | Sydney | 1 | All Maps | STV","players":null},{"server_id":123,"name":"Uncletopia | Sydney | 2 | All Maps","name_short":"syd-2","host":"syd-1.au.uncletopia.com","port":27025,"enabled":true,"region":"au","cc":"au","latitude":-33.865143,"longitude":151.2099,"reserved":0,"last_update":"0001-01-01T00:00:00Z","name_a2s":"Uncletopia | Sydney | 2 | All Maps","protocol":17,"map":"pl_borneo","folder":"tf","game":"Team Fortress","app_id":440,"player_count":18,"max_players":24,"Bots":0,"server_type":"Dedicated","server_os":"Linux","password":true,"vac":true,"version":"7757534","steam_id":85568392924470002,"keywords":["nocrits","nodmgspread","payload","uncletopia"],"game_id":440,"stv_port":27026,"stv_name":"Uncletopia | Sydney | 2 | All Maps | STV","players":[{"user_id":63,"name":"FatScout","steam_id":76561198013870201,"connected_time":1067000000000,"state":"active","ping":54},{"user_id":64,"name":"monnickev","steam_id":76561198252587162,"connected_time":780000000000,"state":"active","ping":45},{"user_id":65,"name":"Stumble St.","steam_id":76561198038548013,"connected_time":760000000000,"state":"active","ping":37},{"user_id":43,"name":"Catto","steam_id":76561197999111589,"connected_time":1941000000000,"state":"active","ping":32},{"user_id":44,"name":"Bowl","steam_id":76561198345777684,"connected_time":1819000000000,"state":"active","ping":75},{"user_id":79,"name":"mathgeniuswhocares","steam_id":76561198293036993,"connected_time":16000000000,"state":"active","ping":47},{"user_id":46,"name":"Consolidated Fart","steam_id":76561198924101909,"connected_time":1790000000000,"state":"active","ping":64},{"user_id":71,"name":"doctor morbin' (real)","steam_id":76561199365241695,"connected_time":668000000000,"state":"active","ping":121},{"user_id":50,"name":"Demoman TF2","steam_id":76561199385951535,"connected_time":1590000000000,"state":"active","ping":64},{"user_id":61,"name":"syl","steam_id":76561198049270541,"connected_time":1155000000000,"state":"active","ping":30},{"user_id":52,"name":"Drakeo","steam_id":76561198268859184,"connected_time":1530000000000,"state":"active","ping":96},{"user_id":55,"name":"Splooge Fellow","steam_id":76561198067993108,"connected_time":1452000000000,"state":"active","ping":43},{"user_id":68,"name":"thrax","steam_id":76561197992385270,"connected_time":724000000000,"state":"active","ping":52},{"user_id":69,"name":"LordCheese","steam_id":76561198294202833,"connected_time":722000000000,"state":"active","ping":57},{"user_id":70,"name":"Questionable","steam_id":76561198216359177,"connected_time":693000000000,"state":"active","ping":48},{"user_id":72,"name":"Exornan","steam_id":76561198160180985,"connected_time":627000000000,"state":"active","ping":54},{"user_id":77,"name":"le0","steam_id":76561197965566926,"connected_time":377000000000,"state":"active","ping":35},{"user_id":76,"name":"LightningBlock","steam_id":76561198289997742,"connected_time":427000000000,"state":"active","ping":42}]},{"server_id":395,"name":"Uncletopia | Sydney | 3 | All Maps","name_short":"syd-3","host":"syd-1.au.uncletopia.com","port":27035,"enabled":true,"region":"au","cc":"au","latitude":-33.865143,"longitude":151.2099,"reserved":0,"last_update":"0001-01-01T00:00:00Z","name_a2s":"Uncletopia | Sydney | 3 | All Maps","protocol":17,"map":"pl_frontier_final","folder":"tf","game":"Team Fortress","app_id":440,"player_count":0,"max_players":24,"Bots":0,"server_type":"Dedicated","server_os":"Linux","password":true,"vac":true,"version":"7757534","steam_id":85568392925194467,"keywords":["nocrits","nodmgspread","payload","uncletopia"],"game_id":440,"stv_port":27036,"stv_name":"Uncletopia | Sydney | 3 | All Maps | STV","players":null},{"server_id":396,"name":"Uncletopia | Sydney | 4 | All Maps","name_short":"syd-4","host":"syd-1.au.uncletopia.com","port":27045,"enabled":true,"region":"au","cc":"au","latitude":-33.865143,"longitude":151.2099,"reserved":0,"last_update":"0001-01-01T00:00:00Z","name_a2s":"Uncletopia | Sydney | 4 | All Maps","protocol":17,"map":"koth_lakeside_final","folder":"tf","game":"Team Fortress","app_id":440,"player_count":0,"max_players":24,"Bots":0,"server_type":"Dedicated","server_os":"Linux","password":true,"vac":true,"version":"7757534","steam_id":85568392925397958,"keywords":["cp","nocrits","nodmgspread","uncletopia"],"game_id":440,"stv_port":27046,"stv_name":"Uncletopia | Sydney | 4 | All Maps | STV","players":null},{"server_id":58,"name":"Uncletopia | Sydney | 5 | Stopwatch Beta","name_short":"syd-5","host":"syd-1.au.uncletopia.com","port":27055,"enabled":true,"region":"au","cc":"au","latitude":-33.865143,"longitude":151.2099,"reserved":0,"last_update":"0001-01-01T00:00:00Z","name_a2s":"Uncletopia | Sydney | 5 | Stopwatch Beta","protocol":17,"map":"workshop/koth_product_final.ugc454272353","folder":"tf","game":"Team Fortress","app_id":440,"player_count":2,"max_players":24,"Bots":0,"server_type":"Dedicated","server_os":"Linux","password":true,"vac":true,"version":"7757534","steam_id":85568392925397959,"keywords":["cp","nocrits","nodmgspread","uncletopia"],"game_id":440,"stv_port":27056,"stv_name":"Uncletopia | Sydney | 5 | Stopwatch Beta | STV","players":[{"user_id":5,"name":"Dark Knight","steam_id":76561198250889884,"connected_time":464000000000,"state":"active","ping":46},{"user_id":4,"name":"Stinke","steam_id":76561198973797001,"connected_time":475000000000,"state":"active","ping":55}]},{"server_id":59,"name":"Uncletopia | Sydney | 6 | Community","name_short":"syd-6","host":"syd-1.au.uncletopia.com","port":27065,"enabled":true,"region":"au","cc":"au","latitude":-33.865143,"longitude":151.2099,"reserved":0,"last_update":"0001-01-01T00:00:00Z","name_a2s":"Uncletopia | Sydney | 6 | Community","protocol":17,"map":"workshop/cp_sulfur_rc2.ugc619869471","folder":"tf","game":"Team Fortress","app_id":440,"player_count":0,"max_players":24,"Bots":0,"server_type":"Dedicated","server_os":"Linux","password":true,"vac":true,"version":"7757534","steam_id":85568392925397960,"keywords":["cp","nocrits","nodmgspread","uncletopia"],"game_id":440,"stv_port":27066,"stv_name":"Uncletopia | Sydney | 6 | Community | STV","players":null},{"server_id":49,"name":"Uncletopia | Warsaw | 1 | All Maps","name_short":"waw-1","host":"waw-1.pl.uncletopia.com","port":27015,"enabled":true,"region":"eu","cc":"pl","latitude":52.2297,"longitude":21.017532,"reserved":0,"last_update":"0001-01-01T00:00:00Z","name_a2s":"","protocol":0,"map":"","folder":"","game":"","app_id":0,"player_count":0,"max_players":0,"Bots":0,"server_type":"","server_os":"","password":false,"vac":false,"version":"","steam_id":0,"keywords":null,"game_id":0,"stv_port":0,"stv_name":"","players":null},{"server_id":50,"name":"Uncletopia | Warsaw | 2 | All Maps","name_short":"waw-2","host":"waw-1.pl.uncletopia.com","port":27025,"enabled":true,"region":"eu","cc":"pl","latitude":52.2297,"longitude":21.017532,"reserved":0,"last_update":"0001-01-01T00:00:00Z","name_a2s":"Uncletopia | Warsaw | 2 | All Maps","protocol":17,"map":"cp_process_final","folder":"tf","game":"Team Fortress","app_id":440,"player_count":0,"max_players":24,"Bots":0,"server_type":"Dedicated","server_os":"Linux","password":true,"vac":true,"version":"7757534","steam_id":85568392925397851,"keywords":["cp","nocrits","nodmgspread","uncletopia"],"game_id":440,"stv_port":27026,"stv_name":"Uncletopia | Warsaw | 2 | All Maps | STV","players":null},{"server_id":51,"name":"Uncletopia | Warsaw | 3 | All Maps","name_short":"waw-3","host":"waw-1.pl.uncletopia.com","port":27035,"enabled":true,"region":"eu","cc":"pl","latitude":52.2297,"longitude":21.017532,"reserved":0,"last_update":"0001-01-01T00:00:00Z","name_a2s":"Uncletopia | Warsaw | 3 | All Maps","protocol":17,"map":"pl_barnblitz","folder":"tf","game":"Team Fortress","app_id":440,"player_count":0,"max_players":24,"Bots":0,"server_type":"Dedicated","server_os":"Linux","password":true,"vac":true,"version":"7757534","steam_id":85568392925397852,"keywords":["nocrits","nodmgspread","payload","uncletopia"],"game_id":440,"stv_port":27036,"stv_name":"Uncletopia | Warsaw | 3 | All Maps | STV","players":null},{"server_id":52,"name":"Uncletopia | Warsaw | 4 | All Maps","name_short":"waw-4","host":"waw-1.pl.uncletopia.com","port":27045,"enabled":true,"region":"eu","cc":"pl","latitude":52.2297,"longitude":21.017532,"reserved":0,"last_update":"0001-01-01T00:00:00Z","name_a2s":"Uncletopia | Warsaw | 4 | All Maps","protocol":17,"map":"pl_snowycoast","folder":"tf","game":"Team Fortress","app_id":440,"player_count":0,"max_players":24,"Bots":0,"server_type":"Dedicated","server_os":"Linux","password":true,"vac":true,"version":"7757534","steam_id":85568392925397853,"keywords":["nocrits","nodmgspread","payload","uncletopia"],"game_id":440,"stv_port":27046,"stv_name":"Uncletopia | Warsaw | 4 | All Maps | STV","players":null},{"server_id":53,"name":"Uncletopia | Warsaw | 5 | Stopwatch Beta","name_short":"waw-5","host":"waw-1.pl.uncletopia.com","port":27055,"enabled":true,"region":"eu","cc":"pl","latitude":52.2297,"longitude":21.017532,"reserved":0,"last_update":"0001-01-01T00:00:00Z","name_a2s":"Uncletopia | Warsaw | 5 | Stopwatch Beta","protocol":17,"map":"pl_barnblitz","folder":"tf","game":"Team Fortress","app_id":440,"player_count":0,"max_players":24,"Bots":0,"server_type":"Dedicated","server_os":"Linux","password":true,"vac":true,"version":"7757534","steam_id":85568392925397854,"keywords":["nocrits","nodmgspread","payload","uncletopia"],"game_id":440,"stv_port":27056,"stv_name":"Uncletopia | Warsaw | 5 | Stopwatch Beta | STV","players":null},{"server_id":54,"name":"Uncletopia | Warsaw | 6 | Community","name_short":"waw-6","host":"waw-1.pl.uncletopia.com","port":27065,"enabled":true,"region":"eu","cc":"pl","latitude":52.2297,"longitude":21.017532,"reserved":0,"last_update":"0001-01-01T00:00:00Z","name_a2s":"Uncletopia | Warsaw | 6 | Community","protocol":17,"map":"pl_swiftwater_final1","folder":"tf","game":"Team Fortress","app_id":440,"player_count":0,"max_players":24,"Bots":0,"server_type":"Dedicated","server_os":"Linux","password":true,"vac":true,"version":"7757534","steam_id":85568392925397856,"keywords":["nocrits","nodmgspread","payload","uncletopia"],"game_id":440,"stv_port":27066,"stv_name":"Uncletopia | Warsaw | 6 | Community | STV","players":null}]}