{"status":true,"message":"","result":[{"server_id":9,"name":"Uncletopia | Atlanta | 1 | All Maps","name_short":"atl-1","host":"atl-1.us.uncletopia.com","port":27015,"enabled":true,"region":"us-east","cc":"us","latitude":33.753746,"longitude":-84.38633,"reserved":0,"last_update":"0001-01-01T00:00:00Z","name_a2s":"Uncletopia | Atlanta | 1 | All Maps","protocol":17,"map":"cp_gorge","folder":"tf","game":"Team Fortress","app_id":440,"player_count":24,"max_players":24,"Bots":0,"server_type":"Dedicated","server_os":"Linux","password":true,"vac":true,"version":"7961495","steam_id":85568392924469982,"keywords":["cp","nocrits","nodmgspread","uncletopia"],"game_id":440,"stv_port":27016,"stv_name":"Uncletopia | Atlanta | 1 | All Maps | STV","players":[{"user_id":213,"name":"Chaotic Rushu","steam_id":76561198170054407,"connected_time":1014000000000,"state":"active","ping":69},{"user_id":201,"name":"Icaras","steam_id":76561198416724843,"connected_time":2065000000000,"state":"active","ping":130},{"user_id":224,"name":"wormburnerturner","steam_id":76561198143607463,"connected_time":356000000000,"state":"active","ping":92},{"user_id":190,"name":"Ok-Par","steam_id":76561199221067945,"connected_time":2835000000000,"state":"active","ping":79},{"user_id":233,"name":"Creep (Weirdo)","steam_id":76561199054203198,"connected_time":125000000000,"state":"active","ping":52},{"user_id":193,"name":"Dractyl","steam_id":76561198034661004,"connected_time":2535000000000,"state":"active","ping":160},{"user_id":230,"name":"1-800-GAYDOG","steam_id":76561198085815757,"connected_time":286000000000,"state":"active","ping":75},{"user_id":180,"name":"Heathcliff","steam_id":76561198044288534,"connected_time":3265000000000,"state":"active","ping":77},{"user_id":184,"name":"Le4n!!!","steam_id":76561198045522596,"connected_time":3052000000000,"state":"active","ping":70},{"user_id":212,"name":"psychicweaver","steam_id":76561198089255752,"connected_time":1075000000000,"state":"active","ping":58},{"user_id":219,"name":"Lil B (Tha Based/God)","steam_id":76561198133195238,"connected_time":860000000000,"state":"active","ping":109},{"user_id":203,"name":"Dreszerg","steam_id":76561198838757422,"connected_time":1854000000000,"state":"active","ping":82},{"user_id":221,"name":"PinkLemonade","steam_id":76561198799286228,"connected_time":376000000000,"state":"active","ping":73},{"user_id":181,"name":"lil hog","steam_id":76561199230929836,"connected_time":3265000000000,"state":"active","ping":84},{"user_id":220,"name":"Frost ♥","steam_id":76561198168870617,"connected_time":526000000000,"state":"active","ping":72},{"user_id":232,"name":"Intro Bonito","steam_id":76561198119478838,"connected_time":182000000000,"state":"active","ping":49},{"user_id":225,"name":"Dracula (Real)","steam_id":76561198196793754,"connected_time":355000000000,"state":"active","ping":67},{"user_id":191,"name":"The Undead Knight","steam_id":76561198010654500,"connected_time":2815000000000,"state":"active","ping":65},{"user_id":222,"name":"ATL1 | cola","steam_id":76561198374390458,"connected_time":374000000000,"state":"active","ping":66},{"user_id":229,"name":"DaNuke","steam_id":76561198067866914,"connected_time":287000000000,"state":"active","ping":60},{"user_id":186,"name":"twitch.tv/kegaman_","steam_id":76561198043632775,"connected_time":2991000000000,"state":"active","ping":111},{"user_id":198,"name":"johnny wang","steam_id":76561198969143876,"connected_time":2276000000000,"state":"active","ping":71},{"user_id":194,"name":"Shame","steam_id":76561198100490994,"connected_time":2502000000000,"state":"active","ping":72},{"user_id":234,"name":"Bush [She/Her]","steam_id":76561198314467072,"connected_time":15000000000,"state":"spawning","ping":78}]},{"server_id":104,"name":"Uncletopia | Atlanta | 2 | All Maps","name_short":"atl-2","host":"atl-1.us.uncletopia.com","port":27025,"enabled":true,"region":"us-east","cc":"us","latitude":33.753746,"longitude":-84.38633,"reserved":0,"last_update":"0001-01-01T00:00:00Z","name_a2s":"Uncletopia | Atlanta | 2 | All Maps","protocol":17,"map":"cp_badlands","folder":"tf","game":"Team Fortress","app_id":440,"player_count":24,"max_players":24,"Bots":0,"server_type":"Dedicated","server_os":"Linux","password":true,"vac":true,"version":"7961495","steam_id":85568392924469983,"keywords":["cp","nocrits","nodmgspread","uncletopia"],"game_id":440,"stv_port":27026,"stv_name":"Uncletopia | Atlanta | 2 | All Maps | STV","players":[{"user_id":416,"name":"feed me bugs","steam_id":76561198299344836,"connected_time":1636000000000,"state":"active","ping":81},{"user_id":436,"name":"COW","steam_id":76561198149003050,"connected_time":776000000000,"state":"active","ping":82},{"user_id":422,"name":"confield","steam_id":76561198004322265,"connected_time":1215000000000,"state":"active","ping":48},{"user_id":424,"name":"LocaKola","steam_id":76561198173435430,"connected_time":1030000000000,"state":"active","ping":92},{"user_id":438,"name":"holl","steam_id":76561199212388215,"connected_time":584000000000,"state":"active","ping":46},{"user_id":425,"name":"OrangeShoes","steam_id":76561197971249940,"connected_time":1001000000000,"state":"active","ping":89},{"user_id":439,"name":"brains","steam_id":76561198197388678,"connected_time":390000000000,"state":"active","ping":47},{"user_id":426,"name":"rocket1714","steam_id":76561198255152396,"connected_time":990000000000,"state":"active","ping":74},{"user_id":440,"name":"reis","steam_id":76561199232952016,"connected_time":101000000000,"state":"active","ping":184},{"user_id":428,"name":"Uncle Leo From Seinfeld (Real)","steam_id":76561199102009679,"connected_time":986000000000,"state":"active","ping":79},{"user_id":441,"name":"T-Girl Pearl","steam_id":76561198365534259,"connected_time":49000000000,"state":"active","ping":57},{"user_id":413,"name":"Oxygen User","steam_id":76561199111975528,"connected_time":2033000000000,"state":"active","ping":68},{"user_id":404,"name":"Chase McCain","steam_id":76561198314538469,"connected_time":2262000000000,"state":"active","ping":87},{"user_id":406,"name":"celestia ludenberg","steam_id":76561199196437823,"connected_time":2245000000000,"state":"active","ping":122},{"user_id":429,"name":"chrisd149","steam_id":76561198018710480,"connected_time":985000000000,"state":"active","ping":67},{"user_id":430,"name":"CombustibleToast","steam_id":76561198051358882,"connected_time":984000000000,"state":"active","ping":70},{"user_id":414,"name":"Propaniac Gaming ☑","steam_id":76561198133963270,"connected_time":2030000000000,"state":"active","ping":45},{"user_id":417,"name":"twizted","steam_id":76561197960407274,"connected_time":1591000000000,"state":"active","ping":91},{"user_id":419,"name":"Rin \"Hindwing\" Redtail","steam_id":76561199074865638,"connected_time":1388000000000,"state":"active","ping":59},{"user_id":408,"name":"Scrux","steam_id":76561198129763115,"connected_time":2221000000000,"state":"active","ping":105},{"user_id":434,"name":"Saturnalien","steam_id":76561198057056295,"connected_time":934000000000,"state":"active","ping":68},{"user_id":384,"name":"olivia","steam_id":76561198288130849,"connected_time":3690000000000,"state":"active","ping":76},{"user_id":435,"name":"Rumble","steam_id":76561199170926322,"connected_time":934000000000,"state":"active","ping":85},{"user_id":400,"name":"CheetoSmoke7","steam_id":76561198095217273,"connected_time":2395000000000,"state":"active","ping":58}]},{"server_id":400,"name":"Uncletopia | Atlanta | 3 | Stopwatch","name_short":"atl-3","host":"atl-1.us.uncletopia.com","port":27035,"enabled":true,"region":"us-east","cc":"us","latitude":33.753746,"longitude":-84.38633,"reserved":0,"last_update":"0001-01-01T00:00:00Z","name_a2s":"Uncletopia | Atlanta | 3 | Stopwatch","protocol":17,"map":"workshop/pl_vigil_rc10.ugc1266210012","folder":"tf","game":"Team Fortress","app_id":440,"player_count":24,"max_players":24,"Bots":0,"server_type":"Dedicated","server_os":"Linux","password":true,"vac":true,"version":"7961495","steam_id":85568392924515187,"keywords":["nocrits","nodmgspread","payload","uncletopia"],"game_id":440,"stv_port":27036,"stv_name":"Uncletopia | Atlanta | 3 | Stopwatch | STV","players":[{"user_id":50,"name":"midijamshred","steam_id":76561197999416403,"connected_time":1092000000000,"state":"active","ping":53},{"user_id":52,"name":"WitchBomb_7","steam_id":76561198247320334,"connected_time":942000000000,"state":"active","ping":60},{"user_id":53,"name":"Allperino#Výťahár","steam_id":76561198006414061,"connected_time":931000000000,"state":"active","ping":167},{"user_id":64,"name":"leumas","steam_id":76561198240408540,"connected_time":60000000000,"state":"active","ping":88},{"user_id":54,"name":"☼Barracuda☼","steam_id":76561198013022083,"connected_time":921000000000,"state":"active","ping":70},{"user_id":49,"name":"odinnn","steam_id":76561198308564076,"connected_time":1193000000000,"state":"active","ping":52},{"user_id":23,"name":"Try Gardening","steam_id":76561198120311340,"connected_time":2158000000000,"state":"active","ping":67},{"user_id":26,"name":"vinny6","steam_id":76561198386735728,"connected_time":1923000000000,"state":"active","ping":69},{"user_id":55,"name":"creeeeeee","steam_id":76561198392539722,"connected_time":894000000000,"state":"active","ping":79},{"user_id":28,"name":"Chelsea.","steam_id":76561198405299137,"connected_time":1820000000000,"state":"active","ping":60},{"user_id":65,"name":"Nega Goku","steam_id":76561198841559088,"connected_time":47000000000,"state":"active","ping":80},{"user_id":58,"name":"Espresso_Depresso","steam_id":76561198396290407,"connected_time":883000000000,"state":"active","ping":83},{"user_id":33,"name":"Drake the Pixel","steam_id":76561198131824401,"connected_time":1749000000000,"state":"active","ping":63},{"user_id":34,"name":"Mamas Texas Chicken","steam_id":76561199156409732,"connected_time":1692000000000,"state":"active","ping":69},{"user_id":61,"name":"Caine","steam_id":76561198828562719,"connected_time":706000000000,"state":"active","ping":62},{"user_id":63,"name":"who is gavin?","steam_id":76561198069415057,"connected_time":85000000000,"state":"active","ping":73},{"user_id":37,"name":"MichaelBurger2","steam_id":76561198151131323,"connected_time":1556000000000,"state":"active","ping":75},{"user_id":60,"name":"Eugene Porter","steam_id":76561198834556559,"connected_time":855000000000,"state":"active","ping":68},{"user_id":45,"name":"when","steam_id":76561198443289583,"connected_time":1481000000000,"state":"active","ping":76},{"user_id":40,"name":"Boot Mcstink","steam_id":76561199226873917,"connected_time":1531000000000,"state":"active","ping":69},{"user_id":66,"name":"Ulrich Stern","steam_id":76561198101739682,"connected_time":21000000000,"state":"spawning","ping":273},{"user_id":51,"name":"Huey","steam_id":76561198972816386,"connected_time":1087000000000,"state":"active","ping":60},{"user_id":43,"name":"Hai","steam_id":76561199168680069,"connected_time":1491000000000,"state":"active","ping":57},{"user_id":47,"name":"Nubert","steam_id":76561198990445167,"connected_time":1437000000000,"state":"active","ping":49}]},{"server_id":401,"name":"Uncletopia | Atlanta | 4 | Community","name_short":"atl-4","host":"atl-1.us.uncletopia.com","port":27045,"enabled":true,"region":"us-east","cc":"us","latitude":33.753746,"longitude":-84.38633,"reserved":0,"last_update":"0001-01-01T00:00:00Z","name_a2s":"Uncletopia | Atlanta | 4 | Community","protocol":17,"map":"workshop/cp_villa_b19.ugc2113052569","folder":"tf","game":"Team Fortress","app_id":440,"player_count":0,"max_players":24,"Bots":0,"server_type":"Dedicated","server_os":"Linux","password":true,"vac":true,"version":"7961495","steam_id":85568392924515188,"keywords":["cp","nocrits","nodmgspread","uncletopia"],"game_id":440,"stv_port":27046,"stv_name":"Uncletopia | Atlanta | 4 | Community | STV","players":null},{"server_id":2,"name":"Uncletopia | Chicago | 1 | All Maps","name_short":"chi-1","host":"chi-1.us.uncletopia.com","port":27015,"enabled":true,"region":"us-central","cc":"us","latitude":41.881832,"longitude":-87.62318,"reserved":0,"last_update":"0001-01-01T00:00:00Z","name_a2s":"Uncletopia | Chicago | 1 | All Maps","protocol":17,"map":"ctf_2fort","folder":"tf","game":"Team Fortress","app_id":440,"player_count":23,"max_players":24,"Bots":0,"server_type":"Dedicated","server_os":"Linux","password":true,"vac":true,"version":"7961495","steam_id":85568392924469984,"keywords":["ctf","nocrits","nodmgspread","uncletopia"],"game_id":440,"stv_port":27016,"stv_name":"Uncletopia | Chicago | 1 | All Maps | STV","players":[{"user_id":160,"name":"Orb","steam_id":76561198353963523,"connected_time":6482000000000,"state":"active","ping":89},{"user_id":232,"name":"Mellow Yellow","steam_id":76561198406276981,"connected_time":1267000000000,"state":"active","ping":57},{"user_id":199,"name":"Jack","steam_id":76561198079575891,"connected_time":3216000000000,"state":"active","ping":134},{"user_id":249,"name":"evnobev","steam_id":76561198038966462,"connected_time":33000000000,"state":"active","ping":48},{"user_id":233,"name":"SPF420","steam_id":76561198083991705,"connected_time":1163000000000,"state":"active","ping":61},{"user_id":250,"name":"EvilStickGuy","steam_id":76561197985379320,"connected_time":30000000000,"state":"spawning","ping":61},{"user_id":248,"name":"+==[:::::::::::::::::::::::\u003e","steam_id":76561199051212534,"connected_time":127000000000,"state":"active","ping":57},{"user_id":205,"name":"Maxwell Gaming","steam_id":76561199100160919,"connected_time":3022000000000,"state":"active","ping":82},{"user_id":223,"name":"Oni","steam_id":76561198112066584,"connected_time":1889000000000,"state":"active","ping":60},{"user_id":189,"name":"Mandorin Moranges","steam_id":76561198277645423,"connected_time":3653000000000,"state":"active","ping":61},{"user_id":216,"name":"✪ Whales","steam_id":76561198064458078,"connected_time":2297000000000,"state":"active","ping":61},{"user_id":240,"name":"Nestor","steam_id":76561198070782619,"connected_time":287000000000,"state":"active","ping":59},{"user_id":243,"name":"Gaming","steam_id":76561198107080532,"connected_time":231000000000,"state":"active","ping":66},{"user_id":166,"name":"ThatGamingKiwi","steam_id":76561199170522237,"connected_time":4819000000000,"state":"active","ping":73},{"user_id":209,"name":"Thoughtfully Ignorant","steam_id":76561199509991902,"connected_time":2846000000000,"state":"active","ping":59},{"user_id":246,"name":"Nibelsnarf (She/They)","steam_id":76561198137642054,"connected_time":169000000000,"state":"active","ping":61},{"user_id":230,"name":"DeadErebus","steam_id":76561198286117045,"connected_time":1527000000000,"state":"active","ping":42},{"user_id":217,"name":"Stacks63bs","steam_id":76561198067797130,"connected_time":2280000000000,"state":"active","ping":82},{"user_id":201,"name":"gamerfan539","steam_id":76561198803527852,"connected_time":3192000000000,"state":"active","ping":60},{"user_id":208,"name":"Mr.Frundles","steam_id":76561198134559026,"connected_time":2881000000000,"state":"active","ping":72},{"user_id":134,"name":"Chadmander","steam_id":76561197974136337,"connected_time":8960000000000,"state":"active","ping":36},{"user_id":195,"name":"Kilphax","steam_id":76561197993814144,"connected_time":3409000000000,"state":"active","ping":58},{"user_id":226,"name":"V. G. Sunderland","steam_id":76561198161839980,"connected_time":1577000000000,"state":"active","ping":60}]},{"server_id":106,"name":"Uncletopia | Chicago | 2 | All Maps","name_short":"chi-2","host":"chi-1.us.uncletopia.com","port":27025,"enabled":true,"region":"us-central","cc":"us","latitude":41.881832,"longitude":-87.62318,"reserved":0,"last_update":"0001-01-01T00:00:00Z","name_a2s":"Uncletopia | Chicago | 2 | All Maps","protocol":17,"map":"cp_mountainlab","folder":"tf","game":"Team Fortress","app_id":440,"player_count":2,"max_players":24,"Bots":0,"server_type":"Dedicated","server_os":"Linux","password":true,"vac":true,"version":"7961495","steam_id":85568392924469985,"keywords":["cp","nocrits","nodmgspread","uncletopia"],"game_id":440,"stv_port":27026,"stv_name":"Uncletopia | Chicago | 2 | All Maps | STV","players":[{"user_id":51,"name":"Kitchen Sink Gaming","steam_id":76561198930293420,"connected_time":71000000000,"state":"active","ping":60},{"user_id":52,"name":"Mosquito Born Illness Survivor","steam_id":76561198097300909,"connected_time":46000000000,"state":"active","ping":60}]},{"server_id":402,"name":"Uncletopia | Chicago | 3 | All Maps","name_short":"chi-3","host":"chi-1.us.uncletopia.com","port":27035,"enabled":true,"region":"us-central","cc":"us","latitude":41.881832,"longitude":-87.62318,"reserved":0,"last_update":"0001-01-01T00:00:00Z","name_a2s":"Uncletopia | Chicago | 3 | All Maps","protocol":17,"map":"plr_bananabay","folder":"tf","game":"Team Fortress","app_id":440,"player_count":23,"max_players":24,"Bots":0,"server_type":"Dedicated","server_os":"Linux","password":true,"vac":true,"version":"7961495","steam_id":85568392924515191,"keywords":["nocrits","nodmgspread","payload","uncletopia"],"game_id":440,"stv_port":27036,"stv_name":"Uncletopia | Chicago | 3 | All Maps | STV","players":[{"user_id":307,"name":"SkyFox_1","steam_id":76561199067891962,"connected_time":691000000000,"state":"active","ping":81},{"user_id":319,"name":"yair_1302","steam_id":76561199193064727,"connected_time":142000000000,"state":"active","ping":52},{"user_id":310,"name":"imng","steam_id":76561198014988031,"connected_time":596000000000,"state":"active","ping":91},{"user_id":317,"name":"Andy","steam_id":76561198043115724,"connected_time":348000000000,"state":"active","ping":84},{"user_id":269,"name":"scrotal recall","steam_id":76561198135945598,"connected_time":2116000000000,"state":"active","ping":71},{"user_id":305,"name":"THE BONK MAN","steam_id":76561198053046161,"connected_time":894000000000,"state":"active","ping":60},{"user_id":308,"name":"Ruins","steam_id":76561198140372785,"connected_time":665000000000,"state":"active","ping":48},{"user_id":320,"name":"Nixon Me, Dixon Me","steam_id":76561198126519537,"connected_time":43000000000,"state":"active","ping":70},{"user_id":293,"name":"PageBoiSkull","steam_id":76561198237353578,"connected_time":1742000000000,"state":"active","ping":109},{"user_id":297,"name":"Skyline","steam_id":76561198018382060,"connected_time":1572000000000,"state":"active","ping":54},{"user_id":289,"name":"Yezman","steam_id":76561198138857306,"connected_time":1868000000000,"state":"active","ping":63},{"user_id":318,"name":"dadgummit","steam_id":76561198005806915,"connected_time":309000000000,"state":"active","ping":74},{"user_id":298,"name":"CynnyminRoll","steam_id":76561198209253427,"connected_time":1501000000000,"state":"active","ping":67},{"user_id":296,"name":"Alpha","steam_id":76561199482290132,"connected_time":1665000000000,"state":"active","ping":69},{"user_id":313,"name":"RunawaySkeleton","steam_id":76561199100779774,"connected_time":584000000000,"state":"active","ping":80},{"user_id":302,"name":"LCGPhantom","steam_id":76561199052145044,"connected_time":1093000000000,"state":"active","ping":73},{"user_id":294,"name":"A damien","steam_id":76561198174767478,"connected_time":1719000000000,"state":"active","ping":90},{"user_id":282,"name":"Kaestal","steam_id":76561198033174157,"connected_time":1980000000000,"state":"active","ping":77},{"user_id":258,"name":"The Idiot","steam_id":76561198049837377,"connected_time":3638000000000,"state":"active","ping":50},{"user_id":314,"name":"HOODOO_LOVER_2007","steam_id":76561199087691214,"connected_time":553000000000,"state":"active","ping":90},{"user_id":315,"name":"Riff III","steam_id":76561198066921423,"connected_time":547000000000,"state":"active","ping":69},{"user_id":321,"name":"SuperCeleste❤️Trans Rights","steam_id":76561198167207053,"connected_time":32000000000,"state":"active","ping":74},{"user_id":299,"name":"Team Fortress","steam_id":76561198058722801,"connected_time":1465000000000,"state":"active","ping":144}]},{"server_id":403,"name":"Uncletopia | Chicago | 4 | All Maps","name_short":"chi-4","host":"chi-1.us.uncletopia.com","port":27045,"enabled":true,"region":"us-central","cc":"us","latitude":41.881832,"longitude":-87.62318,"reserved":0,"last_update":"0001-01-01T00:00:00Z","name_a2s":"Uncletopia | Chicago | 4 | All Maps","protocol":17,"map":"koth_viaduct","folder":"tf","game":"Team Fortress","app_id":440,"player_count":0,"max_players":24,"Bots":0,"server_type":"Dedicated","server_os":"Linux","password":true,"vac":true,"version":"7961495","steam_id":85568392924515193,"keywords":["cp","nocrits","nodmgspread","uncletopia"],"game_id":440,"stv_port":27046,"stv_name":"Uncletopia | Chicago | 4 | All Maps | STV","players":null},{"server_id":36,"name":"Uncletopia | Chicago | 5 | All Maps","name_short":"chi-5","host":"chi-2.us.uncletopia.com","port":27015,"enabled":true,"region":"us-central","cc":"us","latitude":41.881832,"longitude":-87.62318,"reserved":0,"last_update":"0001-01-01T00:00:00Z","name_a2s":"Uncletopia | Chicago | 5 | All Maps","protocol":17,"map":"cp_altitude","folder":"tf","game":"Team Fortress","app_id":440,"player_count":0,"max_players":24,"Bots":0,"server_type":"Dedicated","server_os":"Linux","password":true,"vac":true,"version":"7961495","steam_id":85568392924866362,"keywords":["cp","nocrits","nodmgspread","uncletopia"],"game_id":440,"stv_port":27016,"stv_name":"Uncletopia | Chicago | 5 | All Maps | STV","players":null},{"server_id":37,"name":"Uncletopia | Chicago | 6 | All Maps","name_short":"chi-6","host":"chi-2.us.uncletopia.com","port":27025,"enabled":true,"region":"us-central","cc":"us","latitude":41.881832,"longitude":-87.62318,"reserved":0,"last_update":"0001-01-01T00:00:00Z","name_a2s":"Uncletopia | Chicago | 6 | All Maps","protocol":17,"map":"pl_barnblitz","folder":"tf","game":"Team Fortress","app_id":440,"player_count":12,"max_players":24,"Bots":0,"server_type":"Dedicated","server_os":"Linux","password":true,"vac":true,"version":"7961495","steam_id":85568392924866363,"keywords":["nocrits","nodmgspread","payload","uncletopia"],"game_id":440,"stv_port":27026,"stv_name":"Uncletopia | Chicago | 6 | All Maps | STV","players":[{"user_id":18,"name":"Irish Empire","steam_id":76561199107427068,"connected_time":453000000000,"state":"active","ping":70},{"user_id":14,"name":"ugly.","steam_id":76561198016826181,"connected_time":587000000000,"state":"active","ping":67},{"user_id":15,"name":"Dosszy","steam_id":76561198116281299,"connected_time":489000000000,"state":"active","ping":70},{"user_id":19,"name":"FortressGamer","steam_id":76561198144049265,"connected_time":288000000000,"state":"active","ping":98},{"user_id":17,"name":"Milkmur","steam_id":76561198210043821,"connected_time":456000000000,"state":"active","ping":63},{"user_id":20,"name":"catmario332","steam_id":76561199006346912,"connected_time":127000000000,"state":"active","ping":94},{"user_id":21,"name":"LoptousSmoothie","steam_id":76561198336419783,"connected_time":114000000000,"state":"active","ping":92},{"user_id":22,"name":"Mr.Pwesident","steam_id":76561198058114703,"connected_time":90000000000,"state":"active","ping":87},{"user_id":23,"name":"Gaming Grandpa","steam_id":76561198121418631,"connected_time":44000000000,"state":"active","ping":58},{"user_id":24,"name":"UncleRockThe1st","steam_id":76561199219855400,"connected_time":30000000000,"state":"active","ping":101},{"user_id":27,"name":"Commitwarcrimes","steam_id":76561199144564669,"connected_time":6000000000,"state":"active","ping":207},{"user_id":26,"name":"shadow6","steam_id":76561197979807910,"connected_time":18000000000,"state":"spawning","ping":72}]},{"server_id":38,"name":"Uncletopia | Chicago | 7 | Stopwatch","name_short":"chi-7","host":"chi-2.us.uncletopia.com","port":27035,"enabled":true,"region":"us-central","cc":"us","latitude":41.881832,"longitude":-87.62318,"reserved":0,"last_update":"0001-01-01T00:00:00Z","name_a2s":"Uncletopia | Chicago | 7 | Stopwatch","protocol":17,"map":"workshop/koth_ashville_final.ugc2130459942","folder":"tf","game":"Team Fortress","app_id":440,"player_count":0,"max_players":24,"Bots":0,"server_type":"Dedicated","server_os":"Linux","password":true,"vac":true,"version":"7961495","steam_id":85568392924866364,"keywords":["cp","nocrits","nodmgspread","uncletopia"],"game_id":440,"stv_port":27036,"stv_name":"Uncletopia | Chicago | 7 | Stopwatch | STV","players":null},{"server_id":39,"name":"Uncletopia | Chicago | 8 | Community","name_short":"chi-8","host":"chi-2.us.uncletopia.com","port":27045,"enabled":true,"region":"us-central","cc":"us","latitude":41.881832,"longitude":-87.62318,"reserved":0,"last_update":"0001-01-01T00:00:00Z","name_a2s":"Uncletopia | Chicago | 8 | Community","protocol":17,"map":"workshop/koth_ashville_final.ugc2130459942","folder":"tf","game":"Team Fortress","app_id":440,"player_count":0,"max_players":24,"Bots":0,"server_type":"Dedicated","server_os":"Linux","password":true,"vac":true,"version":"7961495","steam_id":85568392924866365,"keywords":["cp","nocrits","nodmgspread","uncletopia"],"game_id":440,"stv_port":27046,"stv_name":"Uncletopia | Chicago | 8 | Community | STV","players":null},{"server_id":8,"name":"Uncletopia | Dallas | 1 | All Maps","name_short":"dal-1","host":"dal-1.us.uncletopia.com","port":27015,"enabled":true,"region":"us-central","cc":"us","latitude":32.779167,"longitude":-96.80889,"reserved":0,"last_update":"0001-01-01T00:00:00Z","name_a2s":"Uncletopia | Dallas | 1 | All Maps","protocol":17,"map":"koth_harvest_final","folder":"tf","game":"Team Fortress","app_id":440,"player_count":24,"max_players":24,"Bots":0,"server_type":"Dedicated","server_os":"Linux","password":true,"vac":true,"version":"7961495","steam_id":85568392924469986,"keywords":["cp","nocrits","nodmgspread","uncletopia"],"game_id":440,"stv_port":27016,"stv_name":"Uncletopia | Dallas | 1 | All Maps | STV","players":[{"user_id":506,"name":"Baron Tec","steam_id":76561198043781392,"connected_time":1248000000000,"state":"active","ping":77},{"user_id":508,"name":"Killerfish360","steam_id":76561198115029584,"connected_time":1072000000000,"state":"active","ping":75},{"user_id":490,"name":"luigigario","steam_id":76561198881262416,"connected_time":2121000000000,"state":"active","ping":93},{"user_id":297,"name":"jojo","steam_id":76561199509297015,"connected_time":11095000000000,"state":"active","ping":90},{"user_id":512,"name":"Bee Sauce","steam_id":76561198055860449,"connected_time":102000000000,"state":"active","ping":44},{"user_id":492,"name":"Cave Dweller","steam_id":76561198374825685,"connected_time":2059000000000,"state":"active","ping":94},{"user_id":475,"name":"Pvt. Dimitri Petrenko","steam_id":76561198078040091,"connected_time":3895000000000,"state":"active","ping":56},{"user_id":510,"name":"Loafus","steam_id":76561198154561111,"connected_time":807000000000,"state":"active","ping":86},{"user_id":477,"name":"Can You Feel It Mr.Krabs","steam_id":76561198128302414,"connected_time":3130000000000,"state":"active","ping":68},{"user_id":491,"name":"wave papi","steam_id":76561198097555558,"connected_time":2075000000000,"state":"active","ping":132},{"user_id":513,"name":"Rem","steam_id":76561198079419141,"connected_time":83000000000,"state":"active","ping":86},{"user_id":514,"name":"Legit_Jaxer","steam_id":76561198172234053,"connected_time":83000000000,"state":"active","ping":90},{"user_id":509,"name":"Dreyma","steam_id":76561198227372596,"connected_time":1039000000000,"state":"active","ping":95},{"user_id":426,"name":"mrpineapple070","steam_id":76561199088278757,"connected_time":5666000000000,"state":"active","ping":66},{"user_id":344,"name":"mkl","steam_id":76561197986401685,"connected_time":7408000000000,"state":"active","ping":56},{"user_id":511,"name":"Tlaloc","steam_id":76561198375215983,"connected_time":249000000000,"state":"active","ping":121},{"user_id":487,"name":"Facehurt","steam_id":76561198028504034,"connected_time":2808000000000,"state":"active","ping":91},{"user_id":488,"name":"Karma","steam_id":76561198320530905,"connected_time":2706000000000,"state":"active","ping":46},{"user_id":465,"name":"Zeek","steam_id":76561197987204351,"connected_time":4724000000000,"state":"active","ping":86},{"user_id":321,"name":"Mellou","steam_id":76561198212048740,"connected_time":9147000000000,"state":"active","ping":44},{"user_id":494,"name":"Traceback","steam_id":76561197993212340,"connected_time":1988000000000,"state":"active","ping":75},{"user_id":507,"name":"Reckless Klondike","steam_id":76561198060904416,"connected_time":1095000000000,"state":"active","ping":107},{"user_id":501,"name":"The Two Fingers","steam_id":76561198212468175,"connected_time":1676000000000,"state":"active","ping":111},{"user_id":515,"name":"FanaticSalt","steam_id":76561199380123059,"connected_time":74000000000,"state":"active","ping":42}]},{"server_id":108,"name":"Uncletopia | Dallas | 2 | All Maps","name_short":"dal-2","host":"dal-1.us.uncletopia.com","port":27025,"enabled":true,"region":"us-central","cc":"us","latitude":32.779167,"longitude":-96.80889,"reserved":0,"last_update":"0001-01-01T00:00:00Z","name_a2s":"Uncletopia | Dallas | 2 | All Maps","protocol":17,"map":"pl_barnblitz","folder":"tf","game":"Team Fortress","app_id":440,"player_count":24,"max_players":24,"Bots":0,"server_type":"Dedicated","server_os":"Linux","password":true,"vac":true,"version":"7961495","steam_id":85568392924469988,"keywords":["nocrits","nodmgspread","payload","uncletopia"],"game_id":440,"stv_port":27026,"stv_name":"Uncletopia | Dallas | 2 | All Maps | STV","players":[{"user_id":118,"name":"Cthulwho?","steam_id":76561198165550810,"connected_time":5876000000000,"state":"active","ping":77},{"user_id":193,"name":"uncletopia dallas 2 player","steam_id":76561198412786186,"connected_time":655000000000,"state":"active","ping":46},{"user_id":199,"name":"Congcrab","steam_id":76561198078687685,"connected_time":489000000000,"state":"active","ping":87},{"user_id":192,"name":"Aztea","steam_id":76561198982089893,"connected_time":781000000000,"state":"active","ping":78},{"user_id":183,"name":"9/11 Airlines","steam_id":76561198096306325,"connected_time":1607000000000,"state":"active","ping":85},{"user_id":76,"name":"Eden","steam_id":76561198081284664,"connected_time":9228000000000,"state":"active","ping":89},{"user_id":198,"name":"nicholas","steam_id":76561198058211873,"connected_time":508000000000,"state":"active","ping":57},{"user_id":187,"name":"ICBMonkey","steam_id":76561198033351821,"connected_time":1473000000000,"state":"active","ping":55},{"user_id":197,"name":"XCK","steam_id":76561199166444957,"connected_time":526000000000,"state":"active","ping":97},{"user_id":184,"name":"CALL OF DUTY BLACKOPPS","steam_id":76561198262422184,"connected_time":1500000000000,"state":"active","ping":53},{"user_id":201,"name":"Green Wire","steam_id":76561198042585559,"connected_time":297000000000,"state":"active","ping":82},{"user_id":202,"name":"lorient","steam_id":76561198150831438,"connected_time":294000000000,"state":"active","ping":76},{"user_id":188,"name":"newish player","steam_id":76561199090153532,"connected_time":1472000000000,"state":"active","ping":53},{"user_id":205,"name":"Huloon","steam_id":76561198070837568,"connected_time":215000000000,"state":"active","ping":71},{"user_id":210,"name":"RockMan","steam_id":76561199228684720,"connected_time":126000000000,"state":"active","ping":49},{"user_id":208,"name":"effy","steam_id":76561198087137066,"connected_time":138000000000,"state":"active","ping":68},{"user_id":206,"name":"Dabbledornk","steam_id":76561198065241300,"connected_time":192000000000,"state":"active","ping":90},{"user_id":207,"name":"Tomaash","steam_id":76561198115542042,"connected_time":172000000000,"state":"active","ping":154},{"user_id":209,"name":"HumbDoe","steam_id":76561198065556553,"connected_time":136000000000,"state":"active","ping":96},{"user_id":177,"name":"Vivzen","steam_id":76561198972619900,"connected_time":2450000000000,"state":"active","ping":55},{"user_id":191,"name":"Herr Texas","steam_id":76561198300069355,"connected_time":1015000000000,"state":"active","ping":106},{"user_id":211,"name":"Sergeant Snowflake","steam_id":76561198041474489,"connected_time":116000000000,"state":"active","ping":84},{"user_id":212,"name":"chiswola","steam_id":76561198046920142,"connected_time":93000000000,"state":"active","ping":100}]},{"server_id":404,"name":"Uncletopia | Dallas | 3 | All Maps","name_short":"dal-3","host":"dal-1.us.uncletopia.com","port":27035,"enabled":true,"region":"us-central","cc":"us","latitude":32.779167,"longitude":-96.80889,"reserved":0,"last_update":"0001-01-01T00:00:00Z","name_a2s":"Uncletopia | Dallas | 3 | All Maps","protocol":17,"map":"koth_lakeside_final","folder":"tf","game":"Team Fortress","app_id":440,"player_count":0,"max_players":24,"Bots":0,"server_type":"Dedicated","server_os":"Linux","password":true,"vac":true,"version":"7961495","steam_id":85568392924515219,"keywords":["cp","nocrits","nodmgspread","uncletopia"],"game_id":440,"stv_port":27036,"stv_name":"Uncletopia | Dallas | 3 | All Maps | STV","players":null},{"server_id":405,"name":"Uncletopia | Dallas | 4 | Community","name_short":"dal-4","host":"dal-1.us.uncletopia.com","port":27045,"enabled":true,"region":"us-central","cc":"us","latitude":32.779167,"longitude":-96.80889,"reserved":0,"last_update":"0001-01-01T00:00:00Z","name_a2s":"Uncletopia | Dallas | 4 | Community","protocol":17,"map":"workshop/cp_croissant_final.ugc458840209","folder":"tf","game":"Team Fortress","app_id":440,"player_count":0,"max_players":24,"Bots":0,"server_type":"Dedicated","server_os":"Linux","password":true,"vac":true,"version":"7961495","steam_id":85568392924515220,"keywords":["cp","nocrits","nodmgspread","uncletopia"],"game_id":440,"stv_port":27046,"stv_name":"Uncletopia | Dallas | 4 | Community | STV","players":null},{"server_id":5,"name":"Uncletopia | Frankfurt | 1 | All Maps","name_short":"frk-1","host":"frk-1.de.uncletopia.com","port":27015,"enabled":true,"region":"eu","cc":"de","latitude":50.110924,"longitude":8.682127,"reserved":0,"last_update":"0001-01-01T00:00:00Z","name_a2s":"Uncletopia | Frankfurt | 1 | All Maps","protocol":17,"map":"pl_snowycoast","folder":"tf","game":"Team Fortress","app_id":440,"player_count":24,"max_players":24,"Bots":0,"server_type":"Dedicated","server_os":"Linux","password":true,"vac":true,"version":"7961495","steam_id":85568392924469989,"keywords":["nocrits","nodmgspread","payload","uncletopia"],"game_id":440,"stv_port":27016,"stv_name":"Uncletopia | Frankfurt | 1 | All Maps | STV","players":[{"user_id":428,"name":"azzy","steam_id":76561198061293740,"connected_time":1638000000000,"state":"active","ping":76},{"user_id":452,"name":"℮","steam_id":76561198138645673,"connected_time":49000000000,"state":"active","ping":60},{"user_id":434,"name":"Arsonist","steam_id":76561199087953833,"connected_time":1522000000000,"state":"active","ping":91},{"user_id":418,"name":"MENTABETAI","steam_id":76561198049728799,"connected_time":2565000000000,"state":"active","ping":75},{"user_id":446,"name":"Ross from F.R.I.E.N.D.S.","steam_id":76561198008511665,"connected_time":471000000000,"state":"active","ping":56},{"user_id":429,"name":"kinimon","steam_id":76561198178453270,"connected_time":1637000000000,"state":"active","ping":58},{"user_id":443,"name":"BELADIT","steam_id":76561198011911501,"connected_time":574000000000,"state":"active","ping":61},{"user_id":431,"name":"Tomato","steam_id":76561199124472513,"connected_time":1626000000000,"state":"active","ping":118},{"user_id":432,"name":"Right_Behind_you","steam_id":76561199126703552,"connected_time":1617000000000,"state":"active","ping":64},{"user_id":453,"name":"UpsetPuppy11","steam_id":76561199060288033,"connected_time":46000000000,"state":"active","ping":81},{"user_id":440,"name":"D_Ink","steam_id":76561198267716662,"connected_time":1247000000000,"state":"active","ping":57},{"user_id":433,"name":"sloppy transgirl toppy","steam_id":76561198057092208,"connected_time":1609000000000,"state":"active","ping":52},{"user_id":438,"name":"heavy sings (real)","steam_id":76561199023804405,"connected_time":1376000000000,"state":"active","ping":67},{"user_id":451,"name":"Efeca","steam_id":76561198018923829,"connected_time":216000000000,"state":"active","ping":64},{"user_id":441,"name":"monocle chicken","steam_id":76561199020106029,"connected_time":1214000000000,"state":"active","ping":99},{"user_id":442,"name":"NULLYUKI","steam_id":76561198057477397,"connected_time":815000000000,"state":"active","ping":46},{"user_id":447,"name":"Leviticus Cornwall","steam_id":76561197993702685,"connected_time":463000000000,"state":"active","ping":77},{"user_id":449,"name":"wooper","steam_id":76561198953870572,"connected_time":375000000000,"state":"active","ping":174},{"user_id":340,"name":"Gorgeous George","steam_id":76561198144256544,"connected_time":7086000000000,"state":"active","ping":62},{"user_id":336,"name":"kavun","steam_id":76561198023461869,"connected_time":7365000000000,"state":"active","ping":75},{"user_id":448,"name":"The legendery balls","steam_id":76561199139344747,"connected_time":383000000000,"state":"active","ping":127},{"user_id":450,"name":"ST4F","steam_id":76561198262924022,"connected_time":369000000000,"state":"active","ping":60},{"user_id":417,"name":"Lers","steam_id":76561198061619788,"connected_time":2674000000000,"state":"active","ping":60},{"user_id":421,"name":"kestrel","steam_id":76561198054061825,"connected_time":2277000000000,"state":"active","ping":46}]},{"server_id":110,"name":"Uncletopia | Frankfurt | 2 | All Maps","name_short":"frk-2","host":"frk-1.de.uncletopia.com","port":27025,"enabled":true,"region":"eu","cc":"de","latitude":50.110924,"longitude":8.682127,"reserved":0,"last_update":"0001-01-01T00:00:00Z","name_a2s":"Uncletopia | Frankfurt | 2 | All Maps","protocol":17,"map":"cp_process_final","folder":"tf","game":"Team Fortress","app_id":440,"player_count":24,"max_players":24,"Bots":0,"server_type":"Dedicated","server_os":"Linux","password":true,"vac":true,"version":"7961495","steam_id":85568392924469990,"keywords":["cp","nocrits","nodmgspread","uncletopia"],"game_id":440,"stv_port":27026,"stv_name":"Uncletopia | Frankfurt | 2 | All Maps | STV","players":[{"user_id":864,"name":"Adde","steam_id":76561198013158040,"connected_time":3188000000000,"state":"active","ping":73},{"user_id":843,"name":"Delere","steam_id":76561198061309755,"connected_time":5066000000000,"state":"active","ping":125},{"user_id":888,"name":"Jangli","steam_id":76561198103923652,"connected_time":2590000000000,"state":"active","ping":186},{"user_id":903,"name":"FoOzTV","steam_id":76561197998636728,"connected_time":257000000000,"state":"active","ping":56},{"user_id":894,"name":"PLUTO","steam_id":76561198312436128,"connected_time":2274000000000,"state":"active","ping":120},{"user_id":869,"name":"Undercover Frank","steam_id":76561198018581627,"connected_time":3046000000000,"state":"active","ping":106},{"user_id":852,"name":"Umme","steam_id":76561198053809566,"connected_time":3784000000000,"state":"active","ping":69},{"user_id":862,"name":"bucketman_void","steam_id":76561199062719102,"connected_time":3261000000000,"state":"active","ping":85},{"user_id":904,"name":"etc","steam_id":76561197998394797,"connected_time":231000000000,"state":"active","ping":51},{"user_id":897,"name":"tort","steam_id":76561198147246166,"connected_time":1843000000000,"state":"active","ping":78},{"user_id":896,"name":"monte","steam_id":76561199075506275,"connected_time":1995000000000,"state":"active","ping":58},{"user_id":873,"name":"benjels big day","steam_id":76561198025970709,"connected_time":2969000000000,"state":"active","ping":57},{"user_id":902,"name":"Robo-Tavish","steam_id":76561198073284118,"connected_time":486000000000,"state":"active","ping":61},{"user_id":901,"name":"Luxotrics","steam_id":76561198053455161,"connected_time":570000000000,"state":"active","ping":83},{"user_id":900,"name":"Murovelho","steam_id":76561198835081622,"connected_time":975000000000,"state":"active","ping":106},{"user_id":892,"name":"Liventhor","steam_id":76561198054200625,"connected_time":2516000000000,"state":"active","ping":63},{"user_id":890,"name":"Mitrixie","steam_id":76561198842023498,"connected_time":2572000000000,"state":"active","ping":80},{"user_id":833,"name":"F4","steam_id":76561198960173064,"connected_time":5346000000000,"state":"active","ping":54},{"user_id":859,"name":"Pizza Totino's Boy","steam_id":76561198071487976,"connected_time":3549000000000,"state":"active","ping":77},{"user_id":877,"name":"Alexandr","steam_id":76561198415594381,"connected_time":2914000000000,"state":"active","ping":55},{"user_id":891,"name":"SaintBonkers","steam_id":76561198043219263,"connected_time":2567000000000,"state":"active","ping":68},{"user_id":895,"name":"Jansku","steam_id":76561198321340149,"connected_time":2262000000000,"state":"active","ping":87},{"user_id":879,"name":"Ram-horned Jack","steam_id":76561198043418582,"connected_time":2884000000000,"state":"active","ping":51},{"user_id":850,"name":"CV70","steam_id":76561198122440175,"connected_time":3936000000000,"state":"active","ping":70}]},{"server_id":308,"name":"Uncletopia | Frankfurt | 3 | All Maps","name_short":"frk-3","host":"frk-1.de.uncletopia.com","port":27035,"enabled":true,"region":"eu","cc":"de","latitude":50.110924,"longitude":8.682127,"reserved":0,"last_update":"0001-01-01T00:00:00Z","name_a2s":"Uncletopia | Frankfurt | 3 | All Maps","protocol":17,"map":"cp_sunshine","folder":"tf","game":"Team Fortress","app_id":440,"player_count":6,"max_players":24,"Bots":0,"server_type":"Dedicated","server_os":"Linux","password":true,"vac":true,"version":"7961495","steam_id":85568392924504274,"keywords":["cp","nocrits","nodmgspread","uncletopia"],"game_id":440,"stv_port":27036,"stv_name":"Uncletopia | Frankfurt | 3 | All Maps | STV","players":[{"user_id":201,"name":"panic attack","steam_id":76561199092286532,"connected_time":164000000000,"state":"active","ping":90},{"user_id":202,"name":"lisivi","steam_id":76561198365503306,"connected_time":85000000000,"state":"active","ping":56},{"user_id":197,"name":"Zazou","steam_id":76561198028076362,"connected_time":541000000000,"state":"active","ping":59},{"user_id":102,"name":"Zoro (Hun)","steam_id":76561199367182571,"connected_time":8688000000000,"state":"active","ping":59},{"user_id":194,"name":"mt","steam_id":76561197961319303,"connected_time":814000000000,"state":"active","ping":40},{"user_id":192,"name":"Loona my beloved","steam_id":76561198067182918,"connected_time":1841000000000,"state":"active","ping":78}]},{"server_id":309,"name":"Uncletopia | Frankfurt | 4 | All Maps","name_short":"frk-4","host":"frk-1.de.uncletopia.com","port":27045,"enabled":true,"region":"eu","cc":"de","latitude":50.110924,"longitude":8.682127,"reserved":0,"last_update":"0001-01-01T00:00:00Z","name_a2s":"Uncletopia | Frankfurt | 4 | All Maps","protocol":17,"map":"pl_swiftwater_final1","folder":"tf","game":"Team Fortress","app_id":440,"player_count":24,"max_players":24,"Bots":0,"server_type":"Dedicated","server_os":"Linux","password":true,"vac":true,"version":"7961495","steam_id":85568392924504275,"keywords":["nocrits","nodmgspread","payload","uncletopia"],"game_id":440,"stv_port":27046,"stv_name":"Uncletopia | Frankfurt | 4 | All Maps | STV","players":[{"user_id":245,"name":"1/1 OJ","steam_id":76561198054745133,"connected_time":4929000000000,"state":"active","ping":62},{"user_id":315,"name":"Eoghan","steam_id":76561198095344395,"connected_time":242000000000,"state":"active","ping":54},{"user_id":299,"name":"soup","steam_id":76561198006680814,"connected_time":689000000000,"state":"active","ping":44},{"user_id":296,"name":"diversity hire","steam_id":76561198134650962,"connected_time":1000000000000,"state":"active","ping":45},{"user_id":298,"name":"miloiloloo","steam_id":76561198010807374,"connected_time":838000000000,"state":"active","ping":142},{"user_id":292,"name":"=OKB= P4NTH3R","steam_id":76561197999204603,"connected_time":1662000000000,"state":"active","ping":59},{"user_id":320,"name":"Jorma985","steam_id":76561199121872349,"connected_time":69000000000,"state":"active","ping":70},{"user_id":300,"name":"Jotun","steam_id":76561199015161498,"connected_time":653000000000,"state":"active","ping":83},{"user_id":301,"name":"Flying skyhigh","steam_id":76561198372971096,"connected_time":630000000000,"state":"active","ping":64},{"user_id":305,"name":"Bobo","steam_id":76561198052308399,"connected_time":435000000000,"state":"active","ping":54},{"user_id":312,"name":"The Captain","steam_id":76561198132212067,"connected_time":271000000000,"state":"active","ping":74},{"user_id":291,"name":"Egor Pomidor","steam_id":76561199175688390,"connected_time":1887000000000,"state":"active","ping":74},{"user_id":252,"name":"clean carp","steam_id":76561198127053294,"connected_time":4750000000000,"state":"active","ping":70},{"user_id":289,"name":"Ace","steam_id":76561198979117577,"connected_time":2211000000000,"state":"active","ping":77},{"user_id":307,"name":"sHIFTINGvORTEX","steam_id":76561198231648332,"connected_time":331000000000,"state":"active","ping":80},{"user_id":316,"name":"Omni","steam_id":76561198089654689,"connected_time":214000000000,"state":"active","ping":57},{"user_id":310,"name":"DANDELION","steam_id":76561198038451376,"connected_time":287000000000,"state":"active","ping":48},{"user_id":311,"name":"LeLonGun","steam_id":76561198154287634,"connected_time":285000000000,"state":"active","ping":65},{"user_id":294,"name":"tone","steam_id":76561197975301462,"connected_time":1064000000000,"state":"active","ping":63},{"user_id":297,"name":"Ťava SVK","steam_id":76561198208423756,"connected_time":996000000000,"state":"active","ping":64},{"user_id":282,"name":"Na'vi Misato (by popular demand","steam_id":76561198130860698,"connected_time":2801000000000,"state":"active","ping":65},{"user_id":295,"name":"Woad Raider","steam_id":76561198215485788,"connected_time":1054000000000,"state":"active","ping":69},{"user_id":317,"name":"moki","steam_id":76561198314358032,"connected_time":193000000000,"state":"active","ping":82},{"user_id":318,"name":"LizaЯdlЧ","steam_id":76561198176750238,"connected_time":186000000000,"state":"active","ping":75}]},{"server_id":310,"name":"Uncletopia | Frankfurt | 5 | All Maps","name_short":"frk-5","host":"frk-1.de.uncletopia.com","port":27055,"enabled":true,"region":"eu","cc":"de","latitude":50.110924,"longitude":8.682127,"reserved":0,"last_update":"0001-01-01T00:00:00Z","name_a2s":"Uncletopia | Frankfurt | 5 | All Maps","protocol":17,"map":"pl_pier","folder":"tf","game":"Team Fortress","app_id":440,"player_count":23,"max_players":24,"Bots":0,"server_type":"Dedicated","server_os":"Linux","password":true,"vac":true,"version":"7961495","steam_id":85568392924504277,"keywords":["nocrits","nodmgspread","payload","uncletopia"],"game_id":440,"stv_port":27056,"stv_name":"Uncletopia | Frankfurt | 5 | All Maps | STV","players":[{"user_id":443,"name":"IceWaltz","steam_id":76561198146498522,"connected_time":785000000000,"state":"active","ping":52},{"user_id":426,"name":"Lux","steam_id":76561198060417740,"connected_time":2411000000000,"state":"active","ping":50},{"user_id":447,"name":"dog?","steam_id":76561199232839385,"connected_time":393000000000,"state":"active","ping":89},{"user_id":430,"name":"Ott","steam_id":76561198276464481,"connected_time":2018000000000,"state":"active","ping":68},{"user_id":420,"name":"HazelForest","steam_id":76561198171827033,"connected_time":2639000000000,"state":"active","ping":61},{"user_id":445,"name":"Itai","steam_id":76561198804555329,"connected_time":593000000000,"state":"active","ping":100},{"user_id":449,"name":"ash","steam_id":76561198004728744,"connected_time":353000000000,"state":"active","ping":45},{"user_id":434,"name":"rajAs","steam_id":76561198035928111,"connected_time":1339000000000,"state":"active","ping":73},{"user_id":454,"name":"xavier","steam_id":76561198076494034,"connected_time":136000000000,"state":"active","ping":58},{"user_id":455,"name":"The Cool Ice Guy","steam_id":76561198146194820,"connected_time":123000000000,"state":"active","ping":48},{"user_id":459,"name":"El Mosquito","steam_id":76561198065347907,"connected_time":16000000000,"state":"spawning","ping":103},{"user_id":444,"name":"WhatKatziSein","steam_id":76561199383552805,"connected_time":766000000000,"state":"active","ping":44},{"user_id":451,"name":"ainme enjoyer","steam_id":76561198076613025,"connected_time":267000000000,"state":"active","ping":73},{"user_id":452,"name":"Alexei","steam_id":76561197987169026,"connected_time":247000000000,"state":"active","ping":70},{"user_id":428,"name":"Fran","steam_id":76561199070516960,"connected_time":2213000000000,"state":"active","ping":59},{"user_id":458,"name":"Pilaarius","steam_id":76561198120273212,"connected_time":75000000000,"state":"active","ping":89},{"user_id":422,"name":"atomNabber","steam_id":76561199150959412,"connected_time":2631000000000,"state":"active","ping":110},{"user_id":437,"name":"Indomitable Truck-sama","steam_id":76561198826861582,"connected_time":1304000000000,"state":"active","ping":70},{"user_id":453,"name":"hipster_doofus","steam_id":76561197970902697,"connected_time":196000000000,"state":"active","ping":64},{"user_id":456,"name":"padillacampos","steam_id":76561198161923970,"connected_time":116000000000,"state":"active","ping":70},{"user_id":457,"name":"MK-Ultra Violence","steam_id":76561198081328238,"connected_time":104000000000,"state":"active","ping":85},{"user_id":363,"name":"✪Beer☭","steam_id":76561198129884760,"connected_time":4914000000000,"state":"active","ping":78},{"user_id":439,"name":"bady_3","steam_id":76561199030975778,"connected_time":1202000000000,"state":"active","ping":692}]},{"server_id":311,"name":"Uncletopia | Frankfurt | 6 | All Maps","name_short":"frk-6","host":"frk-1.de.uncletopia.com","port":27065,"enabled":true,"region":"eu","cc":"de","latitude":50.110924,"longitude":8.682127,"reserved":0,"last_update":"0001-01-01T00:00:00Z","name_a2s":"Uncletopia | Frankfurt | 6 | All Maps","protocol":17,"map":"pl_upward","folder":"tf","game":"Team Fortress","app_id":440,"player_count":24,"max_players":24,"Bots":0,"server_type":"Dedicated","server_os":"Linux","password":true,"vac":true,"version":"7961495","steam_id":85568392924504278,"keywords":["nocrits","nodmgspread","payload","uncletopia"],"game_id":440,"stv_port":27066,"stv_name":"Uncletopia | Frankfurt | 6 | All Maps | STV","players":[{"user_id":571,"name":"Sippie","steam_id":76561198130393388,"connected_time":1122000000000,"state":"active","ping":65},{"user_id":578,"name":"Mr.killer","steam_id":76561198290584189,"connected_time":873000000000,"state":"active","ping":170},{"user_id":570,"name":"xo.aahhmmeedd.xo","steam_id":76561199242662647,"connected_time":1529000000000,"state":"active","ping":122},{"user_id":586,"name":"(/•0•)/ WoW","steam_id":76561198144990790,"connected_time":7000000000,"state":"spawning","ping":74},{"user_id":579,"name":"ant753","steam_id":76561198103458889,"connected_time":871000000000,"state":"active","ping":75},{"user_id":565,"name":"Grym","steam_id":76561198119397460,"connected_time":1820000000000,"state":"active","ping":71},{"user_id":577,"name":"pablo_ricco","steam_id":76561198279839318,"connected_time":927000000000,"state":"active","ping":77},{"user_id":584,"name":"pablo","steam_id":76561198089285014,"connected_time":162000000000,"state":"active","ping":107},{"user_id":564,"name":"void","steam_id":76561198035831433,"connected_time":1824000000000,"state":"active","ping":56},{"user_id":580,"name":"Nyoom","steam_id":76561198054585002,"connected_time":848000000000,"state":"active","ping":54},{"user_id":574,"name":"Alan McDuty","steam_id":76561198059064903,"connected_time":1052000000000,"state":"active","ping":53},{"user_id":566,"name":"Caliban","steam_id":76561197999696839,"connected_time":1806000000000,"state":"active","ping":102},{"user_id":539,"name":"Esquiloz","steam_id":76561198075645336,"connected_time":3543000000000,"state":"active","ping":61},{"user_id":575,"name":"ULTIDUO CUP BatChest","steam_id":76561198051852765,"connected_time":1034000000000,"state":"active","ping":65},{"user_id":555,"name":"Killer Bean","steam_id":76561198072567787,"connected_time":3264000000000,"state":"active","ping":62},{"user_id":563,"name":"em","steam_id":76561198163615254,"connected_time":1961000000000,"state":"active","ping":60},{"user_id":560,"name":"mndk","steam_id":76561198295305088,"connected_time":3026000000000,"state":"active","ping":48},{"user_id":583,"name":"Pepegi","steam_id":76561198001230113,"connected_time":502000000000,"state":"active","ping":76},{"user_id":582,"name":"KLAMA  ❤","steam_id":76561198351549661,"connected_time":537000000000,"state":"active","ping":57},{"user_id":585,"name":"may0NESY","steam_id":76561198976727244,"connected_time":14000000000,"state":"spawning","ping":67},{"user_id":551,"name":"(NºFLQ) COUTESUDO","steam_id":76561198049262614,"connected_time":3315000000000,"state":"active","ping":89},{"user_id":581,"name":"post-nuke jerma","steam_id":76561198094268619,"connected_time":609000000000,"state":"active","ping":71},{"user_id":568,"name":"Ruffel :)","steam_id":76561198136828470,"connected_time":1796000000000,"state":"active","ping":79},{"user_id":576,"name":"Gugu gaga","steam_id":76561198161822358,"connected_time":1032000000000,"state":"active","ping":59}]},{"server_id":23,"name":"Uncletopia | Frankfurt | 7 | Stopwatch","name_short":"frk-7","host":"frk-1.de.uncletopia.com","port":27075,"enabled":true,"region":"eu","cc":"de","latitude":50.110924,"longitude":8.682127,"reserved":0,"last_update":"0001-01-01T00:00:00Z","name_a2s":"Uncletopia | Frankfurt | 7 | Stopwatch","protocol":17,"map":"workshop/pl_badwater_pro_v12.ugc2142942074","folder":"tf","game":"Team Fortress","app_id":440,"player_count":1,"max_players":24,"Bots":0,"server_type":"Dedicated","server_os":"Linux","password":true,"vac":true,"version":"7961495","steam_id":85568392924742827,"keywords":["nocrits","nodmgspread","payload","uncletopia"],"game_id":440,"stv_port":27076,"stv_name":"Uncletopia | Frankfurt | 7 | Stopwatch | STV","players":[{"user_id":48,"name":"Duckypog_J","steam_id":76561199002646204,"connected_time":96000000000,"state":"active","ping":363}]},{"server_id":24,"name":"Uncletopia | Frankfurt | 8 | Community","name_short":"frk-8","host":"frk-1.de.uncletopia.com","port":27085,"enabled":true,"region":"eu","cc":"de","latitude":50.110924,"longitude":8.682127,"reserved":0,"last_update":"0001-01-01T00:00:00Z","name_a2s":"Uncletopia | Frankfurt | 8 | Community","protocol":17,"map":"workshop/cp_croissant_final.ugc458840209","folder":"tf","game":"Team Fortress","app_id":440,"player_count":0,"max_players":24,"Bots":0,"server_type":"Dedicated","server_os":"Linux","password":true,"vac":true,"version":"7961495","steam_id":85568392924742828,"keywords":["cp","nocrits","nodmgspread","uncletopia"],"game_id":440,"stv_port":27086,"stv_name":"Uncletopia | Frankfurt | 8 | Community | STV","players":null},{"server_id":202,"name":"Uncletopia | Hong Kong | 1 | All Maps","name_short":"hgk-1","host":"hgk-1.hk.uncletopia.com","port":27015,"enabled":true,"region":"asia","cc":"hk","latitude":22.302711,"longitude":114.177216,"reserved":0,"last_update":"0001-01-01T00:00:00Z","name_a2s":"Uncletopia | Hong Kong | 1 | All Maps","protocol":17,"map":"koth_lakeside_final","folder":"tf","game":"Team Fortress","app_id":440,"player_count":0,"max_players":24,"Bots":0,"server_type":"Dedicated","server_os":"Linux","password":true,"vac":true,"version":"7961495","steam_id":85568392924494504,"keywords":["cp","nocrits","nodmgspread","uncletopia"],"game_id":440,"stv_port":27016,"stv_name":"Uncletopia | Hong Kong | 1 | All Maps | STV","players":null},{"server_id":1,"name":"Uncletopia | Los Angeles | 1 | All Maps","name_short":"lax-1","host":"lax-1.us.uncletopia.com","port":27015,"enabled":true,"region":"us-west","cc":"us","latitude":33.94279,"longitude":-118.41004,"reserved":0,"last_update":"0001-01-01T00:00:00Z","name_a2s":"Uncletopia | Los Angeles | 1 | All Maps","protocol":17,"map":"koth_viaduct","folder":"tf","game":"Team Fortress","app_id":440,"player_count":24,"max_players":24,"Bots":0,"server_type":"Dedicated","server_os":"Linux","password":true,"vac":true,"version":"7961495","steam_id":85568392924469991,"keywords":["cp","nocrits","nodmgspread","uncletopia"],"game_id":440,"stv_port":27016,"stv_name":"Uncletopia | Los Angeles | 1 | All Maps | STV","players":[{"user_id":103,"name":"Derpmaaster","steam_id":76561198960702857,"connected_time":586000000000,"state":"active","ping":60},{"user_id":102,"name":"mr555","steam_id":76561199128375354,"connected_time":592000000000,"state":"active","ping":139},{"user_id":111,"name":"prevail","steam_id":76561199510973471,"connected_time":56000000000,"state":"active","ping":88},{"user_id":101,"name":"demobird","steam_id":76561199277633460,"connected_time":662000000000,"state":"active","ping":41},{"user_id":24,"name":"Sprucelass","steam_id":76561197998391724,"connected_time":5848000000000,"state":"active","ping":111},{"user_id":88,"name":"Satori Komeiji","steam_id":76561198158211423,"connected_time":1806000000000,"state":"active","ping":36},{"user_id":51,"name":"1408 0-","steam_id":76561198126661080,"connected_time":4352000000000,"state":"active","ping":71},{"user_id":105,"name":"Ichibanprofen","steam_id":76561199192132061,"connected_time":501000000000,"state":"active","ping":61},{"user_id":76,"name":"noceof","steam_id":76561198043656816,"connected_time":3159000000000,"state":"active","ping":170},{"user_id":95,"name":"shroom.","steam_id":76561198140792282,"connected_time":1085000000000,"state":"active","ping":98},{"user_id":112,"name":"bringerofcrows","steam_id":76561198138141047,"connected_time":51000000000,"state":"active","ping":83},{"user_id":96,"name":"Sno","steam_id":76561197985776620,"connected_time":938000000000,"state":"active","ping":99},{"user_id":85,"name":"714","steam_id":76561198144909435,"connected_time":1919000000000,"state":"active","ping":49},{"user_id":100,"name":"gretchling","steam_id":76561198046111695,"connected_time":705000000000,"state":"active","ping":75},{"user_id":106,"name":"YOU WHAT?!","steam_id":76561198418679471,"connected_time":498000000000,"state":"active","ping":86},{"user_id":108,"name":"[P-CAN] At\u0026t Home Internet","steam_id":76561198126700526,"connected_time":459000000000,"state":"active","ping":162},{"user_id":50,"name":"Lazuli","steam_id":76561198051894471,"connected_time":4393000000000,"state":"active","ping":44},{"user_id":110,"name":"HeroOfTime","steam_id":76561199096218001,"connected_time":199000000000,"state":"active","ping":54},{"user_id":80,"name":"Jimmy","steam_id":76561198857959855,"connected_time":2561000000000,"state":"active","ping":38},{"user_id":113,"name":"||Shroom||","steam_id":76561198279865229,"connected_time":10000000000,"state":"active","ping":75},{"user_id":91,"name":"yee haw","steam_id":76561198398638164,"connected_time":1444000000000,"state":"active","ping":117},{"user_id":70,"name":"milk","steam_id":76561198053410877,"connected_time":3546000000000,"state":"active","ping":53},{"user_id":74,"name":"ronald_stackerusa55","steam_id":76561198150406851,"connected_time":3299000000000,"state":"active","ping":59},{"user_id":82,"name":"LIMBS","steam_id":76561198101220604,"connected_time":2033000000000,"state":"active","ping":46}]},{"server_id":112,"name":"Uncletopia | Los Angeles | 2 | All Maps","name_short":"lax-2","host":"lax-1.us.uncletopia.com","port":27025,"enabled":true,"region":"us-west","cc":"us","latitude":33.94279,"longitude":-118.41004,"reserved":0,"last_update":"0001-01-01T00:00:00Z","name_a2s":"Uncletopia | Los Angeles | 2 | All Maps","protocol":17,"map":"koth_lazarus","folder":"tf","game":"Team Fortress","app_id":440,"player_count":0,"max_players":24,"Bots":0,"server_type":"Dedicated","server_os":"Linux","password":true,"vac":true,"version":"7961495","steam_id":85568392924469992,"keywords":["cp","nocrits","nodmgspread","uncletopia"],"game_id":440,"stv_port":27026,"stv_name":"Uncletopia | Los Angeles | 2 | All Maps | STV","players":null},{"server_id":324,"name":"Uncletopia | Los Angeles | 3 | All Maps","name_short":"lax-3","host":"lax-1.us.uncletopia.com","port":27035,"enabled":true,"region":"us-west","cc":"us","latitude":33.94279,"longitude":-118.41004,"reserved":0,"last_update":"0001-01-01T00:00:00Z","name_a2s":"Uncletopia | Los Angeles | 3 | All Maps","protocol":17,"map":"pl_frontier_final","folder":"tf","game":"Team Fortress","app_id":440,"player_count":0,"max_players":24,"Bots":0,"server_type":"Dedicated","server_os":"Linux","password":true,"vac":true,"version":"7961495","steam_id":85568392924510198,"keywords":["nocrits","nodmgspread","payload","uncletopia"],"game_id":440,"stv_port":27036,"stv_name":"Uncletopia | Los Angeles | 3 | All Maps | STV","players":null},{"server_id":25,"name":"Uncletopia | Los Angeles | 4 | Stopwatch","name_short":"lax-4","host":"lax-1.us.uncletopia.com","port":27045,"enabled":true,"region":"us-west","cc":"us","latitude":33.94279,"longitude":-118.41004,"reserved":0,"last_update":"0001-01-01T00:00:00Z","name_a2s":"Uncletopia | Los Angeles | 4 | Stopwatch","protocol":17,"map":"pl_upward","folder":"tf","game":"Team Fortress","app_id":440,"player_count":0,"max_players":24,"Bots":0,"server_type":"Dedicated","server_os":"Linux","password":true,"vac":true,"version":"7961495","steam_id":85568392924510199,"keywords":["nocrits","nodmgspread","payload","uncletopia"],"game_id":440,"stv_port":27046,"stv_name":"Uncletopia | Los Angeles | 4 | Stopwatch | STV","players":null},{"server_id":11,"name":"Uncletopia | London | 1 | All Maps","name_short":"lon-1","host":"lon-1.uk.uncletopia.com","port":27015,"enabled":true,"region":"eu","cc":"gb","latitude":51.509865,"longitude":-0.118092,"reserved":0,"last_update":"0001-01-01T00:00:00Z","name_a2s":"Uncletopia | London | 1 | All Maps","protocol":17,"map":"pl_frontier_final","folder":"tf","game":"Team Fortress","app_id":440,"player_count":24,"max_players":24,"Bots":0,"server_type":"Dedicated","server_os":"Linux","password":true,"vac":true,"version":"7961495","steam_id":85568392924367362,"keywords":["nocrits","nodmgspread","payload","uncletopia"],"game_id":440,"stv_port":27016,"stv_name":"Uncletopia | London | 1 | All Maps | STV","players":[{"user_id":508,"name":"topi tykki","steam_id":76561198107605938,"connected_time":1762000000000,"state":"active","ping":90},{"user_id":536,"name":"Fabric","steam_id":76561198118742661,"connected_time":35000000000,"state":"spawning","ping":110},{"user_id":525,"name":"Laru","steam_id":76561197998838438,"connected_time":439000000000,"state":"active","ping":82},{"user_id":496,"name":"accuracyAimz@skill.com","steam_id":76561198723244199,"connected_time":3511000000000,"state":"active","ping":88},{"user_id":528,"name":"gaming (official)","steam_id":76561198106012909,"connected_time":384000000000,"state":"active","ping":83},{"user_id":507,"name":"wG auto","steam_id":76561198062247888,"connected_time":1967000000000,"state":"active","ping":57},{"user_id":537,"name":"Chambersite the Wizard","steam_id":76561198197022399,"connected_time":25000000000,"state":"active","ping":72},{"user_id":518,"name":"Misty (she/her)","steam_id":76561199099286087,"connected_time":974000000000,"state":"active","ping":59},{"user_id":386,"name":"Lyra","steam_id":76561198043601838,"connected_time":9871000000000,"state":"active","ping":75},{"user_id":522,"name":"shloup","steam_id":76561198072892783,"connected_time":609000000000,"state":"active","ping":60},{"user_id":494,"name":"Salad Bar's medic","steam_id":76561199006455750,"connected_time":3630000000000,"state":"active","ping":33},{"user_id":526,"name":"winchester","steam_id":76561198875537106,"connected_time":433000000000,"state":"active","ping":60},{"user_id":517,"name":"finn","steam_id":76561198366652456,"connected_time":1316000000000,"state":"active","ping":76},{"user_id":529,"name":"LILY-CHAN","steam_id":76561198035085893,"connected_time":383000000000,"state":"active","ping":104},{"user_id":503,"name":"MeBandae","steam_id":76561198910770432,"connected_time":2432000000000,"state":"active","ping":57},{"user_id":511,"name":"Purplenoogie","steam_id":76561198081872160,"connected_time":1720000000000,"state":"active","ping":45},{"user_id":530,"name":"ekn","steam_id":76561198238126246,"connected_time":378000000000,"state":"active","ping":55},{"user_id":531,"name":"gabagool","steam_id":76561198307111838,"connected_time":377000000000,"state":"active","ping":30},{"user_id":500,"name":"After8","steam_id":76561198090750865,"connected_time":3146000000000,"state":"active","ping":73},{"user_id":532,"name":"Big Al","steam_id":76561198079585198,"connected_time":352000000000,"state":"active","ping":55},{"user_id":521,"name":"Flash","steam_id":76561198067379855,"connected_time":772000000000,"state":"active","ping":81},{"user_id":533,"name":"Rad","steam_id":76561199001560866,"connected_time":349000000000,"state":"active","ping":68},{"user_id":491,"name":"Elliebingo","steam_id":76561198132988035,"connected_time":4144000000000,"state":"active","ping":59},{"user_id":535,"name":"Trapezoid","steam_id":76561198059369295,"connected_time":189000000000,"state":"active","ping":65}]},{"server_id":114,"name":"Uncletopia | London | 2 | All Maps","name_short":"lon-2","host":"lon-1.uk.uncletopia.com","port":27025,"enabled":true,"region":"eu","cc":"gb","latitude":51.509865,"longitude":-0.118092,"reserved":0,"last_update":"0001-01-01T00:00:00Z","name_a2s":"Uncletopia | London | 2 | All Maps","protocol":17,"map":"koth_highpass","folder":"tf","game":"Team Fortress","app_id":440,"player_count":20,"max_players":24,"Bots":0,"server_type":"Dedicated","server_os":"Linux","password":true,"vac":true,"version":"7961495","steam_id":85568392924470941,"keywords":["cp","nocrits","nodmgspread","uncletopia"],"game_id":440,"stv_port":27026,"stv_name":"Uncletopia | London | 2 | All Maps | STV","players":[{"user_id":433,"name":"✪ m_br3","steam_id":76561198044981990,"connected_time":3222000000000,"state":"active","ping":75},{"user_id":434,"name":"She Dooby","steam_id":76561198334042273,"connected_time":3215000000000,"state":"active","ping":74},{"user_id":523,"name":"lucasbjornen","steam_id":76561198081357893,"connected_time":945000000000,"state":"active","ping":123},{"user_id":535,"name":"Sang","steam_id":76561198008510868,"connected_time":91000000000,"state":"active","ping":67},{"user_id":482,"name":"cwasòn the croissant","steam_id":76561198317643652,"connected_time":2051000000000,"state":"active","ping":57},{"user_id":525,"name":"DJ L3G3ND","steam_id":76561198186112647,"connected_time":757000000000,"state":"active","ping":41},{"user_id":536,"name":"UC Unt","steam_id":76561198002302019,"connected_time":35000000000,"state":"active","ping":48},{"user_id":531,"name":"Niyaah","steam_id":76561198110209191,"connected_time":463000000000,"state":"active","ping":58},{"user_id":512,"name":"smiley","steam_id":76561198042245117,"connected_time":1497000000000,"state":"active","ping":65},{"user_id":390,"name":"Puff the Magic Adder","steam_id":76561198041578884,"connected_time":6800000000000,"state":"active","ping":164},{"user_id":518,"name":"|Marevuli|","steam_id":76561198398581260,"connected_time":1418000000000,"state":"active","ping":73},{"user_id":421,"name":"spencer pooties","steam_id":76561198123044544,"connected_time":3693000000000,"state":"active","ping":65},{"user_id":422,"name":"2006 Mitsubishi Lancer","steam_id":76561198036632498,"connected_time":3595000000000,"state":"active","ping":43},{"user_id":511,"name":"Grumtsior","steam_id":76561198043563111,"connected_time":1504000000000,"state":"active","ping":75},{"user_id":516,"name":"comic_sans","steam_id":76561198845309519,"connected_time":1445000000000,"state":"active","ping":82},{"user_id":440,"name":"Bob D","steam_id":76561198026375630,"connected_time":3060000000000,"state":"active","ping":60},{"user_id":500,"name":"Vanilla Autismotron","steam_id":76561198278604277,"connected_time":1643000000000,"state":"active","ping":50},{"user_id":533,"name":"goku ピップ・ペタル","steam_id":76561198147668373,"connected_time":412000000000,"state":"active","ping":60},{"user_id":520,"name":"UltimateAura","steam_id":76561198338361324,"connected_time":1398000000000,"state":"active","ping":45},{"user_id":459,"name":"Haku*","steam_id":76561198013292193,"connected_time":2493000000000,"state":"active","ping":66}]},{"server_id":320,"name":"Uncletopia | London | 3 | All Maps","name_short":"lon-3","host":"lon-1.uk.uncletopia.com","port":27035,"enabled":true,"region":"eu","cc":"gb","latitude":51.509865,"longitude":-0.118092,"reserved":0,"last_update":"0001-01-01T00:00:00Z","name_a2s":"Uncletopia | London | 3 | All Maps","protocol":17,"map":"pl_badwater","folder":"tf","game":"Team Fortress","app_id":440,"player_count":24,"max_players":24,"Bots":0,"server_type":"Dedicated","server_os":"Linux","password":true,"vac":true,"version":"7961495","steam_id":85568392924510192,"keywords":["nocrits","nodmgspread","payload","uncletopia"],"game_id":440,"stv_port":27036,"stv_name":"Uncletopia | London | 3 | All Maps | STV","players":[{"user_id":204,"name":"stickurr","steam_id":76561198089536805,"connected_time":704000000000,"state":"active","ping":42},{"user_id":197,"name":"Dispenser(Dispenser)","steam_id":76561199211831658,"connected_time":1857000000000,"state":"active","ping":59},{"user_id":122,"name":"Gabeyboy321","steam_id":76561199379213615,"connected_time":6322000000000,"state":"active","ping":162},{"user_id":199,"name":"eeeeee","steam_id":76561198017786875,"connected_time":1680000000000,"state":"active","ping":72},{"user_id":201,"name":"Edsuedi","steam_id":76561198074722832,"connected_time":1104000000000,"state":"active","ping":60},{"user_id":198,"name":"Woman (Real)","steam_id":76561199151823932,"connected_time":1837000000000,"state":"active","ping":82},{"user_id":213,"name":"76Paoleye","steam_id":76561198862271212,"connected_time":60000000000,"state":"active","ping":76},{"user_id":194,"name":"abra-kablam","steam_id":76561198195857751,"connected_time":2508000000000,"state":"active","ping":76},{"user_id":187,"name":"Alender","steam_id":76561198061122036,"connected_time":2801000000000,"state":"active","ping":52},{"user_id":205,"name":"tafelpoot","steam_id":76561198080036024,"connected_time":692000000000,"state":"active","ping":52},{"user_id":200,"name":"Carrotcracker","steam_id":76561198034862396,"connected_time":1555000000000,"state":"active","ping":83},{"user_id":174,"name":"Marquis de Hoto","steam_id":76561198080687708,"connected_time":3640000000000,"state":"active","ping":75},{"user_id":185,"name":"medick","steam_id":76561199380849468,"connected_time":2895000000000,"state":"active","ping":63},{"user_id":181,"name":"Speed-Dial","steam_id":76561198012428315,"connected_time":3302000000000,"state":"active","ping":50},{"user_id":202,"name":"micjacklin","steam_id":76561199383619549,"connected_time":755000000000,"state":"active","ping":162},{"user_id":154,"name":"Largo","steam_id":76561198844368927,"connected_time":4837000000000,"state":"active","ping":75},{"user_id":203,"name":"Ricey","steam_id":76561198832961307,"connected_time":725000000000,"state":"active","ping":48},{"user_id":150,"name":"hyvakii705","steam_id":76561198086630552,"connected_time":5201000000000,"state":"active","ping":90},{"user_id":206,"name":"lulu","steam_id":76561199147764133,"connected_time":689000000000,"state":"active","ping":72},{"user_id":184,"name":"Eradical","steam_id":76561199035578645,"connected_time":3233000000000,"state":"active","ping":103},{"user_id":214,"name":"METhOphetamine","steam_id":76561198068216224,"connected_time":47000000000,"state":"active","ping":63},{"user_id":209,"name":"Five Finger Discount","steam_id":76561197994556857,"connected_time":631000000000,"state":"active","ping":71},{"user_id":212,"name":"tralalaOuiOui","steam_id":76561197963471507,"connected_time":311000000000,"state":"active","ping":45},{"user_id":193,"name":"Spurt","steam_id":76561198078523852,"connected_time":2532000000000,"state":"active","ping":59}]},{"server_id":321,"name":"Uncletopia | London | 4 | All Maps","name_short":"lon-4","host":"lon-1.uk.uncletopia.com","port":27045,"enabled":true,"region":"eu","cc":"gb","latitude":51.509865,"longitude":-0.118092,"reserved":0,"last_update":"0001-01-01T00:00:00Z","name_a2s":"Uncletopia | London | 4 | All Maps","protocol":17,"map":"pl_snowycoast","folder":"tf","game":"Team Fortress","app_id":440,"player_count":24,"max_players":24,"Bots":0,"server_type":"Dedicated","server_os":"Linux","password":true,"vac":true,"version":"7961495","steam_id":85568392924510193,"keywords":["nocrits","nodmgspread","payload","uncletopia"],"game_id":440,"stv_port":27046,"stv_name":"Uncletopia | London | 4 | All Maps | STV","players":[{"user_id":274,"name":"finbar","steam_id":76561198056812396,"connected_time":1284000000000,"state":"active","ping":74},{"user_id":183,"name":"Circular","steam_id":76561198001536710,"connected_time":5914000000000,"state":"active","ping":48},{"user_id":213,"name":"cisgender clown","steam_id":76561199469909295,"connected_time":4753000000000,"state":"active","ping":65},{"user_id":267,"name":"BOYMODE","steam_id":76561198155314925,"connected_time":1543000000000,"state":"active","ping":50},{"user_id":282,"name":"mrrobsa","steam_id":76561197971287215,"connected_time":629000000000,"state":"active","ping":61},{"user_id":273,"name":"jeff","steam_id":76561198272815746,"connected_time":1360000000000,"state":"active","ping":49},{"user_id":279,"name":"SEEJ","steam_id":76561198185520762,"connected_time":696000000000,"state":"active","ping":65},{"user_id":277,"name":"SoaCrow","steam_id":76561198069420717,"connected_time":984000000000,"state":"active","ping":71},{"user_id":278,"name":"mr.resetti","steam_id":76561198974520642,"connected_time":717000000000,"state":"active","ping":75},{"user_id":191,"name":"blank","steam_id":76561198805181599,"connected_time":5671000000000,"state":"active","ping":59},{"user_id":283,"name":"lumikko","steam_id":76561198112012468,"connected_time":611000000000,"state":"active","ping":95},{"user_id":284,"name":"Onions","steam_id":76561198150195195,"connected_time":609000000000,"state":"active","ping":53},{"user_id":285,"name":"Benzo Fury","steam_id":76561198025259336,"connected_time":603000000000,"state":"active","ping":45},{"user_id":286,"name":"robyn","steam_id":76561199388526903,"connected_time":522000000000,"state":"active","ping":77},{"user_id":291,"name":"Paint","steam_id":76561198166823873,"connected_time":131000000000,"state":"active","ping":58},{"user_id":287,"name":"ElboWarse","steam_id":76561198936701874,"connected_time":521000000000,"state":"active","ping":48},{"user_id":238,"name":"Nokah","steam_id":76561198973184361,"connected_time":3381000000000,"state":"active","ping":74},{"user_id":243,"name":"McAtka","steam_id":76561198019759329,"connected_time":2878000000000,"state":"active","ping":57},{"user_id":276,"name":"TozyTo","steam_id":76561198093994346,"connected_time":1151000000000,"state":"active","ping":69},{"user_id":288,"name":"TheColdChiliPepper","steam_id":76561199027155811,"connected_time":510000000000,"state":"active","ping":162},{"user_id":289,"name":"pakku","steam_id":76561198121260981,"connected_time":497000000000,"state":"active","ping":36},{"user_id":292,"name":"Skinny101","steam_id":76561197985599360,"connected_time":98000000000,"state":"active","ping":49},{"user_id":248,"name":"Overseer Boots","steam_id":76561199115636221,"connected_time":2221000000000,"state":"active","ping":63},{"user_id":259,"name":"Estyle","steam_id":76561198157804700,"connected_time":1833000000000,"state":"active","ping":173}]},{"server_id":21,"name":"Uncletopia | London | 5 | All Maps","name_short":"lon-5","host":"lon-1.uk.uncletopia.com","port":27055,"enabled":true,"region":"eu","cc":"gb","latitude":51.509865,"longitude":-0.118092,"reserved":0,"last_update":"0001-01-01T00:00:00Z","name_a2s":"Uncletopia | London | 5 | All Maps","protocol":17,"map":"koth_suijin","folder":"tf","game":"Team Fortress","app_id":440,"player_count":0,"max_players":24,"Bots":0,"server_type":"Dedicated","server_os":"Linux","password":true,"vac":true,"version":"7961495","steam_id":85568392924742829,"keywords":["cp","nocrits","nodmgspread","uncletopia"],"game_id":440,"stv_port":27056,"stv_name":"Uncletopia | London | 5 | All Maps | STV","players":null},{"server_id":22,"name":"Uncletopia | London | 6 | All Maps","name_short":"lon-6","host":"lon-1.uk.uncletopia.com","port":27065,"enabled":true,"region":"eu","cc":"gb","latitude":51.509865,"longitude":-0.118092,"reserved":0,"last_update":"0001-01-01T00:00:00Z","name_a2s":"Uncletopia | London | 6 | All Maps","protocol":17,"map":"koth_viaduct","folder":"tf","game":"Team Fortress","app_id":440,"player_count":3,"max_players":24,"Bots":0,"server_type":"Dedicated","server_os":"Linux","password":true,"vac":true,"version":"7961495","steam_id":85568392924742830,"keywords":["cp","nocrits","nodmgspread","uncletopia"],"game_id":440,"stv_port":27066,"stv_name":"Uncletopia | London | 6 | All Maps | STV","players":[{"user_id":18,"name":"curious femboy","steam_id":76561199199388221,"connected_time":907000000000,"state":"active","ping":52},{"user_id":19,"name":"snauusey","steam_id":76561199134329212,"connected_time":903000000000,"state":"active","ping":47},{"user_id":20,"name":"The Man with the Golden Gunk","steam_id":76561198212427715,"connected_time":615000000000,"state":"active","ping":53}]},{"server_id":40,"name":"Uncletopia | London | 7 | Stopwatch","name_short":"lon-7","host":"lon-1.uk.uncletopia.com","port":27075,"enabled":true,"region":"eu","cc":"gb","latitude":51.509865,"longitude":-0.118092,"reserved":0,"last_update":"0001-01-01T00:00:00Z","name_a2s":"Uncletopia | London | 7 | Stopwatch","protocol":17,"map":"pl_swiftwater_final1","folder":"tf","game":"Team Fortress","app_id":440,"player_count":3,"max_players":24,"Bots":0,"server_type":"Dedicated","server_os":"Linux","password":true,"vac":true,"version":"7961495","steam_id":85568392924964314,"keywords":["nocrits","nodmgspread","payload","uncletopia"],"game_id":440,"stv_port":27076,"stv_name":"Uncletopia | London | 7 | Stopwatch | STV","players":[{"user_id":40,"name":"ran is running","steam_id":76561199443185667,"connected_time":1115000000000,"state":"active","ping":124},{"user_id":41,"name":"Petight","steam_id":76561197999438798,"connected_time":1100000000000,"state":"active","ping":30},{"user_id":42,"name":"Usagi Alohaoe","steam_id":76561198981191925,"connected_time":1014000000000,"state":"active","ping":39}]},{"server_id":41,"name":"Uncletopia | London | 8 | Community","name_short":"lon-8","host":"lon-1.uk.uncletopia.com","port":27085,"enabled":true,"region":"eu","cc":"gb","latitude":51.509865,"longitude":-0.118092,"reserved":0,"last_update":"0001-01-01T00:00:00Z","name_a2s":"Uncletopia | London | 8 | Community","protocol":17,"map":"workshop/koth_bagel_rc6.ugc2514036946","folder":"tf","game":"Team Fortress","app_id":440,"player_count":0,"max_players":24,"Bots":0,"server_type":"Dedicated","server_os":"Linux","password":true,"vac":true,"version":"7961495","steam_id":85568392924964315,"keywords":["cp","nocrits","nodmgspread","uncletopia"],"game_id":440,"stv_port":27086,"stv_name":"Uncletopia | London | 8 | Community | STV","players":null},{"server_id":300,"name":"Uncletopia | Montréal | 1 | One Thousand Uncles","name_short":"mtl-1","host":"mtl-1.ca.uncletopia.com","port":27015,"enabled":true,"region":"us-east","cc":"ca","latitude":45.50889,"longitude":-73.56167,"reserved":0,"last_update":"0001-01-01T00:00:00Z","name_a2s":"Uncletopia | Montréal | 1 | One Thousand Uncles","protocol":17,"map":"pl_barnblitz","folder":"tf","game":"Team Fortress","app_id":440,"player_count":0,"max_players":32,"Bots":0,"server_type":"Dedicated","server_os":"Linux","password":true,"vac":true,"version":"7961495","steam_id":85568392924500087,"keywords":["alltalk","danepve","increased_maxplayers","norespawntime","payload","uncletopia"],"game_id":440,"stv_port":0,"stv_name":"","players":null},{"server_id":301,"name":"Uncletopia | Montréal | 2 | One Thousand Uncles","name_short":"mtl-2","host":"mtl-1.ca.uncletopia.com","port":27025,"enabled":true,"region":"us-east","cc":"ca","latitude":45.50889,"longitude":-73.56167,"reserved":0,"last_update":"0001-01-01T00:00:00Z","name_a2s":"Uncletopia | Montréal | 2 | One Thousand Uncles","protocol":17,"map":"pl_pier","folder":"tf","game":"Team Fortress","app_id":440,"player_count":0,"max_players":32,"Bots":0,"server_type":"Dedicated","server_os":"Linux","password":true,"vac":true,"version":"7961495","steam_id":85568392924500088,"keywords":["alltalk","danepve","increased_maxplayers","norespawntime","payload","uncletopia"],"game_id":440,"stv_port":0,"stv_name":"","players":null},{"server_id":302,"name":"Uncletopia | Montréal | 3 | One Thousand Uncles","name_short":"mtl-3","host":"mtl-1.ca.uncletopia.com","port":27035,"enabled":true,"region":"us-east","cc":"ca","latitude":45.50889,"longitude":-73.56167,"reserved":0,"last_update":"0001-01-01T00:00:00Z","name_a2s":"Uncletopia | Montréal | 3 | One Thousand Uncles","protocol":17,"map":"pl_upward","folder":"tf","game":"Team Fortress","app_id":440,"player_count":0,"max_players":32,"Bots":0,"server_type":"Dedicated","server_os":"Linux","password":true,"vac":true,"version":"7961495","steam_id":85568392924500089,"keywords":["alltalk","danepve","increased_maxplayers","norespawntime","payload","uncletopia"],"game_id":440,"stv_port":0,"stv_name":"","players":null},{"server_id":13,"name":"Uncletopia | New York City | 1 | All Maps","name_short":"nyc-1","host":"nyc-1.us.uncletopia.com","port":27015,"enabled":true,"region":"us-east","cc":"us","latitude":40.73061,"longitude":-73.93524,"reserved":0,"last_update":"0001-01-01T00:00:00Z","name_a2s":"Uncletopia | New York City | 1 | All Maps","protocol":17,"map":"pl_swiftwater_final1","folder":"tf","game":"Team Fortress","app_id":440,"player_count":2,"max_players":24,"Bots":0,"server_type":"Dedicated","server_os":"Linux","password":true,"vac":true,"version":"7961495","steam_id":85568392924469993,"keywords":["nocrits","nodmgspread","payload","uncletopia"],"game_id":440,"stv_port":27016,"stv_name":"Uncletopia | New York City | 1 | All Maps | STV","players":[{"user_id":25,"name":"thezranger","steam_id":76561198454086460,"connected_time":251000000000,"state":"active","ping":134},{"user_id":26,"name":"Cosmoose","steam_id":76561198120336284,"connected_time":83000000000,"state":"spawning","ping":83}]},{"server_id":14,"name":"Uncletopia | New York City | 2 | All Maps","name_short":"nyc-2","host":"nyc-1.us.uncletopia.com","port":27025,"enabled":true,"region":"us-east","cc":"us","latitude":40.73061,"longitude":-73.93524,"reserved":0,"last_update":"0001-01-01T00:00:00Z","name_a2s":"Uncletopia | New York City | 2 | All Maps","protocol":17,"map":"koth_suijin","folder":"tf","game":"Team Fortress","app_id":440,"player_count":1,"max_players":24,"Bots":0,"server_type":"Dedicated","server_os":"Linux","password":true,"vac":true,"version":"7961495","steam_id":85568392924469994,"keywords":["cp","nocrits","nodmgspread","uncletopia"],"game_id":440,"stv_port":27026,"stv_name":"Uncletopia | New York City | 2 | All Maps | STV","players":[{"user_id":17,"name":"MurpAMurp","steam_id":76561198374437261,"connected_time":179000000000,"state":"active","ping":88}]},{"server_id":15,"name":"Uncletopia | New York City | 3 | Stopwatch","name_short":"nyc-3","host":"nyc-1.us.uncletopia.com","port":27035,"enabled":true,"region":"us-east","cc":"us","latitude":40.73061,"longitude":-73.93524,"reserved":0,"last_update":"0001-01-01T00:00:00Z","name_a2s":"Uncletopia | New York City | 3 | Stopwatch","protocol":17,"map":"workshop/cp_reckoner_rc6.ugc674719999","folder":"tf","game":"Team Fortress","app_id":440,"player_count":0,"max_players":24,"Bots":0,"server_type":"Dedicated","server_os":"Linux","password":true,"vac":true,"version":"7961495","steam_id":85568392924742820,"keywords":["cp","nocrits","nodmgspread","uncletopia"],"game_id":440,"stv_port":27036,"stv_name":"Uncletopia | New York City | 3 | Stopwatch | STV","players":null},{"server_id":16,"name":"Uncletopia | New York City | 4 | Community","name_short":"nyc-4","host":"nyc-1.us.uncletopia.com","port":27045,"enabled":true,"region":"us-east","cc":"us","latitude":40.73061,"longitude":-73.93524,"reserved":0,"last_update":"0001-01-01T00:00:00Z","name_a2s":"Uncletopia | New York City | 4 | Community","protocol":17,"map":"workshop/cp_overgrown_rc8.ugc503939302","folder":"tf","game":"Team Fortress","app_id":440,"player_count":0,"max_players":24,"Bots":0,"server_type":"Dedicated","server_os":"Linux","password":true,"vac":true,"version":"7961495","steam_id":85568392924742821,"keywords":["cp","nocrits","nodmgspread","uncletopia"],"game_id":440,"stv_port":27046,"stv_name":"Uncletopia | New York City | 4 | Community | STV","players":null},{"server_id":142,"name":"Uncletopia | São Paulo | 1 | All Maps","name_short":"sao-1","host":"sao-1.br.uncletopia.com","port":27015,"enabled":true,"region":"sa","cc":"br","latitude":-23.533773,"longitude":-46.62529,"reserved":0,"last_update":"0001-01-01T00:00:00Z","name_a2s":"Uncletopia | São Paulo | 1 | All Maps","protocol":17,"map":"cp_mountainlab","folder":"tf","game":"Team Fortress","app_id":440,"player_count":0,"max_players":24,"Bots":0,"server_type":"Dedicated","server_os":"Linux","password":true,"vac":true,"version":"7961495","steam_id":85568392924469996,"keywords":["cp","nocrits","nodmgspread","uncletopia"],"game_id":440,"stv_port":27016,"stv_name":"Uncletopia | São Paulo | 1 | All Maps | STV","players":null},{"server_id":143,"name":"Uncletopia | São Paulo | 2 | Community","name_short":"sao-2","host":"sao-2.br.uncletopia.com","port":27015,"enabled":true,"region":"sa","cc":"br","latitude":-23.533773,"longitude":-46.62529,"reserved":0,"last_update":"0001-01-01T00:00:00Z","name_a2s":"Uncletopia | São Paulo | 2 | Community","protocol":17,"map":"workshop/koth_slaughter_rc1.ugc1712845210","folder":"tf","game":"Team Fortress","app_id":440,"player_count":0,"max_players":24,"Bots":0,"server_type":"Dedicated","server_os":"Linux","password":true,"vac":true,"version":"7961495","steam_id":85568392924485349,"keywords":["cp","nocrits","nodmgspread","uncletopia"],"game_id":440,"stv_port":27016,"stv_name":"Uncletopia | São Paulo | 2 | Community | STV","players":null},{"server_id":7,"name":"Uncletopia | Seattle | 1 | All Maps","name_short":"sea-1","host":"sea-1.us.uncletopia.com","port":27015,"enabled":true,"region":"us-west","cc":"us","latitude":47.608013,"longitude":-122.33517,"reserved":0,"last_update":"0001-01-01T00:00:00Z","name_a2s":"Uncletopia | Seattle | 1 | All Maps","protocol":17,"map":"pl_borneo","folder":"tf","game":"Team Fortress","app_id":440,"player_count":24,"max_players":24,"Bots":0,"server_type":"Dedicated","server_os":"Linux","password":true,"vac":true,"version":"7961495","steam_id":85568392924469997,"keywords":["nocrits","nodmgspread","payload","uncletopia"],"game_id":440,"stv_port":27016,"stv_name":"Uncletopia | Seattle | 1 | All Maps | STV","players":[{"user_id":183,"name":"Keamy","steam_id":76561199471434875,"connected_time":1363000000000,"state":"active","ping":35},{"user_id":191,"name":"Guwop","steam_id":76561197970425737,"connected_time":812000000000,"state":"active","ping":100},{"user_id":174,"name":"Xanveil","steam_id":76561198370304125,"connected_time":2629000000000,"state":"active","ping":111},{"user_id":184,"name":"Alcohol + Bad Life Decisions","steam_id":76561198107973644,"connected_time":1312000000000,"state":"active","ping":44},{"user_id":192,"name":"Giga Vivian","steam_id":76561198105057122,"connected_time":784000000000,"state":"active","ping":45},{"user_id":115,"name":"Sailor","steam_id":76561199081983517,"connected_time":7298000000000,"state":"active","ping":167},{"user_id":169,"name":"Cheezbeargur","steam_id":76561198164702899,"connected_time":2788000000000,"state":"active","ping":67},{"user_id":200,"name":"ed","steam_id":76561198080475712,"connected_time":152000000000,"state":"active","ping":60},{"user_id":165,"name":"coco","steam_id":76561199488457138,"connected_time":2960000000000,"state":"active","ping":57},{"user_id":189,"name":"DocThengineer","steam_id":76561199389114520,"connected_time":1094000000000,"state":"active","ping":121},{"user_id":186,"name":"Mystic man of potatoe","steam_id":76561198027267207,"connected_time":1248000000000,"state":"active","ping":100},{"user_id":198,"name":"Shark Sandwich","steam_id":76561198025007938,"connected_time":288000000000,"state":"active","ping":54},{"user_id":120,"name":"Erbbew","steam_id":76561198014787195,"connected_time":6870000000000,"state":"active","ping":58},{"user_id":190,"name":"Trepidpotato","steam_id":76561199230865007,"connected_time":860000000000,"state":"active","ping":99},{"user_id":114,"name":"DaddyGalaxy","steam_id":76561198139697796,"connected_time":7368000000000,"state":"active","ping":58},{"user_id":139,"name":"Mannamannaa","steam_id":76561198024438635,"connected_time":4913000000000,"state":"active","ping":123},{"user_id":188,"name":"oopsboom24","steam_id":76561199105248648,"connected_time":1236000000000,"state":"active","ping":156},{"user_id":194,"name":"manchego gaming","steam_id":76561198069895678,"connected_time":642000000000,"state":"active","ping":65},{"user_id":143,"name":"Dr.Blunt","steam_id":76561198096333958,"connected_time":4519000000000,"state":"active","ping":85},{"user_id":79,"name":"Penis Man","steam_id":76561198947885613,"connected_time":10664000000000,"state":"active","ping":71},{"user_id":197,"name":"The Yiddish Dictionary","steam_id":76561198986862889,"connected_time":366000000000,"state":"active","ping":60},{"user_id":178,"name":"Falleax","steam_id":76561198021154908,"connected_time":2516000000000,"state":"active","ping":95},{"user_id":75,"name":"NEЯO","steam_id":76561197965450216,"connected_time":10747000000000,"state":"active","ping":45},{"user_id":195,"name":"Engineer Gaming Live","steam_id":76561198045914603,"connected_time":516000000000,"state":"active","ping":68}]},{"server_id":119,"name":"Uncletopia | Seattle | 2 | All Maps","name_short":"sea-2","host":"sea-1.us.uncletopia.com","port":27025,"enabled":true,"region":"us-west","cc":"us","latitude":47.608013,"longitude":-122.33517,"reserved":0,"last_update":"0001-01-01T00:00:00Z","name_a2s":"Uncletopia | Seattle | 2 | All Maps","protocol":17,"map":"cp_mountainlab","folder":"tf","game":"Team Fortress","app_id":440,"player_count":0,"max_players":24,"Bots":0,"server_type":"Dedicated","server_os":"Linux","password":true,"vac":true,"version":"7961495","steam_id":85568392924469998,"keywords":["cp","nocrits","nodmgspread","uncletopia"],"game_id":440,"stv_port":27026,"stv_name":"Uncletopia | Seattle | 2 | All Maps | STV","players":null},{"server_id":406,"name":"Uncletopia | Seattle | 3 | Stopwatch","name_short":"sea-3","host":"sea-1.us.uncletopia.com","port":27035,"enabled":true,"region":"us-west","cc":"us","latitude":47.608013,"longitude":-122.33517,"reserved":0,"last_update":"0001-01-01T00:00:00Z","name_a2s":"Uncletopia | Seattle | 3 | Stopwatch","protocol":17,"map":"cp_gullywash_final1","folder":"tf","game":"Team Fortress","app_id":440,"player_count":0,"max_players":24,"Bots":0,"server_type":"Dedicated","server_os":"Linux","password":true,"vac":true,"version":"7961495","steam_id":85568392924515217,"keywords":["cp","nocrits","nodmgspread","uncletopia"],"game_id":440,"stv_port":27036,"stv_name":"Uncletopia | Seattle | 3 | Stopwatch | STV","players":null},{"server_id":17,"name":"Uncletopia | San Francisco | 1 | All Maps","name_short":"sfo-1","host":"sfo-1.us.uncletopia.com","port":27015,"enabled":true,"region":"us-west","cc":"us","latitude":37.77397,"longitude":-122.4313,"reserved":0,"last_update":"0001-01-01T00:00:00Z","name_a2s":"Uncletopia | San Francisco | 1 | All Maps","protocol":17,"map":"cp_gullywash_final1","folder":"tf","game":"Team Fortress","app_id":440,"player_count":0,"max_players":24,"Bots":0,"server_type":"Dedicated","server_os":"Linux","password":true,"vac":true,"version":"7961495","steam_id":85568392924469999,"keywords":["cp","nocrits","nodmgspread","uncletopia"],"game_id":440,"stv_port":27016,"stv_name":"Uncletopia | San Francisco | 1 | All Maps | STV","players":null},{"server_id":18,"name":"Uncletopia | San Francisco | 2 | All Maps","name_short":"sfo-2","host":"sfo-1.us.uncletopia.com","port":27025,"enabled":true,"region":"us-west","cc":"us","latitude":37.77397,"longitude":-122.4313,"reserved":0,"last_update":"0001-01-01T00:00:00Z","name_a2s":"Uncletopia | San Francisco | 2 | All Maps","protocol":17,"map":"pl_hoodoo_final","folder":"tf","game":"Team Fortress","app_id":440,"player_count":0,"max_players":24,"Bots":0,"server_type":"Dedicated","server_os":"Linux","password":true,"vac":true,"version":"7961495","steam_id":85568392924470000,"keywords":["nocrits","nodmgspread","payload","uncletopia"],"game_id":440,"stv_port":27026,"stv_name":"Uncletopia | San Francisco | 2 | All Maps | STV","players":null},{"server_id":19,"name":"Uncletopia | San Francisco | 3 | Stopwatch","name_short":"sfo-3","host":"sfo-1.us.uncletopia.com","port":27035,"enabled":true,"region":"us-west","cc":"us","latitude":37.77397,"longitude":-122.4313,"reserved":0,"last_update":"0001-01-01T00:00:00Z","name_a2s":"Uncletopia | San Francisco | 3 | Stopwatch","protocol":17,"map":"workshop/koth_clearcut_b15.ugc2107050255","folder":"tf","game":"Team Fortress","app_id":440,"player_count":0,"max_players":24,"Bots":0,"server_type":"Dedicated","server_os":"Linux","password":true,"vac":true,"version":"7961495","steam_id":85568392924742824,"keywords":["cp","nocrits","nodmgspread","uncletopia"],"game_id":440,"stv_port":27036,"stv_name":"Uncletopia | San Francisco | 3 | Stopwatch | STV","players":null},{"server_id":20,"name":"Uncletopia | San Francisco | 4 | Community","name_short":"sfo-4","host":"sfo-1.us.uncletopia.com","port":27045,"enabled":true,"region":"us-west","cc":"us","latitude":37.77397,"longitude":-122.4313,"reserved":0,"last_update":"0001-01-01T00:00:00Z","name_a2s":"Uncletopia | San Francisco | 4 | Community","protocol":17,"map":"workshop/cp_reckoner_rc6.ugc674719999","folder":"tf","game":"Team Fortress","app_id":440,"player_count":0,"max_players":24,"Bots":0,"server_type":"Dedicated","server_os":"Linux","password":true,"vac":true,"version":"7961495","steam_id":85568392924742826,"keywords":["cp","nocrits","nodmgspread","uncletopia"],"game_id":440,"stv_port":27046,"stv_name":"Uncletopia | San Francisco | 4 | Community | STV","players":null},{"server_id":141,"name":"Uncletopia | Sydney | 1 | All Maps","name_short":"syd-1","host":"syd-1.au.uncletopia.com","port":27015,"enabled":true,"region":"au","cc":"au","latitude":-33.865143,"longitude":151.2099,"reserved":0,"last_update":"0001-01-01T00:00:00Z","name_a2s":"Uncletopia | Sydney | 1 | All Maps","protocol":17,"map":"cp_mountainlab","folder":"tf","game":"Team Fortress","app_id":440,"player_count":0,"max_players":24,"Bots":0,"server_type":"Dedicated","server_os":"Linux","password":true,"vac":true,"version":"7961495","steam_id":85568392924470001,"keywords":["cp","nocrits","nodmgspread","uncletopia"],"game_id":440,"stv_port":27016,"stv_name":"Uncletopia | Sydney | 1 | All Maps | STV","players":null},{"server_id":123,"name":"Uncletopia | Sydney | 2 | All Maps","name_short":"syd-2","host":"syd-1.au.uncletopia.com","port":27025,"enabled":true,"region":"au","cc":"au","latitude":-33.865143,"longitude":151.2099,"reserved":0,"last_update":"0001-01-01T00:00:00Z","name_a2s":"Uncletopia | Sydney | 2 | All Maps","protocol":17,"map":"cp_mercenarypark","folder":"tf","game":"Team Fortress","app_id":440,"player_count":0,"max_players":24,"Bots":0,"server_type":"Dedicated","server_os":"Linux","password":true,"vac":true,"version":"7961495","steam_id":85568392924470002,"keywords":["cp","nocrits","nodmgspread","uncletopia"],"game_id":440,"stv_port":27026,"stv_name":"Uncletopia | Sydney | 2 | All Maps | STV","players":null},{"server_id":395,"name":"Uncletopia | Sydney | 3 | All Maps","name_short":"syd-3","host":"syd-1.au.uncletopia.com","port":27035,"enabled":true,"region":"au","cc":"au","latitude":-33.865143,"longitude":151.2099,"reserved":0,"last_update":"0001-01-01T00:00:00Z","name_a2s":"Uncletopia | Sydney | 3 | All Maps","protocol":17,"map":"koth_brazil","folder":"tf","game":"Team Fortress","app_id":440,"player_count":0,"max_players":24,"Bots":0,"server_type":"Dedicated","server_os":"Linux","password":true,"vac":true,"version":"7961495","steam_id":85568392925194467,"keywords":["cp","nocrits","nodmgspread","uncletopia"],"game_id":440,"stv_port":27036,"stv_name":"Uncletopia | Sydney | 3 | All Maps | STV","players":null},{"server_id":396,"name":"Uncletopia | Sydney | 4 | All Maps","name_short":"syd-4","host":"syd-1.au.uncletopia.com","port":27045,"enabled":true,"region":"au","cc":"au","latitude":-33.865143,"longitude":151.2099,"reserved":0,"last_update":"0001-01-01T00:00:00Z","name_a2s":"Uncletopia | Sydney | 4 | All Maps","protocol":17,"map":"cp_standin_final","folder":"tf","game":"Team Fortress","app_id":440,"player_count":0,"max_players":24,"Bots":0,"server_type":"Dedicated","server_os":"Linux","password":true,"vac":true,"version":"7961495","steam_id":85568392925397958,"keywords":["cp","nocrits","nodmgspread","uncletopia"],"game_id":440,"stv_port":27046,"stv_name":"Uncletopia | Sydney | 4 | All Maps | STV","players":null},{"server_id":58,"name":"Uncletopia | Sydney | 5 | Stopwatch","name_short":"syd-5","host":"syd-1.au.uncletopia.com","port":27055,"enabled":true,"region":"au","cc":"au","latitude":-33.865143,"longitude":151.2099,"reserved":0,"last_update":"0001-01-01T00:00:00Z","name_a2s":"Uncletopia | Sydney | 5 | Stopwatch","protocol":17,"map":"koth_highpass","folder":"tf","game":"Team Fortress","app_id":440,"player_count":0,"max_players":24,"Bots":0,"server_type":"Dedicated","server_os":"Linux","password":true,"vac":true,"version":"7961495","steam_id":85568392925397959,"keywords":["cp","nocrits","nodmgspread","uncletopia"],"game_id":440,"stv_port":27056,"stv_name":"Uncletopia | Sydney | 5 | Stopwatch | STV","players":null},{"server_id":59,"name":"Uncletopia | Sydney | 6 | Community","name_short":"syd-6","host":"syd-1.au.uncletopia.com","port":27065,"enabled":true,"region":"au","cc":"au","latitude":-33.865143,"longitude":151.2099,"reserved":0,"last_update":"0001-01-01T00:00:00Z","name_a2s":"Uncletopia | Sydney | 6 | Community","protocol":17,"map":"workshop/koth_soot_final1.ugc2969540689","folder":"tf","game":"Team Fortress","app_id":440,"player_count":0,"max_players":24,"Bots":0,"server_type":"Dedicated","server_os":"Linux","password":true,"vac":true,"version":"7961495","steam_id":85568392925397960,"keywords":["cp","nocrits","nodmgspread","uncletopia"],"game_id":440,"stv_port":27066,"stv_name":"Uncletopia | Sydney | 6 | Community | STV","players":null},{"server_id":49,"name":"Uncletopia | Warsaw | 1 | One Thousand Uncles","name_short":"waw-1","host":"waw-1.pl.uncletopia.com","port":27015,"enabled":true,"region":"eu","cc":"pl","latitude":52.2297,"longitude":21.017532,"reserved":0,"last_update":"0001-01-01T00:00:00Z","name_a2s":"Uncletopia | Warsaw | 1 | One Thousand Uncles","protocol":17,"map":"cp_egypt_final","folder":"tf","game":"Team Fortress","app_id":440,"player_count":32,"max_players":32,"Bots":20,"server_type":"Dedicated","server_os":"Linux","password":true,"vac":true,"version":"7961495","steam_id":85568392925397850,"keywords":["alltalk","bots","cp","danepve","increased_maxplayers","norespawntime","uncletopia"],"game_id":440,"stv_port":0,"stv_name":"","players":[{"user_id":459,"name":"Denn๑ﭥ","steam_id":76561198257270574,"connected_time":756000000000,"state":"active","ping":151},{"user_id":438,"name":"zoeydotexe","steam_id":76561199019757026,"connected_time":2614000000000,"state":"active","ping":80},{"user_id":462,"name":"APGE","steam_id":76561198037063136,"connected_time":397000000000,"state":"active","ping":75},{"user_id":461,"name":"green rain 57","steam_id":76561199404849068,"connected_time":620000000000,"state":"active","ping":233},{"user_id":455,"name":"Luki","steam_id":76561198180609107,"connected_time":1777000000000,"state":"active","ping":216},{"user_id":426,"name":"Doods","steam_id":76561199172809660,"connected_time":4078000000000,"state":"active","ping":109},{"user_id":465,"name":"Husky","steam_id":76561198032742034,"connected_time":154000000000,"state":"active","ping":61},{"user_id":464,"name":"John Noob","steam_id":76561197999170026,"connected_time":283000000000,"state":"active","ping":194},{"user_id":453,"name":"antagonist","steam_id":76561198045125796,"connected_time":1801000000000,"state":"active","ping":116},{"user_id":466,"name":"Anti serbia","steam_id":76561199107641379,"connected_time":141000000000,"state":"active","ping":75},{"user_id":469,"name":"cheesecake hunter","steam_id":76561198097769060,"connected_time":119000000000,"state":"active","ping":70},{"user_id":468,"name":"KAM1L","steam_id":76561198315209831,"connected_time":137000000000,"state":"active","ping":53}]},{"server_id":50,"name":"Uncletopia | Warsaw | 2 | One Thousand Uncles","name_short":"waw-2","host":"waw-1.pl.uncletopia.com","port":27025,"enabled":true,"region":"eu","cc":"pl","latitude":52.2297,"longitude":21.017532,"reserved":0,"last_update":"0001-01-01T00:00:00Z","name_a2s":"Uncletopia | Warsaw | 2 | One Thousand Uncles","protocol":17,"map":"pl_thundermountain","folder":"tf","game":"Team Fortress","app_id":440,"player_count":0,"max_players":32,"Bots":0,"server_type":"Dedicated","server_os":"Linux","password":true,"vac":true,"version":"7961495","steam_id":85568392925397851,"keywords":["alltalk","danepve","increased_maxplayers","norespawntime","payload","uncletopia"],"game_id":440,"stv_port":0,"stv_name":"","players":null},{"server_id":51,"name":"Uncletopia | Warsaw | 3 | All Maps","name_short":"waw-3","host":"waw-1.pl.uncletopia.com","port":27035,"enabled":true,"region":"eu","cc":"pl","latitude":52.2297,"longitude":21.017532,"reserved":0,"last_update":"0001-01-01T00:00:00Z","name_a2s":"Uncletopia | Warsaw | 3 | All Maps","protocol":17,"map":"pl_barnblitz","folder":"tf","game":"Team Fortress","app_id":440,"player_count":0,"max_players":24,"Bots":0,"server_type":"Dedicated","server_os":"Linux","password":true,"vac":true,"version":"7961495","steam_id":85568392925397852,"keywords":["nocrits","nodmgspread","payload","uncletopia"],"game_id":440,"stv_port":27036,"stv_name":"Uncletopia | Warsaw | 3 | All Maps | STV","players":null},{"server_id":52,"name":"Uncletopia | Warsaw | 4 | All Maps","name_short":"waw-4","host":"waw-1.pl.uncletopia.com","port":27045,"enabled":true,"region":"eu","cc":"pl","latitude":52.2297,"longitude":21.017532,"reserved":0,"last_update":"0001-01-01T00:00:00Z","name_a2s":"Uncletopia | Warsaw | 4 | All Maps","protocol":17,"map":"koth_viaduct","folder":"tf","game":"Team Fortress","app_id":440,"player_count":0,"max_players":24,"Bots":0,"server_type":"Dedicated","server_os":"Linux","password":true,"vac":true,"version":"7961495","steam_id":85568392925397853,"keywords":["cp","nocrits","nodmgspread","uncletopia"],"game_id":440,"stv_port":27046,"stv_name":"Uncletopia | Warsaw | 4 | All Maps | STV","players":null},{"server_id":53,"name":"Uncletopia | Warsaw | 5 | Stopwatch","name_short":"waw-5","host":"waw-1.pl.uncletopia.com","port":27055,"enabled":true,"region":"eu","cc":"pl","latitude":52.2297,"longitude":21.017532,"reserved":0,"last_update":"0001-01-01T00:00:00Z","name_a2s":"Uncletopia | Warsaw | 5 | Stopwatch","protocol":17,"map":"workshop/pl_summercoast_rc8e.ugc1761528829","folder":"tf","game":"Team Fortress","app_id":440,"player_count":0,"max_players":24,"Bots":0,"server_type":"Dedicated","server_os":"Linux","password":true,"vac":true,"version":"7961495","steam_id":85568392925397854,"keywords":["nocrits","nodmgspread","payload","uncletopia"],"game_id":440,"stv_port":27056,"stv_name":"Uncletopia | Warsaw | 5 | Stopwatch | STV","players":null},{"server_id":54,"name":"Uncletopia | Warsaw | 6 | Community","name_short":"waw-6","host":"waw-1.pl.uncletopia.com","port":27065,"enabled":true,"region":"eu","cc":"pl","latitude":52.2297,"longitude":21.017532,"reserved":0,"last_update":"0001-01-01T00:00:00Z","name_a2s":"Uncletopia | Warsaw | 6 | Community","protocol":17,"map":"workshop/cp_sultry_b8.ugc2775471508","folder":"tf","game":"Team Fortress","app_id":440,"player_count":0,"max_players":24,"Bots":0,"server_type":"Dedicated","server_os":"Linux","password":true,"vac":true,"version":"7961495","steam_id":85568392925397856,"keywords":["cp","nocrits","nodmgspread","uncletopia"],"game_id":440,"stv_port":27066,"stv_name":"Uncletopia | Warsaw | 6 | Community | STV","players":null}]}