{"status":true,"message":"","result":[{"server_id":9,"name":"Uncletopia | Atlanta | 1 | All Maps","name_short":"atl-1","host":"atl-1.us.uncletopia.com","port":27015,"enabled":true,"region":"us-east","cc":"us","latitude":33.753746,"longitude":-84.38633,"reserved":0,"last_update":"0001-01-01T00:00:00Z","name_a2s":"Uncletopia | Atlanta | 1 | All Maps","protocol":17,"map":"pl_upward","folder":"tf","game":"Team Fortress","app_id":440,"player_count":17,"max_players":24,"Bots":0,"server_type":"Dedicated","server_os":"Linux","password":true,"vac":true,"version":"7757534","steam_id":85568392924469982,"keywords":["nocrits","nodmgspread","payload","uncletopia"],"game_id":440,"stv_port":27016,"stv_name":"Uncletopia | Atlanta | 1 | All Maps | STV","players":[{"user_id":704,"name":"Fargo","steam_id":76561198044703931,"connected_time":458000000000,"state":"active","ping":74},{"user_id":707,"name":"murder drone","steam_id":76561199149210631,"connected_time":343000000000,"state":"active","ping":51},{"user_id":628,"name":"titaniumsupernova","steam_id":76561198311711930,"connected_time":8208000000000,"state":"active","ping":50},{"user_id":710,"name":"tramadol","steam_id":76561198044443985,"connected_time":256000000000,"state":"active","ping":68},{"user_id":709,"name":"BuncusBeffer","steam_id":76561198285936616,"connected_time":281000000000,"state":"active","ping":114},{"user_id":680,"name":"Stronk","steam_id":76561198314043450,"connected_time":2196000000000,"state":"active","ping":94},{"user_id":711,"name":"CertifiedCereal","steam_id":76561198055027895,"connected_time":230000000000,"state":"active","ping":67},{"user_id":712,"name":"Zoo Keeper Engie","steam_id":76561198064380111,"connected_time":208000000000,"state":"active","ping":76},{"user_id":716,"name":"Zilveo","steam_id":76561198426441369,"connected_time":78000000000,"state":"active","ping":202},{"user_id":717,"name":"you've been deuced on!","steam_id":76561198236028020,"connected_time":26000000000,"state":"active","ping":85},{"user_id":715,"name":"Peter Muskrat (racist)","steam_id":76561198857749738,"connected_time":116000000000,"state":"active","ping":50},{"user_id":683,"name":"mu","steam_id":76561197997530228,"connected_time":2112000000000,"state":"active","ping":107},{"user_id":718,"name":"Quillz","steam_id":76561197996567754,"connected_time":16000000000,"state":"spawning","ping":60},{"user_id":684,"name":"DjBallBag","steam_id":76561198118551080,"connected_time":2108000000000,"state":"active","ping":84},{"user_id":687,"name":"Line","steam_id":76561198086222096,"connected_time":2027000000000,"state":"active","ping":60},{"user_id":701,"name":"ü§®","steam_id":76561199365672047,"connected_time":1107000000000,"state":"active","ping":77},{"user_id":695,"name":"Mage","steam_id":76561198285026879,"connected_time":1855000000000,"state":"active","ping":82}]},{"server_id":104,"name":"Uncletopia | Atlanta | 2 | All Maps","name_short":"atl-2","host":"atl-1.us.uncletopia.com","port":27025,"enabled":true,"region":"us-east","cc":"us","latitude":33.753746,"longitude":-84.38633,"reserved":0,"last_update":"0001-01-01T00:00:00Z","name_a2s":"Uncletopia | Atlanta | 2 | All Maps","protocol":17,"map":"koth_viaduct","folder":"tf","game":"Team Fortress","app_id":440,"player_count":0,"max_players":24,"Bots":0,"server_type":"Dedicated","server_os":"Linux","password":true,"vac":true,"version":"7757534","steam_id":85568392924469983,"keywords":["cp","nocrits","nodmgspread","uncletopia"],"game_id":440,"stv_port":27026,"stv_name":"Uncletopia | Atlanta | 2 | All Maps | STV","players":null},{"server_id":400,"name":"Uncletopia | Atlanta | 3 | Community","name_short":"atl-3","host":"atl-1.us.uncletopia.com","port":27035,"enabled":true,"region":"us-east","cc":"us","latitude":33.753746,"longitude":-84.38633,"reserved":0,"last_update":"0001-01-01T00:00:00Z","name_a2s":"Uncletopia | Atlanta | 3 | Community","protocol":17,"map":"workshop/rd_asteroid_redux_b1.ugc2154902912","folder":"tf","game":"Team Fortress","app_id":440,"player_count":0,"max_players":24,"Bots":0,"server_type":"Dedicated","server_os":"Linux","password":true,"vac":true,"version":"7757534","steam_id":85568392924515187,"keywords":["beta","nocrits","nodmgspread","rd","uncletopia"],"game_id":440,"stv_port":27036,"stv_name":"Uncletopia | Atlanta | 3 | Community | STV","players":null},{"server_id":401,"name":"Uncletopia | Atlanta | 4 | No Payload","name_short":"atl-4","host":"atl-1.us.uncletopia.com","port":27045,"enabled":true,"region":"us-east","cc":"us","latitude":33.753746,"longitude":-84.38633,"reserved":0,"last_update":"0001-01-01T00:00:00Z","name_a2s":"","protocol":0,"map":"","folder":"","game":"","app_id":0,"player_count":0,"max_players":0,"Bots":0,"server_type":"","server_os":"","password":false,"vac":false,"version":"","steam_id":0,"keywords":null,"game_id":0,"stv_port":0,"stv_name":"","players":null},{"server_id":2,"name":"Uncletopia | Chicago | 1 | All Maps","name_short":"chi-1","host":"chi-1.us.uncletopia.com","port":27015,"enabled":true,"region":"us-central","cc":"us","latitude":41.881832,"longitude":-87.62318,"reserved":0,"last_update":"0001-01-01T00:00:00Z","name_a2s":"Uncletopia | Chicago | 1 | All Maps","protocol":17,"map":"cp_mountainlab","folder":"tf","game":"Team Fortress","app_id":440,"player_count":0,"max_players":24,"Bots":0,"server_type":"Dedicated","server_os":"Linux","password":true,"vac":true,"version":"7757534","steam_id":85568392924469984,"keywords":["cp","nocrits","nodmgspread","uncletopia"],"game_id":440,"stv_port":27016,"stv_name":"Uncletopia | Chicago | 1 | All Maps | STV","players":null},{"server_id":106,"name":"Uncletopia | Chicago | 2 | All Maps","name_short":"chi-2","host":"chi-1.us.uncletopia.com","port":27025,"enabled":true,"region":"us-central","cc":"us","latitude":41.881832,"longitude":-87.62318,"reserved":0,"last_update":"0001-01-01T00:00:00Z","name_a2s":"Uncletopia | Chicago | 2 | All Maps","protocol":17,"map":"cp_snakewater_final1","folder":"tf","game":"Team Fortress","app_id":440,"player_count":0,"max_players":24,"Bots":0,"server_type":"Dedicated","server_os":"Linux","password":true,"vac":true,"version":"7757534","steam_id":85568392924469985,"keywords":["cp","nocrits","nodmgspread","uncletopia"],"game_id":440,"stv_port":27026,"stv_name":"Uncletopia | Chicago | 2 | All Maps | STV","players":null},{"server_id":402,"name":"Uncletopia | Chicago | 3 | All Maps","name_short":"chi-3","host":"chi-1.us.uncletopia.com","port":27035,"enabled":true,"region":"us-central","cc":"us","latitude":41.881832,"longitude":-87.62318,"reserved":0,"last_update":"0001-01-01T00:00:00Z","name_a2s":"Uncletopia | Chicago | 3 | All Maps","protocol":17,"map":"koth_lakeside_final","folder":"tf","game":"Team Fortress","app_id":440,"player_count":7,"max_players":24,"Bots":0,"server_type":"Dedicated","server_os":"Linux","password":true,"vac":true,"version":"7757534","steam_id":85568392924515191,"keywords":["cp","nocrits","nodmgspread","uncletopia"],"game_id":440,"stv_port":27036,"stv_name":"Uncletopia | Chicago | 3 | All Maps | STV","players":[{"user_id":773,"name":"MuffinMan","steam_id":76561198272111654,"connected_time":1940000000000,"state":"active","ping":89},{"user_id":774,"name":"lazy","steam_id":76561199191149784,"connected_time":1890000000000,"state":"active","ping":98},{"user_id":778,"name":"ror!","steam_id":76561198021227843,"connected_time":1074000000000,"state":"active","ping":51},{"user_id":781,"name":"Kidzbopsicle","steam_id":76561198047660691,"connected_time":750000000000,"state":"active","ping":55},{"user_id":786,"name":"Duh_Narwhal","steam_id":76561198029732360,"connected_time":156000000000,"state":"active","ping":59},{"user_id":784,"name":"watchfull","steam_id":76561198433266742,"connected_time":426000000000,"state":"active","ping":97},{"user_id":785,"name":"ambal55","steam_id":76561199365708113,"connected_time":311000000000,"state":"active","ping":293}]},{"server_id":403,"name":"Uncletopia | Chicago | 4 | All Maps","name_short":"chi-4","host":"chi-1.us.uncletopia.com","port":27045,"enabled":true,"region":"us-central","cc":"us","latitude":41.881832,"longitude":-87.62318,"reserved":0,"last_update":"0001-01-01T00:00:00Z","name_a2s":"Uncletopia | Chicago | 4 | All Maps","protocol":17,"map":"pl_pier","folder":"tf","game":"Team Fortress","app_id":440,"player_count":24,"max_players":24,"Bots":0,"server_type":"Dedicated","server_os":"Linux","password":true,"vac":true,"version":"7757534","steam_id":85568392924515193,"keywords":["nocrits","nodmgspread","payload","uncletopia"],"game_id":440,"stv_port":27046,"stv_name":"Uncletopia | Chicago | 4 | All Maps | STV","players":[{"user_id":721,"name":"alN","steam_id":76561198329171346,"connected_time":8552000000000,"state":"active","ping":45},{"user_id":722,"name":"Underqualified Gunman","steam_id":76561198111061367,"connected_time":8521000000000,"state":"active","ping":60},{"user_id":798,"name":"BTS | Bumbler","steam_id":76561198048895038,"connected_time":1970000000000,"state":"active","ping":79},{"user_id":809,"name":"Chancethefapper69","steam_id":76561198173086317,"connected_time":1064000000000,"state":"active","ping":75},{"user_id":814,"name":"BasedOrc","steam_id":76561198141233875,"connected_time":946000000000,"state":"active","ping":91},{"user_id":779,"name":"griddy","steam_id":76561198881665250,"connected_time":4086000000000,"state":"active","ping":90},{"user_id":724,"name":"Kevster570","steam_id":76561198115803066,"connected_time":8377000000000,"state":"active","ping":97},{"user_id":820,"name":"Random","steam_id":76561198318879454,"connected_time":528000000000,"state":"active","ping":61},{"user_id":810,"name":"THEY LET YOU PUT ANYTHING HERE","steam_id":76561198056214875,"connected_time":1041000000000,"state":"active","ping":72},{"user_id":751,"name":"Lore","steam_id":76561198098407538,"connected_time":6402000000000,"state":"active","ping":55},{"user_id":774,"name":"Waylen","steam_id":76561198945724920,"connected_time":4490000000000,"state":"active","ping":83},{"user_id":811,"name":"Lu Bu Red Hare ÊÉä‰∫∫220","steam_id":76561198111509162,"connected_time":1013000000000,"state":"active","ping":58},{"user_id":792,"name":"roast pig with apple in mouth","steam_id":76561198051353647,"connected_time":2810000000000,"state":"active","ping":58},{"user_id":807,"name":"Jimmy Johns Stupid Sandwich","steam_id":76561198143443816,"connected_time":1463000000000,"state":"active","ping":113},{"user_id":773,"name":"toilethumor","steam_id":76561197962028780,"connected_time":4806000000000,"state":"active","ping":75},{"user_id":799,"name":"BTS | Kalaner","steam_id":76561198041088708,"connected_time":1899000000000,"state":"active","ping":47},{"user_id":812,"name":"he munch","steam_id":76561198339644583,"connected_time":992000000000,"state":"active","ping":55},{"user_id":818,"name":"Dumb Queer (she/her)","steam_id":76561198121468734,"connected_time":766000000000,"state":"active","ping":96},{"user_id":720,"name":"Bryguy","steam_id":76561198092096120,"connected_time":8667000000000,"state":"active","ping":43},{"user_id":821,"name":"pigswill","steam_id":76561197999081865,"connected_time":407000000000,"state":"active","ping":90},{"user_id":805,"name":"WhiteRabbit","steam_id":76561198027579538,"connected_time":1779000000000,"state":"active","ping":68},{"user_id":794,"name":"Kng","steam_id":76561198993248203,"connected_time":2515000000000,"state":"active","ping":83},{"user_id":817,"name":"Kazul","steam_id":76561198014925555,"connected_time":922000000000,"state":"active","ping":54},{"user_id":797,"name":"Anime_Ori","steam_id":76561198082715890,"connected_time":2013000000000,"state":"active","ping":62}]},{"server_id":36,"name":"Uncletopia | Chicago | 5 | All Maps","name_short":"chi-5","host":"chi-2.us.uncletopia.com","port":27015,"enabled":true,"region":"us-central","cc":"us","latitude":41.881832,"longitude":-87.62318,"reserved":0,"last_update":"0001-01-01T00:00:00Z","name_a2s":"Uncletopia | Chicago | 5 | All Maps","protocol":17,"map":"pl_upward","folder":"tf","game":"Team Fortress","app_id":440,"player_count":24,"max_players":24,"Bots":0,"server_type":"Dedicated","server_os":"Linux","password":true,"vac":true,"version":"7757534","steam_id":85568392924866362,"keywords":["nocrits","nodmgspread","payload","uncletopia"],"game_id":440,"stv_port":27016,"stv_name":"Uncletopia | Chicago | 5 | All Maps | STV","players":[{"user_id":477,"name":"RectalExam","steam_id":76561197970502312,"connected_time":7265000000000,"state":"active","ping":87},{"user_id":527,"name":"Tough Puffin","steam_id":76561198024011010,"connected_time":2447000000000,"state":"active","ping":71},{"user_id":538,"name":"4+1MyriadFuturesCosMo@BousouFC","steam_id":76561198181929019,"connected_time":759000000000,"state":"active","ping":50},{"user_id":515,"name":"Phoenix Wright","steam_id":76561199086357213,"connected_time":3266000000000,"state":"active","ping":82},{"user_id":483,"name":"_hooded_","steam_id":76561198023595873,"connected_time":7135000000000,"state":"active","ping":83},{"user_id":547,"name":"yomo","steam_id":76561198063175935,"connected_time":106000000000,"state":"active","ping":71},{"user_id":543,"name":"F_L Vision Spire","steam_id":76561198095923905,"connected_time":473000000000,"state":"active","ping":50},{"user_id":463,"name":"L'Jarius Sneed","steam_id":76561198059575962,"connected_time":8022000000000,"state":"active","ping":51},{"user_id":520,"name":"thundah!","steam_id":76561199159928133,"connected_time":2899000000000,"state":"active","ping":63},{"user_id":530,"name":"Jimmy \"Saul Goodman\" Mcgill","steam_id":76561198875469297,"connected_time":1795000000000,"state":"active","ping":67},{"user_id":542,"name":"Deep Fried Pickles","steam_id":76561198048111293,"connected_time":497000000000,"state":"active","ping":71},{"user_id":475,"name":"Training Arc","steam_id":76561198038832034,"connected_time":7424000000000,"state":"active","ping":98},{"user_id":532,"name":"GuyGoom","steam_id":76561198254522178,"connected_time":1715000000000,"state":"active","ping":55},{"user_id":546,"name":"Brendan","steam_id":76561198041079914,"connected_time":145000000000,"state":"active","ping":67},{"user_id":521,"name":"F_L Nighthawk","steam_id":76561198081945810,"connected_time":2826000000000,"state":"active","ping":75},{"user_id":528,"name":"Mack","steam_id":76561198025365706,"connected_time":2123000000000,"state":"active","ping":70},{"user_id":529,"name":"10cc","steam_id":76561198052009876,"connected_time":2063000000000,"state":"active","ping":173},{"user_id":524,"name":"owled`XIII","steam_id":76561198143180203,"connected_time":2652000000000,"state":"active","ping":159},{"user_id":503,"name":"sqgly","steam_id":76561198105508955,"connected_time":4307000000000,"state":"active","ping":52},{"user_id":511,"name":"Kushkatt","steam_id":76561198058397659,"connected_time":3940000000000,"state":"active","ping":73},{"user_id":545,"name":"on1on (fried)","steam_id":76561197995304137,"connected_time":327000000000,"state":"active","ping":159},{"user_id":544,"name":"Billy zane","steam_id":76561198413386212,"connected_time":354000000000,"state":"active","ping":70},{"user_id":541,"name":"chill","steam_id":76561198982840251,"connected_time":735000000000,"state":"active","ping":71},{"user_id":526,"name":"Lavender","steam_id":76561198142770666,"connected_time":2592000000000,"state":"active","ping":70}]},{"server_id":37,"name":"Uncletopia | Chicago | 6 | All Maps","name_short":"chi-6","host":"chi-2.us.uncletopia.com","port":27025,"enabled":true,"region":"us-central","cc":"us","latitude":41.881832,"longitude":-87.62318,"reserved":0,"last_update":"0001-01-01T00:00:00Z","name_a2s":"Uncletopia | Chicago | 6 | All Maps","protocol":17,"map":"cp_sunshine","folder":"tf","game":"Team Fortress","app_id":440,"player_count":0,"max_players":24,"Bots":0,"server_type":"Dedicated","server_os":"Linux","password":true,"vac":true,"version":"7757534","steam_id":85568392924866363,"keywords":["cp","nocrits","nodmgspread","uncletopia"],"game_id":440,"stv_port":27026,"stv_name":"Uncletopia | Chicago | 6 | All Maps | STV","players":null},{"server_id":38,"name":"Uncletopia | Chicago | 7 | Stopwatch Beta","name_short":"chi-7","host":"chi-2.us.uncletopia.com","port":27035,"enabled":true,"region":"us-central","cc":"us","latitude":41.881832,"longitude":-87.62318,"reserved":0,"last_update":"0001-01-01T00:00:00Z","name_a2s":"Uncletopia | Chicago | 7 | Stopwatch Beta","protocol":17,"map":"workshop/koth_product_final.ugc454272353","folder":"tf","game":"Team Fortress","app_id":440,"player_count":0,"max_players":24,"Bots":0,"server_type":"Dedicated","server_os":"Linux","password":true,"vac":true,"version":"7757534","steam_id":85568392924866364,"keywords":["cp","nocrits","nodmgspread","uncletopia"],"game_id":440,"stv_port":27036,"stv_name":"Uncletopia | Chicago | 7 | Stopwatch Beta | STV","players":null},{"server_id":39,"name":"Uncletopia | Chicago | 8 | Community","name_short":"chi-8","host":"chi-2.us.uncletopia.com","port":27045,"enabled":true,"region":"us-central","cc":"us","latitude":41.881832,"longitude":-87.62318,"reserved":0,"last_update":"0001-01-01T00:00:00Z","name_a2s":"Uncletopia | Chicago | 8 | Community","protocol":17,"map":"workshop/cp_overgrown_rc7b.ugc503939302","folder":"tf","game":"Team Fortress","app_id":440,"player_count":0,"max_players":24,"Bots":0,"server_type":"Dedicated","server_os":"Linux","password":true,"vac":true,"version":"7757534","steam_id":85568392924866365,"keywords":["cp","nocrits","nodmgspread","uncletopia"],"game_id":440,"stv_port":27046,"stv_name":"Uncletopia | Chicago | 8 | Community | STV","players":null},{"server_id":8,"name":"Uncletopia | Dallas | 1 | All Maps","name_short":"dal-1","host":"dal-1.us.uncletopia.com","port":27015,"enabled":true,"region":"us-central","cc":"us","latitude":32.779167,"longitude":-96.80889,"reserved":0,"last_update":"0001-01-01T00:00:00Z","name_a2s":"Uncletopia | Dallas | 1 | All Maps","protocol":17,"map":"cp_dustbowl","folder":"tf","game":"Team Fortress","app_id":440,"player_count":0,"max_players":24,"Bots":0,"server_type":"Dedicated","server_os":"Linux","password":true,"vac":true,"version":"7757534","steam_id":85568392924469986,"keywords":["cp","nocrits","nodmgspread","uncletopia"],"game_id":440,"stv_port":27016,"stv_name":"Uncletopia | Dallas | 1 | All Maps | STV","players":null},{"server_id":108,"name":"Uncletopia | Dallas | 2 | All Maps","name_short":"dal-2","host":"dal-1.us.uncletopia.com","port":27025,"enabled":true,"region":"us-central","cc":"us","latitude":32.779167,"longitude":-96.80889,"reserved":0,"last_update":"0001-01-01T00:00:00Z","name_a2s":"Uncletopia | Dallas | 2 | All Maps","protocol":17,"map":"pl_pier","folder":"tf","game":"Team Fortress","app_id":440,"player_count":0,"max_players":24,"Bots":0,"server_type":"Dedicated","server_os":"Linux","password":true,"vac":true,"version":"7757534","steam_id":85568392924469988,"keywords":["nocrits","nodmgspread","payload","uncletopia"],"game_id":440,"stv_port":27026,"stv_name":"Uncletopia | Dallas | 2 | All Maps | STV","players":null},{"server_id":5,"name":"Uncletopia | Frankfurt | 1 | All Maps","name_short":"frk-1","host":"frk-1.de.uncletopia.com","port":27015,"enabled":true,"region":"eu","cc":"de","latitude":50.110924,"longitude":8.682127,"reserved":0,"last_update":"0001-01-01T00:00:00Z","name_a2s":"Uncletopia | Frankfurt | 1 | All Maps","protocol":17,"map":"pl_snowycoast","folder":"tf","game":"Team Fortress","app_id":440,"player_count":5,"max_players":24,"Bots":0,"server_type":"Dedicated","server_os":"Linux","password":true,"vac":true,"version":"7757534","steam_id":85568392924469989,"keywords":["nocrits","nodmgspread","payload","uncletopia"],"game_id":440,"stv_port":27016,"stv_name":"Uncletopia | Frankfurt | 1 | All Maps | STV","players":[{"user_id":5,"name":"Frog","steam_id":76561198043981067,"connected_time":1665000000000,"state":"active","ping":72},{"user_id":6,"name":"ja","steam_id":76561199228540618,"connected_time":1478000000000,"state":"active","ping":77},{"user_id":9,"name":"Nate","steam_id":76561198334512137,"connected_time":473000000000,"state":"active","ping":60},{"user_id":10,"name":"the feesh lord","steam_id":76561199135673902,"connected_time":225000000000,"state":"active","ping":90},{"user_id":11,"name":"Andrei12264","steam_id":76561199123066659,"connected_time":123000000000,"state":"active","ping":76}]},{"server_id":110,"name":"Uncletopia | Frankfurt | 2 | All Maps","name_short":"frk-2","host":"frk-1.de.uncletopia.com","port":27025,"enabled":true,"region":"eu","cc":"de","latitude":50.110924,"longitude":8.682127,"reserved":0,"last_update":"0001-01-01T00:00:00Z","name_a2s":"Uncletopia | Frankfurt | 2 | All Maps","protocol":17,"map":"cp_snakewater_final1","folder":"tf","game":"Team Fortress","app_id":440,"player_count":0,"max_players":24,"Bots":0,"server_type":"Dedicated","server_os":"Linux","password":true,"vac":true,"version":"7757534","steam_id":85568392924469990,"keywords":["cp","nocrits","nodmgspread","uncletopia"],"game_id":440,"stv_port":27026,"stv_name":"Uncletopia | Frankfurt | 2 | All Maps | STV","players":null},{"server_id":308,"name":"Uncletopia | Frankfurt | 3 | All Maps","name_short":"frk-3","host":"frk-1.de.uncletopia.com","port":27035,"enabled":true,"region":"eu","cc":"de","latitude":50.110924,"longitude":8.682127,"reserved":0,"last_update":"0001-01-01T00:00:00Z","name_a2s":"Uncletopia | Frankfurt | 3 | All Maps","protocol":17,"map":"pl_swiftwater_final1","folder":"tf","game":"Team Fortress","app_id":440,"player_count":0,"max_players":24,"Bots":0,"server_type":"Dedicated","server_os":"Linux","password":true,"vac":true,"version":"7757534","steam_id":85568392924504274,"keywords":["nocrits","nodmgspread","payload","uncletopia"],"game_id":440,"stv_port":27036,"stv_name":"Uncletopia | Frankfurt | 3 | All Maps | STV","players":null},{"server_id":309,"name":"Uncletopia | Frankfurt | 4 | All Maps","name_short":"frk-4","host":"frk-1.de.uncletopia.com","port":27045,"enabled":true,"region":"eu","cc":"de","latitude":50.110924,"longitude":8.682127,"reserved":0,"last_update":"0001-01-01T00:00:00Z","name_a2s":"Uncletopia | Frankfurt | 4 | All Maps","protocol":17,"map":"koth_viaduct","folder":"tf","game":"Team Fortress","app_id":440,"player_count":0,"max_players":24,"Bots":0,"server_type":"Dedicated","server_os":"Linux","password":true,"vac":true,"version":"7757534","steam_id":85568392924504275,"keywords":["cp","nocrits","nodmgspread","uncletopia"],"game_id":440,"stv_port":27046,"stv_name":"Uncletopia | Frankfurt | 4 | All Maps | STV","players":null},{"server_id":310,"name":"Uncletopia | Frankfurt | 5 | All Maps","name_short":"frk-5","host":"frk-1.de.uncletopia.com","port":27055,"enabled":true,"region":"eu","cc":"de","latitude":50.110924,"longitude":8.682127,"reserved":0,"last_update":"0001-01-01T00:00:00Z","name_a2s":"Uncletopia | Frankfurt | 5 | All Maps","protocol":17,"map":"koth_lakeside_final","folder":"tf","game":"Team Fortress","app_id":440,"player_count":0,"max_players":24,"Bots":0,"server_type":"Dedicated","server_os":"Linux","password":true,"vac":true,"version":"7757534","steam_id":85568392924504277,"keywords":["cp","nocrits","nodmgspread","uncletopia"],"game_id":440,"stv_port":27056,"stv_name":"Uncletopia | Frankfurt | 5 | All Maps | STV","players":null},{"server_id":311,"name":"Uncletopia | Frankfurt | 6 | All Maps","name_short":"frk-6","host":"frk-1.de.uncletopia.com","port":27065,"enabled":true,"region":"eu","cc":"de","latitude":50.110924,"longitude":8.682127,"reserved":0,"last_update":"0001-01-01T00:00:00Z","name_a2s":"Uncletopia | Frankfurt | 6 | All Maps","protocol":17,"map":"pl_frontier_final","folder":"tf","game":"Team Fortress","app_id":440,"player_count":0,"max_players":24,"Bots":0,"server_type":"Dedicated","server_os":"Linux","password":true,"vac":true,"version":"7757534","steam_id":85568392924504278,"keywords":["nocrits","nodmgspread","payload","uncletopia"],"game_id":440,"stv_port":27066,"stv_name":"Uncletopia | Frankfurt | 6 | All Maps | STV","players":null},{"server_id":23,"name":"Uncletopia | Frankfurt | 7 | Stopwatch Beta","name_short":"frk-7","host":"frk-1.de.uncletopia.com","port":27075,"enabled":true,"region":"eu","cc":"de","latitude":50.110924,"longitude":8.682127,"reserved":0,"last_update":"0001-01-01T00:00:00Z","name_a2s":"Uncletopia | Frankfurt | 7 | Stopwatch Beta","protocol":17,"map":"koth_lakeside_final","folder":"tf","game":"Team Fortress","app_id":440,"player_count":0,"max_players":24,"Bots":0,"server_type":"Dedicated","server_os":"Linux","password":true,"vac":true,"version":"7757534","steam_id":85568392924742827,"keywords":["cp","nocrits","nodmgspread","uncletopia"],"game_id":440,"stv_port":27076,"stv_name":"Uncletopia | Frankfurt | 7 | Stopwatch Beta | STV","players":null},{"server_id":24,"name":"Uncletopia | Frankfurt | 8 | Community","name_short":"frk-8","host":"frk-1.de.uncletopia.com","port":27085,"enabled":true,"region":"eu","cc":"de","latitude":50.110924,"longitude":8.682127,"reserved":0,"last_update":"0001-01-01T00:00:00Z","name_a2s":"Uncletopia | Frankfurt | 8 | Community","protocol":17,"map":"koth_lakeside_final","folder":"tf","game":"Team Fortress","app_id":440,"player_count":0,"max_players":24,"Bots":0,"server_type":"Dedicated","server_os":"Linux","password":true,"vac":true,"version":"7757534","steam_id":85568392924742828,"keywords":["cp","nocrits","nodmgspread","uncletopia"],"game_id":440,"stv_port":27086,"stv_name":"Uncletopia | Frankfurt | 8 | Community | STV","players":null},{"server_id":202,"name":"Uncletopia | Hong Kong | 1 | All Maps","name_short":"hgk-1","host":"hgk-1.hk.uncletopia.com","port":27015,"enabled":true,"region":"asia","cc":"hk","latitude":22.302711,"longitude":114.177216,"reserved":0,"last_update":"0001-01-01T00:00:00Z","name_a2s":"Uncletopia | Hong Kong | 1 | All Maps","protocol":17,"map":"pl_badwater","folder":"tf","game":"Team Fortress","app_id":440,"player_count":19,"max_players":24,"Bots":0,"server_type":"Dedicated","server_os":"Linux","password":true,"vac":true,"version":"7757534","steam_id":85568392924494504,"keywords":["nocrits","nodmgspread","payload","uncletopia"],"game_id":440,"stv_port":27016,"stv_name":"Uncletopia | Hong Kong | 1 | All Maps | STV","players":[{"user_id":184,"name":"Sover blw.tf","steam_id":76561198136347837,"connected_time":127000000000,"state":"active","ping":77},{"user_id":176,"name":"Mahoxen","steam_id":76561199121861959,"connected_time":761000000000,"state":"active","ping":92},{"user_id":185,"name":"rez","steam_id":76561198971313809,"connected_time":52000000000,"state":"spawning","ping":75},{"user_id":145,"name":"vintage","steam_id":76561198230213828,"connected_time":2708000000000,"state":"active","ping":119},{"user_id":171,"name":"brainless bozo","steam_id":76561198055553140,"connected_time":886000000000,"state":"active","ping":72},{"user_id":177,"name":"David Keithson","steam_id":76561199279393636,"connected_time":567000000000,"state":"active","ping":88},{"user_id":182,"name":"Puddin","steam_id":76561198140052918,"connected_time":304000000000,"state":"active","ping":95},{"user_id":179,"name":"TheChainsaw","steam_id":76561198312001455,"connected_time":474000000000,"state":"active","ping":101},{"user_id":180,"name":"Aiko Kanata Zhenco","steam_id":76561199262955185,"connected_time":440000000000,"state":"active","ping":120},{"user_id":181,"name":"bruh","steam_id":76561199068229379,"connected_time":405000000000,"state":"active","ping":53},{"user_id":172,"name":"17","steam_id":76561198241530712,"connected_time":861000000000,"state":"active","ping":46},{"user_id":173,"name":"ass fucker","steam_id":76561198289017817,"connected_time":858000000000,"state":"active","ping":180},{"user_id":104,"name":"silverhouse7","steam_id":76561198349634906,"connected_time":6891000000000,"state":"active","ping":90},{"user_id":160,"name":"Ïø†ÌÇ§","steam_id":76561197997220367,"connected_time":1645000000000,"state":"active","ping":46},{"user_id":112,"name":"Â∏ï","steam_id":76561198439343999,"connected_time":6129000000000,"state":"active","ping":138},{"user_id":164,"name":"‚ô± „É´„Éº„Éä ‚ô±","steam_id":76561199020745258,"connected_time":1187000000000,"state":"active","ping":77},{"user_id":168,"name":"Mega 00F","steam_id":76561198962485791,"connected_time":1063000000000,"state":"active","ping":129},{"user_id":165,"name":"LET THE INTRUSIVE THOUGHTS WIN","steam_id":76561199174449723,"connected_time":1142000000000,"state":"active","ping":110},{"user_id":166,"name":"Momoxhien","steam_id":76561198414997429,"connected_time":1136000000000,"state":"active","ping":62}]},{"server_id":1,"name":"Uncletopia | Los Angeles | 1 | All Maps","name_short":"lax-1","host":"lax-1.us.uncletopia.com","port":27015,"enabled":true,"region":"us-west","cc":"us","latitude":33.94279,"longitude":-118.41004,"reserved":0,"last_update":"0001-01-01T00:00:00Z","name_a2s":"Uncletopia | Los Angeles | 1 | All Maps","protocol":17,"map":"cp_process_final","folder":"tf","game":"Team Fortress","app_id":440,"player_count":0,"max_players":24,"Bots":0,"server_type":"Dedicated","server_os":"Linux","password":true,"vac":true,"version":"7757534","steam_id":85568392924469991,"keywords":["cp","nocrits","nodmgspread","uncletopia"],"game_id":440,"stv_port":27016,"stv_name":"Uncletopia | Los Angeles | 1 | All Maps | STV","players":null},{"server_id":112,"name":"Uncletopia | Los Angeles | 2 | All Maps","name_short":"lax-2","host":"lax-1.us.uncletopia.com","port":27025,"enabled":true,"region":"us-west","cc":"us","latitude":33.94279,"longitude":-118.41004,"reserved":0,"last_update":"0001-01-01T00:00:00Z","name_a2s":"Uncletopia | Los Angeles | 2 | All Maps","protocol":17,"map":"koth_viaduct","folder":"tf","game":"Team Fortress","app_id":440,"player_count":4,"max_players":24,"Bots":0,"server_type":"Dedicated","server_os":"Linux","password":true,"vac":true,"version":"7757534","steam_id":85568392924469992,"keywords":["cp","nocrits","nodmgspread","uncletopia"],"game_id":440,"stv_port":27026,"stv_name":"Uncletopia | Los Angeles | 2 | All Maps | STV","players":[{"user_id":384,"name":"Boo! Boo I Say!","steam_id":76561198272427405,"connected_time":1650000000000,"state":"active","ping":114},{"user_id":389,"name":"ebic","steam_id":76561198882446769,"connected_time":1332000000000,"state":"active","ping":89},{"user_id":298,"name":"LX-24","steam_id":76561198016168993,"connected_time":7893000000000,"state":"active","ping":77},{"user_id":380,"name":"iris","steam_id":76561198059748059,"connected_time":2276000000000,"state":"active","ping":72}]},{"server_id":324,"name":"Uncletopia | Los Angeles | 3 | All Maps","name_short":"lax-3","host":"lax-1.us.uncletopia.com","port":27035,"enabled":true,"region":"us-west","cc":"us","latitude":33.94279,"longitude":-118.41004,"reserved":0,"last_update":"0001-01-01T00:00:00Z","name_a2s":"Uncletopia | Los Angeles | 3 | All Maps","protocol":17,"map":"cp_sunshine","folder":"tf","game":"Team Fortress","app_id":440,"player_count":19,"max_players":24,"Bots":0,"server_type":"Dedicated","server_os":"Linux","password":true,"vac":true,"version":"7757534","steam_id":85568392924510198,"keywords":["cp","nocrits","nodmgspread","uncletopia"],"game_id":440,"stv_port":27036,"stv_name":"Uncletopia | Los Angeles | 3 | All Maps | STV","players":[{"user_id":248,"name":"OH JIMMY I'M HOME #SaveTf2","steam_id":76561198396658806,"connected_time":808000000000,"state":"active","ping":47},{"user_id":258,"name":"Aquacycle","steam_id":76561198119399190,"connected_time":394000000000,"state":"active","ping":90},{"user_id":197,"name":"noelle","steam_id":76561198842577534,"connected_time":5488000000000,"state":"active","ping":90},{"user_id":261,"name":"SetAnExample","steam_id":76561198881077447,"connected_time":238000000000,"state":"active","ping":39},{"user_id":267,"name":"Dry","steam_id":76561198124135416,"connected_time":96000000000,"state":"active","ping":98},{"user_id":263,"name":"TheAlphaDoor","steam_id":76561198336551859,"connected_time":203000000000,"state":"active","ping":48},{"user_id":264,"name":"Donko Dunkus The 3st","steam_id":76561199063885279,"connected_time":175000000000,"state":"active","ping":83},{"user_id":251,"name":"ordinaryJoe","steam_id":76561198139822390,"connected_time":709000000000,"state":"active","ping":54},{"user_id":202,"name":"Xi Jinping BodyPillow","steam_id":76561198864599452,"connected_time":5041000000000,"state":"active","ping":110},{"user_id":239,"name":"Handsome Pete","steam_id":76561198003224229,"connected_time":1069000000000,"state":"active","ping":114},{"user_id":203,"name":"Taco+Taco=Burrito","steam_id":76561198063128663,"connected_time":4871000000000,"state":"active","ping":41},{"user_id":249,"name":"big car","steam_id":76561198067082350,"connected_time":791000000000,"state":"active","ping":49},{"user_id":265,"name":"Chubby_girl_supremacy","steam_id":76561199096780590,"connected_time":159000000000,"state":"active","ping":46},{"user_id":266,"name":"paperclips","steam_id":76561198833984001,"connected_time":137000000000,"state":"active","ping":46},{"user_id":209,"name":"Thequirka","steam_id":76561198968058652,"connected_time":4213000000000,"state":"active","ping":73},{"user_id":270,"name":"Da Bird","steam_id":76561198215677985,"connected_time":7000000000,"state":"spawning","ping":46},{"user_id":254,"name":"KnightOfGames","steam_id":76561198080460659,"connected_time":613000000000,"state":"active","ping":90},{"user_id":233,"name":"Patrick \"Sex Offender\" Star","steam_id":76561198056638070,"connected_time":2623000000000,"state":"active","ping":69},{"user_id":227,"name":"sheep gf \u003c3","steam_id":76561198068189558,"connected_time":3045000000000,"state":"active","ping":59}]},{"server_id":25,"name":"Uncletopia | Los Angeles | 4 | Stopwatch Beta","name_short":"lax-4","host":"lax-1.us.uncletopia.com","port":27045,"enabled":true,"region":"us-west","cc":"us","latitude":33.94279,"longitude":-118.41004,"reserved":0,"last_update":"0001-01-01T00:00:00Z","name_a2s":"Uncletopia | Los Angeles | 4 | Stopwatch Beta","protocol":17,"map":"pl_swiftwater_final1","folder":"tf","game":"Team Fortress","app_id":440,"player_count":0,"max_players":24,"Bots":0,"server_type":"Dedicated","server_os":"Linux","password":true,"vac":true,"version":"7757534","steam_id":85568392924510199,"keywords":["nocrits","nodmgspread","payload","uncletopia"],"game_id":440,"stv_port":27046,"stv_name":"Uncletopia | Los Angeles | 4 | Stopwatch Beta | STV","players":null},{"server_id":11,"name":"Uncletopia | London | 1 | All Maps","name_short":"lon-1","host":"lon-1.uk.uncletopia.com","port":27015,"enabled":true,"region":"eu","cc":"gb","latitude":51.509865,"longitude":-0.118092,"reserved":0,"last_update":"0001-01-01T00:00:00Z","name_a2s":"Uncletopia | London | 1 | All Maps","protocol":17,"map":"cp_dustbowl","folder":"tf","game":"Team Fortress","app_id":440,"player_count":24,"max_players":24,"Bots":0,"server_type":"Dedicated","server_os":"Linux","password":true,"vac":true,"version":"7757534","steam_id":85568392924367362,"keywords":["cp","nocrits","nodmgspread","uncletopia"],"game_id":440,"stv_port":27016,"stv_name":"Uncletopia | London | 1 | All Maps | STV","players":[{"user_id":152,"name":"Cagnus Marlsen","steam_id":76561198077859721,"connected_time":451000000000,"state":"active","ping":64},{"user_id":122,"name":"Flint","steam_id":76561197995920776,"connected_time":3039000000000,"state":"active","ping":46},{"user_id":128,"name":"imthegerman","steam_id":76561198053401077,"connected_time":2578000000000,"state":"active","ping":115},{"user_id":118,"name":"Jeppe","steam_id":76561198036055494,"connected_time":3444000000000,"state":"active","ping":65},{"user_id":147,"name":"EastmoreRandoms.","steam_id":76561198048921203,"connected_time":715000000000,"state":"active","ping":67},{"user_id":153,"name":"Judistheworst27","steam_id":76561198383847765,"connected_time":249000000000,"state":"active","ping":70},{"user_id":150,"name":"AnonTron","steam_id":76561199031895493,"connected_time":616000000000,"state":"active","ping":154},{"user_id":94,"name":"Anlaki Koszmarek","steam_id":76561198074581818,"connected_time":5857000000000,"state":"active","ping":72},{"user_id":54,"name":"Farao Ramses II","steam_id":76561198078722712,"connected_time":8820000000000,"state":"active","ping":44},{"user_id":154,"name":"Jinx my beloved","steam_id":76561198819986745,"connected_time":44000000000,"state":"active","ping":410},{"user_id":138,"name":"–∂–∏–≥–∞–Ω","steam_id":76561199274382953,"connected_time":1786000000000,"state":"active","ping":171},{"user_id":84,"name":"Hleno","steam_id":76561198060442619,"connected_time":6850000000000,"state":"active","ping":51},{"user_id":64,"name":"Helon","steam_id":76561198050761682,"connected_time":7996000000000,"state":"active","ping":60},{"user_id":149,"name":"fat c’Ωnt","steam_id":76561198845550388,"connected_time":635000000000,"state":"active","ping":110},{"user_id":120,"name":"MatarArg","steam_id":76561198280246498,"connected_time":3162000000000,"state":"active","ping":110},{"user_id":92,"name":"Corpus Christi","steam_id":76561198417999443,"connected_time":6270000000000,"state":"active","ping":112},{"user_id":151,"name":"Croffsi","steam_id":76561198079985921,"connected_time":585000000000,"state":"active","ping":69},{"user_id":126,"name":"-Boomer-","steam_id":76561197970798571,"connected_time":2781000000000,"state":"active","ping":69},{"user_id":93,"name":"killbind irl","steam_id":76561198180637374,"connected_time":5883000000000,"state":"active","ping":92},{"user_id":143,"name":"I am piss man","steam_id":76561198039209685,"connected_time":1364000000000,"state":"active","ping":74},{"user_id":137,"name":"ayadam","steam_id":76561198161515769,"connected_time":1818000000000,"state":"active","ping":112},{"user_id":144,"name":"Ricky Dicky Doo Dah Grimes","steam_id":76561198160832884,"connected_time":1010000000000,"state":"active","ping":53},{"user_id":148,"name":"Mac Bean","steam_id":76561198133782205,"connected_time":714000000000,"state":"active","ping":137},{"user_id":104,"name":"DarkFady","steam_id":76561198179099523,"connected_time":4231000000000,"state":"active","ping":105}]},{"server_id":114,"name":"Uncletopia | London | 2 | All Maps","name_short":"lon-2","host":"lon-1.uk.uncletopia.com","port":27025,"enabled":true,"region":"eu","cc":"gb","latitude":51.509865,"longitude":-0.118092,"reserved":0,"last_update":"0001-01-01T00:00:00Z","name_a2s":"Uncletopia | London | 2 | All Maps","protocol":17,"map":"pl_upward","folder":"tf","game":"Team Fortress","app_id":440,"player_count":24,"max_players":24,"Bots":0,"server_type":"Dedicated","server_os":"Linux","password":true,"vac":true,"version":"7757534","steam_id":85568392924470941,"keywords":["nocrits","nodmgspread","payload","uncletopia"],"game_id":440,"stv_port":27026,"stv_name":"Uncletopia | London | 2 | All Maps | STV","players":[{"user_id":10,"name":"Caliban","steam_id":76561197999696839,"connected_time":2035000000000,"state":"active","ping":112},{"user_id":4,"name":"BRAINDEAD","steam_id":76561198302580988,"connected_time":3126000000000,"state":"active","ping":95},{"user_id":8,"name":"senior pomidor","steam_id":76561198123659806,"connected_time":2281000000000,"state":"active","ping":99},{"user_id":11,"name":"Pes Patron","steam_id":76561199004923871,"connected_time":1686000000000,"state":"active","ping":103},{"user_id":22,"name":"30.06","steam_id":76561198039531310,"connected_time":1038000000000,"state":"active","ping":66},{"user_id":13,"name":"Heavy","steam_id":76561198419169297,"connected_time":1635000000000,"state":"active","ping":80},{"user_id":50,"name":"SHPC foof","steam_id":76561198308439257,"connected_time":82000000000,"state":"active","ping":49},{"user_id":16,"name":"Deshio","steam_id":76561198211863275,"connected_time":1409000000000,"state":"active","ping":65},{"user_id":17,"name":"Loyde","steam_id":76561198029919524,"connected_time":1330000000000,"state":"active","ping":93},{"user_id":19,"name":"Neimon","steam_id":76561198343485710,"connected_time":1136000000000,"state":"active","ping":121},{"user_id":20,"name":"SlowMode","steam_id":76561198039631442,"connected_time":1062000000000,"state":"active","ping":79},{"user_id":23,"name":"Uncle Terry","steam_id":76561198396415736,"connected_time":1007000000000,"state":"active","ping":50},{"user_id":24,"name":"Irbynx","steam_id":76561197980421195,"connected_time":977000000000,"state":"active","ping":86},{"user_id":25,"name":"sethlington14","steam_id":76561199438357690,"connected_time":925000000000,"state":"active","ping":89},{"user_id":46,"name":"askulap","steam_id":76561197992018795,"connected_time":283000000000,"state":"active","ping":86},{"user_id":47,"name":"JohaTG","steam_id":76561198804468284,"connected_time":125000000000,"state":"active","ping":53},{"user_id":30,"name":"pepper","steam_id":76561198059782462,"connected_time":773000000000,"state":"active","ping":59},{"user_id":32,"name":"Destinys","steam_id":76561198056132894,"connected_time":720000000000,"state":"active","ping":71},{"user_id":33,"name":"ok","steam_id":76561198052575567,"connected_time":701000000000,"state":"active","ping":81},{"user_id":34,"name":"oriano","steam_id":76561198099916327,"connected_time":683000000000,"state":"active","ping":67},{"user_id":35,"name":"Gait Wink","steam_id":76561198262910410,"connected_time":680000000000,"state":"active","ping":93},{"user_id":36,"name":"Lyzz","steam_id":76561198103622650,"connected_time":676000000000,"state":"active","ping":75},{"user_id":37,"name":"Dragon","steam_id":76561198163255365,"connected_time":648000000000,"state":"active","ping":104},{"user_id":51,"name":"WiiSportKing","steam_id":76561198114139081,"connected_time":47000000000,"state":"active","ping":76}]},{"server_id":320,"name":"Uncletopia | London | 3 | All Maps","name_short":"lon-3","host":"lon-1.uk.uncletopia.com","port":27035,"enabled":true,"region":"eu","cc":"gb","latitude":51.509865,"longitude":-0.118092,"reserved":0,"last_update":"0001-01-01T00:00:00Z","name_a2s":"Uncletopia | London | 3 | All Maps","protocol":17,"map":"cp_dustbowl","folder":"tf","game":"Team Fortress","app_id":440,"player_count":0,"max_players":24,"Bots":0,"server_type":"Dedicated","server_os":"Linux","password":true,"vac":true,"version":"7757534","steam_id":85568392924510192,"keywords":["cp","nocrits","nodmgspread","uncletopia"],"game_id":440,"stv_port":27036,"stv_name":"Uncletopia | London | 3 | All Maps | STV","players":null},{"server_id":321,"name":"Uncletopia | London | 4 | All Maps","name_short":"lon-4","host":"lon-1.uk.uncletopia.com","port":27045,"enabled":true,"region":"eu","cc":"gb","latitude":51.509865,"longitude":-0.118092,"reserved":0,"last_update":"0001-01-01T00:00:00Z","name_a2s":"Uncletopia | London | 4 | All Maps","protocol":17,"map":"cp_dustbowl","folder":"tf","game":"Team Fortress","app_id":440,"player_count":0,"max_players":24,"Bots":0,"server_type":"Dedicated","server_os":"Linux","password":true,"vac":true,"version":"7757534","steam_id":85568392924510193,"keywords":["cp","nocrits","nodmgspread","uncletopia"],"game_id":440,"stv_port":27046,"stv_name":"Uncletopia | London | 4 | All Maps | STV","players":null},{"server_id":21,"name":"Uncletopia | London | 5 | All Maps","name_short":"lon-5","host":"lon-1.uk.uncletopia.com","port":27055,"enabled":true,"region":"eu","cc":"gb","latitude":51.509865,"longitude":-0.118092,"reserved":0,"last_update":"0001-01-01T00:00:00Z","name_a2s":"Uncletopia | London | 5 | All Maps","protocol":17,"map":"cp_altitude","folder":"tf","game":"Team Fortress","app_id":440,"player_count":0,"max_players":24,"Bots":0,"server_type":"Dedicated","server_os":"Linux","password":true,"vac":true,"version":"7757534","steam_id":85568392924742829,"keywords":["cp","nocrits","nodmgspread","uncletopia"],"game_id":440,"stv_port":27056,"stv_name":"Uncletopia | London | 5 | All Maps | STV","players":null},{"server_id":22,"name":"Uncletopia | London | 6 | All Maps","name_short":"lon-6","host":"lon-1.uk.uncletopia.com","port":27065,"enabled":true,"region":"eu","cc":"gb","latitude":51.509865,"longitude":-0.118092,"reserved":0,"last_update":"0001-01-01T00:00:00Z","name_a2s":"Uncletopia | London | 6 | All Maps","protocol":17,"map":"cp_mountainlab","folder":"tf","game":"Team Fortress","app_id":440,"player_count":0,"max_players":24,"Bots":0,"server_type":"Dedicated","server_os":"Linux","password":true,"vac":true,"version":"7757534","steam_id":85568392924742830,"keywords":["cp","nocrits","nodmgspread","uncletopia"],"game_id":440,"stv_port":27066,"stv_name":"Uncletopia | London | 6 | All Maps | STV","players":null},{"server_id":40,"name":"Uncletopia | London | 7 | No Payload","name_short":"lon-7","host":"lon-1.uk.uncletopia.com","port":27075,"enabled":true,"region":"eu","cc":"gb","latitude":51.509865,"longitude":-0.118092,"reserved":0,"last_update":"0001-01-01T00:00:00Z","name_a2s":"Uncletopia | London | 7 | No Payload","protocol":17,"map":"cp_junction_final","folder":"tf","game":"Team Fortress","app_id":440,"player_count":0,"max_players":24,"Bots":0,"server_type":"Dedicated","server_os":"Linux","password":true,"vac":true,"version":"7757534","steam_id":85568392924964314,"keywords":["cp","nocrits","nodmgspread","uncletopia"],"game_id":440,"stv_port":27076,"stv_name":"Uncletopia | London | 7 | No Payload | STV","players":null},{"server_id":41,"name":"Uncletopia | London | 8 | Community","name_short":"lon-8","host":"lon-1.uk.uncletopia.com","port":27085,"enabled":true,"region":"eu","cc":"gb","latitude":51.509865,"longitude":-0.118092,"reserved":0,"last_update":"0001-01-01T00:00:00Z","name_a2s":"Uncletopia | London | 8 | Community","protocol":17,"map":"pl_barnblitz","folder":"tf","game":"Team Fortress","app_id":440,"player_count":0,"max_players":24,"Bots":0,"server_type":"Dedicated","server_os":"Linux","password":true,"vac":true,"version":"7757534","steam_id":85568392924964315,"keywords":["nocrits","nodmgspread","payload","uncletopia"],"game_id":440,"stv_port":27086,"stv_name":"Uncletopia | London | 8 | Community | STV","players":null},{"server_id":300,"name":"Uncletopia | Montr√©al | 1 | All Maps","name_short":"mtl-1","host":"mtl-1.ca.uncletopia.com","port":27015,"enabled":true,"region":"us-east","cc":"ca","latitude":45.50889,"longitude":-73.56167,"reserved":0,"last_update":"0001-01-01T00:00:00Z","name_a2s":"Uncletopia | Montr√©al | 1 | All Maps","protocol":17,"map":"koth_cascade","folder":"tf","game":"Team Fortress","app_id":440,"player_count":0,"max_players":24,"Bots":0,"server_type":"Dedicated","server_os":"Linux","password":true,"vac":true,"version":"7757534","steam_id":85568392924500087,"keywords":["cp","nocrits","nodmgspread","uncletopia"],"game_id":440,"stv_port":27016,"stv_name":"Uncletopia | Montr√©al | 1 | All Maps | STV","players":null},{"server_id":301,"name":"Uncletopia | Montr√©al | 2 | All Maps","name_short":"mtl-2","host":"mtl-1.ca.uncletopia.com","port":27025,"enabled":true,"region":"us-east","cc":"ca","latitude":45.50889,"longitude":-73.56167,"reserved":0,"last_update":"0001-01-01T00:00:00Z","name_a2s":"Uncletopia | Montr√©al | 2 | All Maps","protocol":17,"map":"cp_egypt_final","folder":"tf","game":"Team Fortress","app_id":440,"player_count":0,"max_players":24,"Bots":0,"server_type":"Dedicated","server_os":"Linux","password":true,"vac":true,"version":"7757534","steam_id":85568392924500088,"keywords":["cp","nocrits","nodmgspread","uncletopia"],"game_id":440,"stv_port":27026,"stv_name":"Uncletopia | Montr√©al | 2 | All Maps | STV","players":null},{"server_id":302,"name":"Uncletopia | Montr√©al | 3 | All Maps","name_short":"mtl-3","host":"mtl-1.ca.uncletopia.com","port":27035,"enabled":true,"region":"us-east","cc":"ca","latitude":45.50889,"longitude":-73.56167,"reserved":0,"last_update":"0001-01-01T00:00:00Z","name_a2s":"Uncletopia | Montr√©al | 3 | All Maps","protocol":17,"map":"cp_snakewater_final1","folder":"tf","game":"Team Fortress","app_id":440,"player_count":0,"max_players":24,"Bots":0,"server_type":"Dedicated","server_os":"Linux","password":true,"vac":true,"version":"7757534","steam_id":85568392924500089,"keywords":["cp","nocrits","nodmgspread","uncletopia"],"game_id":440,"stv_port":27036,"stv_name":"Uncletopia | Montr√©al | 3 | All Maps | STV","players":null},{"server_id":303,"name":"Uncletopia | Montr√©al | 4 | No Payload","name_short":"mtl-4","host":"mtl-1.ca.uncletopia.com","port":27045,"enabled":true,"region":"us-east","cc":"ca","latitude":45.50889,"longitude":-73.56167,"reserved":0,"last_update":"0001-01-01T00:00:00Z","name_a2s":"Uncletopia | Montr√©al | 4 | No Payload","protocol":17,"map":"cp_snakewater_final1","folder":"tf","game":"Team Fortress","app_id":440,"player_count":0,"max_players":24,"Bots":0,"server_type":"Dedicated","server_os":"Linux","password":true,"vac":true,"version":"7757534","steam_id":85568392924500090,"keywords":["cp","nocrits","nodmgspread","uncletopia"],"game_id":440,"stv_port":27046,"stv_name":"Uncletopia | Montr√©al | 4 | No Payload | STV","players":null},{"server_id":13,"name":"Uncletopia | New York City | 1 | All Maps","name_short":"nyc-1","host":"nyc-1.us.uncletopia.com","port":27015,"enabled":true,"region":"us-east","cc":"us","latitude":40.73061,"longitude":-73.93524,"reserved":0,"last_update":"0001-01-01T00:00:00Z","name_a2s":"Uncletopia | New York City | 1 | All Maps","protocol":17,"map":"koth_cascade","folder":"tf","game":"Team Fortress","app_id":440,"player_count":0,"max_players":24,"Bots":0,"server_type":"Dedicated","server_os":"Linux","password":true,"vac":true,"version":"7757534","steam_id":85568392924469993,"keywords":["cp","nocrits","nodmgspread","uncletopia"],"game_id":440,"stv_port":27016,"stv_name":"Uncletopia | New York City | 1 | All Maps | STV","players":null},{"server_id":14,"name":"Uncletopia | New York City | 2 | All Maps","name_short":"nyc-2","host":"nyc-1.us.uncletopia.com","port":27025,"enabled":true,"region":"us-east","cc":"us","latitude":40.73061,"longitude":-73.93524,"reserved":0,"last_update":"0001-01-01T00:00:00Z","name_a2s":"Uncletopia | New York City | 2 | All Maps","protocol":17,"map":"koth_viaduct","folder":"tf","game":"Team Fortress","app_id":440,"player_count":0,"max_players":24,"Bots":0,"server_type":"Dedicated","server_os":"Linux","password":true,"vac":true,"version":"7757534","steam_id":85568392924469994,"keywords":["cp","nocrits","nodmgspread","uncletopia"],"game_id":440,"stv_port":27026,"stv_name":"Uncletopia | New York City | 2 | All Maps | STV","players":null},{"server_id":15,"name":"Uncletopia | New York City | 3 | Stopwatch Beta","name_short":"nyc-3","host":"nyc-1.us.uncletopia.com","port":27035,"enabled":true,"region":"us-east","cc":"us","latitude":40.73061,"longitude":-73.93524,"reserved":0,"last_update":"0001-01-01T00:00:00Z","name_a2s":"Uncletopia | New York City | 3 | Stopwatch Beta","protocol":17,"map":"pl_upward","folder":"tf","game":"Team Fortress","app_id":440,"player_count":0,"max_players":24,"Bots":0,"server_type":"Dedicated","server_os":"Linux","password":true,"vac":true,"version":"7757534","steam_id":85568392924742820,"keywords":["nocrits","nodmgspread","payload","uncletopia"],"game_id":440,"stv_port":27036,"stv_name":"Uncletopia | New York City | 3 | Stopwatch Beta | STV","players":null},{"server_id":16,"name":"Uncletopia | New York City | 4 | Community","name_short":"nyc-4","host":"nyc-1.us.uncletopia.com","port":27045,"enabled":true,"region":"us-east","cc":"us","latitude":40.73061,"longitude":-73.93524,"reserved":0,"last_update":"0001-01-01T00:00:00Z","name_a2s":"Uncletopia | New York City | 4 | Community","protocol":17,"map":"workshop/koth_slaughter_rc1.ugc1712845210","folder":"tf","game":"Team Fortress","app_id":440,"player_count":0,"max_players":24,"Bots":0,"server_type":"Dedicated","server_os":"Linux","password":true,"vac":true,"version":"7757534","steam_id":85568392924742821,"keywords":["cp","nocrits","nodmgspread","uncletopia"],"game_id":440,"stv_port":27046,"stv_name":"Uncletopia | New York City | 4 | Community | STV","players":null},{"server_id":142,"name":"Uncletopia | S√£o Paulo | 1 | All Maps","name_short":"sao-1","host":"sao-1.br.uncletopia.com","port":27015,"enabled":true,"region":"sa","cc":"br","latitude":-23.533773,"longitude":-46.62529,"reserved":0,"last_update":"0001-01-01T00:00:00Z","name_a2s":"Uncletopia | S√£o Paulo | 1 | All Maps","protocol":17,"map":"koth_lakeside_final","folder":"tf","game":"Team Fortress","app_id":440,"player_count":0,"max_players":24,"Bots":0,"server_type":"Dedicated","server_os":"Linux","password":true,"vac":true,"version":"7757534","steam_id":85568392924469996,"keywords":["cp","nocrits","nodmgspread","uncletopia"],"game_id":440,"stv_port":27016,"stv_name":"Uncletopia | S√£o Paulo | 1 | All Maps | STV","players":null},{"server_id":143,"name":"Uncletopia | S√£o Paulo | 2 | All Maps","name_short":"sao-2","host":"sao-2.br.uncletopia.com","port":27015,"enabled":true,"region":"sa","cc":"br","latitude":-23.533773,"longitude":-46.62529,"reserved":0,"last_update":"0001-01-01T00:00:00Z","name_a2s":"Uncletopia | S√£o Paulo | 2 | All Maps","protocol":17,"map":"pl_borneo","folder":"tf","game":"Team Fortress","app_id":440,"player_count":0,"max_players":24,"Bots":0,"server_type":"Dedicated","server_os":"Linux","password":true,"vac":true,"version":"7757534","steam_id":85568392924485349,"keywords":["nocrits","nodmgspread","payload","uncletopia"],"game_id":440,"stv_port":27016,"stv_name":"Uncletopia | S√£o Paulo | 2 | All Maps | STV","players":null},{"server_id":7,"name":"Uncletopia | Seattle | 1 | All Maps","name_short":"sea-1","host":"sea-1.us.uncletopia.com","port":27015,"enabled":true,"region":"us-west","cc":"us","latitude":47.608013,"longitude":-122.33517,"reserved":0,"last_update":"0001-01-01T00:00:00Z","name_a2s":"Uncletopia | Seattle | 1 | All Maps","protocol":17,"map":"pl_frontier_final","folder":"tf","game":"Team Fortress","app_id":440,"player_count":21,"max_players":24,"Bots":0,"server_type":"Dedicated","server_os":"Linux","password":true,"vac":true,"version":"7757534","steam_id":85568392924469997,"keywords":["nocrits","nodmgspread","payload","uncletopia"],"game_id":440,"stv_port":27016,"stv_name":"Uncletopia | Seattle | 1 | All Maps | STV","players":[{"user_id":927,"name":"Ninja_Moogle","steam_id":76561198167646553,"connected_time":2845000000000,"state":"active","ping":74},{"user_id":909,"name":"[TrC] Dackstrus","steam_id":76561197973518509,"connected_time":4010000000000,"state":"active","ping":57},{"user_id":938,"name":"Glue","steam_id":76561198047931749,"connected_time":2324000000000,"state":"active","ping":78},{"user_id":979,"name":"killette","steam_id":76561198002521217,"connected_time":439000000000,"state":"active","ping":79},{"user_id":987,"name":"Jones","steam_id":76561198046037216,"connected_time":25000000000,"state":"active","ping":76},{"user_id":910,"name":"[TrC] Nosy","steam_id":76561197978859310,"connected_time":3963000000000,"state":"active","ping":52},{"user_id":965,"name":"amagicowl","steam_id":76561199060487814,"connected_time":1149000000000,"state":"active","ping":53},{"user_id":963,"name":"beep beep","steam_id":76561198149443710,"connected_time":1230000000000,"state":"active","ping":75},{"user_id":940,"name":"Harry Baldini","steam_id":76561198800715684,"connected_time":2272000000000,"state":"active","ping":49},{"user_id":977,"name":"self sufficient kitten","steam_id":76561197960592612,"connected_time":453000000000,"state":"active","ping":45},{"user_id":946,"name":"Checkered Scones","steam_id":76561198162786894,"connected_time":2222000000000,"state":"active","ping":74},{"user_id":943,"name":"carl","steam_id":76561198081315265,"connected_time":2247000000000,"state":"active","ping":56},{"user_id":956,"name":"The Piss-Meister","steam_id":76561198359287842,"connected_time":2087000000000,"state":"active","ping":145},{"user_id":955,"name":"dub","steam_id":76561198043679350,"connected_time":2098000000000,"state":"active","ping":45},{"user_id":948,"name":"supersabir","steam_id":76561198303055397,"connected_time":2214000000000,"state":"active","ping":180},{"user_id":968,"name":"Rinka","steam_id":76561198973856312,"connected_time":747000000000,"state":"active","ping":75},{"user_id":877,"name":"Puskinti","steam_id":76561198032120688,"connected_time":5677000000000,"state":"active","ping":65},{"user_id":934,"name":"gorlab","steam_id":76561198025089694,"connected_time":2597000000000,"state":"active","ping":63},{"user_id":970,"name":"Skoad","steam_id":76561198104650528,"connected_time":612000000000,"state":"active","ping":63},{"user_id":929,"name":"pinglefingle","steam_id":76561198216580197,"connected_time":2784000000000,"state":"active","ping":116},{"user_id":960,"name":"domino","steam_id":76561198066114874,"connected_time":1658000000000,"state":"active","ping":60}]},{"server_id":119,"name":"Uncletopia | Seattle | 2 | All Maps","name_short":"sea-2","host":"sea-1.us.uncletopia.com","port":27025,"enabled":true,"region":"us-west","cc":"us","latitude":47.608013,"longitude":-122.33517,"reserved":0,"last_update":"0001-01-01T00:00:00Z","name_a2s":"Uncletopia | Seattle | 2 | All Maps","protocol":17,"map":"koth_viaduct","folder":"tf","game":"Team Fortress","app_id":440,"player_count":0,"max_players":24,"Bots":0,"server_type":"Dedicated","server_os":"Linux","password":true,"vac":true,"version":"7757534","steam_id":85568392924469998,"keywords":["cp","nocrits","nodmgspread","uncletopia"],"game_id":440,"stv_port":27026,"stv_name":"Uncletopia | Seattle | 2 | All Maps | STV","players":null},{"server_id":406,"name":"Uncletopia | Seattle | 3 | Stopwatch Beta","name_short":"sea-3","host":"sea-1.us.uncletopia.com","port":27035,"enabled":true,"region":"us-west","cc":"us","latitude":47.608013,"longitude":-122.33517,"reserved":0,"last_update":"0001-01-01T00:00:00Z","name_a2s":"Uncletopia | Seattle | 3 | Stopwatch Beta","protocol":17,"map":"workshop/koth_ashville_final.ugc2130459942","folder":"tf","game":"Team Fortress","app_id":440,"player_count":0,"max_players":24,"Bots":0,"server_type":"Dedicated","server_os":"Linux","password":true,"vac":true,"version":"7757534","steam_id":85568392924515217,"keywords":["cp","nocrits","nodmgspread","uncletopia"],"game_id":440,"stv_port":27036,"stv_name":"Uncletopia | Seattle | 3 | Stopwatch Beta | STV","players":null},{"server_id":17,"name":"Uncletopia | San Francisco | 1 | All Maps","name_short":"sfo-1","host":"sfo-1.us.uncletopia.com","port":27015,"enabled":true,"region":"us-west","cc":"us","latitude":37.77397,"longitude":-122.4313,"reserved":0,"last_update":"0001-01-01T00:00:00Z","name_a2s":"Uncletopia | San Francisco | 1 | All Maps","protocol":17,"map":"cp_process_final","folder":"tf","game":"Team Fortress","app_id":440,"player_count":24,"max_players":24,"Bots":0,"server_type":"Dedicated","server_os":"Linux","password":true,"vac":true,"version":"7757534","steam_id":85568392924469999,"keywords":["cp","nocrits","nodmgspread","uncletopia"],"game_id":440,"stv_port":27016,"stv_name":"Uncletopia | San Francisco | 1 | All Maps | STV","players":[{"user_id":916,"name":"going beastmode","steam_id":76561198105374054,"connected_time":1473000000000,"state":"active","ping":75},{"user_id":911,"name":"veldt","steam_id":76561198056135308,"connected_time":1555000000000,"state":"active","ping":95},{"user_id":931,"name":"Louie","steam_id":76561198195963114,"connected_time":592000000000,"state":"active","ping":80},{"user_id":923,"name":"BurryFalls","steam_id":76561199122289629,"connected_time":972000000000,"state":"active","ping":89},{"user_id":924,"name":"Galalendon","steam_id":76561198055771198,"connected_time":942000000000,"state":"active","ping":82},{"user_id":921,"name":"Holiday Fartcruise","steam_id":76561198043851584,"connected_time":1155000000000,"state":"active","ping":180},{"user_id":919,"name":"Karen","steam_id":76561198309442440,"connected_time":1420000000000,"state":"active","ping":83},{"user_id":860,"name":"Mub","steam_id":76561198356426602,"connected_time":6906000000000,"state":"active","ping":49},{"user_id":905,"name":"Gay Cake","steam_id":76561198004388831,"connected_time":2328000000000,"state":"active","ping":107},{"user_id":909,"name":"fa√ßade","steam_id":76561199157009256,"connected_time":2022000000000,"state":"active","ping":43},{"user_id":925,"name":"Africa","steam_id":76561198854993744,"connected_time":896000000000,"state":"active","ping":83},{"user_id":930,"name":"help me","steam_id":76561198844273999,"connected_time":675000000000,"state":"active","ping":67},{"user_id":933,"name":"resh","steam_id":76561198239598834,"connected_time":541000000000,"state":"active","ping":112},{"user_id":935,"name":"YellowShade","steam_id":76561198200828527,"connected_time":509000000000,"state":"active","ping":89},{"user_id":936,"name":"Killo","steam_id":76561198052989584,"connected_time":344000000000,"state":"active","ping":109},{"user_id":886,"name":"Yosh","steam_id":76561198027078899,"connected_time":4151000000000,"state":"active","ping":93},{"user_id":920,"name":"iphone 7 plus","steam_id":76561198335836405,"connected_time":1247000000000,"state":"active","ping":89},{"user_id":900,"name":"Yume","steam_id":76561198018060136,"connected_time":2750000000000,"state":"active","ping":99},{"user_id":928,"name":"MR MODE","steam_id":76561198046775352,"connected_time":815000000000,"state":"active","ping":45},{"user_id":891,"name":"SanitysEdge","steam_id":76561198130732813,"connected_time":3816000000000,"state":"active","ping":50},{"user_id":918,"name":"-ThiccMarcos","steam_id":76561198277151165,"connected_time":1463000000000,"state":"active","ping":85},{"user_id":937,"name":"Antzen","steam_id":76561198041343470,"connected_time":313000000000,"state":"active","ping":55},{"user_id":908,"name":"vareh","steam_id":76561197993190926,"connected_time":2242000000000,"state":"active","ping":79},{"user_id":929,"name":"The Horselords and Animal Gods","steam_id":76561197975094050,"connected_time":806000000000,"state":"active","ping":66}]},{"server_id":18,"name":"Uncletopia | San Francisco | 2 | All Maps","name_short":"sfo-2","host":"sfo-1.us.uncletopia.com","port":27025,"enabled":true,"region":"us-west","cc":"us","latitude":37.77397,"longitude":-122.4313,"reserved":0,"last_update":"0001-01-01T00:00:00Z","name_a2s":"Uncletopia | San Francisco | 2 | All Maps","protocol":17,"map":"pl_barnblitz","folder":"tf","game":"Team Fortress","app_id":440,"player_count":7,"max_players":24,"Bots":0,"server_type":"Dedicated","server_os":"Linux","password":true,"vac":true,"version":"7757534","steam_id":85568392924470000,"keywords":["nocrits","nodmgspread","payload","uncletopia"],"game_id":440,"stv_port":27026,"stv_name":"Uncletopia | San Francisco | 2 | All Maps | STV","players":[{"user_id":391,"name":"ALonelyPaperclip","steam_id":76561198116036160,"connected_time":742000000000,"state":"active","ping":142},{"user_id":399,"name":"Zeubiess","steam_id":76561198074392917,"connected_time":156000000000,"state":"active","ping":70},{"user_id":400,"name":"Tank","steam_id":76561198882224249,"connected_time":13000000000,"state":"spawning","ping":75},{"user_id":396,"name":"Littlepsycho","steam_id":76561198004625903,"connected_time":374000000000,"state":"active","ping":84},{"user_id":393,"name":"Road 2 Flare Jesus","steam_id":76561198851536991,"connected_time":679000000000,"state":"active","ping":62},{"user_id":395,"name":"justgaming","steam_id":76561199103123179,"connected_time":613000000000,"state":"active","ping":174},{"user_id":382,"name":"The IT Guy","steam_id":76561198071790583,"connected_time":1364000000000,"state":"active","ping":90}]},{"server_id":19,"name":"Uncletopia | San Francisco | 3 | Stopwatch Beta","name_short":"sfo-3","host":"sfo-1.us.uncletopia.com","port":27035,"enabled":true,"region":"us-west","cc":"us","latitude":37.77397,"longitude":-122.4313,"reserved":0,"last_update":"0001-01-01T00:00:00Z","name_a2s":"Uncletopia | San Francisco | 3 | Stopwatch Beta","protocol":17,"map":"workshop/koth_clearcut_b15.ugc2107050255","folder":"tf","game":"Team Fortress","app_id":440,"player_count":0,"max_players":24,"Bots":0,"server_type":"Dedicated","server_os":"Linux","password":true,"vac":true,"version":"7757534","steam_id":85568392924742824,"keywords":["cp","nocrits","nodmgspread","uncletopia"],"game_id":440,"stv_port":27036,"stv_name":"Uncletopia | San Francisco | 3 | Stopwatch Beta | STV","players":null},{"server_id":20,"name":"Uncletopia | San Francisco | 4 | Community","name_short":"sfo-4","host":"sfo-1.us.uncletopia.com","port":27045,"enabled":true,"region":"us-west","cc":"us","latitude":37.77397,"longitude":-122.4313,"reserved":0,"last_update":"0001-01-01T00:00:00Z","name_a2s":"Uncletopia | San Francisco | 4 | Community","protocol":17,"map":"workshop/koth_product_final.ugc454272353","folder":"tf","game":"Team Fortress","app_id":440,"player_count":0,"max_players":24,"Bots":0,"server_type":"Dedicated","server_os":"Linux","password":true,"vac":true,"version":"7757534","steam_id":85568392924742826,"keywords":["cp","nocrits","nodmgspread","uncletopia"],"game_id":440,"stv_port":27046,"stv_name":"Uncletopia | San Francisco | 4 | Community | STV","players":null},{"server_id":141,"name":"Uncletopia | Sydney | 1 | All Maps","name_short":"syd-1","host":"syd-1.au.uncletopia.com","port":27015,"enabled":true,"region":"au","cc":"au","latitude":-33.865143,"longitude":151.2099,"reserved":0,"last_update":"0001-01-01T00:00:00Z","name_a2s":"Uncletopia | Sydney | 1 | All Maps","protocol":17,"map":"koth_highpass","folder":"tf","game":"Team Fortress","app_id":440,"player_count":13,"max_players":24,"Bots":0,"server_type":"Dedicated","server_os":"Linux","password":true,"vac":true,"version":"7757534","steam_id":85568392924470001,"keywords":["cp","nocrits","nodmgspread","uncletopia"],"game_id":440,"stv_port":27016,"stv_name":"Uncletopia | Sydney | 1 | All Maps | STV","players":[{"user_id":378,"name":"Del Davis","steam_id":76561199365669004,"connected_time":1632000000000,"state":"active","ping":48},{"user_id":374,"name":"MayoMan","steam_id":76561199140828165,"connected_time":2519000000000,"state":"active","ping":46},{"user_id":375,"name":"itsjustmarvin77","steam_id":76561199375656301,"connected_time":2451000000000,"state":"active","ping":70},{"user_id":403,"name":"Marsguard","steam_id":76561198113775091,"connected_time":158000000000,"state":"active","ping":60},{"user_id":388,"name":"justaordinarygamer","steam_id":76561199132864695,"connected_time":994000000000,"state":"active","ping":95},{"user_id":401,"name":"Sy 4","steam_id":76561198879862702,"connected_time":344000000000,"state":"active","ping":59},{"user_id":397,"name":"voxii","steam_id":76561198099698281,"connected_time":655000000000,"state":"active","ping":66},{"user_id":392,"name":"Twelvie","steam_id":76561198164240795,"connected_time":890000000000,"state":"active","ping":54},{"user_id":395,"name":"Nawor","steam_id":76561198087419337,"connected_time":773000000000,"state":"active","ping":50},{"user_id":399,"name":"Editor_Billy","steam_id":76561199165608946,"connected_time":379000000000,"state":"active","ping":61},{"user_id":400,"name":"doctor sex","steam_id":76561199076015267,"connected_time":364000000000,"state":"active","ping":47},{"user_id":393,"name":"Buggy","steam_id":76561198428251111,"connected_time":868000000000,"state":"active","ping":66},{"user_id":402,"name":"bangerlop","steam_id":76561199349993627,"connected_time":339000000000,"state":"active","ping":186}]},{"server_id":123,"name":"Uncletopia | Sydney | 2 | All Maps","name_short":"syd-2","host":"syd-1.au.uncletopia.com","port":27025,"enabled":true,"region":"au","cc":"au","latitude":-33.865143,"longitude":151.2099,"reserved":0,"last_update":"0001-01-01T00:00:00Z","name_a2s":"Uncletopia | Sydney | 2 | All Maps","protocol":17,"map":"pl_barnblitz","folder":"tf","game":"Team Fortress","app_id":440,"player_count":23,"max_players":24,"Bots":0,"server_type":"Dedicated","server_os":"Linux","password":true,"vac":true,"version":"7757534","steam_id":85568392924470002,"keywords":["nocrits","nodmgspread","payload","uncletopia"],"game_id":440,"stv_port":27026,"stv_name":"Uncletopia | Sydney | 2 | All Maps | STV","players":[{"user_id":156,"name":"juusha","steam_id":76561198911542330,"connected_time":2520000000000,"state":"active","ping":66},{"user_id":148,"name":"[FTW] RonnieD'","steam_id":76561197993957267,"connected_time":3518000000000,"state":"active","ping":45},{"user_id":187,"name":"Cogzy","steam_id":76561198012463402,"connected_time":109000000000,"state":"active","ping":68},{"user_id":179,"name":"Pride","steam_id":76561198036671190,"connected_time":527000000000,"state":"active","ping":238},{"user_id":168,"name":"4-Star Yelp Review","steam_id":76561197995258180,"connected_time":1467000000000,"state":"active","ping":52},{"user_id":91,"name":"Jodelk√∂nig Franzl Lang","steam_id":76561198007667830,"connected_time":5600000000000,"state":"active","ping":45},{"user_id":171,"name":"nojnosbod11","steam_id":76561199176012151,"connected_time":1139000000000,"state":"active","ping":64},{"user_id":188,"name":"Trins","steam_id":76561198040922808,"connected_time":95000000000,"state":"active","ping":58},{"user_id":181,"name":"BruceWillis235","steam_id":76561198884324029,"connected_time":352000000000,"state":"active","ping":83},{"user_id":152,"name":"Atner","steam_id":76561198442934454,"connected_time":2646000000000,"state":"active","ping":94},{"user_id":159,"name":"seiran","steam_id":76561198880907232,"connected_time":2466000000000,"state":"active","ping":95},{"user_id":186,"name":"Harrower","steam_id":76561198045525276,"connected_time":176000000000,"state":"active","ping":64},{"user_id":73,"name":"the normoaner","steam_id":76561198082423230,"connected_time":6877000000000,"state":"active","ping":81},{"user_id":182,"name":"Sakamata Enthusiast","steam_id":76561199024484350,"connected_time":323000000000,"state":"active","ping":58},{"user_id":146,"name":"Sentry Gun (EpicGuy4227)","steam_id":76561198094132328,"connected_time":3675000000000,"state":"active","ping":66},{"user_id":174,"name":"Rocky","steam_id":76561199195385481,"connected_time":792000000000,"state":"active","ping":75},{"user_id":189,"name":"DomoSlomo","steam_id":76561198390962199,"connected_time":60000000000,"state":"active","ping":224},{"user_id":175,"name":"cooleverest","steam_id":76561198048004321,"connected_time":769000000000,"state":"active","ping":55},{"user_id":88,"name":"Dupiter","steam_id":76561198108820767,"connected_time":5986000000000,"state":"active","ping":47},{"user_id":184,"name":"Zoey","steam_id":76561198126153554,"connected_time":269000000000,"state":"active","ping":74},{"user_id":185,"name":"Sparky","steam_id":76561198117687688,"connected_time":207000000000,"state":"active","ping":67},{"user_id":164,"name":"soupy","steam_id":76561198073734936,"connected_time":2193000000000,"state":"active","ping":85},{"user_id":155,"name":"saudi ambassador messi","steam_id":76561198031293430,"connected_time":2534000000000,"state":"active","ping":89}]},{"server_id":395,"name":"Uncletopia | Sydney | 3 | All Maps","name_short":"syd-3","host":"syd-1.au.uncletopia.com","port":27035,"enabled":true,"region":"au","cc":"au","latitude":-33.865143,"longitude":151.2099,"reserved":0,"last_update":"0001-01-01T00:00:00Z","name_a2s":"Uncletopia | Sydney | 3 | All Maps","protocol":17,"map":"pl_snowycoast","folder":"tf","game":"Team Fortress","app_id":440,"player_count":0,"max_players":24,"Bots":0,"server_type":"Dedicated","server_os":"Linux","password":true,"vac":true,"version":"7757534","steam_id":85568392925194467,"keywords":["nocrits","nodmgspread","payload","uncletopia"],"game_id":440,"stv_port":27036,"stv_name":"Uncletopia | Sydney | 3 | All Maps | STV","players":null},{"server_id":396,"name":"Uncletopia | Sydney | 4 | All Maps","name_short":"syd-4","host":"syd-1.au.uncletopia.com","port":27045,"enabled":true,"region":"au","cc":"au","latitude":-33.865143,"longitude":151.2099,"reserved":0,"last_update":"0001-01-01T00:00:00Z","name_a2s":"Uncletopia | Sydney | 4 | All Maps","protocol":17,"map":"koth_highpass","folder":"tf","game":"Team Fortress","app_id":440,"player_count":0,"max_players":24,"Bots":0,"server_type":"Dedicated","server_os":"Linux","password":true,"vac":true,"version":"7757534","steam_id":85568392925397958,"keywords":["cp","nocrits","nodmgspread","uncletopia"],"game_id":440,"stv_port":27046,"stv_name":"Uncletopia | Sydney | 4 | All Maps | STV","players":null},{"server_id":58,"name":"Uncletopia | Sydney | 5 | Stopwatch Beta","name_short":"syd-5","host":"syd-1.au.uncletopia.com","port":27055,"enabled":true,"region":"au","cc":"au","latitude":-33.865143,"longitude":151.2099,"reserved":0,"last_update":"0001-01-01T00:00:00Z","name_a2s":"Uncletopia | Sydney | 5 | Stopwatch Beta","protocol":17,"map":"workshop/pl_badwater_pro_v12.ugc2142942074","folder":"tf","game":"Team Fortress","app_id":440,"player_count":0,"max_players":24,"Bots":0,"server_type":"Dedicated","server_os":"Linux","password":true,"vac":true,"version":"7757534","steam_id":85568392925397959,"keywords":["nocrits","nodmgspread","payload","uncletopia"],"game_id":440,"stv_port":27056,"stv_name":"Uncletopia | Sydney | 5 | Stopwatch Beta | STV","players":null},{"server_id":59,"name":"Uncletopia | Sydney | 6 | Community","name_short":"syd-6","host":"syd-1.au.uncletopia.com","port":27065,"enabled":true,"region":"au","cc":"au","latitude":-33.865143,"longitude":151.2099,"reserved":0,"last_update":"0001-01-01T00:00:00Z","name_a2s":"Uncletopia | Sydney | 6 | Community","protocol":17,"map":"cp_snakewater_final1","folder":"tf","game":"Team Fortress","app_id":440,"player_count":0,"max_players":24,"Bots":0,"server_type":"Dedicated","server_os":"Linux","password":true,"vac":true,"version":"7757534","steam_id":85568392925397960,"keywords":["cp","nocrits","nodmgspread","uncletopia"],"game_id":440,"stv_port":27066,"stv_name":"Uncletopia | Sydney | 6 | Community | STV","players":null},{"server_id":49,"name":"Uncletopia | Warsaw | 1 | All Maps","name_short":"waw-1","host":"waw-1.pl.uncletopia.com","port":27015,"enabled":true,"region":"eu","cc":"pl","latitude":52.2297,"longitude":21.017532,"reserved":0,"last_update":"0001-01-01T00:00:00Z","name_a2s":"","protocol":0,"map":"","folder":"","game":"","app_id":0,"player_count":0,"max_players":0,"Bots":0,"server_type":"","server_os":"","password":false,"vac":false,"version":"","steam_id":0,"keywords":null,"game_id":0,"stv_port":0,"stv_name":"","players":null},{"server_id":50,"name":"Uncletopia | Warsaw | 2 | All Maps","name_short":"waw-2","host":"waw-1.pl.uncletopia.com","port":27025,"enabled":true,"region":"eu","cc":"pl","latitude":52.2297,"longitude":21.017532,"reserved":0,"last_update":"0001-01-01T00:00:00Z","name_a2s":"Uncletopia | Warsaw | 2 | All Maps","protocol":17,"map":"koth_viaduct","folder":"tf","game":"Team Fortress","app_id":440,"player_count":0,"max_players":24,"Bots":0,"server_type":"Dedicated","server_os":"Linux","password":true,"vac":true,"version":"7757534","steam_id":85568392925397851,"keywords":["cp","nocrits","nodmgspread","uncletopia"],"game_id":440,"stv_port":27026,"stv_name":"Uncletopia | Warsaw | 2 | All Maps | STV","players":null},{"server_id":51,"name":"Uncletopia | Warsaw | 3 | All Maps","name_short":"waw-3","host":"waw-1.pl.uncletopia.com","port":27035,"enabled":true,"region":"eu","cc":"pl","latitude":52.2297,"longitude":21.017532,"reserved":0,"last_update":"0001-01-01T00:00:00Z","name_a2s":"Uncletopia | Warsaw | 3 | All Maps","protocol":17,"map":"pl_badwater","folder":"tf","game":"Team Fortress","app_id":440,"player_count":0,"max_players":24,"Bots":0,"server_type":"Dedicated","server_os":"Linux","password":true,"vac":true,"version":"7757534","steam_id":85568392925397852,"keywords":["nocrits","nodmgspread","payload","uncletopia"],"game_id":440,"stv_port":27036,"stv_name":"Uncletopia | Warsaw | 3 | All Maps | STV","players":null},{"server_id":52,"name":"Uncletopia | Warsaw | 4 | All Maps","name_short":"waw-4","host":"waw-1.pl.uncletopia.com","port":27045,"enabled":true,"region":"eu","cc":"pl","latitude":52.2297,"longitude":21.017532,"reserved":0,"last_update":"0001-01-01T00:00:00Z","name_a2s":"Uncletopia | Warsaw | 4 | All Maps","protocol":17,"map":"koth_lakeside_final","folder":"tf","game":"Team Fortress","app_id":440,"player_count":0,"max_players":24,"Bots":0,"server_type":"Dedicated","server_os":"Linux","password":true,"vac":true,"version":"7757534","steam_id":85568392925397853,"keywords":["cp","nocrits","nodmgspread","uncletopia"],"game_id":440,"stv_port":27046,"stv_name":"Uncletopia | Warsaw | 4 | All Maps | STV","players":null},{"server_id":53,"name":"Uncletopia | Warsaw | 5 | Stopwatch Beta","name_short":"waw-5","host":"waw-1.pl.uncletopia.com","port":27055,"enabled":true,"region":"eu","cc":"pl","latitude":52.2297,"longitude":21.017532,"reserved":0,"last_update":"0001-01-01T00:00:00Z","name_a2s":"Uncletopia | Warsaw | 5 | Stopwatch Beta","protocol":17,"map":"pl_borneo","folder":"tf","game":"Team Fortress","app_id":440,"player_count":0,"max_players":24,"Bots":0,"server_type":"Dedicated","server_os":"Linux","password":true,"vac":true,"version":"7757534","steam_id":85568392925397854,"keywords":["nocrits","nodmgspread","payload","uncletopia"],"game_id":440,"stv_port":27056,"stv_name":"Uncletopia | Warsaw | 5 | Stopwatch Beta | STV","players":null},{"server_id":54,"name":"Uncletopia | Warsaw | 6 | Community","name_short":"waw-6","host":"waw-1.pl.uncletopia.com","port":27065,"enabled":true,"region":"eu","cc":"pl","latitude":52.2297,"longitude":21.017532,"reserved":0,"last_update":"0001-01-01T00:00:00Z","name_a2s":"Uncletopia | Warsaw | 6 | Community","protocol":17,"map":"koth_lakeside_final","folder":"tf","game":"Team Fortress","app_id":440,"player_count":0,"max_players":24,"Bots":0,"server_type":"Dedicated","server_os":"Linux","password":true,"vac":true,"version":"7757534","steam_id":85568392925397856,"keywords":["cp","nocrits","nodmgspread","uncletopia"],"game_id":440,"stv_port":27066,"stv_name":"Uncletopia | Warsaw | 6 | Community | STV","players":null}]}