{"status":true,"message":"","result":[{"server_id":9,"name":"Uncletopia | Atlanta | 1 | All Maps","name_short":"atl-1","host":"atl-1.us.uncletopia.com","port":27015,"enabled":true,"region":"us-east","cc":"us","latitude":33.753746,"longitude":-84.38633,"reserved":0,"last_update":"0001-01-01T00:00:00Z","name_a2s":"Uncletopia | Atlanta | 1 | All Maps","protocol":17,"map":"pl_badwater","folder":"tf","game":"Team Fortress","app_id":440,"player_count":24,"max_players":24,"Bots":0,"server_type":"Dedicated","server_os":"Linux","password":true,"vac":true,"version":"7757534","steam_id":85568392924469982,"keywords":["nocrits","nodmgspread","payload","uncletopia"],"game_id":440,"stv_port":27016,"stv_name":"Uncletopia | Atlanta | 1 | All Maps | STV","players":[{"user_id":686,"name":"Broken Cereal√","steam_id":76561198087489795,"connected_time":5553000000000,"state":"active","ping":68},{"user_id":505,"name":"cheeks","steam_id":76561197993371179,"connected_time":16478000000000,"state":"active","ping":45},{"user_id":708,"name":"eish","steam_id":76561198089463603,"connected_time":3167000000000,"state":"active","ping":117},{"user_id":727,"name":"bogginwater","steam_id":76561198155547142,"connected_time":1598000000000,"state":"active","ping":62},{"user_id":736,"name":"Kuudere","steam_id":76561198075028016,"connected_time":435000000000,"state":"active","ping":125},{"user_id":734,"name":"tf2 is a happy game :)","steam_id":76561198061067423,"connected_time":682000000000,"state":"active","ping":90},{"user_id":725,"name":"Femcel Fornicator","steam_id":76561198336584447,"connected_time":1943000000000,"state":"active","ping":66},{"user_id":715,"name":"Shame","steam_id":76561198100490994,"connected_time":3102000000000,"state":"active","ping":58},{"user_id":726,"name":"c.atto","steam_id":76561198202448753,"connected_time":1839000000000,"state":"active","ping":135},{"user_id":702,"name":"kametro4","steam_id":76561198835430429,"connected_time":4380000000000,"state":"active","ping":105},{"user_id":728,"name":"Ġ1 ♦ Synth","steam_id":76561198058660228,"connected_time":1598000000000,"state":"active","ping":45},{"user_id":697,"name":"♥Bunny♥Slut♥","steam_id":76561198206376851,"connected_time":4503000000000,"state":"active","ping":107},{"user_id":717,"name":"Ryan","steam_id":76561198397037834,"connected_time":3066000000000,"state":"active","ping":69},{"user_id":711,"name":"Nolan (Femboy)","steam_id":76561198082534795,"connected_time":3145000000000,"state":"active","ping":84},{"user_id":724,"name":"BambuBabyPackRunner","steam_id":76561198320866421,"connected_time":2186000000000,"state":"active","ping":54},{"user_id":707,"name":"ATL 1 | Save your wifi","steam_id":76561198286147372,"connected_time":3178000000000,"state":"active","ping":57},{"user_id":690,"name":"cola","steam_id":76561198374390458,"connected_time":5520000000000,"state":"active","ping":54},{"user_id":738,"name":"redindy","steam_id":76561198070154445,"connected_time":58000000000,"state":"active","ping":60},{"user_id":731,"name":"TheSnaggedSoul","steam_id":76561198198846371,"connected_time":1047000000000,"state":"active","ping":75},{"user_id":712,"name":"Dreamzapp","steam_id":76561199084936632,"connected_time":3144000000000,"state":"active","ping":128},{"user_id":706,"name":"SeaBass","steam_id":76561198278914206,"connected_time":3899000000000,"state":"active","ping":57},{"user_id":733,"name":"MengskDidNothingWrong","steam_id":76561198009510979,"connected_time":862000000000,"state":"active","ping":56},{"user_id":737,"name":"BIG HOG","steam_id":76561198079923652,"connected_time":426000000000,"state":"active","ping":64},{"user_id":723,"name":"façade","steam_id":76561199157009256,"connected_time":2507000000000,"state":"active","ping":96}]},{"server_id":400,"name":"Uncletopia | Atlanta | 3 | Community","name_short":"atl-3","host":"atl-1.us.uncletopia.com","port":27035,"enabled":true,"region":"us-east","cc":"us","latitude":33.753746,"longitude":-84.38633,"reserved":0,"last_update":"0001-01-01T00:00:00Z","name_a2s":"Uncletopia | Atlanta | 3 | Community","protocol":17,"map":"workshop/pl_fifthcurve_rc1.ugc648227046","folder":"tf","game":"Team Fortress","app_id":440,"player_count":16,"max_players":24,"Bots":0,"server_type":"Dedicated","server_os":"Linux","password":true,"vac":true,"version":"7757534","steam_id":85568392924515187,"keywords":["nocrits","nodmgspread","payload","uncletopia"],"game_id":440,"stv_port":27036,"stv_name":"Uncletopia | Atlanta | 3 | Community | STV","players":[{"user_id":112,"name":"ChIck3n","steam_id":76561197999023274,"connected_time":3201000000000,"state":"active","ping":53},{"user_id":143,"name":"Jammer","steam_id":76561198435691014,"connected_time":1114000000000,"state":"active","ping":75},{"user_id":147,"name":"Noctis","steam_id":76561198845208323,"connected_time":864000000000,"state":"active","ping":67},{"user_id":151,"name":"DerpFamous","steam_id":76561198046167888,"connected_time":750000000000,"state":"active","ping":30},{"user_id":153,"name":"hud_saytext_time 0","steam_id":76561198010327228,"connected_time":480000000000,"state":"active","ping":173},{"user_id":132,"name":"fruitymario","steam_id":76561198047190430,"connected_time":2282000000000,"state":"active","ping":53},{"user_id":139,"name":"Neo Kabuto","steam_id":76561197998339185,"connected_time":1369000000000,"state":"active","ping":57},{"user_id":140,"name":"Rabbit Captain Guykatsu","steam_id":76561198035469897,"connected_time":1206000000000,"state":"active","ping":84},{"user_id":128,"name":"TheTruthOfTheCessationOfDukkha","steam_id":76561198214370515,"connected_time":2542000000000,"state":"active","ping":67},{"user_id":115,"name":"iTellYouHwhut","steam_id":76561198024984121,"connected_time":3119000000000,"state":"active","ping":94},{"user_id":116,"name":"Chucklenuts","steam_id":76561198043284253,"connected_time":3110000000000,"state":"active","ping":59},{"user_id":129,"name":"lu","steam_id":76561198080731872,"connected_time":2524000000000,"state":"active","ping":63},{"user_id":120,"name":"justcallmedoctorchu","steam_id":76561198134843196,"connected_time":2952000000000,"state":"active","ping":86},{"user_id":142,"name":"Remy the rat","steam_id":76561198080519558,"connected_time":1135000000000,"state":"active","ping":63},{"user_id":152,"name":"jeansg","steam_id":76561199040569812,"connected_time":740000000000,"state":"active","ping":118},{"user_id":150,"name":"donk","steam_id":76561198040360395,"connected_time":826000000000,"state":"active","ping":60}]},{"server_id":401,"name":"Uncletopia | Atlanta | 4 | No Payload","name_short":"atl-4","host":"atl-1.us.uncletopia.com","port":27045,"enabled":true,"region":"us-east","cc":"us","latitude":33.753746,"longitude":-84.38633,"reserved":0,"last_update":"0001-01-01T00:00:00Z","name_a2s":"","protocol":0,"map":"","folder":"","game":"","app_id":0,"player_count":0,"max_players":0,"Bots":0,"server_type":"","server_os":"","password":false,"vac":false,"version":"","steam_id":0,"keywords":null,"game_id":0,"stv_port":0,"stv_name":"","players":null},{"server_id":2,"name":"Uncletopia | Chicago | 1 | All Maps","name_short":"chi-1","host":"chi-1.us.uncletopia.com","port":27015,"enabled":true,"region":"us-central","cc":"us","latitude":41.881832,"longitude":-87.62318,"reserved":0,"last_update":"0001-01-01T00:00:00Z","name_a2s":"Uncletopia | Chicago | 1 | All Maps","protocol":17,"map":"pl_borneo","folder":"tf","game":"Team Fortress","app_id":440,"player_count":24,"max_players":24,"Bots":0,"server_type":"Dedicated","server_os":"Linux","password":true,"vac":true,"version":"7757534","steam_id":85568392924469984,"keywords":["nocrits","nodmgspread","payload","uncletopia"],"game_id":440,"stv_port":27016,"stv_name":"Uncletopia | Chicago | 1 | All Maps | STV","players":[{"user_id":511,"name":"Iron","steam_id":76561198247918478,"connected_time":706000000000,"state":"active","ping":65},{"user_id":508,"name":"The Walnut","steam_id":76561198080583044,"connected_time":1261000000000,"state":"active","ping":78},{"user_id":487,"name":"Pegway","steam_id":76561198044303814,"connected_time":2965000000000,"state":"active","ping":59},{"user_id":523,"name":"weeb_whacker #Jenius #Hateologi","steam_id":76561198187098041,"connected_time":131000000000,"state":"active","ping":54},{"user_id":495,"name":"MosBlunted","steam_id":76561198259380127,"connected_time":2600000000000,"state":"active","ping":70},{"user_id":524,"name":"Grand Wizard King","steam_id":76561198099802660,"connected_time":126000000000,"state":"active","ping":73},{"user_id":526,"name":"Rui","steam_id":76561198263735498,"connected_time":50000000000,"state":"active","ping":175},{"user_id":514,"name":"white ray","steam_id":76561198026664629,"connected_time":622000000000,"state":"active","ping":59},{"user_id":464,"name":"AAGooseman","steam_id":76561198378941369,"connected_time":4432000000000,"state":"active","ping":104},{"user_id":478,"name":"Pixelloader","steam_id":76561198218618819,"connected_time":3799000000000,"state":"active","ping":75},{"user_id":466,"name":"FallenTrinity487","steam_id":76561198331953704,"connected_time":4179000000000,"state":"active","ping":71},{"user_id":442,"name":"Captain S. Forrest","steam_id":76561198062463029,"connected_time":6785000000000,"state":"active","ping":61},{"user_id":522,"name":"Bon Gripper","steam_id":76561198090074621,"connected_time":226000000000,"state":"active","ping":60},{"user_id":525,"name":"Soda","steam_id":76561198219209367,"connected_time":94000000000,"state":"active","ping":63},{"user_id":479,"name":"[UHS] K24A4 2.4","steam_id":76561199072970627,"connected_time":3658000000000,"state":"active","ping":45},{"user_id":492,"name":"FHC | D9","steam_id":76561198149666258,"connected_time":2901000000000,"state":"active","ping":49},{"user_id":444,"name":"Astoriae!","steam_id":76561199090168858,"connected_time":6504000000000,"state":"active","ping":70},{"user_id":502,"name":"Tobacco","steam_id":76561198022282756,"connected_time":2192000000000,"state":"active","ping":89},{"user_id":521,"name":"a crystal lizard","steam_id":76561197997661928,"connected_time":401000000000,"state":"active","ping":77},{"user_id":510,"name":"JimmyNeutron","steam_id":76561197993353322,"connected_time":1073000000000,"state":"active","ping":76},{"user_id":518,"name":"FETTUCCINE GANG","steam_id":76561198398722419,"connected_time":559000000000,"state":"active","ping":90},{"user_id":519,"name":"Boogie","steam_id":76561198043626626,"connected_time":550000000000,"state":"active","ping":62},{"user_id":520,"name":"Porsy","steam_id":76561198041850843,"connected_time":526000000000,"state":"active","ping":44},{"user_id":456,"name":"Krome","steam_id":76561198087317232,"connected_time":5839000000000,"state":"active","ping":75}]},{"server_id":106,"name":"Uncletopia | Chicago | 2 | All Maps","name_short":"chi-2","host":"chi-1.us.uncletopia.com","port":27025,"enabled":true,"region":"us-central","cc":"us","latitude":41.881832,"longitude":-87.62318,"reserved":0,"last_update":"0001-01-01T00:00:00Z","name_a2s":"Uncletopia | Chicago | 2 | All Maps","protocol":17,"map":"pl_upward","folder":"tf","game":"Team Fortress","app_id":440,"player_count":24,"max_players":24,"Bots":0,"server_type":"Dedicated","server_os":"Linux","password":true,"vac":true,"version":"7757534","steam_id":85568392924469985,"keywords":["nocrits","nodmgspread","payload","uncletopia"],"game_id":440,"stv_port":27026,"stv_name":"Uncletopia | Chicago | 2 | All Maps | STV","players":[{"user_id":229,"name":"Eternal Eunuch","steam_id":76561198001195423,"connected_time":2735000000000,"state":"active","ping":80},{"user_id":261,"name":"piebluedog","steam_id":76561198141362745,"connected_time":1909000000000,"state":"active","ping":86},{"user_id":268,"name":"Professor Shaggy","steam_id":76561198276926724,"connected_time":1802000000000,"state":"active","ping":56},{"user_id":286,"name":"Timmy Riggs","steam_id":76561198040743777,"connected_time":948000000000,"state":"active","ping":67},{"user_id":285,"name":"[㏈] Bumpercars","steam_id":76561198061591743,"connected_time":984000000000,"state":"active","ping":63},{"user_id":219,"name":"EMP","steam_id":76561198874125258,"connected_time":3227000000000,"state":"active","ping":81},{"user_id":287,"name":"mothsprings","steam_id":76561198928604937,"connected_time":947000000000,"state":"active","ping":80},{"user_id":262,"name":"CwazY","steam_id":76561198074423131,"connected_time":1880000000000,"state":"active","ping":96},{"user_id":291,"name":"AuzzieJZ","steam_id":76561198134430439,"connected_time":498000000000,"state":"active","ping":67},{"user_id":264,"name":"Cakebeef","steam_id":76561198185352402,"connected_time":1870000000000,"state":"active","ping":103},{"user_id":292,"name":"veemo","steam_id":76561198321393225,"connected_time":4000000000,"state":"spawning","ping":126},{"user_id":240,"name":"Kremit","steam_id":76561198102023542,"connected_time":2227000000000,"state":"active","ping":84},{"user_id":265,"name":"psycho   c","steam_id":76561199215821942,"connected_time":1833000000000,"state":"active","ping":66},{"user_id":266,"name":"yanweh","steam_id":76561198038291026,"connected_time":1829000000000,"state":"active","ping":55},{"user_id":245,"name":"temmssmdisnas","steam_id":76561198269445775,"connected_time":2128000000000,"state":"active","ping":115},{"user_id":276,"name":"Rornir","steam_id":76561198081829615,"connected_time":1298000000000,"state":"active","ping":42},{"user_id":269,"name":"The Cool Man","steam_id":76561198096420556,"connected_time":1784000000000,"state":"active","ping":94},{"user_id":250,"name":"B-Roaskie","steam_id":76561198210039575,"connected_time":2070000000000,"state":"active","ping":65},{"user_id":289,"name":"Salium","steam_id":76561197961546093,"connected_time":892000000000,"state":"active","ping":105},{"user_id":284,"name":"G.Flewit","steam_id":76561199214365392,"connected_time":1023000000000,"state":"active","ping":71},{"user_id":271,"name":"jootloops","steam_id":76561198155447794,"connected_time":1779000000000,"state":"active","ping":63},{"user_id":217,"name":"Infinity","steam_id":76561199134919099,"connected_time":3323000000000,"state":"active","ping":73},{"user_id":257,"name":"superwarm07","steam_id":76561199196313157,"connected_time":1953000000000,"state":"active","ping":129},{"user_id":277,"name":"DragoDuck","steam_id":76561198385685683,"connected_time":1217000000000,"state":"active","ping":83}]},{"server_id":402,"name":"Uncletopia | Chicago | 3 | All Maps","name_short":"chi-3","host":"chi-1.us.uncletopia.com","port":27035,"enabled":true,"region":"us-central","cc":"us","latitude":41.881832,"longitude":-87.62318,"reserved":0,"last_update":"0001-01-01T00:00:00Z","name_a2s":"Uncletopia | Chicago | 3 | All Maps","protocol":17,"map":"cp_sunshine","folder":"tf","game":"Team Fortress","app_id":440,"player_count":24,"max_players":24,"Bots":0,"server_type":"Dedicated","server_os":"Linux","password":true,"vac":true,"version":"7757534","steam_id":85568392924515191,"keywords":["cp","nocrits","nodmgspread","uncletopia"],"game_id":440,"stv_port":27036,"stv_name":"Uncletopia | Chicago | 3 | All Maps | STV","players":[{"user_id":527,"name":"rats.org","steam_id":76561198060921894,"connected_time":1835000000000,"state":"active","ping":69},{"user_id":538,"name":"OnoBononos","steam_id":76561198103382044,"connected_time":1041000000000,"state":"active","ping":82},{"user_id":542,"name":"Even Tide","steam_id":76561199057226703,"connected_time":916000000000,"state":"active","ping":74},{"user_id":561,"name":"tim-","steam_id":76561199119101315,"connected_time":201000000000,"state":"active","ping":75},{"user_id":539,"name":"Aer0","steam_id":76561198799656067,"connected_time":991000000000,"state":"active","ping":64},{"user_id":563,"name":"Dispenser (Twan)","steam_id":76561197991064908,"connected_time":84000000000,"state":"active","ping":60},{"user_id":546,"name":"TheLonliestThelonius","steam_id":76561198097657243,"connected_time":679000000000,"state":"active","ping":84},{"user_id":544,"name":"Saggy","steam_id":76561198166706479,"connected_time":793000000000,"state":"active","ping":69},{"user_id":545,"name":"Maxxycat","steam_id":76561198194062681,"connected_time":716000000000,"state":"active","ping":56},{"user_id":547,"name":"Alpha Goose","steam_id":76561198038927852,"connected_time":660000000000,"state":"active","ping":71},{"user_id":531,"name":"neverseemeagain","steam_id":76561198062054335,"connected_time":1716000000000,"state":"active","ping":89},{"user_id":548,"name":"pablo","steam_id":76561198395577807,"connected_time":649000000000,"state":"active","ping":46},{"user_id":499,"name":"Nightingale von Carstein","steam_id":76561198382793308,"connected_time":3007000000000,"state":"active","ping":84},{"user_id":564,"name":"girlpeen supreme","steam_id":76561198031242903,"connected_time":78000000000,"state":"active","ping":65},{"user_id":562,"name":"Gustavo Fring","steam_id":76561198132807405,"connected_time":183000000000,"state":"active","ping":94},{"user_id":518,"name":"Major Coom","steam_id":76561198038371512,"connected_time":2249000000000,"state":"active","ping":86},{"user_id":565,"name":"rajas","steam_id":76561198049099910,"connected_time":15000000000,"state":"active","ping":51},{"user_id":484,"name":"Pourpel","steam_id":76561198059125470,"connected_time":4030000000000,"state":"active","ping":69},{"user_id":556,"name":"24dustin1","steam_id":76561198059506390,"connected_time":394000000000,"state":"active","ping":88},{"user_id":532,"name":"Funky Buttlovin","steam_id":76561198002807702,"connected_time":1711000000000,"state":"active","ping":68},{"user_id":557,"name":"MasterGoop","steam_id":76561198285594777,"connected_time":375000000000,"state":"active","ping":87},{"user_id":558,"name":"Squeegee Luigi","steam_id":76561199403489729,"connected_time":368000000000,"state":"active","ping":76},{"user_id":559,"name":"l8rsxx","steam_id":76561198803030993,"connected_time":318000000000,"state":"active","ping":88},{"user_id":560,"name":"MaybeMars","steam_id":76561198084736804,"connected_time":270000000000,"state":"active","ping":82}]},{"server_id":403,"name":"Uncletopia | Chicago | 4 | All Maps","name_short":"chi-4","host":"chi-1.us.uncletopia.com","port":27045,"enabled":true,"region":"us-central","cc":"us","latitude":41.881832,"longitude":-87.62318,"reserved":0,"last_update":"0001-01-01T00:00:00Z","name_a2s":"Uncletopia | Chicago | 4 | All Maps","protocol":17,"map":"cp_dustbowl","folder":"tf","game":"Team Fortress","app_id":440,"player_count":24,"max_players":24,"Bots":0,"server_type":"Dedicated","server_os":"Linux","password":true,"vac":true,"version":"7757534","steam_id":85568392924515193,"keywords":["cp","nocrits","nodmgspread","uncletopia"],"game_id":440,"stv_port":27046,"stv_name":"Uncletopia | Chicago | 4 | All Maps | STV","players":[{"user_id":982,"name":"Chappy","steam_id":76561198069167687,"connected_time":1927000000000,"state":"active","ping":57},{"user_id":1004,"name":"Harold","steam_id":76561198057317770,"connected_time":737000000000,"state":"active","ping":83},{"user_id":1001,"name":"JollyGreenGiant 8=D (‿ꜟ‿)","steam_id":76561198070768628,"connected_time":1340000000000,"state":"active","ping":75},{"user_id":988,"name":"the keithvinci kode","steam_id":76561198056622157,"connected_time":1691000000000,"state":"active","ping":61},{"user_id":986,"name":"Mintavious","steam_id":76561198235953338,"connected_time":1843000000000,"state":"active","ping":68},{"user_id":984,"name":"BigDeac","steam_id":76561198091237274,"connected_time":1914000000000,"state":"active","ping":54},{"user_id":1003,"name":"Samsung Galaxy S22","steam_id":76561198319442494,"connected_time":816000000000,"state":"active","ping":103},{"user_id":676,"name":"Temujin","steam_id":76561198030936583,"connected_time":22234000000000,"state":"active","ping":51},{"user_id":987,"name":"dj funnybone","steam_id":76561199384195720,"connected_time":1766000000000,"state":"active","ping":79},{"user_id":989,"name":"leapingleptard44","steam_id":76561198055820772,"connected_time":1677000000000,"state":"active","ping":103},{"user_id":990,"name":"ElectricSweetPotato","steam_id":76561198340322262,"connected_time":1624000000000,"state":"active","ping":58},{"user_id":991,"name":"Retrace","steam_id":76561198080620966,"connected_time":1617000000000,"state":"active","ping":77},{"user_id":992,"name":"Tom Crúaich","steam_id":76561197999439911,"connected_time":1604000000000,"state":"active","ping":73},{"user_id":976,"name":"captainskullet","steam_id":76561198314597170,"connected_time":2662000000000,"state":"active","ping":67},{"user_id":993,"name":"engie","steam_id":76561199229629045,"connected_time":1602000000000,"state":"active","ping":108},{"user_id":936,"name":"DAS SCHNITZELSTIEN","steam_id":76561198051137159,"connected_time":4961000000000,"state":"active","ping":104},{"user_id":994,"name":"MancalaMadMan","steam_id":76561198347324053,"connected_time":1596000000000,"state":"active","ping":114},{"user_id":1002,"name":"rudy","steam_id":76561198088712799,"connected_time":1337000000000,"state":"active","ping":67},{"user_id":1005,"name":"Poseidon","steam_id":76561198156835929,"connected_time":70000000000,"state":"active","ping":88},{"user_id":996,"name":"Powerpuker","steam_id":76561198034620567,"connected_time":1584000000000,"state":"active","ping":58},{"user_id":997,"name":"Fury-bringer","steam_id":76561198042860511,"connected_time":1563000000000,"state":"active","ping":45},{"user_id":998,"name":"Local Boy Kisser","steam_id":76561199063329349,"connected_time":1557000000000,"state":"active","ping":150},{"user_id":999,"name":"money getter","steam_id":76561199065645094,"connected_time":1520000000000,"state":"active","ping":83},{"user_id":1000,"name":"Dr Smeggman","steam_id":76561197966614845,"connected_time":1520000000000,"state":"active","ping":134}]},{"server_id":36,"name":"Uncletopia | Chicago | 5 | All Maps","name_short":"chi-5","host":"chi-2.us.uncletopia.com","port":27015,"enabled":true,"region":"us-central","cc":"us","latitude":41.881832,"longitude":-87.62318,"reserved":0,"last_update":"0001-01-01T00:00:00Z","name_a2s":"Uncletopia | Chicago | 5 | All Maps","protocol":17,"map":"pl_swiftwater_final1","folder":"tf","game":"Team Fortress","app_id":440,"player_count":23,"max_players":24,"Bots":0,"server_type":"Dedicated","server_os":"Linux","password":true,"vac":true,"version":"7757534","steam_id":85568392924866362,"keywords":["nocrits","nodmgspread","payload","uncletopia"],"game_id":440,"stv_port":27016,"stv_name":"Uncletopia | Chicago | 5 | All Maps | STV","players":[{"user_id":274,"name":"Soju","steam_id":76561198044130442,"connected_time":3766000000000,"state":"active","ping":95},{"user_id":310,"name":"pasta","steam_id":76561198084719895,"connected_time":742000000000,"state":"active","ping":52},{"user_id":300,"name":"Brock Obama","steam_id":76561198094643755,"connected_time":1025000000000,"state":"active","ping":64},{"user_id":249,"name":"Freyesh","steam_id":76561198126946022,"connected_time":5362000000000,"state":"active","ping":109},{"user_id":301,"name":"-W3E- grim10465","steam_id":76561198045698581,"connected_time":939000000000,"state":"active","ping":52},{"user_id":223,"name":"Monsterjessy","steam_id":76561198035630985,"connected_time":6984000000000,"state":"active","ping":59},{"user_id":314,"name":"Oops","steam_id":76561198015032646,"connected_time":51000000000,"state":"active","ping":94},{"user_id":295,"name":"WinteR","steam_id":76561198042242154,"connected_time":1775000000000,"state":"active","ping":89},{"user_id":305,"name":"watchfull","steam_id":76561198433266742,"connected_time":816000000000,"state":"active","ping":95},{"user_id":290,"name":"shadowjango","steam_id":76561198001475833,"connected_time":2257000000000,"state":"active","ping":66},{"user_id":277,"name":"kr1tsurf3r","steam_id":76561198076402476,"connected_time":3581000000000,"state":"active","ping":116},{"user_id":288,"name":"faxxy","steam_id":76561198079621240,"connected_time":2353000000000,"state":"active","ping":80},{"user_id":283,"name":"threethree","steam_id":76561198177354155,"connected_time":3414000000000,"state":"active","ping":53},{"user_id":291,"name":"Tusk","steam_id":76561199066977033,"connected_time":2241000000000,"state":"active","ping":76},{"user_id":313,"name":"cyborgor","steam_id":76561198040782513,"connected_time":178000000000,"state":"active","ping":90},{"user_id":304,"name":"edd","steam_id":76561198342471256,"connected_time":819000000000,"state":"active","ping":73},{"user_id":311,"name":"Cam","steam_id":76561198139174433,"connected_time":641000000000,"state":"active","ping":90},{"user_id":307,"name":"-BRH- Tangled up in Bluegrass","steam_id":76561197987181139,"connected_time":809000000000,"state":"active","ping":70},{"user_id":296,"name":"LaunchpadMcQuack","steam_id":76561198022302377,"connected_time":1767000000000,"state":"active","ping":61},{"user_id":294,"name":"BOT Positronic♥June (they/she","steam_id":76561198042556857,"connected_time":2052000000000,"state":"active","ping":55},{"user_id":272,"name":"An Erect Penis :)","steam_id":76561198086477485,"connected_time":4437000000000,"state":"active","ping":42},{"user_id":309,"name":"Phaze","steam_id":76561198025267071,"connected_time":765000000000,"state":"active","ping":70},{"user_id":287,"name":"PhaserLazer","steam_id":76561198407341298,"connected_time":2377000000000,"state":"active","ping":81}]},{"server_id":37,"name":"Uncletopia | Chicago | 6 | All Maps","name_short":"chi-6","host":"chi-2.us.uncletopia.com","port":27025,"enabled":true,"region":"us-central","cc":"us","latitude":41.881832,"longitude":-87.62318,"reserved":0,"last_update":"0001-01-01T00:00:00Z","name_a2s":"Uncletopia | Chicago | 6 | All Maps","protocol":17,"map":"pl_frontier_final","folder":"tf","game":"Team Fortress","app_id":440,"player_count":0,"max_players":24,"Bots":0,"server_type":"Dedicated","server_os":"Linux","password":true,"vac":true,"version":"7757534","steam_id":85568392924866363,"keywords":["nocrits","nodmgspread","payload","uncletopia"],"game_id":440,"stv_port":27026,"stv_name":"Uncletopia | Chicago | 6 | All Maps | STV","players":null},{"server_id":38,"name":"Uncletopia | Chicago | 7 | Stopwatch Beta","name_short":"chi-7","host":"chi-2.us.uncletopia.com","port":27035,"enabled":true,"region":"us-central","cc":"us","latitude":41.881832,"longitude":-87.62318,"reserved":0,"last_update":"0001-01-01T00:00:00Z","name_a2s":"Uncletopia | Chicago | 7 | Stopwatch Beta","protocol":17,"map":"koth_viaduct","folder":"tf","game":"Team Fortress","app_id":440,"player_count":0,"max_players":24,"Bots":0,"server_type":"Dedicated","server_os":"Linux","password":true,"vac":true,"version":"7757534","steam_id":85568392924866364,"keywords":["cp","nocrits","nodmgspread","uncletopia"],"game_id":440,"stv_port":27036,"stv_name":"Uncletopia | Chicago | 7 | Stopwatch Beta | STV","players":null},{"server_id":39,"name":"Uncletopia | Chicago | 8 | Community","name_short":"chi-8","host":"chi-2.us.uncletopia.com","port":27045,"enabled":true,"region":"us-central","cc":"us","latitude":41.881832,"longitude":-87.62318,"reserved":0,"last_update":"0001-01-01T00:00:00Z","name_a2s":"Uncletopia | Chicago | 8 | Community","protocol":17,"map":"workshop/pl_cashworks_final1.ugc2904065412","folder":"tf","game":"Team Fortress","app_id":440,"player_count":0,"max_players":24,"Bots":0,"server_type":"Dedicated","server_os":"Linux","password":true,"vac":true,"version":"7757534","steam_id":85568392924866365,"keywords":["nocrits","nodmgspread","payload","uncletopia"],"game_id":440,"stv_port":27046,"stv_name":"Uncletopia | Chicago | 8 | Community | STV","players":null},{"server_id":8,"name":"Uncletopia | Dallas | 1 | All Maps","name_short":"dal-1","host":"dal-1.us.uncletopia.com","port":27015,"enabled":true,"region":"us-central","cc":"us","latitude":32.779167,"longitude":-96.80889,"reserved":0,"last_update":"0001-01-01T00:00:00Z","name_a2s":"Uncletopia | Dallas | 1 | All Maps","protocol":17,"map":"pl_snowycoast","folder":"tf","game":"Team Fortress","app_id":440,"player_count":24,"max_players":24,"Bots":0,"server_type":"Dedicated","server_os":"Linux","password":true,"vac":true,"version":"7757534","steam_id":85568392924469986,"keywords":["nocrits","nodmgspread","payload","uncletopia"],"game_id":440,"stv_port":27016,"stv_name":"Uncletopia | Dallas | 1 | All Maps | STV","players":[{"user_id":725,"name":"God Robert's Cousin","steam_id":76561198022189909,"connected_time":1988000000000,"state":"active","ping":76},{"user_id":718,"name":"derdds","steam_id":76561198034339940,"connected_time":2655000000000,"state":"active","ping":75},{"user_id":747,"name":"soupy","steam_id":76561197974283797,"connected_time":150000000000,"state":"active","ping":61},{"user_id":741,"name":"Prof. Eggnog","steam_id":76561198193389166,"connected_time":435000000000,"state":"active","ping":100},{"user_id":733,"name":"toontown o'clock","steam_id":76561198056186750,"connected_time":1580000000000,"state":"active","ping":76},{"user_id":746,"name":"JZ","steam_id":76561198377029198,"connected_time":157000000000,"state":"active","ping":68},{"user_id":744,"name":"Nobody","steam_id":76561198441444545,"connected_time":303000000000,"state":"active","ping":79},{"user_id":721,"name":"errant","steam_id":76561197961758410,"connected_time":2289000000000,"state":"active","ping":39},{"user_id":735,"name":"cook (not cock)","steam_id":76561198073106278,"connected_time":1128000000000,"state":"active","ping":56},{"user_id":740,"name":"Saiado","steam_id":76561198087739330,"connected_time":508000000000,"state":"active","ping":76},{"user_id":748,"name":"large baja blast","steam_id":76561198101971132,"connected_time":141000000000,"state":"active","ping":61},{"user_id":749,"name":"JYNACCI","steam_id":76561198100942212,"connected_time":139000000000,"state":"active","ping":75},{"user_id":750,"name":"Decepticon","steam_id":76561198047168548,"connected_time":131000000000,"state":"active","ping":74},{"user_id":751,"name":"Starkiller","steam_id":76561198101643120,"connected_time":119000000000,"state":"active","ping":121},{"user_id":715,"name":"DiabetesMan","steam_id":76561198075668940,"connected_time":3383000000000,"state":"active","ping":88},{"user_id":752,"name":"Resident Thrussy Lender","steam_id":76561198071790583,"connected_time":97000000000,"state":"active","ping":49},{"user_id":738,"name":"Bogey","steam_id":76561198096227944,"connected_time":704000000000,"state":"active","ping":45},{"user_id":742,"name":"Banana","steam_id":76561199475231264,"connected_time":422000000000,"state":"active","ping":130},{"user_id":732,"name":"kobold gaymer","steam_id":76561198207260719,"connected_time":1786000000000,"state":"active","ping":58},{"user_id":743,"name":"Ghaeril","steam_id":76561198047880019,"connected_time":375000000000,"state":"active","ping":67},{"user_id":739,"name":"ShredMaan","steam_id":76561198429982138,"connected_time":523000000000,"state":"active","ping":87},{"user_id":729,"name":"reverie","steam_id":76561198168158637,"connected_time":1945000000000,"state":"active","ping":79},{"user_id":753,"name":"Colepie","steam_id":76561198037853211,"connected_time":96000000000,"state":"active","ping":55},{"user_id":591,"name":"Yuurg","steam_id":76561198057035968,"connected_time":7183000000000,"state":"active","ping":94}]},{"server_id":108,"name":"Uncletopia | Dallas | 2 | All Maps","name_short":"dal-2","host":"dal-1.us.uncletopia.com","port":27025,"enabled":true,"region":"us-central","cc":"us","latitude":32.779167,"longitude":-96.80889,"reserved":0,"last_update":"0001-01-01T00:00:00Z","name_a2s":"Uncletopia | Dallas | 2 | All Maps","protocol":17,"map":"cp_steel","folder":"tf","game":"Team Fortress","app_id":440,"player_count":21,"max_players":24,"Bots":0,"server_type":"Dedicated","server_os":"Linux","password":true,"vac":true,"version":"7757534","steam_id":85568392924469988,"keywords":["cp","nocrits","nodmgspread","uncletopia"],"game_id":440,"stv_port":27026,"stv_name":"Uncletopia | Dallas | 2 | All Maps | STV","players":[{"user_id":504,"name":"Careful Demon (she/they)","steam_id":76561198354263156,"connected_time":2513000000000,"state":"spawning","ping":308},{"user_id":532,"name":"PLak-PlaK","steam_id":76561198115688122,"connected_time":25000000000,"state":"active","ping":117},{"user_id":529,"name":"NEVER!","steam_id":76561198043199380,"connected_time":863000000000,"state":"spawning","ping":55},{"user_id":517,"name":"Any Harrys keeping it lady??","steam_id":76561198314501346,"connected_time":2189000000000,"state":"spawning","ping":100},{"user_id":502,"name":"FIRE IN TACO BELL","steam_id":76561198084019893,"connected_time":2699000000000,"state":"spawning","ping":81},{"user_id":344,"name":"plink","steam_id":76561198057829889,"connected_time":10526000000000,"state":"active","ping":103},{"user_id":523,"name":"Grand Wizard Autismo","steam_id":76561198069834979,"connected_time":1820000000000,"state":"active","ping":61},{"user_id":530,"name":"damiankiller1243","steam_id":76561198868885090,"connected_time":862000000000,"state":"active","ping":72},{"user_id":518,"name":"Darakrish","steam_id":76561198133126686,"connected_time":2061000000000,"state":"spawning","ping":68},{"user_id":521,"name":"Getter Ray (Mute)","steam_id":76561198037784368,"connected_time":1893000000000,"state":"active","ping":127},{"user_id":519,"name":"Arthur","steam_id":76561198075996414,"connected_time":2016000000000,"state":"active","ping":108},{"user_id":510,"name":"Way Nomura","steam_id":76561198066004229,"connected_time":2331000000000,"state":"active","ping":180},{"user_id":525,"name":"Garfield Smoking a Fat Pipe","steam_id":76561198086737105,"connected_time":1564000000000,"state":"active","ping":68},{"user_id":439,"name":"Rifter","steam_id":76561198077430698,"connected_time":5380000000000,"state":"active","ping":93},{"user_id":526,"name":"Leus Moose","steam_id":76561198024152565,"connected_time":1337000000000,"state":"active","ping":92},{"user_id":405,"name":"FunnyMan with FunnyPlan","steam_id":76561198281495705,"connected_time":6177000000000,"state":"active","ping":149},{"user_id":505,"name":"Any hairy like it ladies?","steam_id":76561198300550692,"connected_time":2502000000000,"state":"active","ping":136},{"user_id":531,"name":"Joe Rogan","steam_id":76561198217887589,"connected_time":775000000000,"state":"spawning","ping":84},{"user_id":500,"name":"any ladies keeping it hairy?","steam_id":76561198081220016,"connected_time":2767000000000,"state":"active","ping":129},{"user_id":527,"name":"SharpshooterMM3","steam_id":76561198252175282,"connected_time":1027000000000,"state":"spawning","ping":64},{"user_id":513,"name":"Training Arc","steam_id":76561198038832034,"connected_time":2315000000000,"state":"active","ping":223}]},{"server_id":5,"name":"Uncletopia | Frankfurt | 1 | All Maps","name_short":"frk-1","host":"frk-1.de.uncletopia.com","port":27015,"enabled":true,"region":"eu","cc":"de","latitude":50.110924,"longitude":8.682127,"reserved":0,"last_update":"0001-01-01T00:00:00Z","name_a2s":"Uncletopia | Frankfurt | 1 | All Maps","protocol":17,"map":"pl_badwater","folder":"tf","game":"Team Fortress","app_id":440,"player_count":0,"max_players":24,"Bots":0,"server_type":"Dedicated","server_os":"Linux","password":true,"vac":true,"version":"7757534","steam_id":85568392924469989,"keywords":["nocrits","nodmgspread","payload","uncletopia"],"game_id":440,"stv_port":27016,"stv_name":"Uncletopia | Frankfurt | 1 | All Maps | STV","players":null},{"server_id":110,"name":"Uncletopia | Frankfurt | 2 | All Maps","name_short":"frk-2","host":"frk-1.de.uncletopia.com","port":27025,"enabled":true,"region":"eu","cc":"de","latitude":50.110924,"longitude":8.682127,"reserved":0,"last_update":"0001-01-01T00:00:00Z","name_a2s":"Uncletopia | Frankfurt | 2 | All Maps","protocol":17,"map":"cp_altitude","folder":"tf","game":"Team Fortress","app_id":440,"player_count":0,"max_players":24,"Bots":0,"server_type":"Dedicated","server_os":"Linux","password":true,"vac":true,"version":"7757534","steam_id":85568392924469990,"keywords":["cp","nocrits","nodmgspread","uncletopia"],"game_id":440,"stv_port":27026,"stv_name":"Uncletopia | Frankfurt | 2 | All Maps | STV","players":null},{"server_id":308,"name":"Uncletopia | Frankfurt | 3 | All Maps","name_short":"frk-3","host":"frk-1.de.uncletopia.com","port":27035,"enabled":true,"region":"eu","cc":"de","latitude":50.110924,"longitude":8.682127,"reserved":0,"last_update":"0001-01-01T00:00:00Z","name_a2s":"Uncletopia | Frankfurt | 3 | All Maps","protocol":17,"map":"pl_borneo","folder":"tf","game":"Team Fortress","app_id":440,"player_count":0,"max_players":24,"Bots":0,"server_type":"Dedicated","server_os":"Linux","password":true,"vac":true,"version":"7757534","steam_id":85568392924504274,"keywords":["nocrits","nodmgspread","payload","uncletopia"],"game_id":440,"stv_port":27036,"stv_name":"Uncletopia | Frankfurt | 3 | All Maps | STV","players":null},{"server_id":309,"name":"Uncletopia | Frankfurt | 4 | All Maps","name_short":"frk-4","host":"frk-1.de.uncletopia.com","port":27045,"enabled":true,"region":"eu","cc":"de","latitude":50.110924,"longitude":8.682127,"reserved":0,"last_update":"0001-01-01T00:00:00Z","name_a2s":"Uncletopia | Frankfurt | 4 | All Maps","protocol":17,"map":"pl_pier","folder":"tf","game":"Team Fortress","app_id":440,"player_count":0,"max_players":24,"Bots":0,"server_type":"Dedicated","server_os":"Linux","password":true,"vac":true,"version":"7757534","steam_id":85568392924504275,"keywords":["nocrits","nodmgspread","payload","uncletopia"],"game_id":440,"stv_port":27046,"stv_name":"Uncletopia | Frankfurt | 4 | All Maps | STV","players":null},{"server_id":310,"name":"Uncletopia | Frankfurt | 5 | All Maps","name_short":"frk-5","host":"frk-1.de.uncletopia.com","port":27055,"enabled":true,"region":"eu","cc":"de","latitude":50.110924,"longitude":8.682127,"reserved":0,"last_update":"0001-01-01T00:00:00Z","name_a2s":"Uncletopia | Frankfurt | 5 | All Maps","protocol":17,"map":"cp_altitude","folder":"tf","game":"Team Fortress","app_id":440,"player_count":0,"max_players":24,"Bots":0,"server_type":"Dedicated","server_os":"Linux","password":true,"vac":true,"version":"7757534","steam_id":85568392924504277,"keywords":["cp","nocrits","nodmgspread","uncletopia"],"game_id":440,"stv_port":27056,"stv_name":"Uncletopia | Frankfurt | 5 | All Maps | STV","players":null},{"server_id":311,"name":"Uncletopia | Frankfurt | 6 | All Maps","name_short":"frk-6","host":"frk-1.de.uncletopia.com","port":27065,"enabled":true,"region":"eu","cc":"de","latitude":50.110924,"longitude":8.682127,"reserved":0,"last_update":"0001-01-01T00:00:00Z","name_a2s":"Uncletopia | Frankfurt | 6 | All Maps","protocol":17,"map":"pl_barnblitz","folder":"tf","game":"Team Fortress","app_id":440,"player_count":0,"max_players":24,"Bots":0,"server_type":"Dedicated","server_os":"Linux","password":true,"vac":true,"version":"7757534","steam_id":85568392924504278,"keywords":["nocrits","nodmgspread","payload","uncletopia"],"game_id":440,"stv_port":27066,"stv_name":"Uncletopia | Frankfurt | 6 | All Maps | STV","players":null},{"server_id":23,"name":"Uncletopia | Frankfurt | 7 | Stopwatch Beta","name_short":"frk-7","host":"frk-1.de.uncletopia.com","port":27075,"enabled":true,"region":"eu","cc":"de","latitude":50.110924,"longitude":8.682127,"reserved":0,"last_update":"0001-01-01T00:00:00Z","name_a2s":"Uncletopia | Frankfurt | 7 | Stopwatch Beta","protocol":17,"map":"pl_borneo","folder":"tf","game":"Team Fortress","app_id":440,"player_count":0,"max_players":24,"Bots":0,"server_type":"Dedicated","server_os":"Linux","password":true,"vac":true,"version":"7757534","steam_id":85568392924742827,"keywords":["nocrits","nodmgspread","payload","uncletopia"],"game_id":440,"stv_port":27076,"stv_name":"Uncletopia | Frankfurt | 7 | Stopwatch Beta | STV","players":null},{"server_id":24,"name":"Uncletopia | Frankfurt | 8 | Community","name_short":"frk-8","host":"frk-1.de.uncletopia.com","port":27085,"enabled":true,"region":"eu","cc":"de","latitude":50.110924,"longitude":8.682127,"reserved":0,"last_update":"0001-01-01T00:00:00Z","name_a2s":"Uncletopia | Frankfurt | 8 | Community","protocol":17,"map":"koth_viaduct","folder":"tf","game":"Team Fortress","app_id":440,"player_count":0,"max_players":24,"Bots":0,"server_type":"Dedicated","server_os":"Linux","password":true,"vac":true,"version":"7757534","steam_id":85568392924742828,"keywords":["cp","nocrits","nodmgspread","uncletopia"],"game_id":440,"stv_port":27086,"stv_name":"Uncletopia | Frankfurt | 8 | Community | STV","players":null},{"server_id":202,"name":"Uncletopia | Hong Kong | 1 | All Maps","name_short":"hgk-1","host":"hgk-1.hk.uncletopia.com","port":27015,"enabled":true,"region":"asia","cc":"hk","latitude":22.302711,"longitude":114.177216,"reserved":0,"last_update":"0001-01-01T00:00:00Z","name_a2s":"Uncletopia | Hong Kong | 1 | All Maps","protocol":17,"map":"pl_badwater","folder":"tf","game":"Team Fortress","app_id":440,"player_count":2,"max_players":24,"Bots":0,"server_type":"Dedicated","server_os":"Linux","password":true,"vac":true,"version":"7757534","steam_id":85568392924494504,"keywords":["nocrits","nodmgspread","payload","uncletopia"],"game_id":440,"stv_port":27016,"stv_name":"Uncletopia | Hong Kong | 1 | All Maps | STV","players":[{"user_id":13,"name":"lolwhat","steam_id":76561199387628765,"connected_time":69000000000,"state":"active","ping":128},{"user_id":14,"name":"Xx_EpicTrickstabber_xX","steam_id":76561199024960087,"connected_time":45000000000,"state":"active","ping":65}]},{"server_id":1,"name":"Uncletopia | Los Angeles | 1 | All Maps","name_short":"lax-1","host":"lax-1.us.uncletopia.com","port":27015,"enabled":true,"region":"us-west","cc":"us","latitude":33.94279,"longitude":-118.41004,"reserved":0,"last_update":"0001-01-01T00:00:00Z","name_a2s":"Uncletopia | Los Angeles | 1 | All Maps","protocol":17,"map":"cp_sunshine","folder":"tf","game":"Team Fortress","app_id":440,"player_count":24,"max_players":24,"Bots":0,"server_type":"Dedicated","server_os":"Linux","password":true,"vac":true,"version":"7757534","steam_id":85568392924469991,"keywords":["cp","nocrits","nodmgspread","uncletopia"],"game_id":440,"stv_port":27016,"stv_name":"Uncletopia | Los Angeles | 1 | All Maps | STV","players":[{"user_id":230,"name":"FASTLIFER","steam_id":76561199389781834,"connected_time":386000000000,"state":"active","ping":83},{"user_id":226,"name":"McNamJam","steam_id":76561198028128686,"connected_time":843000000000,"state":"active","ping":58},{"user_id":203,"name":"M3tr0idPrim3","steam_id":76561198138329107,"connected_time":2695000000000,"state":"active","ping":50},{"user_id":201,"name":"rmbl","steam_id":76561198150137369,"connected_time":3172000000000,"state":"active","ping":51},{"user_id":208,"name":"ghostglitch","steam_id":76561197991608573,"connected_time":2357000000000,"state":"active","ping":51},{"user_id":227,"name":"H4V0C | Atomic Heart","steam_id":76561199129350925,"connected_time":746000000000,"state":"active","ping":84},{"user_id":213,"name":"LX-24","steam_id":76561198016168993,"connected_time":2238000000000,"state":"active","ping":78},{"user_id":233,"name":"Tohubohu","steam_id":76561198077838448,"connected_time":342000000000,"state":"active","ping":61},{"user_id":194,"name":"eau:","steam_id":76561198110020262,"connected_time":3905000000000,"state":"active","ping":34},{"user_id":191,"name":"chanoc","steam_id":76561198026734746,"connected_time":4231000000000,"state":"active","ping":65},{"user_id":179,"name":"Uluyo","steam_id":76561198065857148,"connected_time":4998000000000,"state":"active","ping":79},{"user_id":237,"name":"PinguEnjoyer6","steam_id":76561199186723516,"connected_time":31000000000,"state":"active","ping":58},{"user_id":196,"name":"walrooos","steam_id":76561198024521839,"connected_time":3671000000000,"state":"active","ping":43},{"user_id":225,"name":"doobie the hutt","steam_id":76561198088873640,"connected_time":1252000000000,"state":"active","ping":82},{"user_id":204,"name":"Madcows","steam_id":76561198021695614,"connected_time":2692000000000,"state":"active","ping":71},{"user_id":175,"name":"Measured Moth","steam_id":76561198043220089,"connected_time":5054000000000,"state":"active","ping":41},{"user_id":228,"name":"Gerbias","steam_id":76561198001002427,"connected_time":745000000000,"state":"active","ping":61},{"user_id":176,"name":"nothowon","steam_id":76561198937601452,"connected_time":5052000000000,"state":"active","ping":112},{"user_id":229,"name":"bballbhuddababyboy","steam_id":76561198079516052,"connected_time":404000000000,"state":"active","ping":50},{"user_id":214,"name":"FROYO b4nny","steam_id":76561197970669109,"connected_time":2165000000000,"state":"active","ping":46},{"user_id":232,"name":"Antzen","steam_id":76561198041343470,"connected_time":365000000000,"state":"active","ping":57},{"user_id":223,"name":"Gundam Guy","steam_id":76561198178453993,"connected_time":1498000000000,"state":"active","ping":70},{"user_id":215,"name":"Firedude","steam_id":76561198852497745,"connected_time":2090000000000,"state":"active","ping":96},{"user_id":234,"name":"Peyote Peterson","steam_id":76561198071093032,"connected_time":313000000000,"state":"active","ping":39}]},{"server_id":112,"name":"Uncletopia | Los Angeles | 2 | All Maps","name_short":"lax-2","host":"lax-1.us.uncletopia.com","port":27025,"enabled":true,"region":"us-west","cc":"us","latitude":33.94279,"longitude":-118.41004,"reserved":0,"last_update":"0001-01-01T00:00:00Z","name_a2s":"Uncletopia | Los Angeles | 2 | All Maps","protocol":17,"map":"pl_upward","folder":"tf","game":"Team Fortress","app_id":440,"player_count":0,"max_players":24,"Bots":0,"server_type":"Dedicated","server_os":"Linux","password":true,"vac":true,"version":"7757534","steam_id":85568392924469992,"keywords":["nocrits","nodmgspread","payload","uncletopia"],"game_id":440,"stv_port":27026,"stv_name":"Uncletopia | Los Angeles | 2 | All Maps | STV","players":null},{"server_id":324,"name":"Uncletopia | Los Angeles | 3 | All Maps","name_short":"lax-3","host":"lax-1.us.uncletopia.com","port":27035,"enabled":true,"region":"us-west","cc":"us","latitude":33.94279,"longitude":-118.41004,"reserved":0,"last_update":"0001-01-01T00:00:00Z","name_a2s":"Uncletopia | Los Angeles | 3 | All Maps","protocol":17,"map":"cp_snakewater_final1","folder":"tf","game":"Team Fortress","app_id":440,"player_count":0,"max_players":24,"Bots":0,"server_type":"Dedicated","server_os":"Linux","password":true,"vac":true,"version":"7757534","steam_id":85568392924510198,"keywords":["cp","nocrits","nodmgspread","uncletopia"],"game_id":440,"stv_port":27036,"stv_name":"Uncletopia | Los Angeles | 3 | All Maps | STV","players":null},{"server_id":25,"name":"Uncletopia | Los Angeles | 4 | Stopwatch Beta","name_short":"lax-4","host":"lax-1.us.uncletopia.com","port":27045,"enabled":true,"region":"us-west","cc":"us","latitude":33.94279,"longitude":-118.41004,"reserved":0,"last_update":"0001-01-01T00:00:00Z","name_a2s":"Uncletopia | Los Angeles | 4 | Stopwatch Beta","protocol":17,"map":"workshop/koth_product_final.ugc454272353","folder":"tf","game":"Team Fortress","app_id":440,"player_count":0,"max_players":24,"Bots":0,"server_type":"Dedicated","server_os":"Linux","password":true,"vac":true,"version":"7757534","steam_id":85568392924510199,"keywords":["cp","nocrits","nodmgspread","uncletopia"],"game_id":440,"stv_port":27046,"stv_name":"Uncletopia | Los Angeles | 4 | Stopwatch Beta | STV","players":null},{"server_id":11,"name":"Uncletopia | London | 1 | All Maps","name_short":"lon-1","host":"lon-1.uk.uncletopia.com","port":27015,"enabled":true,"region":"eu","cc":"gb","latitude":51.509865,"longitude":-0.118092,"reserved":0,"last_update":"0001-01-01T00:00:00Z","name_a2s":"Uncletopia | London | 1 | All Maps","protocol":17,"map":"cp_process_final","folder":"tf","game":"Team Fortress","app_id":440,"player_count":16,"max_players":24,"Bots":0,"server_type":"Dedicated","server_os":"Linux","password":true,"vac":true,"version":"7757534","steam_id":85568392924367362,"keywords":["cp","nocrits","nodmgspread","uncletopia"],"game_id":440,"stv_port":27016,"stv_name":"Uncletopia | London | 1 | All Maps | STV","players":[{"user_id":823,"name":"ax","steam_id":76561199216923710,"connected_time":2834000000000,"state":"active","ping":138},{"user_id":822,"name":"Bod Dog","steam_id":76561198080631634,"connected_time":2903000000000,"state":"active","ping":56},{"user_id":825,"name":"XfarisGamerX","steam_id":76561198367579380,"connected_time":2794000000000,"state":"active","ping":117},{"user_id":826,"name":"Frog","steam_id":76561198131977071,"connected_time":2636000000000,"state":"active","ping":44},{"user_id":788,"name":"quake","steam_id":76561198046135811,"connected_time":7274000000000,"state":"active","ping":75},{"user_id":836,"name":"ITA-Arma55","steam_id":76561198105782406,"connected_time":1052000000000,"state":"active","ping":63},{"user_id":827,"name":"SW[Allow]_Come","steam_id":76561199403761201,"connected_time":2482000000000,"state":"active","ping":133},{"user_id":832,"name":"dorak","steam_id":76561198818037965,"connected_time":2077000000000,"state":"active","ping":103},{"user_id":833,"name":"OfficialP3","steam_id":76561198060567791,"connected_time":1978000000000,"state":"active","ping":72},{"user_id":834,"name":"stun","steam_id":76561198276681691,"connected_time":1895000000000,"state":"active","ping":36},{"user_id":835,"name":"SuntanPikachu","steam_id":76561198121242476,"connected_time":1617000000000,"state":"active","ping":66},{"user_id":837,"name":"no bitches nigusman","steam_id":76561199466723428,"connected_time":864000000000,"state":"active","ping":94},{"user_id":839,"name":"Lyfeal","steam_id":76561199473146062,"connected_time":616000000000,"state":"active","ping":70},{"user_id":840,"name":"thekoolest88","steam_id":76561199022415672,"connected_time":195000000000,"state":"active","ping":131},{"user_id":841,"name":"delta man","steam_id":76561198204491245,"connected_time":94000000000,"state":"active","ping":141},{"user_id":782,"name":"мало тебя","steam_id":76561198129153029,"connected_time":7469000000000,"state":"active","ping":60}]},{"server_id":114,"name":"Uncletopia | London | 2 | All Maps","name_short":"lon-2","host":"lon-1.uk.uncletopia.com","port":27025,"enabled":true,"region":"eu","cc":"gb","latitude":51.509865,"longitude":-0.118092,"reserved":0,"last_update":"0001-01-01T00:00:00Z","name_a2s":"Uncletopia | London | 2 | All Maps","protocol":17,"map":"pl_upward","folder":"tf","game":"Team Fortress","app_id":440,"player_count":0,"max_players":24,"Bots":0,"server_type":"Dedicated","server_os":"Linux","password":true,"vac":true,"version":"7757534","steam_id":85568392924470941,"keywords":["nocrits","nodmgspread","payload","uncletopia"],"game_id":440,"stv_port":27026,"stv_name":"Uncletopia | London | 2 | All Maps | STV","players":null},{"server_id":320,"name":"Uncletopia | London | 3 | All Maps","name_short":"lon-3","host":"lon-1.uk.uncletopia.com","port":27035,"enabled":true,"region":"eu","cc":"gb","latitude":51.509865,"longitude":-0.118092,"reserved":0,"last_update":"0001-01-01T00:00:00Z","name_a2s":"Uncletopia | London | 3 | All Maps","protocol":17,"map":"koth_cascade","folder":"tf","game":"Team Fortress","app_id":440,"player_count":0,"max_players":24,"Bots":0,"server_type":"Dedicated","server_os":"Linux","password":true,"vac":true,"version":"7757534","steam_id":85568392924510192,"keywords":["cp","nocrits","nodmgspread","uncletopia"],"game_id":440,"stv_port":27036,"stv_name":"Uncletopia | London | 3 | All Maps | STV","players":null},{"server_id":321,"name":"Uncletopia | London | 4 | All Maps","name_short":"lon-4","host":"lon-1.uk.uncletopia.com","port":27045,"enabled":true,"region":"eu","cc":"gb","latitude":51.509865,"longitude":-0.118092,"reserved":0,"last_update":"0001-01-01T00:00:00Z","name_a2s":"Uncletopia | London | 4 | All Maps","protocol":17,"map":"pl_frontier_final","folder":"tf","game":"Team Fortress","app_id":440,"player_count":0,"max_players":24,"Bots":0,"server_type":"Dedicated","server_os":"Linux","password":true,"vac":true,"version":"7757534","steam_id":85568392924510193,"keywords":["nocrits","nodmgspread","payload","uncletopia"],"game_id":440,"stv_port":27046,"stv_name":"Uncletopia | London | 4 | All Maps | STV","players":null},{"server_id":21,"name":"Uncletopia | London | 5 | All Maps","name_short":"lon-5","host":"lon-1.uk.uncletopia.com","port":27055,"enabled":true,"region":"eu","cc":"gb","latitude":51.509865,"longitude":-0.118092,"reserved":0,"last_update":"0001-01-01T00:00:00Z","name_a2s":"Uncletopia | London | 5 | All Maps","protocol":17,"map":"koth_highpass","folder":"tf","game":"Team Fortress","app_id":440,"player_count":0,"max_players":24,"Bots":0,"server_type":"Dedicated","server_os":"Linux","password":true,"vac":true,"version":"7757534","steam_id":85568392924742829,"keywords":["cp","nocrits","nodmgspread","uncletopia"],"game_id":440,"stv_port":27056,"stv_name":"Uncletopia | London | 5 | All Maps | STV","players":null},{"server_id":22,"name":"Uncletopia | London | 6 | All Maps","name_short":"lon-6","host":"lon-1.uk.uncletopia.com","port":27065,"enabled":true,"region":"eu","cc":"gb","latitude":51.509865,"longitude":-0.118092,"reserved":0,"last_update":"0001-01-01T00:00:00Z","name_a2s":"Uncletopia | London | 6 | All Maps","protocol":17,"map":"koth_highpass","folder":"tf","game":"Team Fortress","app_id":440,"player_count":0,"max_players":24,"Bots":0,"server_type":"Dedicated","server_os":"Linux","password":true,"vac":true,"version":"7757534","steam_id":85568392924742830,"keywords":["cp","nocrits","nodmgspread","uncletopia"],"game_id":440,"stv_port":27066,"stv_name":"Uncletopia | London | 6 | All Maps | STV","players":null},{"server_id":40,"name":"Uncletopia | London | 7 | No Payload","name_short":"lon-7","host":"lon-1.uk.uncletopia.com","port":27075,"enabled":true,"region":"eu","cc":"gb","latitude":51.509865,"longitude":-0.118092,"reserved":0,"last_update":"0001-01-01T00:00:00Z","name_a2s":"Uncletopia | London | 7 | No Payload","protocol":17,"map":"cp_vanguard","folder":"tf","game":"Team Fortress","app_id":440,"player_count":0,"max_players":24,"Bots":0,"server_type":"Dedicated","server_os":"Linux","password":true,"vac":true,"version":"7757534","steam_id":85568392924964314,"keywords":["cp","nocrits","nodmgspread","uncletopia"],"game_id":440,"stv_port":27076,"stv_name":"Uncletopia | London | 7 | No Payload | STV","players":null},{"server_id":41,"name":"Uncletopia | London | 8 | Community","name_short":"lon-8","host":"lon-1.uk.uncletopia.com","port":27085,"enabled":true,"region":"eu","cc":"gb","latitude":51.509865,"longitude":-0.118092,"reserved":0,"last_update":"0001-01-01T00:00:00Z","name_a2s":"Uncletopia | London | 8 | Community","protocol":17,"map":"workshop/koth_product_final.ugc454272353","folder":"tf","game":"Team Fortress","app_id":440,"player_count":0,"max_players":24,"Bots":0,"server_type":"Dedicated","server_os":"Linux","password":true,"vac":true,"version":"7757534","steam_id":85568392924964315,"keywords":["cp","nocrits","nodmgspread","uncletopia"],"game_id":440,"stv_port":27086,"stv_name":"Uncletopia | London | 8 | Community | STV","players":null},{"server_id":300,"name":"Uncletopia | Montréal | 1 | All Maps","name_short":"mtl-1","host":"mtl-1.ca.uncletopia.com","port":27015,"enabled":true,"region":"us-east","cc":"ca","latitude":45.50889,"longitude":-73.56167,"reserved":0,"last_update":"0001-01-01T00:00:00Z","name_a2s":"Uncletopia | Montréal | 1 | All Maps","protocol":17,"map":"cp_mountainlab","folder":"tf","game":"Team Fortress","app_id":440,"player_count":0,"max_players":24,"Bots":0,"server_type":"Dedicated","server_os":"Linux","password":true,"vac":true,"version":"7757534","steam_id":85568392924500087,"keywords":["cp","nocrits","nodmgspread","uncletopia"],"game_id":440,"stv_port":27016,"stv_name":"Uncletopia | Montréal | 1 | All Maps | STV","players":null},{"server_id":301,"name":"Uncletopia | Montréal | 2 | All Maps","name_short":"mtl-2","host":"mtl-1.ca.uncletopia.com","port":27025,"enabled":true,"region":"us-east","cc":"ca","latitude":45.50889,"longitude":-73.56167,"reserved":0,"last_update":"0001-01-01T00:00:00Z","name_a2s":"Uncletopia | Montréal | 2 | All Maps","protocol":17,"map":"cp_dustbowl","folder":"tf","game":"Team Fortress","app_id":440,"player_count":0,"max_players":24,"Bots":0,"server_type":"Dedicated","server_os":"Linux","password":true,"vac":true,"version":"7757534","steam_id":85568392924500088,"keywords":["cp","nocrits","nodmgspread","uncletopia"],"game_id":440,"stv_port":27026,"stv_name":"Uncletopia | Montréal | 2 | All Maps | STV","players":null},{"server_id":302,"name":"Uncletopia | Montréal | 3 | All Maps","name_short":"mtl-3","host":"mtl-1.ca.uncletopia.com","port":27035,"enabled":true,"region":"us-east","cc":"ca","latitude":45.50889,"longitude":-73.56167,"reserved":0,"last_update":"0001-01-01T00:00:00Z","name_a2s":"Uncletopia | Montréal | 3 | All Maps","protocol":17,"map":"pl_pier","folder":"tf","game":"Team Fortress","app_id":440,"player_count":18,"max_players":24,"Bots":0,"server_type":"Dedicated","server_os":"Linux","password":true,"vac":true,"version":"7757534","steam_id":85568392924500089,"keywords":["nocrits","nodmgspread","payload","uncletopia"],"game_id":440,"stv_port":27036,"stv_name":"Uncletopia | Montréal | 3 | All Maps | STV","players":[{"user_id":385,"name":"Krellah","steam_id":76561198287045069,"connected_time":1947000000000,"state":"active","ping":48},{"user_id":386,"name":"Nickorea","steam_id":76561198025784788,"connected_time":1938000000000,"state":"active","ping":46},{"user_id":403,"name":"Gay Cowboy","steam_id":76561198151549658,"connected_time":472000000000,"state":"active","ping":76},{"user_id":406,"name":"MantisToboggan","steam_id":76561197969447887,"connected_time":262000000000,"state":"active","ping":146},{"user_id":361,"name":"alpharuby","steam_id":76561198051638462,"connected_time":4579000000000,"state":"active","ping":120},{"user_id":216,"name":"_hooded_","steam_id":76561198023595873,"connected_time":14710000000000,"state":"active","ping":74},{"user_id":390,"name":"champion  turkey","steam_id":76561198151338482,"connected_time":1864000000000,"state":"active","ping":56},{"user_id":391,"name":"Nixl","steam_id":76561198889717595,"connected_time":1853000000000,"state":"active","ping":105},{"user_id":392,"name":"The big broski","steam_id":76561198347675302,"connected_time":1851000000000,"state":"active","ping":127},{"user_id":393,"name":"Gilgamesh","steam_id":76561198317113179,"connected_time":1763000000000,"state":"active","ping":75},{"user_id":394,"name":"vitamingummies","steam_id":76561198285670017,"connected_time":1695000000000,"state":"active","ping":52},{"user_id":402,"name":"Skar","steam_id":76561198141060992,"connected_time":717000000000,"state":"active","ping":45},{"user_id":303,"name":"deadpixel","steam_id":76561198150249843,"connected_time":9402000000000,"state":"active","ping":60},{"user_id":352,"name":"uhooter","steam_id":76561198007829078,"connected_time":5649000000000,"state":"active","ping":44},{"user_id":405,"name":"hoovy","steam_id":76561199228653314,"connected_time":366000000000,"state":"active","ping":83},{"user_id":304,"name":"Phil Collins","steam_id":76561198068868644,"connected_time":9386000000000,"state":"active","ping":122},{"user_id":397,"name":"Jimbo","steam_id":76561198208426085,"connected_time":1623000000000,"state":"active","ping":72},{"user_id":408,"name":"Box","steam_id":76561198195969069,"connected_time":161000000000,"state":"active","ping":47}]},{"server_id":303,"name":"Uncletopia | Montréal | 4 | No Payload","name_short":"mtl-4","host":"mtl-1.ca.uncletopia.com","port":27045,"enabled":true,"region":"us-east","cc":"ca","latitude":45.50889,"longitude":-73.56167,"reserved":0,"last_update":"0001-01-01T00:00:00Z","name_a2s":"Uncletopia | Montréal | 4 | No Payload","protocol":17,"map":"pl_pier","folder":"tf","game":"Team Fortress","app_id":440,"player_count":0,"max_players":24,"Bots":0,"server_type":"Dedicated","server_os":"Linux","password":true,"vac":true,"version":"7757534","steam_id":85568392924500090,"keywords":["nocrits","nodmgspread","payload","uncletopia"],"game_id":440,"stv_port":27046,"stv_name":"Uncletopia | Montréal | 4 | No Payload | STV","players":null},{"server_id":13,"name":"Uncletopia | New York City | 1 | All Maps","name_short":"nyc-1","host":"nyc-1.us.uncletopia.com","port":27015,"enabled":true,"region":"us-east","cc":"us","latitude":40.73061,"longitude":-73.93524,"reserved":0,"last_update":"0001-01-01T00:00:00Z","name_a2s":"Uncletopia | New York City | 1 | All Maps","protocol":17,"map":"pl_snowycoast","folder":"tf","game":"Team Fortress","app_id":440,"player_count":24,"max_players":24,"Bots":0,"server_type":"Dedicated","server_os":"Linux","password":true,"vac":true,"version":"7757534","steam_id":85568392924469993,"keywords":["nocrits","nodmgspread","payload","uncletopia"],"game_id":440,"stv_port":27016,"stv_name":"Uncletopia | New York City | 1 | All Maps | STV","players":[{"user_id":445,"name":"yeyoi","steam_id":76561198069821885,"connected_time":1129000000000,"state":"active","ping":51},{"user_id":432,"name":"|AG| Level","steam_id":76561198063633592,"connected_time":2417000000000,"state":"active","ping":64},{"user_id":458,"name":"baklava","steam_id":76561198124591302,"connected_time":204000000000,"state":"active","ping":46},{"user_id":460,"name":"Roloman11","steam_id":76561198308927283,"connected_time":150000000000,"state":"active","ping":92},{"user_id":444,"name":"Vapeinhand","steam_id":76561198134439943,"connected_time":1376000000000,"state":"active","ping":82},{"user_id":452,"name":"JPSS","steam_id":76561199239530493,"connected_time":524000000000,"state":"active","ping":74},{"user_id":391,"name":"Gandalf Gaming","steam_id":76561198368151490,"connected_time":4628000000000,"state":"active","ping":46},{"user_id":422,"name":"BasicPeaches","steam_id":76561198190890150,"connected_time":3482000000000,"state":"active","ping":61},{"user_id":454,"name":"Pilkie","steam_id":76561198040930325,"connected_time":305000000000,"state":"active","ping":70},{"user_id":412,"name":"The Drunk Clown","steam_id":76561197986850426,"connected_time":3921000000000,"state":"active","ping":73},{"user_id":413,"name":"kitten","steam_id":76561198094801861,"connected_time":3911000000000,"state":"active","ping":78},{"user_id":442,"name":"Yuzu","steam_id":76561198417913035,"connected_time":1578000000000,"state":"active","ping":72},{"user_id":461,"name":"Ayon","steam_id":76561198057375339,"connected_time":50000000000,"state":"active","ping":109},{"user_id":414,"name":"ow#n","steam_id":76561198048969516,"connected_time":3907000000000,"state":"active","ping":81},{"user_id":439,"name":"C Papi","steam_id":76561198027779564,"connected_time":1846000000000,"state":"active","ping":62},{"user_id":456,"name":"I Am Alpharius","steam_id":76561198033100226,"connected_time":278000000000,"state":"active","ping":73},{"user_id":446,"name":"stan","steam_id":76561198043206424,"connected_time":960000000000,"state":"active","ping":39},{"user_id":405,"name":"reanimator","steam_id":76561198085830470,"connected_time":3986000000000,"state":"active","ping":49},{"user_id":459,"name":"CheesyCarl","steam_id":76561199083700896,"connected_time":185000000000,"state":"active","ping":38},{"user_id":449,"name":"Riske","steam_id":76561198115840568,"connected_time":880000000000,"state":"active","ping":72},{"user_id":443,"name":"fish","steam_id":76561198054070811,"connected_time":1484000000000,"state":"active","ping":117},{"user_id":428,"name":"Team Fartpiss Poo","steam_id":76561199163591880,"connected_time":2961000000000,"state":"active","ping":110},{"user_id":451,"name":"QwilfishFan22","steam_id":76561198078565975,"connected_time":817000000000,"state":"active","ping":51},{"user_id":417,"name":"A Shiny Meat Bicycle","steam_id":76561198358757709,"connected_time":3847000000000,"state":"active","ping":96}]},{"server_id":14,"name":"Uncletopia | New York City | 2 | All Maps","name_short":"nyc-2","host":"nyc-1.us.uncletopia.com","port":27025,"enabled":true,"region":"us-east","cc":"us","latitude":40.73061,"longitude":-73.93524,"reserved":0,"last_update":"0001-01-01T00:00:00Z","name_a2s":"Uncletopia | New York City | 2 | All Maps","protocol":17,"map":"pl_badwater","folder":"tf","game":"Team Fortress","app_id":440,"player_count":18,"max_players":24,"Bots":0,"server_type":"Dedicated","server_os":"Linux","password":true,"vac":true,"version":"7757534","steam_id":85568392924469994,"keywords":["nocrits","nodmgspread","payload","uncletopia"],"game_id":440,"stv_port":27026,"stv_name":"Uncletopia | New York City | 2 | All Maps | STV","players":[{"user_id":280,"name":"Big G","steam_id":76561198067496197,"connected_time":3263000000000,"state":"active","ping":46},{"user_id":68,"name":"Analogy != Definition","steam_id":76561197999657118,"connected_time":16270000000000,"state":"active","ping":63},{"user_id":239,"name":"Speedy","steam_id":76561198080761661,"connected_time":5360000000000,"state":"active","ping":61},{"user_id":308,"name":"Scream Tsu","steam_id":76561198069068827,"connected_time":150000000000,"state":"active","ping":59},{"user_id":304,"name":"Codo Sapien","steam_id":76561198014206810,"connected_time":1442000000000,"state":"active","ping":59},{"user_id":307,"name":"anakinsewkartstsss","steam_id":76561198095221202,"connected_time":846000000000,"state":"active","ping":102},{"user_id":310,"name":"Lore","steam_id":76561198098407538,"connected_time":89000000000,"state":"active","ping":72},{"user_id":289,"name":"El Viejo Paulino","steam_id":76561198211944169,"connected_time":2954000000000,"state":"active","ping":126},{"user_id":291,"name":"Nerdin4Life","steam_id":76561198138417387,"connected_time":2778000000000,"state":"active","ping":116},{"user_id":301,"name":"Ace Boogie","steam_id":76561197962909134,"connected_time":1877000000000,"state":"active","ping":64},{"user_id":260,"name":"PandaStick","steam_id":76561198005613207,"connected_time":4139000000000,"state":"active","ping":89},{"user_id":261,"name":"Kthulu Mike","steam_id":76561198014026963,"connected_time":4134000000000,"state":"active","ping":74},{"user_id":262,"name":"𝕊𝕠𝕦𝕡🥣GOᗪ","steam_id":76561198015230837,"connected_time":4125000000000,"state":"active","ping":85},{"user_id":241,"name":"Van","steam_id":76561198073518712,"connected_time":5313000000000,"state":"active","ping":46},{"user_id":296,"name":"p i n e ↟ ↟","steam_id":76561198058199952,"connected_time":2677000000000,"state":"active","ping":48},{"user_id":306,"name":"Fiendish Frog","steam_id":76561198029478821,"connected_time":1419000000000,"state":"active","ping":46},{"user_id":298,"name":"chrisd149","steam_id":76561198018710480,"connected_time":2624000000000,"state":"active","ping":88},{"user_id":302,"name":"Matt_311","steam_id":76561198117967722,"connected_time":1875000000000,"state":"active","ping":73}]},{"server_id":15,"name":"Uncletopia | New York City | 3 | Stopwatch Beta","name_short":"nyc-3","host":"nyc-1.us.uncletopia.com","port":27035,"enabled":true,"region":"us-east","cc":"us","latitude":40.73061,"longitude":-73.93524,"reserved":0,"last_update":"0001-01-01T00:00:00Z","name_a2s":"Uncletopia | New York City | 3 | Stopwatch Beta","protocol":17,"map":"workshop/pl_barnblitz_pro7.ugc582280235","folder":"tf","game":"Team Fortress","app_id":440,"player_count":0,"max_players":24,"Bots":0,"server_type":"Dedicated","server_os":"Linux","password":true,"vac":true,"version":"7757534","steam_id":85568392924742820,"keywords":["nocrits","nodmgspread","payload","uncletopia"],"game_id":440,"stv_port":27036,"stv_name":"Uncletopia | New York City | 3 | Stopwatch Beta | STV","players":null},{"server_id":16,"name":"Uncletopia | New York City | 4 | Community","name_short":"nyc-4","host":"nyc-1.us.uncletopia.com","port":27045,"enabled":true,"region":"us-east","cc":"us","latitude":40.73061,"longitude":-73.93524,"reserved":0,"last_update":"0001-01-01T00:00:00Z","name_a2s":"Uncletopia | New York City | 4 | Community","protocol":17,"map":"workshop/koth_ramjam_rc1.ugc459778887","folder":"tf","game":"Team Fortress","app_id":440,"player_count":0,"max_players":24,"Bots":0,"server_type":"Dedicated","server_os":"Linux","password":true,"vac":true,"version":"7757534","steam_id":85568392924742821,"keywords":["cp","nocrits","nodmgspread","uncletopia"],"game_id":440,"stv_port":27046,"stv_name":"Uncletopia | New York City | 4 | Community | STV","players":null},{"server_id":142,"name":"Uncletopia | São Paulo | 1 | All Maps","name_short":"sao-1","host":"sao-1.br.uncletopia.com","port":27015,"enabled":true,"region":"sa","cc":"br","latitude":-23.533773,"longitude":-46.62529,"reserved":0,"last_update":"0001-01-01T00:00:00Z","name_a2s":"Uncletopia | São Paulo | 1 | All Maps","protocol":17,"map":"koth_lakeside_final","folder":"tf","game":"Team Fortress","app_id":440,"player_count":0,"max_players":24,"Bots":0,"server_type":"Dedicated","server_os":"Linux","password":true,"vac":true,"version":"7757534","steam_id":85568392924469996,"keywords":["cp","nocrits","nodmgspread","uncletopia"],"game_id":440,"stv_port":27016,"stv_name":"Uncletopia | São Paulo | 1 | All Maps | STV","players":null},{"server_id":143,"name":"Uncletopia | São Paulo | 2 | All Maps","name_short":"sao-2","host":"sao-2.br.uncletopia.com","port":27015,"enabled":true,"region":"sa","cc":"br","latitude":-23.533773,"longitude":-46.62529,"reserved":0,"last_update":"0001-01-01T00:00:00Z","name_a2s":"Uncletopia | São Paulo | 2 | All Maps","protocol":17,"map":"koth_highpass","folder":"tf","game":"Team Fortress","app_id":440,"player_count":0,"max_players":24,"Bots":0,"server_type":"Dedicated","server_os":"Linux","password":true,"vac":true,"version":"7757534","steam_id":85568392924485349,"keywords":["cp","nocrits","nodmgspread","uncletopia"],"game_id":440,"stv_port":27016,"stv_name":"Uncletopia | São Paulo | 2 | All Maps | STV","players":null},{"server_id":7,"name":"Uncletopia | Seattle | 1 | All Maps","name_short":"sea-1","host":"sea-1.us.uncletopia.com","port":27015,"enabled":true,"region":"us-west","cc":"us","latitude":47.608013,"longitude":-122.33517,"reserved":0,"last_update":"0001-01-01T00:00:00Z","name_a2s":"Uncletopia | Seattle | 1 | All Maps","protocol":17,"map":"pl_pier","folder":"tf","game":"Team Fortress","app_id":440,"player_count":24,"max_players":24,"Bots":0,"server_type":"Dedicated","server_os":"Linux","password":true,"vac":true,"version":"7757534","steam_id":85568392924469997,"keywords":["nocrits","nodmgspread","payload","uncletopia"],"game_id":440,"stv_port":27016,"stv_name":"Uncletopia | Seattle | 1 | All Maps | STV","players":[{"user_id":1092,"name":"o o o o o o o o o","steam_id":76561197993757506,"connected_time":4105000000000,"state":"active","ping":66},{"user_id":1075,"name":"tekan","steam_id":76561199077174231,"connected_time":4630000000000,"state":"active","ping":105},{"user_id":1141,"name":"ROGUE-PLANET","steam_id":76561198116023052,"connected_time":1091000000000,"state":"active","ping":75},{"user_id":682,"name":"Tom Skirrett","steam_id":76561198014600788,"connected_time":6194000000000,"state":"active","ping":74},{"user_id":1135,"name":"1 Bladee Fan","steam_id":76561199135213338,"connected_time":1147000000000,"state":"active","ping":56},{"user_id":1137,"name":"Banzailizard","steam_id":76561197986785469,"connected_time":1125000000000,"state":"active","ping":115},{"user_id":680,"name":"TROY","steam_id":76561197983852176,"connected_time":6325000000000,"state":"active","ping":77},{"user_id":1136,"name":"Kerfuffel","steam_id":76561198079615986,"connected_time":1141000000000,"state":"active","ping":88},{"user_id":1138,"name":"gorlab","steam_id":76561198025089694,"connected_time":1109000000000,"state":"active","ping":60},{"user_id":1133,"name":"beam dreamer","steam_id":76561198131166135,"connected_time":1447000000000,"state":"active","ping":42},{"user_id":1139,"name":"^⁧⁧near","steam_id":76561198869894878,"connected_time":1102000000000,"state":"active","ping":132},{"user_id":674,"name":"jungus","steam_id":76561198129862008,"connected_time":6609000000000,"state":"active","ping":79},{"user_id":1140,"name":"profile name","steam_id":76561198032625036,"connected_time":1098000000000,"state":"active","ping":59},{"user_id":677,"name":"Mignyanne :3","steam_id":76561198048754056,"connected_time":6599000000000,"state":"active","ping":64},{"user_id":1128,"name":"squid game","steam_id":76561199248960166,"connected_time":1758000000000,"state":"active","ping":40},{"user_id":1145,"name":"Res Ipsa","steam_id":76561198041349210,"connected_time":215000000000,"state":"active","ping":75},{"user_id":1121,"name":"Bubbamanme","steam_id":76561198119778504,"connected_time":2031000000000,"state":"active","ping":58},{"user_id":1119,"name":"Klone","steam_id":76561198854485605,"connected_time":2207000000000,"state":"active","ping":132},{"user_id":1126,"name":"rorywashere /ᐠ - ˕ -マ Ⳋ","steam_id":76561198065825165,"connected_time":1773000000000,"state":"active","ping":114},{"user_id":1132,"name":"Reiidaya","steam_id":76561198325306660,"connected_time":1454000000000,"state":"active","ping":51},{"user_id":1117,"name":"TheCowledWiz","steam_id":76561198016735868,"connected_time":2824000000000,"state":"active","ping":52},{"user_id":1142,"name":"SHADOW (he/him)","steam_id":76561198207768148,"connected_time":1086000000000,"state":"active","ping":82},{"user_id":1143,"name":"hardfork","steam_id":76561197960958019,"connected_time":1071000000000,"state":"active","ping":59},{"user_id":1115,"name":"nuh uh","steam_id":76561198984612489,"connected_time":3028000000000,"state":"active","ping":88}]},{"server_id":119,"name":"Uncletopia | Seattle | 2 | All Maps","name_short":"sea-2","host":"sea-1.us.uncletopia.com","port":27025,"enabled":true,"region":"us-west","cc":"us","latitude":47.608013,"longitude":-122.33517,"reserved":0,"last_update":"0001-01-01T00:00:00Z","name_a2s":"Uncletopia | Seattle | 2 | All Maps","protocol":17,"map":"pl_frontier_final","folder":"tf","game":"Team Fortress","app_id":440,"player_count":24,"max_players":24,"Bots":0,"server_type":"Dedicated","server_os":"Linux","password":true,"vac":true,"version":"7757534","steam_id":85568392924469998,"keywords":["nocrits","nodmgspread","payload","uncletopia"],"game_id":440,"stv_port":27026,"stv_name":"Uncletopia | Seattle | 2 | All Maps | STV","players":[{"user_id":639,"name":"LProduct","steam_id":76561199442139670,"connected_time":1123000000000,"state":"active","ping":79},{"user_id":644,"name":"Greskrendtregk","steam_id":76561197969553142,"connected_time":740000000000,"state":"active","ping":54},{"user_id":637,"name":"SvicidalBug","steam_id":76561198221390504,"connected_time":1494000000000,"state":"active","ping":67},{"user_id":642,"name":"ORANGE","steam_id":76561198000401769,"connected_time":862000000000,"state":"active","ping":51},{"user_id":645,"name":"Thequirka","steam_id":76561198968058652,"connected_time":735000000000,"state":"active","ping":43},{"user_id":610,"name":"eldin","steam_id":76561198292352586,"connected_time":3892000000000,"state":"active","ping":56},{"user_id":627,"name":"Jshoe","steam_id":76561198128252048,"connected_time":2487000000000,"state":"active","ping":85},{"user_id":635,"name":"Favio","steam_id":76561198119680365,"connected_time":1591000000000,"state":"active","ping":60},{"user_id":620,"name":"Algibruh","steam_id":76561199221599415,"connected_time":3485000000000,"state":"active","ping":44},{"user_id":651,"name":"ku74n32","steam_id":76561199238578809,"connected_time":398000000000,"state":"active","ping":123},{"user_id":643,"name":"BLU3","steam_id":76561198059652670,"connected_time":744000000000,"state":"active","ping":45},{"user_id":646,"name":"Jason Voorhees","steam_id":76561198358987380,"connected_time":726000000000,"state":"active","ping":45},{"user_id":630,"name":"SOBRII","steam_id":76561198077438484,"connected_time":1820000000000,"state":"active","ping":67},{"user_id":647,"name":"Fear mé","steam_id":76561198212969373,"connected_time":707000000000,"state":"active","ping":67},{"user_id":634,"name":"shy guy","steam_id":76561198151246059,"connected_time":1798000000000,"state":"active","ping":70},{"user_id":622,"name":"Killer_Bite_","steam_id":76561198153259922,"connected_time":3122000000000,"state":"active","ping":71},{"user_id":648,"name":"sora","steam_id":76561198094256973,"connected_time":697000000000,"state":"active","ping":64},{"user_id":625,"name":"forg","steam_id":76561199475739960,"connected_time":2648000000000,"state":"active","ping":52},{"user_id":636,"name":"Combustionaut","steam_id":76561198164877813,"connected_time":1585000000000,"state":"active","ping":51},{"user_id":649,"name":"RUSTY SHACKLEFORD [CIA]","steam_id":76561198452867642,"connected_time":696000000000,"state":"active","ping":96},{"user_id":609,"name":"Crazy Hungarian","steam_id":76561198025498172,"connected_time":4052000000000,"state":"active","ping":47},{"user_id":638,"name":"A Duck With Socks","steam_id":76561198018844227,"connected_time":1486000000000,"state":"active","ping":61},{"user_id":650,"name":"Stoopnagle","steam_id":76561198011942560,"connected_time":682000000000,"state":"active","ping":45},{"user_id":641,"name":"goldhed","steam_id":76561198051751133,"connected_time":1085000000000,"state":"active","ping":55}]},{"server_id":406,"name":"Uncletopia | Seattle | 3 | Stopwatch Beta","name_short":"sea-3","host":"sea-1.us.uncletopia.com","port":27035,"enabled":true,"region":"us-west","cc":"us","latitude":47.608013,"longitude":-122.33517,"reserved":0,"last_update":"0001-01-01T00:00:00Z","name_a2s":"Uncletopia | Seattle | 3 | Stopwatch Beta","protocol":17,"map":"workshop/koth_ashville_final.ugc2130459942","folder":"tf","game":"Team Fortress","app_id":440,"player_count":0,"max_players":24,"Bots":0,"server_type":"Dedicated","server_os":"Linux","password":true,"vac":true,"version":"7757534","steam_id":85568392924515217,"keywords":["cp","nocrits","nodmgspread","uncletopia"],"game_id":440,"stv_port":27036,"stv_name":"Uncletopia | Seattle | 3 | Stopwatch Beta | STV","players":null},{"server_id":17,"name":"Uncletopia | San Francisco | 1 | All Maps","name_short":"sfo-1","host":"sfo-1.us.uncletopia.com","port":27015,"enabled":true,"region":"us-west","cc":"us","latitude":37.77397,"longitude":-122.4313,"reserved":0,"last_update":"0001-01-01T00:00:00Z","name_a2s":"Uncletopia | San Francisco | 1 | All Maps","protocol":17,"map":"pl_badwater","folder":"tf","game":"Team Fortress","app_id":440,"player_count":24,"max_players":24,"Bots":0,"server_type":"Dedicated","server_os":"Linux","password":true,"vac":true,"version":"7757534","steam_id":85568392924469999,"keywords":["nocrits","nodmgspread","payload","uncletopia"],"game_id":440,"stv_port":27016,"stv_name":"Uncletopia | San Francisco | 1 | All Maps | STV","players":[{"user_id":529,"name":"Spam man","steam_id":76561199176168235,"connected_time":324000000000,"state":"active","ping":58},{"user_id":533,"name":"dlatgirp","steam_id":76561198417137724,"connected_time":243000000000,"state":"active","ping":42},{"user_id":519,"name":"Burgie","steam_id":76561198066425198,"connected_time":1422000000000,"state":"active","ping":63},{"user_id":540,"name":"♠Silver♠","steam_id":76561198206109224,"connected_time":14000000000,"state":"spawning","ping":118},{"user_id":504,"name":"berserker_tf2 yt","steam_id":76561198303464488,"connected_time":2372000000000,"state":"active","ping":64},{"user_id":531,"name":"Milotic","steam_id":76561198047995713,"connected_time":273000000000,"state":"active","ping":69},{"user_id":532,"name":"voideran","steam_id":76561198061801300,"connected_time":259000000000,"state":"active","ping":44},{"user_id":469,"name":"Shamrock Shake Oct.10.2020 @8pm","steam_id":76561198833313201,"connected_time":5734000000000,"state":"active","ping":59},{"user_id":534,"name":"KingZealot","steam_id":76561198016886445,"connected_time":221000000000,"state":"active","ping":99},{"user_id":409,"name":"Candy-Man","steam_id":76561198051702098,"connected_time":9041000000000,"state":"active","ping":68},{"user_id":535,"name":"kornelius korn","steam_id":76561199228839582,"connected_time":211000000000,"state":"active","ping":62},{"user_id":522,"name":"Resh420","steam_id":76561198066619792,"connected_time":1349000000000,"state":"active","ping":78},{"user_id":536,"name":"Rumpus Fugly","steam_id":76561198095118127,"connected_time":207000000000,"state":"active","ping":104},{"user_id":398,"name":"ZeFizzyPop™","steam_id":76561198258104981,"connected_time":9628000000000,"state":"active","ping":90},{"user_id":426,"name":"shawarma.lord007","steam_id":76561198115458307,"connected_time":7729000000000,"state":"active","ping":57},{"user_id":527,"name":"Shim","steam_id":76561198043913557,"connected_time":889000000000,"state":"active","ping":53},{"user_id":537,"name":"tech","steam_id":76561197994446792,"connected_time":202000000000,"state":"active","ping":52},{"user_id":538,"name":"StatesideSnake","steam_id":76561198272957048,"connected_time":202000000000,"state":"active","ping":103},{"user_id":462,"name":"years","steam_id":76561197994098627,"connected_time":5940000000000,"state":"active","ping":70},{"user_id":539,"name":"bobletoob","steam_id":76561199184464900,"connected_time":196000000000,"state":"active","ping":74},{"user_id":509,"name":"Lilmaggedon","steam_id":76561198072393166,"connected_time":2242000000000,"state":"active","ping":94},{"user_id":526,"name":"Dr. Krentis (Real)","steam_id":76561199422842675,"connected_time":1002000000000,"state":"active","ping":73},{"user_id":513,"name":"flycargodash1010","steam_id":76561199456589841,"connected_time":2026000000000,"state":"active","ping":77},{"user_id":464,"name":"Big Sloppy","steam_id":76561198431729750,"connected_time":5918000000000,"state":"active","ping":78}]},{"server_id":18,"name":"Uncletopia | San Francisco | 2 | All Maps","name_short":"sfo-2","host":"sfo-1.us.uncletopia.com","port":27025,"enabled":true,"region":"us-west","cc":"us","latitude":37.77397,"longitude":-122.4313,"reserved":0,"last_update":"0001-01-01T00:00:00Z","name_a2s":"Uncletopia | San Francisco | 2 | All Maps","protocol":17,"map":"koth_viaduct","folder":"tf","game":"Team Fortress","app_id":440,"player_count":0,"max_players":24,"Bots":0,"server_type":"Dedicated","server_os":"Linux","password":true,"vac":true,"version":"7757534","steam_id":85568392924470000,"keywords":["cp","nocrits","nodmgspread","uncletopia"],"game_id":440,"stv_port":27026,"stv_name":"Uncletopia | San Francisco | 2 | All Maps | STV","players":null},{"server_id":19,"name":"Uncletopia | San Francisco | 3 | Stopwatch Beta","name_short":"sfo-3","host":"sfo-1.us.uncletopia.com","port":27035,"enabled":true,"region":"us-west","cc":"us","latitude":37.77397,"longitude":-122.4313,"reserved":0,"last_update":"0001-01-01T00:00:00Z","name_a2s":"Uncletopia | San Francisco | 3 | Stopwatch Beta","protocol":17,"map":"koth_lakeside_final","folder":"tf","game":"Team Fortress","app_id":440,"player_count":0,"max_players":24,"Bots":0,"server_type":"Dedicated","server_os":"Linux","password":true,"vac":true,"version":"7757534","steam_id":85568392924742824,"keywords":["cp","nocrits","nodmgspread","uncletopia"],"game_id":440,"stv_port":27036,"stv_name":"Uncletopia | San Francisco | 3 | Stopwatch Beta | STV","players":null},{"server_id":20,"name":"Uncletopia | San Francisco | 4 | Community","name_short":"sfo-4","host":"sfo-1.us.uncletopia.com","port":27045,"enabled":true,"region":"us-west","cc":"us","latitude":37.77397,"longitude":-122.4313,"reserved":0,"last_update":"0001-01-01T00:00:00Z","name_a2s":"Uncletopia | San Francisco | 4 | Community","protocol":17,"map":"workshop/cp_kalinka_rc6a.ugc1272700588","folder":"tf","game":"Team Fortress","app_id":440,"player_count":13,"max_players":24,"Bots":0,"server_type":"Dedicated","server_os":"Linux","password":true,"vac":true,"version":"7757534","steam_id":85568392924742826,"keywords":["cp","nocrits","nodmgspread","uncletopia"],"game_id":440,"stv_port":27046,"stv_name":"Uncletopia | San Francisco | 4 | Community | STV","players":[{"user_id":165,"name":"Feel the bern","steam_id":76561198078824519,"connected_time":419000000000,"state":"active","ping":61},{"user_id":167,"name":"AU7884","steam_id":76561199070853295,"connected_time":242000000000,"state":"active","ping":86},{"user_id":170,"name":"Clagger","steam_id":76561198066701092,"connected_time":76000000000,"state":"active","ping":54},{"user_id":169,"name":"Spare(8)Ball","steam_id":76561197982432995,"connected_time":110000000000,"state":"active","ping":51},{"user_id":164,"name":"EAT SPIT!","steam_id":76561198096836451,"connected_time":502000000000,"state":"active","ping":44},{"user_id":138,"name":"A UsedNom","steam_id":76561198402832756,"connected_time":2921000000000,"state":"active","ping":31},{"user_id":154,"name":"Pookz","steam_id":76561198043996573,"connected_time":1545000000000,"state":"active","ping":141},{"user_id":160,"name":"Friggy","steam_id":76561198131467867,"connected_time":1042000000000,"state":"active","ping":30},{"user_id":114,"name":"Superman123389","steam_id":76561198267472539,"connected_time":4288000000000,"state":"active","ping":91},{"user_id":142,"name":"asaron","steam_id":76561198027341670,"connected_time":2695000000000,"state":"active","ping":60},{"user_id":85,"name":"jj874181","steam_id":76561199455124144,"connected_time":5444000000000,"state":"active","ping":87},{"user_id":136,"name":"KillerBruhStar","steam_id":76561198401858258,"connected_time":3108000000000,"state":"active","ping":78},{"user_id":147,"name":"Sam","steam_id":76561198033407837,"connected_time":2511000000000,"state":"active","ping":55}]},{"server_id":141,"name":"Uncletopia | Sydney | 1 | All Maps","name_short":"syd-1","host":"syd-1.au.uncletopia.com","port":27015,"enabled":true,"region":"au","cc":"au","latitude":-33.865143,"longitude":151.2099,"reserved":0,"last_update":"0001-01-01T00:00:00Z","name_a2s":"Uncletopia | Sydney | 1 | All Maps","protocol":17,"map":"koth_viaduct","folder":"tf","game":"Team Fortress","app_id":440,"player_count":0,"max_players":24,"Bots":0,"server_type":"Dedicated","server_os":"Linux","password":true,"vac":true,"version":"7757534","steam_id":85568392924470001,"keywords":["cp","nocrits","nodmgspread","uncletopia"],"game_id":440,"stv_port":27016,"stv_name":"Uncletopia | Sydney | 1 | All Maps | STV","players":null},{"server_id":123,"name":"Uncletopia | Sydney | 2 | All Maps","name_short":"syd-2","host":"syd-1.au.uncletopia.com","port":27025,"enabled":true,"region":"au","cc":"au","latitude":-33.865143,"longitude":151.2099,"reserved":0,"last_update":"0001-01-01T00:00:00Z","name_a2s":"Uncletopia | Sydney | 2 | All Maps","protocol":17,"map":"koth_sawmill","folder":"tf","game":"Team Fortress","app_id":440,"player_count":0,"max_players":24,"Bots":0,"server_type":"Dedicated","server_os":"Linux","password":true,"vac":true,"version":"7757534","steam_id":85568392924470002,"keywords":["cp","nocrits","nodmgspread","uncletopia"],"game_id":440,"stv_port":27026,"stv_name":"Uncletopia | Sydney | 2 | All Maps | STV","players":null},{"server_id":395,"name":"Uncletopia | Sydney | 3 | All Maps","name_short":"syd-3","host":"syd-1.au.uncletopia.com","port":27035,"enabled":true,"region":"au","cc":"au","latitude":-33.865143,"longitude":151.2099,"reserved":0,"last_update":"0001-01-01T00:00:00Z","name_a2s":"Uncletopia | Sydney | 3 | All Maps","protocol":17,"map":"koth_sawmill","folder":"tf","game":"Team Fortress","app_id":440,"player_count":0,"max_players":24,"Bots":0,"server_type":"Dedicated","server_os":"Linux","password":true,"vac":true,"version":"7757534","steam_id":85568392925194467,"keywords":["cp","nocrits","nodmgspread","uncletopia"],"game_id":440,"stv_port":27036,"stv_name":"Uncletopia | Sydney | 3 | All Maps | STV","players":null},{"server_id":396,"name":"Uncletopia | Sydney | 4 | All Maps","name_short":"syd-4","host":"syd-1.au.uncletopia.com","port":27045,"enabled":true,"region":"au","cc":"au","latitude":-33.865143,"longitude":151.2099,"reserved":0,"last_update":"0001-01-01T00:00:00Z","name_a2s":"Uncletopia | Sydney | 4 | All Maps","protocol":17,"map":"cp_snakewater_final1","folder":"tf","game":"Team Fortress","app_id":440,"player_count":0,"max_players":24,"Bots":0,"server_type":"Dedicated","server_os":"Linux","password":true,"vac":true,"version":"7757534","steam_id":85568392925397958,"keywords":["cp","nocrits","nodmgspread","uncletopia"],"game_id":440,"stv_port":27046,"stv_name":"Uncletopia | Sydney | 4 | All Maps | STV","players":null},{"server_id":58,"name":"Uncletopia | Sydney | 5 | Stopwatch Beta","name_short":"syd-5","host":"syd-1.au.uncletopia.com","port":27055,"enabled":true,"region":"au","cc":"au","latitude":-33.865143,"longitude":151.2099,"reserved":0,"last_update":"0001-01-01T00:00:00Z","name_a2s":"Uncletopia | Sydney | 5 | Stopwatch Beta","protocol":17,"map":"cp_gullywash_final1","folder":"tf","game":"Team Fortress","app_id":440,"player_count":0,"max_players":24,"Bots":0,"server_type":"Dedicated","server_os":"Linux","password":true,"vac":true,"version":"7757534","steam_id":85568392925397959,"keywords":["cp","nocrits","nodmgspread","uncletopia"],"game_id":440,"stv_port":27056,"stv_name":"Uncletopia | Sydney | 5 | Stopwatch Beta | STV","players":null},{"server_id":59,"name":"Uncletopia | Sydney | 6 | Community","name_short":"syd-6","host":"syd-1.au.uncletopia.com","port":27065,"enabled":true,"region":"au","cc":"au","latitude":-33.865143,"longitude":151.2099,"reserved":0,"last_update":"0001-01-01T00:00:00Z","name_a2s":"Uncletopia | Sydney | 6 | Community","protocol":17,"map":"pl_badwater","folder":"tf","game":"Team Fortress","app_id":440,"player_count":0,"max_players":24,"Bots":0,"server_type":"Dedicated","server_os":"Linux","password":true,"vac":true,"version":"7757534","steam_id":85568392925397960,"keywords":["nocrits","nodmgspread","payload","uncletopia"],"game_id":440,"stv_port":27066,"stv_name":"Uncletopia | Sydney | 6 | Community | STV","players":null},{"server_id":49,"name":"Uncletopia | Warsaw | 1 | All Maps","name_short":"waw-1","host":"waw-1.pl.uncletopia.com","port":27015,"enabled":true,"region":"eu","cc":"pl","latitude":52.2297,"longitude":21.017532,"reserved":0,"last_update":"0001-01-01T00:00:00Z","name_a2s":"","protocol":0,"map":"","folder":"","game":"","app_id":0,"player_count":0,"max_players":0,"Bots":0,"server_type":"","server_os":"","password":false,"vac":false,"version":"","steam_id":0,"keywords":null,"game_id":0,"stv_port":0,"stv_name":"","players":null},{"server_id":50,"name":"Uncletopia | Warsaw | 2 | All Maps","name_short":"waw-2","host":"waw-1.pl.uncletopia.com","port":27025,"enabled":true,"region":"eu","cc":"pl","latitude":52.2297,"longitude":21.017532,"reserved":0,"last_update":"0001-01-01T00:00:00Z","name_a2s":"Uncletopia | Warsaw | 2 | All Maps","protocol":17,"map":"pl_upward","folder":"tf","game":"Team Fortress","app_id":440,"player_count":0,"max_players":24,"Bots":0,"server_type":"Dedicated","server_os":"Linux","password":true,"vac":true,"version":"7757534","steam_id":85568392925397851,"keywords":["nocrits","nodmgspread","payload","uncletopia"],"game_id":440,"stv_port":27026,"stv_name":"Uncletopia | Warsaw | 2 | All Maps | STV","players":null},{"server_id":51,"name":"Uncletopia | Warsaw | 3 | All Maps","name_short":"waw-3","host":"waw-1.pl.uncletopia.com","port":27035,"enabled":true,"region":"eu","cc":"pl","latitude":52.2297,"longitude":21.017532,"reserved":0,"last_update":"0001-01-01T00:00:00Z","name_a2s":"Uncletopia | Warsaw | 3 | All Maps","protocol":17,"map":"pl_barnblitz","folder":"tf","game":"Team Fortress","app_id":440,"player_count":0,"max_players":24,"Bots":0,"server_type":"Dedicated","server_os":"Linux","password":true,"vac":true,"version":"7757534","steam_id":85568392925397852,"keywords":["nocrits","nodmgspread","payload","uncletopia"],"game_id":440,"stv_port":27036,"stv_name":"Uncletopia | Warsaw | 3 | All Maps | STV","players":null},{"server_id":52,"name":"Uncletopia | Warsaw | 4 | All Maps","name_short":"waw-4","host":"waw-1.pl.uncletopia.com","port":27045,"enabled":true,"region":"eu","cc":"pl","latitude":52.2297,"longitude":21.017532,"reserved":0,"last_update":"0001-01-01T00:00:00Z","name_a2s":"Uncletopia | Warsaw | 4 | All Maps","protocol":17,"map":"cp_altitude","folder":"tf","game":"Team Fortress","app_id":440,"player_count":0,"max_players":24,"Bots":0,"server_type":"Dedicated","server_os":"Linux","password":true,"vac":true,"version":"7757534","steam_id":85568392925397853,"keywords":["cp","nocrits","nodmgspread","uncletopia"],"game_id":440,"stv_port":27046,"stv_name":"Uncletopia | Warsaw | 4 | All Maps | STV","players":null},{"server_id":53,"name":"Uncletopia | Warsaw | 5 | Stopwatch Beta","name_short":"waw-5","host":"waw-1.pl.uncletopia.com","port":27055,"enabled":true,"region":"eu","cc":"pl","latitude":52.2297,"longitude":21.017532,"reserved":0,"last_update":"0001-01-01T00:00:00Z","name_a2s":"Uncletopia | Warsaw | 5 | Stopwatch Beta","protocol":17,"map":"pl_pier","folder":"tf","game":"Team Fortress","app_id":440,"player_count":0,"max_players":24,"Bots":0,"server_type":"Dedicated","server_os":"Linux","password":true,"vac":true,"version":"7757534","steam_id":85568392925397854,"keywords":["nocrits","nodmgspread","payload","uncletopia"],"game_id":440,"stv_port":27056,"stv_name":"Uncletopia | Warsaw | 5 | Stopwatch Beta | STV","players":null},{"server_id":54,"name":"Uncletopia | Warsaw | 6 | Community","name_short":"waw-6","host":"waw-1.pl.uncletopia.com","port":27065,"enabled":true,"region":"eu","cc":"pl","latitude":52.2297,"longitude":21.017532,"reserved":0,"last_update":"0001-01-01T00:00:00Z","name_a2s":"Uncletopia | Warsaw | 6 | Community","protocol":17,"map":"koth_highpass","folder":"tf","game":"Team Fortress","app_id":440,"player_count":0,"max_players":24,"Bots":0,"server_type":"Dedicated","server_os":"Linux","password":true,"vac":true,"version":"7757534","steam_id":85568392925397856,"keywords":["cp","nocrits","nodmgspread","uncletopia"],"game_id":440,"stv_port":27066,"stv_name":"Uncletopia | Warsaw | 6 | Community | STV","players":null}]}