{"status":true,"message":"","result":[{"server_id":9,"name":"Uncletopia | Atlanta | 1 | All Maps","name_short":"atl-1","host":"atl-1.us.uncletopia.com","port":27015,"enabled":true,"region":"us-east","cc":"us","latitude":33.753746,"longitude":-84.38633,"reserved":0,"last_update":"0001-01-01T00:00:00Z","name_a2s":"Uncletopia | Atlanta | 1 | All Maps","protocol":17,"map":"koth_viaduct","folder":"tf","game":"Team Fortress","app_id":440,"player_count":24,"max_players":24,"Bots":0,"server_type":"Dedicated","server_os":"Linux","password":true,"vac":true,"version":"7882260","steam_id":85568392924469982,"keywords":["cp","nocrits","nodmgspread","uncletopia"],"game_id":440,"stv_port":27016,"stv_name":"Uncletopia | Atlanta | 1 | All Maps | STV","players":[{"user_id":569,"name":"im upset","steam_id":76561198320793517,"connected_time":2954000000000,"state":"active","ping":57},{"user_id":575,"name":"ATL 1 | Save your wifi","steam_id":76561198286147372,"connected_time":1965000000000,"state":"active","ping":48},{"user_id":559,"name":"wazari","steam_id":76561198095813297,"connected_time":3224000000000,"state":"active","ping":140},{"user_id":570,"name":"Thom","steam_id":76561199124355248,"connected_time":2567000000000,"state":"active","ping":78},{"user_id":590,"name":"C O M F Y","steam_id":76561198072101210,"connected_time":1348000000000,"state":"active","ping":69},{"user_id":549,"name":"Joey Wheelchairッ","steam_id":76561198378921790,"connected_time":3843000000000,"state":"active","ping":71},{"user_id":579,"name":"仙女头子于谦","steam_id":76561199031075505,"connected_time":1637000000000,"state":"active","ping":173},{"user_id":592,"name":"shaun0201","steam_id":76561198277115258,"connected_time":455000000000,"state":"active","ping":88},{"user_id":577,"name":"CFGU || RAWRWAFL","steam_id":76561198032118386,"connected_time":1700000000000,"state":"active","ping":75},{"user_id":580,"name":"fruitymario","steam_id":76561198047190430,"connected_time":1620000000000,"state":"active","ping":58},{"user_id":538,"name":"G6 habib","steam_id":76561198053621664,"connected_time":4283000000000,"state":"active","ping":60},{"user_id":494,"name":"joe","steam_id":76561198045781320,"connected_time":7837000000000,"state":"active","ping":62},{"user_id":581,"name":"rice","steam_id":76561198119326733,"connected_time":1612000000000,"state":"active","ping":61},{"user_id":574,"name":"ash","steam_id":76561198127890645,"connected_time":2324000000000,"state":"active","ping":63},{"user_id":565,"name":"Monochrome | Cashmoney","steam_id":76561198377320040,"connected_time":3109000000000,"state":"active","ping":61},{"user_id":595,"name":"Sleepy Savant","steam_id":76561198228259444,"connected_time":0,"state":"spawning","ping":50},{"user_id":582,"name":"remonjules","steam_id":76561198070547748,"connected_time":1601000000000,"state":"active","ping":45},{"user_id":583,"name":"Tony","steam_id":76561198040602075,"connected_time":1588000000000,"state":"active","ping":84},{"user_id":400,"name":"ATL1 | cola","steam_id":76561198374390458,"connected_time":16757000000000,"state":"active","ping":47},{"user_id":572,"name":"me?","steam_id":76561198381136912,"connected_time":2420000000000,"state":"active","ping":78},{"user_id":584,"name":"TheRealMud","steam_id":76561198138312993,"connected_time":1556000000000,"state":"active","ping":87},{"user_id":585,"name":"Frajer","steam_id":76561198059129680,"connected_time":1526000000000,"state":"active","ping":75},{"user_id":568,"name":"charm quark","steam_id":76561198098770777,"connected_time":3055000000000,"state":"active","ping":106},{"user_id":594,"name":"Pocket Snipers","steam_id":76561198207987376,"connected_time":321000000000,"state":"active","ping":75}]},{"server_id":104,"name":"Uncletopia | Atlanta | 2 | All Maps","name_short":"atl-2","host":"atl-1.us.uncletopia.com","port":27025,"enabled":true,"region":"us-east","cc":"us","latitude":33.753746,"longitude":-84.38633,"reserved":0,"last_update":"0001-01-01T00:00:00Z","name_a2s":"Uncletopia | Atlanta | 2 | All Maps","protocol":17,"map":"pl_badwater","folder":"tf","game":"Team Fortress","app_id":440,"player_count":23,"max_players":24,"Bots":0,"server_type":"Dedicated","server_os":"Linux","password":true,"vac":true,"version":"7882260","steam_id":85568392924469983,"keywords":["nocrits","nodmgspread","payload","uncletopia"],"game_id":440,"stv_port":27026,"stv_name":"Uncletopia | Atlanta | 2 | All Maps | STV","players":[{"user_id":752,"name":"SubZeroDestruction","steam_id":76561198145082209,"connected_time":1355000000000,"state":"active","ping":60},{"user_id":767,"name":"Bobby Ray","steam_id":76561198044131188,"connected_time":409000000000,"state":"active","ping":88},{"user_id":772,"name":"Team Fartpiss Poo","steam_id":76561199163591880,"connected_time":72000000000,"state":"active","ping":71},{"user_id":759,"name":"steven","steam_id":76561198173047169,"connected_time":1022000000000,"state":"active","ping":53},{"user_id":766,"name":"Jeeper","steam_id":76561198155583692,"connected_time":413000000000,"state":"active","ping":74},{"user_id":730,"name":"Naegleria","steam_id":76561197965633183,"connected_time":3883000000000,"state":"active","ping":101},{"user_id":742,"name":"oxbudy","steam_id":76561198022120207,"connected_time":3599000000000,"state":"active","ping":81},{"user_id":771,"name":"regular_consuelo","steam_id":76561198327831852,"connected_time":120000000000,"state":"active","ping":74},{"user_id":737,"name":"Kaluka","steam_id":76561198036861445,"connected_time":3709000000000,"state":"active","ping":63},{"user_id":761,"name":"Rudy","steam_id":76561198013456828,"connected_time":651000000000,"state":"active","ping":57},{"user_id":755,"name":"PinguEnjoyer6","steam_id":76561199186723516,"connected_time":1238000000000,"state":"active","ping":92},{"user_id":749,"name":"HeisenChad","steam_id":76561198092656823,"connected_time":1813000000000,"state":"active","ping":103},{"user_id":720,"name":"girthmilk","steam_id":76561198054799782,"connected_time":4984000000000,"state":"active","ping":65},{"user_id":713,"name":"JesseIsBetterThanYou","steam_id":76561198401757217,"connected_time":5053000000000,"state":"active","ping":57},{"user_id":738,"name":"King Ree","steam_id":76561198064170546,"connected_time":3678000000000,"state":"active","ping":84},{"user_id":728,"name":"Laz","steam_id":76561198012247136,"connected_time":4234000000000,"state":"active","ping":97},{"user_id":745,"name":"fuckterry","steam_id":76561198271957738,"connected_time":3072000000000,"state":"active","ping":46},{"user_id":716,"name":"BFC23","steam_id":76561199187132136,"connected_time":5036000000000,"state":"active","ping":89},{"user_id":750,"name":"Yoru","steam_id":76561198119698950,"connected_time":1811000000000,"state":"active","ping":116},{"user_id":770,"name":"gabaghoulio","steam_id":76561198013650292,"connected_time":150000000000,"state":"active","ping":105},{"user_id":765,"name":"drdoofus123","steam_id":76561198016826181,"connected_time":499000000000,"state":"active","ping":64},{"user_id":691,"name":"AlexLovesYou","steam_id":76561199163263543,"connected_time":7046000000000,"state":"active","ping":68},{"user_id":758,"name":"Lincs","steam_id":76561198049851872,"connected_time":1130000000000,"state":"active","ping":61}]},{"server_id":400,"name":"Uncletopia | Atlanta | 3 | Community","name_short":"atl-3","host":"atl-1.us.uncletopia.com","port":27035,"enabled":true,"region":"us-east","cc":"us","latitude":33.753746,"longitude":-84.38633,"reserved":0,"last_update":"0001-01-01T00:00:00Z","name_a2s":"Uncletopia | Atlanta | 3 | Community","protocol":17,"map":"workshop/cp_propaganda_b18.ugc1603743849","folder":"tf","game":"Team Fortress","app_id":440,"player_count":0,"max_players":24,"Bots":0,"server_type":"Dedicated","server_os":"Linux","password":true,"vac":true,"version":"7882260","steam_id":85568392924515187,"keywords":["cp","nocrits","nodmgspread","uncletopia"],"game_id":440,"stv_port":27036,"stv_name":"Uncletopia | Atlanta | 3 | Community | STV","players":null},{"server_id":401,"name":"Uncletopia | Atlanta | 4 | No Payload","name_short":"atl-4","host":"atl-1.us.uncletopia.com","port":27045,"enabled":true,"region":"us-east","cc":"us","latitude":33.753746,"longitude":-84.38633,"reserved":0,"last_update":"0001-01-01T00:00:00Z","name_a2s":"","protocol":0,"map":"","folder":"","game":"","app_id":0,"player_count":0,"max_players":0,"Bots":0,"server_type":"","server_os":"","password":false,"vac":false,"version":"","steam_id":0,"keywords":null,"game_id":0,"stv_port":0,"stv_name":"","players":null},{"server_id":2,"name":"Uncletopia | Chicago | 1 | All Maps","name_short":"chi-1","host":"chi-1.us.uncletopia.com","port":27015,"enabled":true,"region":"us-central","cc":"us","latitude":41.881832,"longitude":-87.62318,"reserved":0,"last_update":"0001-01-01T00:00:00Z","name_a2s":"Uncletopia | Chicago | 1 | All Maps","protocol":17,"map":"pl_swiftwater_final1","folder":"tf","game":"Team Fortress","app_id":440,"player_count":24,"max_players":24,"Bots":0,"server_type":"Dedicated","server_os":"Linux","password":true,"vac":true,"version":"7882260","steam_id":85568392924469984,"keywords":["nocrits","nodmgspread","payload","uncletopia"],"game_id":440,"stv_port":27016,"stv_name":"Uncletopia | Chicago | 1 | All Maps | STV","players":[{"user_id":668,"name":"teaf","steam_id":76561198406252824,"connected_time":1574000000000,"state":"active","ping":99},{"user_id":573,"name":"DiGiorno's Pizza","steam_id":76561198142244035,"connected_time":8993000000000,"state":"active","ping":58},{"user_id":670,"name":"Merlinzbeard","steam_id":76561199428305712,"connected_time":623000000000,"state":"active","ping":76},{"user_id":669,"name":"Tots","steam_id":76561198027485007,"connected_time":637000000000,"state":"active","ping":60},{"user_id":653,"name":"shef","steam_id":76561198398494357,"connected_time":2546000000000,"state":"active","ping":79},{"user_id":678,"name":"OddSlaush","steam_id":76561198043898488,"connected_time":52000000000,"state":"active","ping":101},{"user_id":672,"name":"real.internalswag4","steam_id":76561198453203619,"connected_time":596000000000,"state":"active","ping":105},{"user_id":664,"name":".tv/BLNKT","steam_id":76561198004481006,"connected_time":2105000000000,"state":"active","ping":104},{"user_id":665,"name":"delusional schizophrenic","steam_id":76561198323435040,"connected_time":2029000000000,"state":"active","ping":62},{"user_id":612,"name":"Baoshan Iron \u0026 Steel Co., Ltd.","steam_id":76561198095313463,"connected_time":6668000000000,"state":"active","ping":50},{"user_id":680,"name":"Lowvast","steam_id":76561198068455981,"connected_time":14000000000,"state":"active","ping":125},{"user_id":675,"name":"crayonnipple","steam_id":76561198070253331,"connected_time":538000000000,"state":"active","ping":70},{"user_id":656,"name":"Mr. Garfield","steam_id":76561198357316376,"connected_time":2534000000000,"state":"active","ping":89},{"user_id":632,"name":"lycoris","steam_id":76561199113965768,"connected_time":4939000000000,"state":"active","ping":87},{"user_id":605,"name":"Skinny Pete","steam_id":76561198801608576,"connected_time":7076000000000,"state":"active","ping":71},{"user_id":679,"name":"Final_MarioXD","steam_id":76561199184862419,"connected_time":22000000000,"state":"active","ping":92},{"user_id":658,"name":"EXECUTION, POWERSHIFT.","steam_id":76561198103496593,"connected_time":2524000000000,"state":"active","ping":61},{"user_id":674,"name":"Noxd67","steam_id":76561198962665838,"connected_time":586000000000,"state":"active","ping":129},{"user_id":659,"name":"|3lack","steam_id":76561198082632923,"connected_time":2468000000000,"state":"active","ping":61},{"user_id":666,"name":"ae","steam_id":76561198185490827,"connected_time":1992000000000,"state":"active","ping":87},{"user_id":660,"name":"puppy :3","steam_id":76561198011196264,"connected_time":2458000000000,"state":"active","ping":46},{"user_id":636,"name":"goose","steam_id":76561198367551668,"connected_time":4314000000000,"state":"active","ping":60},{"user_id":661,"name":"Waffle","steam_id":76561199000034608,"connected_time":2441000000000,"state":"active","ping":76},{"user_id":676,"name":"ʕ•ᴥ•ʔ the bear","steam_id":76561197989591976,"connected_time":535000000000,"state":"active","ping":81}]},{"server_id":106,"name":"Uncletopia | Chicago | 2 | All Maps","name_short":"chi-2","host":"chi-1.us.uncletopia.com","port":27025,"enabled":true,"region":"us-central","cc":"us","latitude":41.881832,"longitude":-87.62318,"reserved":0,"last_update":"0001-01-01T00:00:00Z","name_a2s":"Uncletopia | Chicago | 2 | All Maps","protocol":17,"map":"pl_thundermountain","folder":"tf","game":"Team Fortress","app_id":440,"player_count":24,"max_players":24,"Bots":0,"server_type":"Dedicated","server_os":"Linux","password":true,"vac":true,"version":"7882260","steam_id":85568392924469985,"keywords":["nocrits","nodmgspread","payload","uncletopia"],"game_id":440,"stv_port":27026,"stv_name":"Uncletopia | Chicago | 2 | All Maps | STV","players":[{"user_id":585,"name":"mac_cheese","steam_id":76561198071334162,"connected_time":2111000000000,"state":"active","ping":91},{"user_id":500,"name":"Reverie","steam_id":76561198987005784,"connected_time":5259000000000,"state":"active","ping":62},{"user_id":570,"name":"$200 worth of guitar picks","steam_id":76561198179888142,"connected_time":3302000000000,"state":"active","ping":61},{"user_id":522,"name":"Srattinee","steam_id":76561198199840395,"connected_time":4734000000000,"state":"active","ping":63},{"user_id":598,"name":"The Super Mario Bros. Movie","steam_id":76561198871692156,"connected_time":770000000000,"state":"active","ping":98},{"user_id":586,"name":"Fozzy","steam_id":76561198258458765,"connected_time":1987000000000,"state":"active","ping":98},{"user_id":588,"name":"SKINGRAPH","steam_id":76561198082933650,"connected_time":1908000000000,"state":"active","ping":96},{"user_id":589,"name":"EliteSpartan","steam_id":76561198174023582,"connected_time":1806000000000,"state":"active","ping":55},{"user_id":578,"name":"WatchWill","steam_id":76561198157237945,"connected_time":3224000000000,"state":"active","ping":76},{"user_id":599,"name":"Goofball","steam_id":76561198061211537,"connected_time":623000000000,"state":"active","ping":60},{"user_id":360,"name":"peakmeta","steam_id":76561199053600691,"connected_time":12437000000000,"state":"active","ping":53},{"user_id":514,"name":"Shaw Han","steam_id":76561198204259015,"connected_time":4990000000000,"state":"active","ping":62},{"user_id":457,"name":"spot","steam_id":76561198151135298,"connected_time":6557000000000,"state":"active","ping":95},{"user_id":582,"name":"mattt","steam_id":76561199053624086,"connected_time":2551000000000,"state":"active","ping":124},{"user_id":597,"name":"your local dipshit","steam_id":76561198291984726,"connected_time":805000000000,"state":"active","ping":90},{"user_id":572,"name":"butterthoughts","steam_id":76561198025120284,"connected_time":3290000000000,"state":"active","ping":81},{"user_id":556,"name":"Yummy Kabobz","steam_id":76561198067661705,"connected_time":3641000000000,"state":"active","ping":70},{"user_id":593,"name":"cy","steam_id":76561198885893295,"connected_time":1095000000000,"state":"active","ping":55},{"user_id":583,"name":"je'mond #RunThatBack","steam_id":76561198113990147,"connected_time":2386000000000,"state":"active","ping":91},{"user_id":573,"name":"T1gr","steam_id":76561198126252583,"connected_time":3286000000000,"state":"active","ping":88},{"user_id":574,"name":"Kodak Printer Challenge","steam_id":76561198307516731,"connected_time":3285000000000,"state":"active","ping":83},{"user_id":601,"name":"wile","steam_id":76561198125261443,"connected_time":438000000000,"state":"active","ping":116},{"user_id":592,"name":"Chestnnut","steam_id":76561198077782729,"connected_time":1177000000000,"state":"active","ping":74},{"user_id":584,"name":"Alpha Goose","steam_id":76561198038927852,"connected_time":2369000000000,"state":"active","ping":74}]},{"server_id":402,"name":"Uncletopia | Chicago | 3 | All Maps","name_short":"chi-3","host":"chi-1.us.uncletopia.com","port":27035,"enabled":true,"region":"us-central","cc":"us","latitude":41.881832,"longitude":-87.62318,"reserved":0,"last_update":"0001-01-01T00:00:00Z","name_a2s":"Uncletopia | Chicago | 3 | All Maps","protocol":17,"map":"koth_cascade","folder":"tf","game":"Team Fortress","app_id":440,"player_count":24,"max_players":24,"Bots":0,"server_type":"Dedicated","server_os":"Linux","password":true,"vac":true,"version":"7882260","steam_id":85568392924515191,"keywords":["cp","nocrits","nodmgspread","uncletopia"],"game_id":440,"stv_port":27036,"stv_name":"Uncletopia | Chicago | 3 | All Maps | STV","players":[{"user_id":416,"name":"Drewey","steam_id":76561199258609863,"connected_time":966000000000,"state":"active","ping":65},{"user_id":417,"name":"Nilantive","steam_id":76561198177565082,"connected_time":953000000000,"state":"active","ping":65},{"user_id":426,"name":"Dinöbro","steam_id":76561198065597770,"connected_time":650000000000,"state":"active","ping":65},{"user_id":418,"name":"dweamy","steam_id":76561198119181880,"connected_time":900000000000,"state":"active","ping":73},{"user_id":419,"name":"Psychosis","steam_id":76561198078659070,"connected_time":899000000000,"state":"active","ping":76},{"user_id":402,"name":"TheUltimateBagelMaster","steam_id":76561199093650382,"connected_time":2084000000000,"state":"active","ping":99},{"user_id":430,"name":"Nixx","steam_id":76561198156166913,"connected_time":494000000000,"state":"active","ping":101},{"user_id":425,"name":"kiv","steam_id":76561198838223023,"connected_time":699000000000,"state":"active","ping":50},{"user_id":423,"name":"xd Clover","steam_id":76561198038905361,"connected_time":771000000000,"state":"active","ping":62},{"user_id":388,"name":"gawab3","steam_id":76561198370459596,"connected_time":2942000000000,"state":"active","ping":60},{"user_id":424,"name":"DuckyDave","steam_id":76561199080644355,"connected_time":767000000000,"state":"active","ping":183},{"user_id":427,"name":"SharkGuillotine","steam_id":76561198109028172,"connected_time":605000000000,"state":"active","ping":68},{"user_id":414,"name":"ジKiloeジ","steam_id":76561199084636926,"connected_time":1185000000000,"state":"active","ping":126},{"user_id":412,"name":"Vandhoming","steam_id":76561198183775386,"connected_time":1409000000000,"state":"active","ping":106},{"user_id":436,"name":"me shoot floor","steam_id":76561198046526036,"connected_time":196000000000,"state":"active","ping":104},{"user_id":394,"name":"noblehallett","steam_id":76561197990994280,"connected_time":2786000000000,"state":"active","ping":103},{"user_id":415,"name":"quint","steam_id":76561198046797995,"connected_time":1168000000000,"state":"active","ping":58},{"user_id":435,"name":"sono","steam_id":76561198187678698,"connected_time":263000000000,"state":"active","ping":55},{"user_id":393,"name":"Major_Pippy","steam_id":76561198004482878,"connected_time":2816000000000,"state":"active","ping":101},{"user_id":395,"name":"RagingRoosevelt","steam_id":76561197985483153,"connected_time":2783000000000,"state":"active","ping":99},{"user_id":437,"name":"faxxy","steam_id":76561198079621240,"connected_time":168000000000,"state":"active","ping":84},{"user_id":431,"name":"vobal","steam_id":76561198095882941,"connected_time":431000000000,"state":"active","ping":67},{"user_id":432,"name":"Wutzitmatter","steam_id":76561198067140513,"connected_time":421000000000,"state":"active","ping":89},{"user_id":433,"name":"doubu","steam_id":76561198411503128,"connected_time":416000000000,"state":"active","ping":59}]},{"server_id":403,"name":"Uncletopia | Chicago | 4 | All Maps","name_short":"chi-4","host":"chi-1.us.uncletopia.com","port":27045,"enabled":true,"region":"us-central","cc":"us","latitude":41.881832,"longitude":-87.62318,"reserved":0,"last_update":"0001-01-01T00:00:00Z","name_a2s":"Uncletopia | Chicago | 4 | All Maps","protocol":17,"map":"pl_frontier_final","folder":"tf","game":"Team Fortress","app_id":440,"player_count":15,"max_players":24,"Bots":0,"server_type":"Dedicated","server_os":"Linux","password":true,"vac":true,"version":"7882260","steam_id":85568392924515193,"keywords":["nocrits","nodmgspread","payload","uncletopia"],"game_id":440,"stv_port":27046,"stv_name":"Uncletopia | Chicago | 4 | All Maps | STV","players":[{"user_id":346,"name":"nuggetkiller","steam_id":76561198172854015,"connected_time":289000000000,"state":"active","ping":88},{"user_id":348,"name":"pee man","steam_id":76561199134435413,"connected_time":93000000000,"state":"active","ping":112},{"user_id":349,"name":"Aeron","steam_id":76561199483041229,"connected_time":14000000000,"state":"active","ping":81},{"user_id":280,"name":"Sunflower","steam_id":76561198081223793,"connected_time":4473000000000,"state":"active","ping":58},{"user_id":326,"name":"catrinaisahuman","steam_id":76561198281355729,"connected_time":1338000000000,"state":"active","ping":60},{"user_id":279,"name":"ShadBad","steam_id":76561198248287390,"connected_time":4501000000000,"state":"active","ping":104},{"user_id":347,"name":"briggs","steam_id":76561198045655893,"connected_time":121000000000,"state":"active","ping":55},{"user_id":333,"name":"Pure","steam_id":76561198253385813,"connected_time":1174000000000,"state":"active","ping":73},{"user_id":323,"name":"xZackAttack27x","steam_id":76561198035446639,"connected_time":1423000000000,"state":"active","ping":63},{"user_id":330,"name":"thepokeyen","steam_id":76561198236847572,"connected_time":1294000000000,"state":"active","ping":62},{"user_id":335,"name":"quaalude exhibitor","steam_id":76561198170082509,"connected_time":1097000000000,"state":"active","ping":96},{"user_id":344,"name":"drawing tablet gaming","steam_id":76561198397662124,"connected_time":753000000000,"state":"active","ping":90},{"user_id":339,"name":"(\\\\) Dank walrus","steam_id":76561198249700534,"connected_time":1017000000000,"state":"active","ping":63},{"user_id":341,"name":"Cheese","steam_id":76561199435683727,"connected_time":956000000000,"state":"active","ping":167},{"user_id":324,"name":"volta","steam_id":76561199214283884,"connected_time":1423000000000,"state":"active","ping":105}]},{"server_id":36,"name":"Uncletopia | Chicago | 5 | All Maps","name_short":"chi-5","host":"chi-2.us.uncletopia.com","port":27015,"enabled":true,"region":"us-central","cc":"us","latitude":41.881832,"longitude":-87.62318,"reserved":0,"last_update":"0001-01-01T00:00:00Z","name_a2s":"Uncletopia | Chicago | 5 | All Maps","protocol":17,"map":"pl_rumford_event","folder":"tf","game":"Team Fortress","app_id":440,"player_count":24,"max_players":24,"Bots":0,"server_type":"Dedicated","server_os":"Linux","password":true,"vac":true,"version":"7882260","steam_id":85568392924866362,"keywords":["nocrits","nodmgspread","payload","uncletopia"],"game_id":440,"stv_port":27016,"stv_name":"Uncletopia | Chicago | 5 | All Maps | STV","players":[{"user_id":406,"name":"Nebulon-B_Frigate_FTW","steam_id":76561198040955960,"connected_time":1167000000000,"state":"active","ping":131},{"user_id":415,"name":"Kadrox","steam_id":76561199228653314,"connected_time":486000000000,"state":"active","ping":71},{"user_id":400,"name":"Moris","steam_id":76561198280461456,"connected_time":1911000000000,"state":"active","ping":114},{"user_id":330,"name":"Phil Collins","steam_id":76561198068868644,"connected_time":6848000000000,"state":"active","ping":104},{"user_id":412,"name":"Fumpo","steam_id":76561198206873365,"connected_time":692000000000,"state":"active","ping":66},{"user_id":339,"name":"Kero","steam_id":76561198343231436,"connected_time":6199000000000,"state":"active","ping":55},{"user_id":422,"name":"Henry Ota-Clay","steam_id":76561198053232470,"connected_time":215000000000,"state":"active","ping":55},{"user_id":421,"name":"Mighty","steam_id":76561198096569755,"connected_time":261000000000,"state":"active","ping":98},{"user_id":385,"name":"he munch","steam_id":76561198339644583,"connected_time":2643000000000,"state":"active","ping":56},{"user_id":423,"name":"Pho","steam_id":76561198306515742,"connected_time":185000000000,"state":"active","ping":101},{"user_id":414,"name":"doctor large","steam_id":76561199195836752,"connected_time":597000000000,"state":"active","ping":66},{"user_id":416,"name":"Idiotden","steam_id":76561199340950135,"connected_time":445000000000,"state":"active","ping":98},{"user_id":417,"name":"illegal alien","steam_id":76561198840484105,"connected_time":370000000000,"state":"active","ping":73},{"user_id":405,"name":"Action_Quacktion","steam_id":76561198407062426,"connected_time":1267000000000,"state":"active","ping":61},{"user_id":388,"name":"FHC | D9","steam_id":76561198149666258,"connected_time":2582000000000,"state":"active","ping":53},{"user_id":418,"name":"greeno","steam_id":76561198109901138,"connected_time":303000000000,"state":"active","ping":75},{"user_id":419,"name":"DomTheBomb07","steam_id":76561199153949548,"connected_time":301000000000,"state":"active","ping":81},{"user_id":396,"name":"nabuS","steam_id":76561198428124323,"connected_time":2013000000000,"state":"active","ping":75},{"user_id":420,"name":"Stormz64(But weezer)","steam_id":76561198239036482,"connected_time":274000000000,"state":"active","ping":58},{"user_id":397,"name":"Superplay64","steam_id":76561198172471162,"connected_time":2009000000000,"state":"active","ping":89},{"user_id":392,"name":"I'm so full of stem cells","steam_id":76561198329087915,"connected_time":2305000000000,"state":"active","ping":101},{"user_id":424,"name":"Boommanchu","steam_id":76561198057491452,"connected_time":172000000000,"state":"active","ping":92},{"user_id":398,"name":"JMan","steam_id":76561198367705381,"connected_time":2001000000000,"state":"active","ping":167},{"user_id":355,"name":"alpharuby","steam_id":76561198051638462,"connected_time":5214000000000,"state":"active","ping":105}]},{"server_id":37,"name":"Uncletopia | Chicago | 6 | All Maps","name_short":"chi-6","host":"chi-2.us.uncletopia.com","port":27025,"enabled":true,"region":"us-central","cc":"us","latitude":41.881832,"longitude":-87.62318,"reserved":0,"last_update":"0001-01-01T00:00:00Z","name_a2s":"Uncletopia | Chicago | 6 | All Maps","protocol":17,"map":"cp_gravelpit","folder":"tf","game":"Team Fortress","app_id":440,"player_count":24,"max_players":24,"Bots":0,"server_type":"Dedicated","server_os":"Linux","password":true,"vac":true,"version":"7882260","steam_id":85568392924866363,"keywords":["cp","nocrits","nodmgspread","uncletopia"],"game_id":440,"stv_port":27026,"stv_name":"Uncletopia | Chicago | 6 | All Maps | STV","players":[{"user_id":319,"name":"MadCusImBad","steam_id":76561199388283650,"connected_time":2652000000000,"state":"active","ping":65},{"user_id":282,"name":"Musica Universalis","steam_id":76561198184794174,"connected_time":4839000000000,"state":"active","ping":92},{"user_id":335,"name":"[DEEP] Danmar33","steam_id":76561198056453091,"connected_time":1438000000000,"state":"active","ping":79},{"user_id":336,"name":"AFK BRB","steam_id":76561198104939612,"connected_time":1432000000000,"state":"active","ping":82},{"user_id":321,"name":"Dark_","steam_id":76561198391453250,"connected_time":2608000000000,"state":"active","ping":87},{"user_id":328,"name":"Ritzy","steam_id":76561198381955342,"connected_time":2394000000000,"state":"active","ping":136},{"user_id":356,"name":"Dr. Hashbrown","steam_id":76561198410780370,"connected_time":340000000000,"state":"active","ping":97},{"user_id":345,"name":"Peppino Spaghetti","steam_id":76561198155403131,"connected_time":798000000000,"state":"active","ping":68},{"user_id":354,"name":"Yeshie","steam_id":76561198080214214,"connected_time":393000000000,"state":"active","ping":43},{"user_id":353,"name":"Vulpes","steam_id":76561198038929334,"connected_time":411000000000,"state":"active","ping":55},{"user_id":355,"name":"Fantastic","steam_id":76561198079088978,"connected_time":358000000000,"state":"active","ping":42},{"user_id":323,"name":"Trip","steam_id":76561198083893106,"connected_time":2582000000000,"state":"active","ping":68},{"user_id":257,"name":"Antifa Supersoldier","steam_id":76561198141816516,"connected_time":7156000000000,"state":"active","ping":65},{"user_id":316,"name":"theancientnut","steam_id":76561199396708880,"connected_time":2744000000000,"state":"active","ping":59},{"user_id":342,"name":"noellehound","steam_id":76561198108844158,"connected_time":903000000000,"state":"active","ping":97},{"user_id":269,"name":"A Puppy","steam_id":76561198828184456,"connected_time":6289000000000,"state":"active","ping":57},{"user_id":357,"name":"SirKnight5067","steam_id":76561198377306047,"connected_time":129000000000,"state":"active","ping":68},{"user_id":347,"name":"Mops","steam_id":76561198058213741,"connected_time":762000000000,"state":"active","ping":61},{"user_id":358,"name":"a fuddruckers","steam_id":76561198092656099,"connected_time":106000000000,"state":"active","ping":43},{"user_id":332,"name":"Crow","steam_id":76561198274977209,"connected_time":1646000000000,"state":"active","ping":57},{"user_id":301,"name":"mohamy_19","steam_id":76561198075833698,"connected_time":4110000000000,"state":"active","ping":74},{"user_id":331,"name":"TheConchinator","steam_id":76561199388149092,"connected_time":1840000000000,"state":"active","ping":55},{"user_id":352,"name":"Belloq","steam_id":76561198060279052,"connected_time":681000000000,"state":"active","ping":47},{"user_id":318,"name":"Aeonspassed","steam_id":76561198014016451,"connected_time":2671000000000,"state":"active","ping":52}]},{"server_id":38,"name":"Uncletopia | Chicago | 7 | Stopwatch Beta","name_short":"chi-7","host":"chi-2.us.uncletopia.com","port":27035,"enabled":true,"region":"us-central","cc":"us","latitude":41.881832,"longitude":-87.62318,"reserved":0,"last_update":"0001-01-01T00:00:00Z","name_a2s":"Uncletopia | Chicago | 7 | Stopwatch Beta","protocol":17,"map":"workshop/koth_ramjam_rc1.ugc459778887","folder":"tf","game":"Team Fortress","app_id":440,"player_count":0,"max_players":24,"Bots":0,"server_type":"Dedicated","server_os":"Linux","password":true,"vac":true,"version":"7882260","steam_id":85568392924866364,"keywords":["cp","nocrits","nodmgspread","uncletopia"],"game_id":440,"stv_port":27036,"stv_name":"Uncletopia | Chicago | 7 | Stopwatch Beta | STV","players":null},{"server_id":39,"name":"Uncletopia | Chicago | 8 | Community","name_short":"chi-8","host":"chi-2.us.uncletopia.com","port":27045,"enabled":true,"region":"us-central","cc":"us","latitude":41.881832,"longitude":-87.62318,"reserved":0,"last_update":"0001-01-01T00:00:00Z","name_a2s":"Uncletopia | Chicago | 8 | Community","protocol":17,"map":"workshop/koth_synthetic_rc6a.ugc1549817316","folder":"tf","game":"Team Fortress","app_id":440,"player_count":0,"max_players":24,"Bots":0,"server_type":"Dedicated","server_os":"Linux","password":true,"vac":true,"version":"7882260","steam_id":85568392924866365,"keywords":["cp","nocrits","nodmgspread","uncletopia"],"game_id":440,"stv_port":27046,"stv_name":"Uncletopia | Chicago | 8 | Community | STV","players":null},{"server_id":8,"name":"Uncletopia | Dallas | 1 | All Maps","name_short":"dal-1","host":"dal-1.us.uncletopia.com","port":27015,"enabled":true,"region":"us-central","cc":"us","latitude":32.779167,"longitude":-96.80889,"reserved":0,"last_update":"0001-01-01T00:00:00Z","name_a2s":"Uncletopia | Dallas | 1 | All Maps","protocol":17,"map":"cp_process_final","folder":"tf","game":"Team Fortress","app_id":440,"player_count":22,"max_players":24,"Bots":0,"server_type":"Dedicated","server_os":"Linux","password":true,"vac":true,"version":"7882260","steam_id":85568392924469986,"keywords":["cp","nocrits","nodmgspread","uncletopia"],"game_id":440,"stv_port":27016,"stv_name":"Uncletopia | Dallas | 1 | All Maps | STV","players":[{"user_id":569,"name":"OceanSponge","steam_id":76561198082775416,"connected_time":84000000000,"state":"active","ping":115},{"user_id":421,"name":"Ⓑ⓪⓪ⓣⓨⓒⓐⓚⓔⓢ","steam_id":76561198088776421,"connected_time":10913000000000,"state":"active","ping":86},{"user_id":555,"name":"berry nice","steam_id":76561198010173227,"connected_time":1965000000000,"state":"active","ping":70},{"user_id":550,"name":"Microsoft Office Word 2012","steam_id":76561198292049624,"connected_time":2270000000000,"state":"active","ping":55},{"user_id":527,"name":"Battery Acid Addict","steam_id":76561198439793697,"connected_time":3404000000000,"state":"active","ping":99},{"user_id":567,"name":"bobbybim","steam_id":76561198027483399,"connected_time":713000000000,"state":"active","ping":68},{"user_id":541,"name":"TeriyakiDynamite","steam_id":76561198050049346,"connected_time":2665000000000,"state":"active","ping":133},{"user_id":574,"name":"Freckles","steam_id":76561198045671386,"connected_time":52000000000,"state":"active","ping":33},{"user_id":561,"name":"Spinch","steam_id":76561198296224166,"connected_time":1211000000000,"state":"active","ping":73},{"user_id":545,"name":"`o2","steam_id":76561197992030936,"connected_time":2408000000000,"state":"active","ping":75},{"user_id":570,"name":"Faraday","steam_id":76561198089928357,"connected_time":83000000000,"state":"active","ping":52},{"user_id":577,"name":"Madeline","steam_id":76561198239215436,"connected_time":15000000000,"state":"active","ping":91},{"user_id":520,"name":"BRINGO","steam_id":76561198045273979,"connected_time":3892000000000,"state":"active","ping":71},{"user_id":563,"name":"Insigiter","steam_id":76561198865931094,"connected_time":1115000000000,"state":"active","ping":145},{"user_id":383,"name":"Publo","steam_id":76561198161777140,"connected_time":15517000000000,"state":"active","ping":50},{"user_id":572,"name":"roleycoley","steam_id":76561198069574107,"connected_time":83000000000,"state":"active","ping":42},{"user_id":559,"name":"BaRs","steam_id":76561198981717009,"connected_time":1645000000000,"state":"active","ping":58},{"user_id":575,"name":"plink","steam_id":76561198057829889,"connected_time":39000000000,"state":"active","ping":72},{"user_id":571,"name":"Panda ツ","steam_id":76561198004491689,"connected_time":83000000000,"state":"active","ping":49},{"user_id":576,"name":"Joshy","steam_id":76561198061405421,"connected_time":28000000000,"state":"active","ping":90},{"user_id":568,"name":"Maid 'n' China","steam_id":76561198423392976,"connected_time":679000000000,"state":"active","ping":79},{"user_id":479,"name":"AzuriousAlex","steam_id":76561198158026405,"connected_time":7345000000000,"state":"active","ping":69}]},{"server_id":108,"name":"Uncletopia | Dallas | 2 | All Maps","name_short":"dal-2","host":"dal-1.us.uncletopia.com","port":27025,"enabled":true,"region":"us-central","cc":"us","latitude":32.779167,"longitude":-96.80889,"reserved":0,"last_update":"0001-01-01T00:00:00Z","name_a2s":"Uncletopia | Dallas | 2 | All Maps","protocol":17,"map":"pl_frontier_final","folder":"tf","game":"Team Fortress","app_id":440,"player_count":18,"max_players":24,"Bots":0,"server_type":"Dedicated","server_os":"Linux","password":true,"vac":true,"version":"7882260","steam_id":85568392924469988,"keywords":["nocrits","nodmgspread","payload","uncletopia"],"game_id":440,"stv_port":27026,"stv_name":"Uncletopia | Dallas | 2 | All Maps | STV","players":[{"user_id":435,"name":"https://en.wikipedia.org/","steam_id":76561198261326806,"connected_time":3183000000000,"state":"active","ping":106},{"user_id":461,"name":"mela ♡","steam_id":76561198301598124,"connected_time":1249000000000,"state":"active","ping":119},{"user_id":434,"name":"Ferguson","steam_id":76561198121349387,"connected_time":3239000000000,"state":"spawning","ping":39},{"user_id":445,"name":"счизяѳ","steam_id":76561199182960322,"connected_time":2655000000000,"state":"active","ping":54},{"user_id":450,"name":"DLATON","steam_id":76561198236650672,"connected_time":2314000000000,"state":"active","ping":53},{"user_id":469,"name":"Bloom","steam_id":76561199065581662,"connected_time":747000000000,"state":"active","ping":120},{"user_id":473,"name":"Demonic Cipher","steam_id":76561198066082088,"connected_time":46000000000,"state":"active","ping":78},{"user_id":457,"name":"teatimesukka","steam_id":76561198978749594,"connected_time":1866000000000,"state":"active","ping":25},{"user_id":439,"name":"TheXenoKing","steam_id":76561198127424141,"connected_time":3079000000000,"state":"active","ping":117},{"user_id":460,"name":"4 life","steam_id":76561198175961598,"connected_time":1424000000000,"state":"active","ping":92},{"user_id":462,"name":"Beta23","steam_id":76561198379510092,"connected_time":1220000000000,"state":"active","ping":123},{"user_id":449,"name":"iaPK","steam_id":76561198056618642,"connected_time":2392000000000,"state":"active","ping":59},{"user_id":466,"name":"Red-Raven","steam_id":76561197971130794,"connected_time":1108000000000,"state":"active","ping":105},{"user_id":467,"name":"Harold","steam_id":76561198057317770,"connected_time":1097000000000,"state":"active","ping":75},{"user_id":472,"name":"GGN","steam_id":76561198233603808,"connected_time":112000000000,"state":"active","ping":76},{"user_id":468,"name":"Ellen Baker","steam_id":76561198065712435,"connected_time":1079000000000,"state":"active","ping":108},{"user_id":471,"name":"DAS SCHNITZELSTIEN","steam_id":76561198051137159,"connected_time":722000000000,"state":"active","ping":126},{"user_id":427,"name":"picnic blanket","steam_id":76561198308186037,"connected_time":3662000000000,"state":"active","ping":89}]},{"server_id":5,"name":"Uncletopia | Frankfurt | 1 | All Maps","name_short":"frk-1","host":"frk-1.de.uncletopia.com","port":27015,"enabled":true,"region":"eu","cc":"de","latitude":50.110924,"longitude":8.682127,"reserved":0,"last_update":"0001-01-01T00:00:00Z","name_a2s":"Uncletopia | Frankfurt | 1 | All Maps","protocol":17,"map":"cp_process_final","folder":"tf","game":"Team Fortress","app_id":440,"player_count":0,"max_players":24,"Bots":0,"server_type":"Dedicated","server_os":"Linux","password":true,"vac":true,"version":"7882260","steam_id":85568392924469989,"keywords":["cp","nocrits","nodmgspread","uncletopia"],"game_id":440,"stv_port":27016,"stv_name":"Uncletopia | Frankfurt | 1 | All Maps | STV","players":null},{"server_id":110,"name":"Uncletopia | Frankfurt | 2 | All Maps","name_short":"frk-2","host":"frk-1.de.uncletopia.com","port":27025,"enabled":true,"region":"eu","cc":"de","latitude":50.110924,"longitude":8.682127,"reserved":0,"last_update":"0001-01-01T00:00:00Z","name_a2s":"Uncletopia | Frankfurt | 2 | All Maps","protocol":17,"map":"pl_swiftwater_final1","folder":"tf","game":"Team Fortress","app_id":440,"player_count":0,"max_players":24,"Bots":0,"server_type":"Dedicated","server_os":"Linux","password":true,"vac":true,"version":"7882260","steam_id":85568392924469990,"keywords":["nocrits","nodmgspread","payload","uncletopia"],"game_id":440,"stv_port":27026,"stv_name":"Uncletopia | Frankfurt | 2 | All Maps | STV","players":null},{"server_id":308,"name":"Uncletopia | Frankfurt | 3 | All Maps","name_short":"frk-3","host":"frk-1.de.uncletopia.com","port":27035,"enabled":true,"region":"eu","cc":"de","latitude":50.110924,"longitude":8.682127,"reserved":0,"last_update":"0001-01-01T00:00:00Z","name_a2s":"Uncletopia | Frankfurt | 3 | All Maps","protocol":17,"map":"pl_snowycoast","folder":"tf","game":"Team Fortress","app_id":440,"player_count":0,"max_players":24,"Bots":0,"server_type":"Dedicated","server_os":"Linux","password":true,"vac":true,"version":"7882260","steam_id":85568392924504274,"keywords":["nocrits","nodmgspread","payload","uncletopia"],"game_id":440,"stv_port":27036,"stv_name":"Uncletopia | Frankfurt | 3 | All Maps | STV","players":null},{"server_id":309,"name":"Uncletopia | Frankfurt | 4 | All Maps","name_short":"frk-4","host":"frk-1.de.uncletopia.com","port":27045,"enabled":true,"region":"eu","cc":"de","latitude":50.110924,"longitude":8.682127,"reserved":0,"last_update":"0001-01-01T00:00:00Z","name_a2s":"Uncletopia | Frankfurt | 4 | All Maps","protocol":17,"map":"pl_badwater","folder":"tf","game":"Team Fortress","app_id":440,"player_count":0,"max_players":24,"Bots":0,"server_type":"Dedicated","server_os":"Linux","password":true,"vac":true,"version":"7882260","steam_id":85568392924504275,"keywords":["nocrits","nodmgspread","payload","uncletopia"],"game_id":440,"stv_port":27046,"stv_name":"Uncletopia | Frankfurt | 4 | All Maps | STV","players":null},{"server_id":310,"name":"Uncletopia | Frankfurt | 5 | All Maps","name_short":"frk-5","host":"frk-1.de.uncletopia.com","port":27055,"enabled":true,"region":"eu","cc":"de","latitude":50.110924,"longitude":8.682127,"reserved":0,"last_update":"0001-01-01T00:00:00Z","name_a2s":"Uncletopia | Frankfurt | 5 | All Maps","protocol":17,"map":"cp_mountainlab","folder":"tf","game":"Team Fortress","app_id":440,"player_count":0,"max_players":24,"Bots":0,"server_type":"Dedicated","server_os":"Linux","password":true,"vac":true,"version":"7882260","steam_id":85568392924504277,"keywords":["cp","nocrits","nodmgspread","uncletopia"],"game_id":440,"stv_port":27056,"stv_name":"Uncletopia | Frankfurt | 5 | All Maps | STV","players":null},{"server_id":311,"name":"Uncletopia | Frankfurt | 6 | All Maps","name_short":"frk-6","host":"frk-1.de.uncletopia.com","port":27065,"enabled":true,"region":"eu","cc":"de","latitude":50.110924,"longitude":8.682127,"reserved":0,"last_update":"0001-01-01T00:00:00Z","name_a2s":"Uncletopia | Frankfurt | 6 | All Maps","protocol":17,"map":"pl_badwater","folder":"tf","game":"Team Fortress","app_id":440,"player_count":0,"max_players":24,"Bots":0,"server_type":"Dedicated","server_os":"Linux","password":true,"vac":true,"version":"7882260","steam_id":85568392924504278,"keywords":["nocrits","nodmgspread","payload","uncletopia"],"game_id":440,"stv_port":27066,"stv_name":"Uncletopia | Frankfurt | 6 | All Maps | STV","players":null},{"server_id":23,"name":"Uncletopia | Frankfurt | 7 | Stopwatch Beta","name_short":"frk-7","host":"frk-1.de.uncletopia.com","port":27075,"enabled":true,"region":"eu","cc":"de","latitude":50.110924,"longitude":8.682127,"reserved":0,"last_update":"0001-01-01T00:00:00Z","name_a2s":"Uncletopia | Frankfurt | 7 | Stopwatch Beta","protocol":17,"map":"cp_dustbowl","folder":"tf","game":"Team Fortress","app_id":440,"player_count":0,"max_players":24,"Bots":0,"server_type":"Dedicated","server_os":"Linux","password":true,"vac":true,"version":"7882260","steam_id":85568392924742827,"keywords":["cp","nocrits","nodmgspread","uncletopia"],"game_id":440,"stv_port":27076,"stv_name":"Uncletopia | Frankfurt | 7 | Stopwatch Beta | STV","players":null},{"server_id":24,"name":"Uncletopia | Frankfurt | 8 | Community","name_short":"frk-8","host":"frk-1.de.uncletopia.com","port":27085,"enabled":true,"region":"eu","cc":"de","latitude":50.110924,"longitude":8.682127,"reserved":0,"last_update":"0001-01-01T00:00:00Z","name_a2s":"Uncletopia | Frankfurt | 8 | Community","protocol":17,"map":"koth_cascade","folder":"tf","game":"Team Fortress","app_id":440,"player_count":0,"max_players":24,"Bots":0,"server_type":"Dedicated","server_os":"Linux","password":true,"vac":true,"version":"7882260","steam_id":85568392924742828,"keywords":["cp","nocrits","nodmgspread","uncletopia"],"game_id":440,"stv_port":27086,"stv_name":"Uncletopia | Frankfurt | 8 | Community | STV","players":null},{"server_id":202,"name":"Uncletopia | Hong Kong | 1 | All Maps","name_short":"hgk-1","host":"hgk-1.hk.uncletopia.com","port":27015,"enabled":true,"region":"asia","cc":"hk","latitude":22.302711,"longitude":114.177216,"reserved":0,"last_update":"0001-01-01T00:00:00Z","name_a2s":"Uncletopia | Hong Kong | 1 | All Maps","protocol":17,"map":"koth_cascade","folder":"tf","game":"Team Fortress","app_id":440,"player_count":1,"max_players":24,"Bots":0,"server_type":"Dedicated","server_os":"Linux","password":true,"vac":true,"version":"7882260","steam_id":85568392924494504,"keywords":["cp","nocrits","nodmgspread","uncletopia"],"game_id":440,"stv_port":27016,"stv_name":"Uncletopia | Hong Kong | 1 | All Maps | STV","players":[{"user_id":17,"name":"hotgamerth","steam_id":76561199026418153,"connected_time":67000000000,"state":"active","ping":357}]},{"server_id":1,"name":"Uncletopia | Los Angeles | 1 | All Maps","name_short":"lax-1","host":"lax-1.us.uncletopia.com","port":27015,"enabled":true,"region":"us-west","cc":"us","latitude":33.94279,"longitude":-118.41004,"reserved":0,"last_update":"0001-01-01T00:00:00Z","name_a2s":"Uncletopia | Los Angeles | 1 | All Maps","protocol":17,"map":"pl_barnblitz","folder":"tf","game":"Team Fortress","app_id":440,"player_count":24,"max_players":24,"Bots":0,"server_type":"Dedicated","server_os":"Linux","password":true,"vac":true,"version":"7882260","steam_id":85568392924469991,"keywords":["nocrits","nodmgspread","payload","uncletopia"],"game_id":440,"stv_port":27016,"stv_name":"Uncletopia | Los Angeles | 1 | All Maps | STV","players":[{"user_id":325,"name":"cjetson","steam_id":76561198074482272,"connected_time":6630000000000,"state":"active","ping":63},{"user_id":383,"name":"DemoLiberTF2","steam_id":76561198095378689,"connected_time":1629000000000,"state":"active","ping":87},{"user_id":361,"name":"roach","steam_id":76561198354811369,"connected_time":3049000000000,"state":"active","ping":45},{"user_id":366,"name":"StarGuyVI","steam_id":76561199366304746,"connected_time":2850000000000,"state":"active","ping":108},{"user_id":391,"name":"Skagerecked","steam_id":76561198006578524,"connected_time":209000000000,"state":"active","ping":86},{"user_id":368,"name":"will’s extra large baguette\ufffd\ufffd","steam_id":76561199095395177,"connected_time":2618000000000,"state":"active","ping":97},{"user_id":372,"name":"Scoober","steam_id":76561199157558586,"connected_time":2380000000000,"state":"active","ping":117},{"user_id":373,"name":"Pickle","steam_id":76561199238364591,"connected_time":2372000000000,"state":"active","ping":110},{"user_id":359,"name":"ragnarok","steam_id":76561198273579889,"connected_time":3321000000000,"state":"active","ping":65},{"user_id":348,"name":"madi's sexy and crunchy pickle\ufffd","steam_id":76561198361917585,"connected_time":4072000000000,"state":"active","ping":58},{"user_id":374,"name":"GooseSounds","steam_id":76561198307387310,"connected_time":2346000000000,"state":"active","ping":99},{"user_id":389,"name":"Grizzakk","steam_id":76561198115821923,"connected_time":623000000000,"state":"active","ping":83},{"user_id":376,"name":"Psychobanana","steam_id":76561199142143339,"connected_time":2264000000000,"state":"active","ping":67},{"user_id":329,"name":"werolat","steam_id":76561197960544784,"connected_time":5644000000000,"state":"active","ping":65},{"user_id":363,"name":"Cheetose Intolerant","steam_id":76561198013399809,"connected_time":2982000000000,"state":"active","ping":49},{"user_id":392,"name":"azureglxy","steam_id":76561198861388315,"connected_time":154000000000,"state":"active","ping":38},{"user_id":378,"name":"serious","steam_id":76561198089649422,"connected_time":2215000000000,"state":"active","ping":45},{"user_id":347,"name":"Pines","steam_id":76561199024146278,"connected_time":4088000000000,"state":"active","ping":63},{"user_id":393,"name":"Jack from Jack in The Box","steam_id":76561199083594971,"connected_time":27000000000,"state":"active","ping":49},{"user_id":379,"name":"a cat plushie","steam_id":76561198080046542,"connected_time":2187000000000,"state":"active","ping":73},{"user_id":380,"name":"ScoutSecoTF2","steam_id":76561198366212156,"connected_time":2186000000000,"state":"active","ping":97},{"user_id":387,"name":"Nut Bustray","steam_id":76561198092403883,"connected_time":1520000000000,"state":"active","ping":66},{"user_id":365,"name":"ForAPessimistImPrettyOptimistic","steam_id":76561198170128009,"connected_time":2930000000000,"state":"active","ping":73},{"user_id":381,"name":"DeviledEgg","steam_id":76561198318797339,"connected_time":2181000000000,"state":"active","ping":34}]},{"server_id":112,"name":"Uncletopia | Los Angeles | 2 | All Maps","name_short":"lax-2","host":"lax-1.us.uncletopia.com","port":27025,"enabled":true,"region":"us-west","cc":"us","latitude":33.94279,"longitude":-118.41004,"reserved":0,"last_update":"0001-01-01T00:00:00Z","name_a2s":"Uncletopia | Los Angeles | 2 | All Maps","protocol":17,"map":"koth_lakeside_final","folder":"tf","game":"Team Fortress","app_id":440,"player_count":24,"max_players":24,"Bots":0,"server_type":"Dedicated","server_os":"Linux","password":true,"vac":true,"version":"7882260","steam_id":85568392924469992,"keywords":["cp","nocrits","nodmgspread","uncletopia"],"game_id":440,"stv_port":27026,"stv_name":"Uncletopia | Los Angeles | 2 | All Maps | STV","players":[{"user_id":793,"name":"Järgen Stonedwarf","steam_id":76561198272021214,"connected_time":1465000000000,"state":"active","ping":54},{"user_id":782,"name":"commanderfrogger","steam_id":76561198319089417,"connected_time":2356000000000,"state":"active","ping":57},{"user_id":809,"name":"BigBubble42","steam_id":76561198136286123,"connected_time":334000000000,"state":"active","ping":99},{"user_id":664,"name":"Skarp129","steam_id":76561198108679057,"connected_time":11967000000000,"state":"active","ping":54},{"user_id":710,"name":"yung meatball","steam_id":76561198132703201,"connected_time":8818000000000,"state":"active","ping":100},{"user_id":769,"name":"Jovi Boy","steam_id":76561198046605691,"connected_time":3127000000000,"state":"active","ping":63},{"user_id":786,"name":"Aiko","steam_id":76561198262395873,"connected_time":1907000000000,"state":"active","ping":59},{"user_id":722,"name":"RELAX","steam_id":76561198080940210,"connected_time":7158000000000,"state":"active","ping":113},{"user_id":810,"name":"Fluffacorn, also Free Melee","steam_id":76561198301839998,"connected_time":114000000000,"state":"active","ping":46},{"user_id":725,"name":"Bonesaw McGraw","steam_id":76561198081707659,"connected_time":6981000000000,"state":"active","ping":125},{"user_id":794,"name":"tsun.","steam_id":76561198079488962,"connected_time":1452000000000,"state":"active","ping":77},{"user_id":807,"name":"LovingKindne2z","steam_id":76561199064932372,"connected_time":419000000000,"state":"active","ping":46},{"user_id":798,"name":"John Wick's puppy","steam_id":76561198064662875,"connected_time":672000000000,"state":"active","ping":56},{"user_id":780,"name":"Dreamy Sweat from 2hu","steam_id":76561198094602446,"connected_time":2439000000000,"state":"active","ping":68},{"user_id":796,"name":"vanillain","steam_id":76561198058617608,"connected_time":721000000000,"state":"active","ping":53},{"user_id":789,"name":"Ekuseebia","steam_id":76561198037504112,"connected_time":1816000000000,"state":"active","ping":82},{"user_id":811,"name":"dsmagic","steam_id":76561198038601542,"connected_time":58000000000,"state":"active","ping":54},{"user_id":755,"name":"Reisen Udongein Inaba","steam_id":76561198051082314,"connected_time":4829000000000,"state":"active","ping":70},{"user_id":799,"name":"Ex gon give it to ya","steam_id":76561198067411107,"connected_time":670000000000,"state":"active","ping":125},{"user_id":562,"name":"Junko","steam_id":76561198146089003,"connected_time":20069000000000,"state":"active","ping":105},{"user_id":777,"name":"Manchurian Bandit","steam_id":76561198072410042,"connected_time":2691000000000,"state":"active","ping":55},{"user_id":766,"name":"john.","steam_id":76561198982939658,"connected_time":3746000000000,"state":"active","ping":62},{"user_id":804,"name":"Mickmissión","steam_id":76561199133527421,"connected_time":632000000000,"state":"active","ping":60},{"user_id":808,"name":"Garfelf","steam_id":76561198419850129,"connected_time":399000000000,"state":"active","ping":79}]},{"server_id":324,"name":"Uncletopia | Los Angeles | 3 | All Maps","name_short":"lax-3","host":"lax-1.us.uncletopia.com","port":27035,"enabled":true,"region":"us-west","cc":"us","latitude":33.94279,"longitude":-118.41004,"reserved":0,"last_update":"0001-01-01T00:00:00Z","name_a2s":"Uncletopia | Los Angeles | 3 | All Maps","protocol":17,"map":"pl_upward","folder":"tf","game":"Team Fortress","app_id":440,"player_count":24,"max_players":24,"Bots":0,"server_type":"Dedicated","server_os":"Linux","password":true,"vac":true,"version":"7882260","steam_id":85568392924510198,"keywords":["nocrits","nodmgspread","payload","uncletopia"],"game_id":440,"stv_port":27036,"stv_name":"Uncletopia | Los Angeles | 3 | All Maps | STV","players":[{"user_id":885,"name":"triph","steam_id":76561198067196509,"connected_time":3944000000000,"state":"active","ping":46},{"user_id":904,"name":"FriskyDemon","steam_id":76561198043684646,"connected_time":1957000000000,"state":"active","ping":74},{"user_id":945,"name":"traytable","steam_id":76561198355890964,"connected_time":50000000000,"state":"active","ping":120},{"user_id":755,"name":"Apprentice Pybro","steam_id":76561197996353534,"connected_time":9325000000000,"state":"active","ping":50},{"user_id":930,"name":"$lime k✔ng WHYYYTEb0y^-^","steam_id":76561198283687382,"connected_time":618000000000,"state":"active","ping":102},{"user_id":944,"name":"Hashyterps *STF2","steam_id":76561198110563958,"connected_time":142000000000,"state":"active","ping":90},{"user_id":895,"name":"MaDeuce","steam_id":76561198110732835,"connected_time":2869000000000,"state":"active","ping":100},{"user_id":814,"name":"Gratt","steam_id":76561198134657114,"connected_time":5983000000000,"state":"active","ping":52},{"user_id":942,"name":"parallax","steam_id":76561198004438881,"connected_time":437000000000,"state":"active","ping":69},{"user_id":947,"name":"JON","steam_id":76561198057971005,"connected_time":22000000000,"state":"active","ping":72},{"user_id":931,"name":"I hope your family has a nice C","steam_id":76561198206922028,"connected_time":595000000000,"state":"active","ping":45},{"user_id":905,"name":"Lightning Bolt 1O1","steam_id":76561199099630600,"connected_time":1941000000000,"state":"active","ping":71},{"user_id":907,"name":"BlazedBunny","steam_id":76561198243610560,"connected_time":1925000000000,"state":"active","ping":96},{"user_id":866,"name":"Platinum","steam_id":76561198052463484,"connected_time":4940000000000,"state":"active","ping":72},{"user_id":929,"name":"cream team","steam_id":76561198139043953,"connected_time":628000000000,"state":"active","ping":80},{"user_id":922,"name":"Jeff the 19th","steam_id":76561198189315491,"connected_time":1407000000000,"state":"active","ping":73},{"user_id":910,"name":"Neophyte","steam_id":76561198027183394,"connected_time":1870000000000,"state":"active","ping":90},{"user_id":935,"name":"ritchie","steam_id":76561198097835871,"connected_time":481000000000,"state":"active","ping":106},{"user_id":933,"name":"brando_not_lando","steam_id":76561198163197384,"connected_time":553000000000,"state":"active","ping":59},{"user_id":913,"name":"Heatseeker","steam_id":76561198084093538,"connected_time":1762000000000,"state":"active","ping":81},{"user_id":914,"name":"Testiclitz Penischmidt","steam_id":76561198050582941,"connected_time":1755000000000,"state":"active","ping":117},{"user_id":916,"name":"selling rice","steam_id":76561198063357023,"connected_time":1689000000000,"state":"active","ping":59},{"user_id":882,"name":"Silvermace","steam_id":76561198090696843,"connected_time":4040000000000,"state":"active","ping":48},{"user_id":924,"name":"Surprise Garlic Bread Party","steam_id":76561197995246546,"connected_time":1261000000000,"state":"active","ping":58}]},{"server_id":25,"name":"Uncletopia | Los Angeles | 4 | Stopwatch Beta","name_short":"lax-4","host":"lax-1.us.uncletopia.com","port":27045,"enabled":true,"region":"us-west","cc":"us","latitude":33.94279,"longitude":-118.41004,"reserved":0,"last_update":"0001-01-01T00:00:00Z","name_a2s":"Uncletopia | Los Angeles | 4 | Stopwatch Beta","protocol":17,"map":"workshop/pl_barnblitz_pro7.ugc582280235","folder":"tf","game":"Team Fortress","app_id":440,"player_count":0,"max_players":24,"Bots":0,"server_type":"Dedicated","server_os":"Linux","password":true,"vac":true,"version":"7882260","steam_id":85568392924510199,"keywords":["nocrits","nodmgspread","payload","uncletopia"],"game_id":440,"stv_port":27046,"stv_name":"Uncletopia | Los Angeles | 4 | Stopwatch Beta | STV","players":null},{"server_id":11,"name":"Uncletopia | London | 1 | All Maps","name_short":"lon-1","host":"lon-1.uk.uncletopia.com","port":27015,"enabled":true,"region":"eu","cc":"gb","latitude":51.509865,"longitude":-0.118092,"reserved":0,"last_update":"0001-01-01T00:00:00Z","name_a2s":"Uncletopia | London | 1 | All Maps","protocol":17,"map":"pl_frontier_final","folder":"tf","game":"Team Fortress","app_id":440,"player_count":0,"max_players":24,"Bots":0,"server_type":"Dedicated","server_os":"Linux","password":true,"vac":true,"version":"7882260","steam_id":85568392924367362,"keywords":["nocrits","nodmgspread","payload","uncletopia"],"game_id":440,"stv_port":27016,"stv_name":"Uncletopia | London | 1 | All Maps | STV","players":null},{"server_id":114,"name":"Uncletopia | London | 2 | All Maps","name_short":"lon-2","host":"lon-1.uk.uncletopia.com","port":27025,"enabled":true,"region":"eu","cc":"gb","latitude":51.509865,"longitude":-0.118092,"reserved":0,"last_update":"0001-01-01T00:00:00Z","name_a2s":"Uncletopia | London | 2 | All Maps","protocol":17,"map":"pl_pier","folder":"tf","game":"Team Fortress","app_id":440,"player_count":0,"max_players":24,"Bots":0,"server_type":"Dedicated","server_os":"Linux","password":true,"vac":true,"version":"7882260","steam_id":85568392924470941,"keywords":["nocrits","nodmgspread","payload","uncletopia"],"game_id":440,"stv_port":27026,"stv_name":"Uncletopia | London | 2 | All Maps | STV","players":null},{"server_id":320,"name":"Uncletopia | London | 3 | All Maps","name_short":"lon-3","host":"lon-1.uk.uncletopia.com","port":27035,"enabled":true,"region":"eu","cc":"gb","latitude":51.509865,"longitude":-0.118092,"reserved":0,"last_update":"0001-01-01T00:00:00Z","name_a2s":"Uncletopia | London | 3 | All Maps","protocol":17,"map":"cp_sunshine","folder":"tf","game":"Team Fortress","app_id":440,"player_count":11,"max_players":24,"Bots":0,"server_type":"Dedicated","server_os":"Linux","password":true,"vac":true,"version":"7882260","steam_id":85568392924510192,"keywords":["cp","nocrits","nodmgspread","uncletopia"],"game_id":440,"stv_port":27036,"stv_name":"Uncletopia | London | 3 | All Maps | STV","players":[{"user_id":446,"name":"waddlewaddlewaddlewaddlewaddlew","steam_id":76561198180361759,"connected_time":4736000000000,"state":"active","ping":42},{"user_id":489,"name":"ryderwase","steam_id":76561198400434944,"connected_time":502000000000,"state":"active","ping":105},{"user_id":490,"name":"Cryspoeth47","steam_id":76561198892776023,"connected_time":362000000000,"state":"active","ping":115},{"user_id":491,"name":"Evgen","steam_id":76561198839700569,"connected_time":315000000000,"state":"active","ping":96},{"user_id":452,"name":"spxcy","steam_id":76561198080296853,"connected_time":4315000000000,"state":"active","ping":87},{"user_id":482,"name":"ill be frank","steam_id":76561199480942903,"connected_time":1261000000000,"state":"active","ping":76},{"user_id":483,"name":"Seuzon","steam_id":76561198416448649,"connected_time":1224000000000,"state":"active","ping":84},{"user_id":413,"name":"Borat","steam_id":76561198122226417,"connected_time":9443000000000,"state":"active","ping":45},{"user_id":439,"name":"Tortes","steam_id":76561199049185884,"connected_time":6751000000000,"state":"active","ping":104},{"user_id":443,"name":"tïger","steam_id":76561198260483157,"connected_time":5121000000000,"state":"active","ping":83},{"user_id":444,"name":"dorak","steam_id":76561198818037965,"connected_time":5120000000000,"state":"active","ping":91}]},{"server_id":321,"name":"Uncletopia | London | 4 | All Maps","name_short":"lon-4","host":"lon-1.uk.uncletopia.com","port":27045,"enabled":true,"region":"eu","cc":"gb","latitude":51.509865,"longitude":-0.118092,"reserved":0,"last_update":"0001-01-01T00:00:00Z","name_a2s":"Uncletopia | London | 4 | All Maps","protocol":17,"map":"cp_mountainlab","folder":"tf","game":"Team Fortress","app_id":440,"player_count":0,"max_players":24,"Bots":0,"server_type":"Dedicated","server_os":"Linux","password":true,"vac":true,"version":"7882260","steam_id":85568392924510193,"keywords":["cp","nocrits","nodmgspread","uncletopia"],"game_id":440,"stv_port":27046,"stv_name":"Uncletopia | London | 4 | All Maps | STV","players":null},{"server_id":21,"name":"Uncletopia | London | 5 | All Maps","name_short":"lon-5","host":"lon-1.uk.uncletopia.com","port":27055,"enabled":true,"region":"eu","cc":"gb","latitude":51.509865,"longitude":-0.118092,"reserved":0,"last_update":"0001-01-01T00:00:00Z","name_a2s":"Uncletopia | London | 5 | All Maps","protocol":17,"map":"cp_sunshine","folder":"tf","game":"Team Fortress","app_id":440,"player_count":0,"max_players":24,"Bots":0,"server_type":"Dedicated","server_os":"Linux","password":true,"vac":true,"version":"7882260","steam_id":85568392924742829,"keywords":["cp","nocrits","nodmgspread","uncletopia"],"game_id":440,"stv_port":27056,"stv_name":"Uncletopia | London | 5 | All Maps | STV","players":null},{"server_id":22,"name":"Uncletopia | London | 6 | All Maps","name_short":"lon-6","host":"lon-1.uk.uncletopia.com","port":27065,"enabled":true,"region":"eu","cc":"gb","latitude":51.509865,"longitude":-0.118092,"reserved":0,"last_update":"0001-01-01T00:00:00Z","name_a2s":"Uncletopia | London | 6 | All Maps","protocol":17,"map":"koth_highpass","folder":"tf","game":"Team Fortress","app_id":440,"player_count":0,"max_players":24,"Bots":0,"server_type":"Dedicated","server_os":"Linux","password":true,"vac":true,"version":"7882260","steam_id":85568392924742830,"keywords":["cp","nocrits","nodmgspread","uncletopia"],"game_id":440,"stv_port":27066,"stv_name":"Uncletopia | London | 6 | All Maps | STV","players":null},{"server_id":40,"name":"Uncletopia | London | 7 | No Payload","name_short":"lon-7","host":"lon-1.uk.uncletopia.com","port":27075,"enabled":true,"region":"eu","cc":"gb","latitude":51.509865,"longitude":-0.118092,"reserved":0,"last_update":"0001-01-01T00:00:00Z","name_a2s":"Uncletopia | London | 7 | No Payload","protocol":17,"map":"plr_nightfall_final","folder":"tf","game":"Team Fortress","app_id":440,"player_count":0,"max_players":24,"Bots":0,"server_type":"Dedicated","server_os":"Linux","password":true,"vac":true,"version":"7882260","steam_id":85568392924964314,"keywords":["nocrits","nodmgspread","payload","uncletopia"],"game_id":440,"stv_port":27076,"stv_name":"Uncletopia | London | 7 | No Payload | STV","players":null},{"server_id":41,"name":"Uncletopia | London | 8 | Community","name_short":"lon-8","host":"lon-1.uk.uncletopia.com","port":27085,"enabled":true,"region":"eu","cc":"gb","latitude":51.509865,"longitude":-0.118092,"reserved":0,"last_update":"0001-01-01T00:00:00Z","name_a2s":"Uncletopia | London | 8 | Community","protocol":17,"map":"workshop/koth_trenchfoot_b1a.ugc731436616","folder":"tf","game":"Team Fortress","app_id":440,"player_count":0,"max_players":24,"Bots":0,"server_type":"Dedicated","server_os":"Linux","password":true,"vac":true,"version":"7882260","steam_id":85568392924964315,"keywords":["cp","nocrits","nodmgspread","uncletopia"],"game_id":440,"stv_port":27086,"stv_name":"Uncletopia | London | 8 | Community | STV","players":null},{"server_id":300,"name":"Uncletopia | Montréal | 1 | All Maps","name_short":"mtl-1","host":"mtl-1.ca.uncletopia.com","port":27015,"enabled":true,"region":"us-east","cc":"ca","latitude":45.50889,"longitude":-73.56167,"reserved":0,"last_update":"0001-01-01T00:00:00Z","name_a2s":"Uncletopia | Montréal | 1 | All Maps","protocol":17,"map":"koth_viaduct","folder":"tf","game":"Team Fortress","app_id":440,"player_count":0,"max_players":24,"Bots":0,"server_type":"Dedicated","server_os":"Linux","password":true,"vac":true,"version":"7882260","steam_id":85568392924500087,"keywords":["cp","nocrits","nodmgspread","uncletopia"],"game_id":440,"stv_port":27016,"stv_name":"Uncletopia | Montréal | 1 | All Maps | STV","players":null},{"server_id":301,"name":"Uncletopia | Montréal | 2 | All Maps","name_short":"mtl-2","host":"mtl-1.ca.uncletopia.com","port":27025,"enabled":true,"region":"us-east","cc":"ca","latitude":45.50889,"longitude":-73.56167,"reserved":0,"last_update":"0001-01-01T00:00:00Z","name_a2s":"Uncletopia | Montréal | 2 | All Maps","protocol":17,"map":"koth_highpass","folder":"tf","game":"Team Fortress","app_id":440,"player_count":0,"max_players":24,"Bots":0,"server_type":"Dedicated","server_os":"Linux","password":true,"vac":true,"version":"7882260","steam_id":85568392924500088,"keywords":["cp","nocrits","nodmgspread","uncletopia"],"game_id":440,"stv_port":27026,"stv_name":"Uncletopia | Montréal | 2 | All Maps | STV","players":null},{"server_id":302,"name":"Uncletopia | Montréal | 3 | All Maps","name_short":"mtl-3","host":"mtl-1.ca.uncletopia.com","port":27035,"enabled":true,"region":"us-east","cc":"ca","latitude":45.50889,"longitude":-73.56167,"reserved":0,"last_update":"0001-01-01T00:00:00Z","name_a2s":"Uncletopia | Montréal | 3 | All Maps","protocol":17,"map":"cp_process_final","folder":"tf","game":"Team Fortress","app_id":440,"player_count":20,"max_players":24,"Bots":0,"server_type":"Dedicated","server_os":"Linux","password":true,"vac":true,"version":"7882260","steam_id":85568392924500089,"keywords":["cp","nocrits","nodmgspread","uncletopia"],"game_id":440,"stv_port":27036,"stv_name":"Uncletopia | Montréal | 3 | All Maps | STV","players":[{"user_id":290,"name":",","steam_id":76561199121842872,"connected_time":553000000000,"state":"active","ping":125},{"user_id":250,"name":"custodian","steam_id":76561198058793778,"connected_time":3681000000000,"state":"active","ping":59},{"user_id":291,"name":"quacked! (dinky)","steam_id":76561198970819395,"connected_time":409000000000,"state":"active","ping":97},{"user_id":256,"name":"tim-","steam_id":76561199119101315,"connected_time":3105000000000,"state":"active","ping":79},{"user_id":292,"name":"Madi","steam_id":76561198068691618,"connected_time":406000000000,"state":"active","ping":99},{"user_id":258,"name":"vv","steam_id":76561198134813102,"connected_time":2787000000000,"state":"active","ping":46},{"user_id":200,"name":"Glass Joe","steam_id":76561198317365741,"connected_time":7448000000000,"state":"active","ping":55},{"user_id":288,"name":"donatello ツ","steam_id":76561198091157081,"connected_time":691000000000,"state":"active","ping":29},{"user_id":266,"name":"TheLostPyro","steam_id":76561198099991710,"connected_time":2103000000000,"state":"active","ping":83},{"user_id":276,"name":"St. Michael","steam_id":76561198037611052,"connected_time":1490000000000,"state":"active","ping":75},{"user_id":293,"name":"SomeWeeabooTrash","steam_id":76561198199092050,"connected_time":356000000000,"state":"active","ping":143},{"user_id":294,"name":"danielarmvt","steam_id":76561198799723201,"connected_time":295000000000,"state":"active","ping":113},{"user_id":286,"name":"cheetaz","steam_id":76561198224614084,"connected_time":943000000000,"state":"active","ping":59},{"user_id":295,"name":"dx","steam_id":76561198335496355,"connected_time":294000000000,"state":"active","ping":58},{"user_id":271,"name":"Lee?","steam_id":76561199060892634,"connected_time":1626000000000,"state":"active","ping":90},{"user_id":282,"name":"dansal","steam_id":76561197997042510,"connected_time":1181000000000,"state":"active","ping":94},{"user_id":298,"name":"Farseer Ulwithy","steam_id":76561197965179245,"connected_time":228000000000,"state":"active","ping":105},{"user_id":300,"name":"Arugula","steam_id":76561198284395389,"connected_time":169000000000,"state":"active","ping":55},{"user_id":304,"name":"hog rider","steam_id":76561198449091814,"connected_time":75000000000,"state":"active","ping":70},{"user_id":247,"name":"Rebecca","steam_id":76561199071867217,"connected_time":3887000000000,"state":"active","ping":57}]},{"server_id":303,"name":"Uncletopia | Montréal | 4 | No Payload","name_short":"mtl-4","host":"mtl-1.ca.uncletopia.com","port":27045,"enabled":true,"region":"us-east","cc":"ca","latitude":45.50889,"longitude":-73.56167,"reserved":0,"last_update":"0001-01-01T00:00:00Z","name_a2s":"Uncletopia | Montréal | 4 | No Payload","protocol":17,"map":"cp_mercenarypark","folder":"tf","game":"Team Fortress","app_id":440,"player_count":0,"max_players":24,"Bots":0,"server_type":"Dedicated","server_os":"Linux","password":true,"vac":true,"version":"7882260","steam_id":85568392924500090,"keywords":["cp","nocrits","nodmgspread","uncletopia"],"game_id":440,"stv_port":27046,"stv_name":"Uncletopia | Montréal | 4 | No Payload | STV","players":null},{"server_id":13,"name":"Uncletopia | New York City | 1 | All Maps","name_short":"nyc-1","host":"nyc-1.us.uncletopia.com","port":27015,"enabled":true,"region":"us-east","cc":"us","latitude":40.73061,"longitude":-73.93524,"reserved":0,"last_update":"0001-01-01T00:00:00Z","name_a2s":"Uncletopia | New York City | 1 | All Maps","protocol":17,"map":"pl_pier","folder":"tf","game":"Team Fortress","app_id":440,"player_count":23,"max_players":24,"Bots":0,"server_type":"Dedicated","server_os":"Linux","password":true,"vac":true,"version":"7882260","steam_id":85568392924469993,"keywords":["nocrits","nodmgspread","payload","uncletopia"],"game_id":440,"stv_port":27016,"stv_name":"Uncletopia | New York City | 1 | All Maps | STV","players":[{"user_id":559,"name":"Tribbies","steam_id":76561198000708696,"connected_time":2620000000000,"state":"active","ping":130},{"user_id":584,"name":"Randy Johnson","steam_id":76561198079219890,"connected_time":786000000000,"state":"active","ping":125},{"user_id":572,"name":"brett","steam_id":76561198799740059,"connected_time":1851000000000,"state":"active","ping":47},{"user_id":585,"name":"OldManHenderson1976","steam_id":76561198148713751,"connected_time":783000000000,"state":"active","ping":100},{"user_id":594,"name":"The Horselords and Animal Gods","steam_id":76561197975094050,"connected_time":113000000000,"state":"active","ping":116},{"user_id":595,"name":"ChefMike","steam_id":76561198414034069,"connected_time":99000000000,"state":"active","ping":84},{"user_id":580,"name":"Saristan","steam_id":76561198093346048,"connected_time":1178000000000,"state":"active","ping":39},{"user_id":502,"name":"Sliced Ham","steam_id":76561198098015568,"connected_time":7697000000000,"state":"active","ping":101},{"user_id":557,"name":"ZakiLee","steam_id":76561198161351170,"connected_time":2952000000000,"state":"active","ping":50},{"user_id":590,"name":"Huevo Frito","steam_id":76561198896811394,"connected_time":303000000000,"state":"active","ping":35},{"user_id":596,"name":"gouddo","steam_id":76561198195091799,"connected_time":9000000000,"state":"spawning","ping":76},{"user_id":555,"name":"larguu","steam_id":76561197994336210,"connected_time":3096000000000,"state":"active","ping":31},{"user_id":574,"name":"Person","steam_id":76561198093244204,"connected_time":1505000000000,"state":"active","ping":60},{"user_id":592,"name":"Florence Jenkins","steam_id":76561198023894049,"connected_time":257000000000,"state":"active","ping":107},{"user_id":586,"name":"tesagi","steam_id":76561198026664629,"connected_time":773000000000,"state":"active","ping":45},{"user_id":571,"name":"BrownBear77","steam_id":76561198311991104,"connected_time":2073000000000,"state":"active","ping":137},{"user_id":575,"name":"identity","steam_id":76561198140584050,"connected_time":1487000000000,"state":"active","ping":45},{"user_id":591,"name":"lingulata","steam_id":76561198076208960,"connected_time":271000000000,"state":"active","ping":75},{"user_id":589,"name":"Goat","steam_id":76561198068447650,"connected_time":406000000000,"state":"active","ping":105},{"user_id":569,"name":"johankole96","steam_id":76561198179819715,"connected_time":2342000000000,"state":"active","ping":82},{"user_id":503,"name":"Azael✦","steam_id":76561198091887499,"connected_time":7684000000000,"state":"active","ping":84},{"user_id":576,"name":"abed","steam_id":76561198072856511,"connected_time":1480000000000,"state":"active","ping":67},{"user_id":521,"name":"Wallet","steam_id":76561198081067377,"connected_time":6392000000000,"state":"active","ping":45}]},{"server_id":14,"name":"Uncletopia | New York City | 2 | All Maps","name_short":"nyc-2","host":"nyc-1.us.uncletopia.com","port":27025,"enabled":true,"region":"us-east","cc":"us","latitude":40.73061,"longitude":-73.93524,"reserved":0,"last_update":"0001-01-01T00:00:00Z","name_a2s":"Uncletopia | New York City | 2 | All Maps","protocol":17,"map":"pl_badwater","folder":"tf","game":"Team Fortress","app_id":440,"player_count":24,"max_players":24,"Bots":0,"server_type":"Dedicated","server_os":"Linux","password":true,"vac":true,"version":"7882260","steam_id":85568392924469994,"keywords":["nocrits","nodmgspread","payload","uncletopia"],"game_id":440,"stv_port":27026,"stv_name":"Uncletopia | New York City | 2 | All Maps | STV","players":[{"user_id":539,"name":"dayman (fighter of the nightman","steam_id":76561198044612407,"connected_time":1225000000000,"state":"active","ping":49},{"user_id":535,"name":"ultralisk52","steam_id":76561198051666604,"connected_time":1830000000000,"state":"active","ping":83},{"user_id":529,"name":"Slashes","steam_id":76561197968573499,"connected_time":2646000000000,"state":"active","ping":38},{"user_id":511,"name":"The_Pacific_gamer","steam_id":76561198089491446,"connected_time":3299000000000,"state":"active","ping":107},{"user_id":538,"name":"MF Mexy","steam_id":76561198162328126,"connected_time":1303000000000,"state":"active","ping":55},{"user_id":445,"name":"Ralser","steam_id":76561199038370433,"connected_time":6214000000000,"state":"active","ping":160},{"user_id":510,"name":"Tri-Dot","steam_id":76561199075186597,"connected_time":3354000000000,"state":"active","ping":80},{"user_id":521,"name":"Aegis","steam_id":76561198272052750,"connected_time":2767000000000,"state":"active","ping":67},{"user_id":540,"name":"cringekrieg","steam_id":76561198036884600,"connected_time":1196000000000,"state":"active","ping":55},{"user_id":530,"name":"Tingle","steam_id":76561198022870921,"connected_time":2644000000000,"state":"active","ping":101},{"user_id":546,"name":"TF2C | fac","steam_id":76561198009818412,"connected_time":260000000000,"state":"active","ping":76},{"user_id":541,"name":"gmaay","steam_id":76561199104911185,"connected_time":1187000000000,"state":"active","ping":58},{"user_id":545,"name":"booyah! cumshot!","steam_id":76561198044034546,"connected_time":271000000000,"state":"active","ping":57},{"user_id":537,"name":"Samercam","steam_id":76561198189403190,"connected_time":1334000000000,"state":"active","ping":60},{"user_id":519,"name":"ShawnLmao","steam_id":76561198350691501,"connected_time":2860000000000,"state":"active","ping":92},{"user_id":518,"name":"bonersaw","steam_id":76561197983860697,"connected_time":2874000000000,"state":"active","ping":132},{"user_id":549,"name":"pigswill","steam_id":76561197999081865,"connected_time":154000000000,"state":"active","ping":73},{"user_id":482,"name":"leonardo doujinshi","steam_id":76561198025810326,"connected_time":4550000000000,"state":"active","ping":65},{"user_id":523,"name":"cheetoz","steam_id":76561198010019214,"connected_time":2695000000000,"state":"active","ping":35},{"user_id":524,"name":"silt","steam_id":76561198000564263,"connected_time":2693000000000,"state":"active","ping":74},{"user_id":548,"name":"Lore","steam_id":76561198098407538,"connected_time":244000000000,"state":"active","ping":68},{"user_id":525,"name":"java","steam_id":76561198030276792,"connected_time":2686000000000,"state":"active","ping":60},{"user_id":526,"name":"lanoc","steam_id":76561198055415367,"connected_time":2684000000000,"state":"active","ping":61},{"user_id":544,"name":"Chilgt","steam_id":76561198306062916,"connected_time":584000000000,"state":"active","ping":83}]},{"server_id":15,"name":"Uncletopia | New York City | 3 | Stopwatch Beta","name_short":"nyc-3","host":"nyc-1.us.uncletopia.com","port":27035,"enabled":true,"region":"us-east","cc":"us","latitude":40.73061,"longitude":-73.93524,"reserved":0,"last_update":"0001-01-01T00:00:00Z","name_a2s":"Uncletopia | New York City | 3 | Stopwatch Beta","protocol":17,"map":"workshop/pl_badwater_pro_v12.ugc2142942074","folder":"tf","game":"Team Fortress","app_id":440,"player_count":0,"max_players":24,"Bots":0,"server_type":"Dedicated","server_os":"Linux","password":true,"vac":true,"version":"7882260","steam_id":85568392924742820,"keywords":["nocrits","nodmgspread","payload","uncletopia"],"game_id":440,"stv_port":27036,"stv_name":"Uncletopia | New York City | 3 | Stopwatch Beta | STV","players":null},{"server_id":16,"name":"Uncletopia | New York City | 4 | Community","name_short":"nyc-4","host":"nyc-1.us.uncletopia.com","port":27045,"enabled":true,"region":"us-east","cc":"us","latitude":40.73061,"longitude":-73.93524,"reserved":0,"last_update":"0001-01-01T00:00:00Z","name_a2s":"Uncletopia | New York City | 4 | Community","protocol":17,"map":"workshop/koth_trenchfoot_b1a.ugc731436616","folder":"tf","game":"Team Fortress","app_id":440,"player_count":0,"max_players":24,"Bots":0,"server_type":"Dedicated","server_os":"Linux","password":true,"vac":true,"version":"7882260","steam_id":85568392924742821,"keywords":["cp","nocrits","nodmgspread","uncletopia"],"game_id":440,"stv_port":27046,"stv_name":"Uncletopia | New York City | 4 | Community | STV","players":null},{"server_id":142,"name":"Uncletopia | São Paulo | 1 | All Maps","name_short":"sao-1","host":"sao-1.br.uncletopia.com","port":27015,"enabled":true,"region":"sa","cc":"br","latitude":-23.533773,"longitude":-46.62529,"reserved":0,"last_update":"0001-01-01T00:00:00Z","name_a2s":"Uncletopia | São Paulo | 1 | All Maps","protocol":17,"map":"koth_cascade","folder":"tf","game":"Team Fortress","app_id":440,"player_count":0,"max_players":24,"Bots":0,"server_type":"Dedicated","server_os":"Linux","password":true,"vac":true,"version":"7882260","steam_id":85568392924469996,"keywords":["cp","nocrits","nodmgspread","uncletopia"],"game_id":440,"stv_port":27016,"stv_name":"Uncletopia | São Paulo | 1 | All Maps | STV","players":null},{"server_id":143,"name":"Uncletopia | São Paulo | 2 | All Maps","name_short":"sao-2","host":"sao-2.br.uncletopia.com","port":27015,"enabled":true,"region":"sa","cc":"br","latitude":-23.533773,"longitude":-46.62529,"reserved":0,"last_update":"0001-01-01T00:00:00Z","name_a2s":"Uncletopia | São Paulo | 2 | All Maps","protocol":17,"map":"koth_viaduct","folder":"tf","game":"Team Fortress","app_id":440,"player_count":0,"max_players":24,"Bots":0,"server_type":"Dedicated","server_os":"Linux","password":true,"vac":true,"version":"7882260","steam_id":85568392924485349,"keywords":["cp","nocrits","nodmgspread","uncletopia"],"game_id":440,"stv_port":27016,"stv_name":"Uncletopia | São Paulo | 2 | All Maps | STV","players":null},{"server_id":7,"name":"Uncletopia | Seattle | 1 | All Maps","name_short":"sea-1","host":"sea-1.us.uncletopia.com","port":27015,"enabled":true,"region":"us-west","cc":"us","latitude":47.608013,"longitude":-122.33517,"reserved":0,"last_update":"0001-01-01T00:00:00Z","name_a2s":"Uncletopia | Seattle | 1 | All Maps","protocol":17,"map":"pl_barnblitz","folder":"tf","game":"Team Fortress","app_id":440,"player_count":24,"max_players":24,"Bots":0,"server_type":"Dedicated","server_os":"Linux","password":true,"vac":true,"version":"7882260","steam_id":85568392924469997,"keywords":["nocrits","nodmgspread","payload","uncletopia"],"game_id":440,"stv_port":27016,"stv_name":"Uncletopia | Seattle | 1 | All Maps | STV","players":[{"user_id":348,"name":"Broly","steam_id":76561198271939793,"connected_time":14313000000000,"state":"active","ping":59},{"user_id":416,"name":"Level 99 Mudcrab","steam_id":76561198077452771,"connected_time":5685000000000,"state":"active","ping":59},{"user_id":461,"name":"soup","steam_id":76561198043209046,"connected_time":1550000000000,"state":"active","ping":79},{"user_id":469,"name":"Alpdhuez [✚]","steam_id":76561198013808837,"connected_time":831000000000,"state":"active","ping":64},{"user_id":466,"name":"TricKstA","steam_id":76561197988143298,"connected_time":980000000000,"state":"active","ping":53},{"user_id":473,"name":"fbi agent [knight edition]","steam_id":76561198143856462,"connected_time":359000000000,"state":"active","ping":77},{"user_id":438,"name":"damageinc86","steam_id":76561198058325130,"connected_time":3775000000000,"state":"active","ping":68},{"user_id":470,"name":"Agent86","steam_id":76561198046794593,"connected_time":546000000000,"state":"active","ping":176},{"user_id":464,"name":"twink in pastry flops","steam_id":76561198340646012,"connected_time":1120000000000,"state":"active","ping":38},{"user_id":340,"name":"Luca","steam_id":76561198125087140,"connected_time":15543000000000,"state":"active","ping":49},{"user_id":449,"name":"Jimmy","steam_id":76561198857959855,"connected_time":3042000000000,"state":"active","ping":86},{"user_id":457,"name":"DoctorHa","steam_id":76561198044026008,"connected_time":2289000000000,"state":"active","ping":95},{"user_id":450,"name":"NEBULA","steam_id":76561198086878595,"connected_time":2849000000000,"state":"active","ping":80},{"user_id":436,"name":"Octopus","steam_id":76561198114639980,"connected_time":3815000000000,"state":"active","ping":68},{"user_id":311,"name":"Badwater Basin Penis Rock","steam_id":76561198131808718,"connected_time":18316000000000,"state":"active","ping":62},{"user_id":471,"name":"Gazpacho","steam_id":76561198070220801,"connected_time":539000000000,"state":"active","ping":51},{"user_id":451,"name":"imtoofadedicantevendapuup","steam_id":76561198180372310,"connected_time":2354000000000,"state":"active","ping":60},{"user_id":411,"name":"The Scatman","steam_id":76561198071693469,"connected_time":5935000000000,"state":"active","ping":50},{"user_id":453,"name":"Ayayayayayahuasca","steam_id":76561199002906056,"connected_time":2320000000000,"state":"active","ping":52},{"user_id":465,"name":"Saul Goodman","steam_id":76561198354289529,"connected_time":1119000000000,"state":"active","ping":97},{"user_id":456,"name":"Number28","steam_id":76561198315018819,"connected_time":2298000000000,"state":"active","ping":76},{"user_id":418,"name":"Arsonist Goose","steam_id":76561198147441830,"connected_time":5569000000000,"state":"active","ping":70},{"user_id":430,"name":"Cheezbeargur","steam_id":76561198164702899,"connected_time":4061000000000,"state":"active","ping":73},{"user_id":448,"name":"keithykeithers","steam_id":76561197995552615,"connected_time":3060000000000,"state":"active","ping":46}]},{"server_id":119,"name":"Uncletopia | Seattle | 2 | All Maps","name_short":"sea-2","host":"sea-1.us.uncletopia.com","port":27025,"enabled":true,"region":"us-west","cc":"us","latitude":47.608013,"longitude":-122.33517,"reserved":0,"last_update":"0001-01-01T00:00:00Z","name_a2s":"Uncletopia | Seattle | 2 | All Maps","protocol":17,"map":"pl_borneo","folder":"tf","game":"Team Fortress","app_id":440,"player_count":24,"max_players":24,"Bots":0,"server_type":"Dedicated","server_os":"Linux","password":true,"vac":true,"version":"7882260","steam_id":85568392924469998,"keywords":["nocrits","nodmgspread","payload","uncletopia"],"game_id":440,"stv_port":27026,"stv_name":"Uncletopia | Seattle | 2 | All Maps | STV","players":[{"user_id":292,"name":"Dunkle","steam_id":76561198041903573,"connected_time":2313000000000,"state":"active","ping":42},{"user_id":308,"name":"Hemorrhoid Harry","steam_id":76561198092494136,"connected_time":967000000000,"state":"active","ping":105},{"user_id":315,"name":"WaterWorks","steam_id":76561198801899310,"connected_time":836000000000,"state":"active","ping":69},{"user_id":306,"name":"THE_VIRTUAL_DOG.exe","steam_id":76561197999522253,"connected_time":969000000000,"state":"active","ping":32},{"user_id":311,"name":"nomos club campus 38","steam_id":76561198074716338,"connected_time":954000000000,"state":"active","ping":60},{"user_id":261,"name":"dougrocks421","steam_id":76561198165063918,"connected_time":5939000000000,"state":"active","ping":36},{"user_id":298,"name":"Leon","steam_id":76561198950938712,"connected_time":1674000000000,"state":"active","ping":79},{"user_id":318,"name":"Rusty","steam_id":76561198055585129,"connected_time":245000000000,"state":"active","ping":51},{"user_id":294,"name":"timmie","steam_id":76561198367036671,"connected_time":2118000000000,"state":"active","ping":84},{"user_id":307,"name":"tobrehto","steam_id":76561198097544038,"connected_time":969000000000,"state":"active","ping":87},{"user_id":299,"name":"Skabbety","steam_id":76561198168044257,"connected_time":1671000000000,"state":"active","ping":45},{"user_id":164,"name":"Mapachito Lindo","steam_id":76561198031359995,"connected_time":14573000000000,"state":"active","ping":44},{"user_id":313,"name":"Greskrendtregk","steam_id":76561197969553142,"connected_time":941000000000,"state":"active","ping":53},{"user_id":291,"name":"Swag5","steam_id":76561198065311356,"connected_time":2529000000000,"state":"active","ping":69},{"user_id":303,"name":"PainInTheRuss","steam_id":76561197977960543,"connected_time":1116000000000,"state":"active","ping":61},{"user_id":301,"name":"BOMB (POWER) (NUKE) (HUGE)","steam_id":76561198207881077,"connected_time":1361000000000,"state":"active","ping":112},{"user_id":199,"name":"Lambchop","steam_id":76561198043900363,"connected_time":12550000000000,"state":"active","ping":74},{"user_id":309,"name":"Surfing Garchomp","steam_id":76561199107236884,"connected_time":966000000000,"state":"active","ping":71},{"user_id":264,"name":"exephur","steam_id":76561198135763234,"connected_time":5748000000000,"state":"active","ping":60},{"user_id":317,"name":"S Q U I S H E  T H A T  C A T","steam_id":76561198293865429,"connected_time":627000000000,"state":"active","ping":41},{"user_id":283,"name":"i love macdonad","steam_id":76561198975706117,"connected_time":2876000000000,"state":"active","ping":114},{"user_id":316,"name":"Pah-Wraith Gul Dukat","steam_id":76561198033918106,"connected_time":820000000000,"state":"active","ping":85},{"user_id":280,"name":"Swag6","steam_id":76561198064110837,"connected_time":4018000000000,"state":"active","ping":71},{"user_id":277,"name":"Morago","steam_id":76561198131466634,"connected_time":4071000000000,"state":"active","ping":148}]},{"server_id":406,"name":"Uncletopia | Seattle | 3 | Stopwatch Beta","name_short":"sea-3","host":"sea-1.us.uncletopia.com","port":27035,"enabled":true,"region":"us-west","cc":"us","latitude":47.608013,"longitude":-122.33517,"reserved":0,"last_update":"0001-01-01T00:00:00Z","name_a2s":"Uncletopia | Seattle | 3 | Stopwatch Beta","protocol":17,"map":"workshop/cp_reckoner_rc6.ugc674719999","folder":"tf","game":"Team Fortress","app_id":440,"player_count":23,"max_players":24,"Bots":0,"server_type":"Dedicated","server_os":"Linux","password":true,"vac":true,"version":"7882260","steam_id":85568392924515217,"keywords":["cp","nocrits","nodmgspread","uncletopia"],"game_id":440,"stv_port":27036,"stv_name":"Uncletopia | Seattle | 3 | Stopwatch Beta | STV","players":[{"user_id":273,"name":"PJROCK101","steam_id":76561198070616561,"connected_time":420000000000,"state":"active","ping":57},{"user_id":156,"name":"dairy delinquent","steam_id":76561198971552734,"connected_time":6292000000000,"state":"active","ping":93},{"user_id":270,"name":"supergamer1992","steam_id":76561198218012140,"connected_time":533000000000,"state":"active","ping":111},{"user_id":261,"name":"KingKoa","steam_id":76561198963089548,"connected_time":733000000000,"state":"active","ping":94},{"user_id":111,"name":"perc 10","steam_id":76561198116471653,"connected_time":8802000000000,"state":"active","ping":65},{"user_id":239,"name":"kramer","steam_id":76561198117761965,"connected_time":1445000000000,"state":"active","ping":120},{"user_id":269,"name":"Benis Gonzalez","steam_id":76561198799391259,"connected_time":653000000000,"state":"active","ping":85},{"user_id":282,"name":"Drake from State Farm","steam_id":76561199069029812,"connected_time":61000000000,"state":"spawning","ping":757},{"user_id":271,"name":"Demoslow","steam_id":76561198805592656,"connected_time":518000000000,"state":"active","ping":101},{"user_id":263,"name":"adrymarker","steam_id":76561198316948699,"connected_time":710000000000,"state":"active","ping":117},{"user_id":283,"name":"goongremlin","steam_id":76561198278196215,"connected_time":21000000000,"state":"spawning","ping":188},{"user_id":241,"name":"Isopentyl Ethanoate","steam_id":76561198116389072,"connected_time":1288000000000,"state":"active","ping":62},{"user_id":223,"name":"StarBrigade","steam_id":76561198150224428,"connected_time":2262000000000,"state":"active","ping":86},{"user_id":251,"name":"Ellis","steam_id":76561198993634489,"connected_time":1094000000000,"state":"active","ping":69},{"user_id":244,"name":"delight","steam_id":76561197980280272,"connected_time":1243000000000,"state":"active","ping":45},{"user_id":277,"name":"Waddle","steam_id":76561198125539726,"connected_time":285000000000,"state":"active","ping":98},{"user_id":278,"name":"Mr defrost","steam_id":76561198322125657,"connected_time":265000000000,"state":"active","ping":67},{"user_id":168,"name":"Pete The \"Plummer\"","steam_id":76561199097450685,"connected_time":5787000000000,"state":"active","ping":65},{"user_id":216,"name":"dP | I'm in a Wookie Suit","steam_id":76561198083307644,"connected_time":3087000000000,"state":"active","ping":59},{"user_id":279,"name":"Fat Fur Gaming","steam_id":76561198072774915,"connected_time":257000000000,"state":"active","ping":92},{"user_id":280,"name":"reverie","steam_id":76561198168158637,"connected_time":224000000000,"state":"active","ping":81},{"user_id":281,"name":"Thequirka","steam_id":76561198968058652,"connected_time":213000000000,"state":"active","ping":50},{"user_id":233,"name":"epicgameslauncherplaer878","steam_id":76561198360279519,"connected_time":1668000000000,"state":"active","ping":118}]},{"server_id":17,"name":"Uncletopia | San Francisco | 1 | All Maps","name_short":"sfo-1","host":"sfo-1.us.uncletopia.com","port":27015,"enabled":true,"region":"us-west","cc":"us","latitude":37.77397,"longitude":-122.4313,"reserved":0,"last_update":"0001-01-01T00:00:00Z","name_a2s":"Uncletopia | San Francisco | 1 | All Maps","protocol":17,"map":"cp_process_final","folder":"tf","game":"Team Fortress","app_id":440,"player_count":0,"max_players":24,"Bots":0,"server_type":"Dedicated","server_os":"Linux","password":true,"vac":true,"version":"7757534","steam_id":85568392924469999,"keywords":["cp","nocrits","nodmgspread","uncletopia"],"game_id":440,"stv_port":27016,"stv_name":"Uncletopia | San Francisco | 1 | All Maps | STV","players":null},{"server_id":18,"name":"Uncletopia | San Francisco | 2 | All Maps","name_short":"sfo-2","host":"sfo-1.us.uncletopia.com","port":27025,"enabled":true,"region":"us-west","cc":"us","latitude":37.77397,"longitude":-122.4313,"reserved":0,"last_update":"0001-01-01T00:00:00Z","name_a2s":"Uncletopia | San Francisco | 2 | All Maps","protocol":17,"map":"koth_highpass","folder":"tf","game":"Team Fortress","app_id":440,"player_count":0,"max_players":24,"Bots":0,"server_type":"Dedicated","server_os":"Linux","password":true,"vac":true,"version":"7757534","steam_id":85568392924470000,"keywords":["cp","nocrits","nodmgspread","uncletopia"],"game_id":440,"stv_port":27026,"stv_name":"Uncletopia | San Francisco | 2 | All Maps | STV","players":null},{"server_id":19,"name":"Uncletopia | San Francisco | 3 | Stopwatch Beta","name_short":"sfo-3","host":"sfo-1.us.uncletopia.com","port":27035,"enabled":true,"region":"us-west","cc":"us","latitude":37.77397,"longitude":-122.4313,"reserved":0,"last_update":"0001-01-01T00:00:00Z","name_a2s":"Uncletopia | San Francisco | 3 | Stopwatch Beta","protocol":17,"map":"koth_lakeside_final","folder":"tf","game":"Team Fortress","app_id":440,"player_count":0,"max_players":24,"Bots":0,"server_type":"Dedicated","server_os":"Linux","password":true,"vac":true,"version":"7757534","steam_id":85568392924742824,"keywords":["cp","nocrits","nodmgspread","uncletopia"],"game_id":440,"stv_port":27036,"stv_name":"Uncletopia | San Francisco | 3 | Stopwatch Beta | STV","players":null},{"server_id":20,"name":"Uncletopia | San Francisco | 4 | Community","name_short":"sfo-4","host":"sfo-1.us.uncletopia.com","port":27045,"enabled":true,"region":"us-west","cc":"us","latitude":37.77397,"longitude":-122.4313,"reserved":0,"last_update":"0001-01-01T00:00:00Z","name_a2s":"Uncletopia | San Francisco | 4 | Community","protocol":17,"map":"cp_altitude","folder":"tf","game":"Team Fortress","app_id":440,"player_count":0,"max_players":24,"Bots":0,"server_type":"Dedicated","server_os":"Linux","password":true,"vac":true,"version":"7757534","steam_id":85568392924742826,"keywords":["cp","nocrits","nodmgspread","uncletopia"],"game_id":440,"stv_port":27046,"stv_name":"Uncletopia | San Francisco | 4 | Community | STV","players":null},{"server_id":141,"name":"Uncletopia | Sydney | 1 | All Maps","name_short":"syd-1","host":"syd-1.au.uncletopia.com","port":27015,"enabled":true,"region":"au","cc":"au","latitude":-33.865143,"longitude":151.2099,"reserved":0,"last_update":"0001-01-01T00:00:00Z","name_a2s":"Uncletopia | Sydney | 1 | All Maps","protocol":17,"map":"pl_badwater","folder":"tf","game":"Team Fortress","app_id":440,"player_count":24,"max_players":24,"Bots":0,"server_type":"Dedicated","server_os":"Linux","password":true,"vac":true,"version":"7882260","steam_id":85568392924470001,"keywords":["nocrits","nodmgspread","payload","uncletopia"],"game_id":440,"stv_port":27016,"stv_name":"Uncletopia | Sydney | 1 | All Maps | STV","players":[{"user_id":17,"name":"Shadow Puppeteer","steam_id":76561198151121997,"connected_time":6009000000000,"state":"active","ping":78},{"user_id":96,"name":"robor","steam_id":76561198084686835,"connected_time":1261000000000,"state":"active","ping":53},{"user_id":86,"name":"soup","steam_id":76561198094520079,"connected_time":1887000000000,"state":"active","ping":81},{"user_id":90,"name":"Flak","steam_id":76561198205833232,"connected_time":1533000000000,"state":"active","ping":52},{"user_id":91,"name":"lavanderpumpernickle","steam_id":76561199093611800,"connected_time":1447000000000,"state":"active","ping":61},{"user_id":73,"name":"ozy","steam_id":76561198031500763,"connected_time":2319000000000,"state":"active","ping":90},{"user_id":89,"name":"uuv","steam_id":76561198080981482,"connected_time":1700000000000,"state":"active","ping":34},{"user_id":92,"name":"frog","steam_id":76561198300661780,"connected_time":1406000000000,"state":"active","ping":42},{"user_id":88,"name":"Gordon","steam_id":76561198162182206,"connected_time":1799000000000,"state":"active","ping":69},{"user_id":84,"name":"Assasin43","steam_id":76561198067678083,"connected_time":1959000000000,"state":"active","ping":94},{"user_id":103,"name":"Del Davis","steam_id":76561199365669004,"connected_time":414000000000,"state":"active","ping":55},{"user_id":101,"name":"YOU'RE WRONG ! SULFIRIC ACID!","steam_id":76561199174449723,"connected_time":546000000000,"state":"active","ping":143},{"user_id":95,"name":"Elbox","steam_id":76561198277799857,"connected_time":1360000000000,"state":"active","ping":61},{"user_id":58,"name":"VAVcut","steam_id":76561199160900469,"connected_time":3429000000000,"state":"active","ping":147},{"user_id":36,"name":"Rashid Of The Dank Memes","steam_id":76561198281398078,"connected_time":4357000000000,"state":"active","ping":58},{"user_id":98,"name":"Soldier main(Really)","steam_id":76561198153397177,"connected_time":1044000000000,"state":"active","ping":55},{"user_id":77,"name":"soupy","steam_id":76561198073734936,"connected_time":2122000000000,"state":"active","ping":90},{"user_id":55,"name":"Araxamas","steam_id":76561198014474886,"connected_time":3561000000000,"state":"active","ping":96},{"user_id":102,"name":"Warren","steam_id":76561198120350917,"connected_time":431000000000,"state":"active","ping":39},{"user_id":59,"name":"RAINY BIG BRAINY","steam_id":76561198009848533,"connected_time":3416000000000,"state":"active","ping":60},{"user_id":50,"name":"tenten","steam_id":76561198402822072,"connected_time":3949000000000,"state":"active","ping":95},{"user_id":72,"name":"Mynarcoia","steam_id":76561198157198961,"connected_time":2593000000000,"state":"active","ping":59},{"user_id":100,"name":"Pathetic Coward","steam_id":76561197968304462,"connected_time":913000000000,"state":"active","ping":56},{"user_id":105,"name":"Wampy","steam_id":76561199211235248,"connected_time":324000000000,"state":"active","ping":42}]},{"server_id":123,"name":"Uncletopia | Sydney | 2 | All Maps","name_short":"syd-2","host":"syd-1.au.uncletopia.com","port":27025,"enabled":true,"region":"au","cc":"au","latitude":-33.865143,"longitude":151.2099,"reserved":0,"last_update":"0001-01-01T00:00:00Z","name_a2s":"Uncletopia | Sydney | 2 | All Maps","protocol":17,"map":"pl_swiftwater_final1","folder":"tf","game":"Team Fortress","app_id":440,"player_count":0,"max_players":24,"Bots":0,"server_type":"Dedicated","server_os":"Linux","password":true,"vac":true,"version":"7882260","steam_id":85568392924470002,"keywords":["nocrits","nodmgspread","payload","uncletopia"],"game_id":440,"stv_port":27026,"stv_name":"Uncletopia | Sydney | 2 | All Maps | STV","players":null},{"server_id":395,"name":"Uncletopia | Sydney | 3 | All Maps","name_short":"syd-3","host":"syd-1.au.uncletopia.com","port":27035,"enabled":true,"region":"au","cc":"au","latitude":-33.865143,"longitude":151.2099,"reserved":0,"last_update":"0001-01-01T00:00:00Z","name_a2s":"Uncletopia | Sydney | 3 | All Maps","protocol":17,"map":"pl_badwater","folder":"tf","game":"Team Fortress","app_id":440,"player_count":4,"max_players":24,"Bots":0,"server_type":"Dedicated","server_os":"Linux","password":true,"vac":true,"version":"7882260","steam_id":85568392925194467,"keywords":["nocrits","nodmgspread","payload","uncletopia"],"game_id":440,"stv_port":27036,"stv_name":"Uncletopia | Sydney | 3 | All Maps | STV","players":[{"user_id":10,"name":"PippinCat2009S","steam_id":76561199435639809,"connected_time":397000000000,"state":"active","ping":54},{"user_id":13,"name":"Onion Farmer","steam_id":76561198449452640,"connected_time":91000000000,"state":"active","ping":152},{"user_id":9,"name":"HotheadWill","steam_id":76561199253825374,"connected_time":537000000000,"state":"active","ping":53},{"user_id":12,"name":"toblue","steam_id":76561198189137465,"connected_time":224000000000,"state":"active","ping":77}]},{"server_id":396,"name":"Uncletopia | Sydney | 4 | All Maps","name_short":"syd-4","host":"syd-1.au.uncletopia.com","port":27045,"enabled":true,"region":"au","cc":"au","latitude":-33.865143,"longitude":151.2099,"reserved":0,"last_update":"0001-01-01T00:00:00Z","name_a2s":"Uncletopia | Sydney | 4 | All Maps","protocol":17,"map":"cp_dustbowl","folder":"tf","game":"Team Fortress","app_id":440,"player_count":0,"max_players":24,"Bots":0,"server_type":"Dedicated","server_os":"Linux","password":true,"vac":true,"version":"7882260","steam_id":85568392925397958,"keywords":["cp","nocrits","nodmgspread","uncletopia"],"game_id":440,"stv_port":27046,"stv_name":"Uncletopia | Sydney | 4 | All Maps | STV","players":null},{"server_id":58,"name":"Uncletopia | Sydney | 5 | Stopwatch Beta","name_short":"syd-5","host":"syd-1.au.uncletopia.com","port":27055,"enabled":true,"region":"au","cc":"au","latitude":-33.865143,"longitude":151.2099,"reserved":0,"last_update":"0001-01-01T00:00:00Z","name_a2s":"Uncletopia | Sydney | 5 | Stopwatch Beta","protocol":17,"map":"workshop/pl_barnblitz_pro7.ugc582280235","folder":"tf","game":"Team Fortress","app_id":440,"player_count":0,"max_players":24,"Bots":0,"server_type":"Dedicated","server_os":"Linux","password":true,"vac":true,"version":"7882260","steam_id":85568392925397959,"keywords":["nocrits","nodmgspread","payload","uncletopia"],"game_id":440,"stv_port":27056,"stv_name":"Uncletopia | Sydney | 5 | Stopwatch Beta | STV","players":null},{"server_id":59,"name":"Uncletopia | Sydney | 6 | Community","name_short":"syd-6","host":"syd-1.au.uncletopia.com","port":27065,"enabled":true,"region":"au","cc":"au","latitude":-33.865143,"longitude":151.2099,"reserved":0,"last_update":"0001-01-01T00:00:00Z","name_a2s":"Uncletopia | Sydney | 6 | Community","protocol":17,"map":"pl_snowycoast","folder":"tf","game":"Team Fortress","app_id":440,"player_count":0,"max_players":24,"Bots":0,"server_type":"Dedicated","server_os":"Linux","password":true,"vac":true,"version":"7882260","steam_id":85568392925397960,"keywords":["nocrits","nodmgspread","payload","uncletopia"],"game_id":440,"stv_port":27066,"stv_name":"Uncletopia | Sydney | 6 | Community | STV","players":null},{"server_id":49,"name":"Uncletopia | Warsaw | 1 | All Maps","name_short":"waw-1","host":"waw-1.pl.uncletopia.com","port":27015,"enabled":true,"region":"eu","cc":"pl","latitude":52.2297,"longitude":21.017532,"reserved":0,"last_update":"0001-01-01T00:00:00Z","name_a2s":"","protocol":0,"map":"","folder":"","game":"","app_id":0,"player_count":0,"max_players":0,"Bots":0,"server_type":"","server_os":"","password":false,"vac":false,"version":"","steam_id":0,"keywords":null,"game_id":0,"stv_port":0,"stv_name":"","players":null},{"server_id":50,"name":"Uncletopia | Warsaw | 2 | All Maps","name_short":"waw-2","host":"waw-1.pl.uncletopia.com","port":27025,"enabled":true,"region":"eu","cc":"pl","latitude":52.2297,"longitude":21.017532,"reserved":0,"last_update":"0001-01-01T00:00:00Z","name_a2s":"Uncletopia | Warsaw | 2 | All Maps","protocol":17,"map":"pl_swiftwater_final1","folder":"tf","game":"Team Fortress","app_id":440,"player_count":0,"max_players":24,"Bots":0,"server_type":"Dedicated","server_os":"Linux","password":true,"vac":true,"version":"7882260","steam_id":85568392925397851,"keywords":["nocrits","nodmgspread","payload","uncletopia"],"game_id":440,"stv_port":27026,"stv_name":"Uncletopia | Warsaw | 2 | All Maps | STV","players":null},{"server_id":51,"name":"Uncletopia | Warsaw | 3 | All Maps","name_short":"waw-3","host":"waw-1.pl.uncletopia.com","port":27035,"enabled":true,"region":"eu","cc":"pl","latitude":52.2297,"longitude":21.017532,"reserved":0,"last_update":"0001-01-01T00:00:00Z","name_a2s":"Uncletopia | Warsaw | 3 | All Maps","protocol":17,"map":"koth_viaduct","folder":"tf","game":"Team Fortress","app_id":440,"player_count":0,"max_players":24,"Bots":0,"server_type":"Dedicated","server_os":"Linux","password":true,"vac":true,"version":"7882260","steam_id":85568392925397852,"keywords":["cp","nocrits","nodmgspread","uncletopia"],"game_id":440,"stv_port":27036,"stv_name":"Uncletopia | Warsaw | 3 | All Maps | STV","players":null},{"server_id":52,"name":"Uncletopia | Warsaw | 4 | All Maps","name_short":"waw-4","host":"waw-1.pl.uncletopia.com","port":27045,"enabled":true,"region":"eu","cc":"pl","latitude":52.2297,"longitude":21.017532,"reserved":0,"last_update":"0001-01-01T00:00:00Z","name_a2s":"Uncletopia | Warsaw | 4 | All Maps","protocol":17,"map":"koth_highpass","folder":"tf","game":"Team Fortress","app_id":440,"player_count":0,"max_players":24,"Bots":0,"server_type":"Dedicated","server_os":"Linux","password":true,"vac":true,"version":"7882260","steam_id":85568392925397853,"keywords":["cp","nocrits","nodmgspread","uncletopia"],"game_id":440,"stv_port":27046,"stv_name":"Uncletopia | Warsaw | 4 | All Maps | STV","players":null},{"server_id":53,"name":"Uncletopia | Warsaw | 5 | Stopwatch Beta","name_short":"waw-5","host":"waw-1.pl.uncletopia.com","port":27055,"enabled":true,"region":"eu","cc":"pl","latitude":52.2297,"longitude":21.017532,"reserved":0,"last_update":"0001-01-01T00:00:00Z","name_a2s":"Uncletopia | Warsaw | 5 | Stopwatch Beta","protocol":17,"map":"cp_mountainlab","folder":"tf","game":"Team Fortress","app_id":440,"player_count":0,"max_players":24,"Bots":0,"server_type":"Dedicated","server_os":"Linux","password":true,"vac":true,"version":"7882260","steam_id":85568392925397854,"keywords":["cp","nocrits","nodmgspread","uncletopia"],"game_id":440,"stv_port":27056,"stv_name":"Uncletopia | Warsaw | 5 | Stopwatch Beta | STV","players":null},{"server_id":54,"name":"Uncletopia | Warsaw | 6 | Community","name_short":"waw-6","host":"waw-1.pl.uncletopia.com","port":27065,"enabled":true,"region":"eu","cc":"pl","latitude":52.2297,"longitude":21.017532,"reserved":0,"last_update":"0001-01-01T00:00:00Z","name_a2s":"Uncletopia | Warsaw | 6 | Community","protocol":17,"map":"koth_viaduct","folder":"tf","game":"Team Fortress","app_id":440,"player_count":0,"max_players":24,"Bots":0,"server_type":"Dedicated","server_os":"Linux","password":true,"vac":true,"version":"7882260","steam_id":85568392925397856,"keywords":["cp","nocrits","nodmgspread","uncletopia"],"game_id":440,"stv_port":27066,"stv_name":"Uncletopia | Warsaw | 6 | Community | STV","players":null}]}