{"status":true,"message":"","result":[{"server_id":9,"name":"Uncletopia | Atlanta | 1 | All Maps","name_short":"atl-1","host":"atl-1.us.uncletopia.com","port":27015,"enabled":true,"region":"us-east","cc":"us","latitude":33.753746,"longitude":-84.38633,"reserved":0,"last_update":"0001-01-01T00:00:00Z","name_a2s":"Uncletopia | Atlanta | 1 | All Maps","protocol":17,"map":"pl_swiftwater_final1","folder":"tf","game":"Team Fortress","app_id":440,"player_count":24,"max_players":24,"Bots":0,"server_type":"Dedicated","server_os":"Linux","password":true,"vac":true,"version":"7961495","steam_id":85568392924469982,"keywords":["nocrits","nodmgspread","payload","uncletopia"],"game_id":440,"stv_port":27016,"stv_name":"Uncletopia | Atlanta | 1 | All Maps | STV","players":null},{"server_id":104,"name":"Uncletopia | Atlanta | 2 | All Maps","name_short":"atl-2","host":"atl-1.us.uncletopia.com","port":27025,"enabled":true,"region":"us-east","cc":"us","latitude":33.753746,"longitude":-84.38633,"reserved":0,"last_update":"0001-01-01T00:00:00Z","name_a2s":"Uncletopia | Atlanta | 2 | All Maps","protocol":17,"map":"koth_viaduct","folder":"tf","game":"Team Fortress","app_id":440,"player_count":16,"max_players":24,"Bots":0,"server_type":"Dedicated","server_os":"Linux","password":true,"vac":true,"version":"7961495","steam_id":85568392924469983,"keywords":["cp","nocrits","nodmgspread","uncletopia"],"game_id":440,"stv_port":27026,"stv_name":"Uncletopia | Atlanta | 2 | All Maps | STV","players":null},{"server_id":400,"name":"Uncletopia | Atlanta | 3 | Stopwatch","name_short":"atl-3","host":"atl-1.us.uncletopia.com","port":27035,"enabled":true,"region":"us-east","cc":"us","latitude":33.753746,"longitude":-84.38633,"reserved":0,"last_update":"0001-01-01T00:00:00Z","name_a2s":"Uncletopia | Atlanta | 3 | Stopwatch","protocol":17,"map":"koth_lakeside_final","folder":"tf","game":"Team Fortress","app_id":440,"player_count":0,"max_players":24,"Bots":0,"server_type":"Dedicated","server_os":"Linux","password":true,"vac":true,"version":"7961495","steam_id":85568392924515187,"keywords":["cp","nocrits","nodmgspread","uncletopia"],"game_id":440,"stv_port":27036,"stv_name":"Uncletopia | Atlanta | 3 | Stopwatch | STV","players":null},{"server_id":401,"name":"Uncletopia | Atlanta | 4 | Community","name_short":"atl-4","host":"atl-1.us.uncletopia.com","port":27045,"enabled":true,"region":"us-east","cc":"us","latitude":33.753746,"longitude":-84.38633,"reserved":0,"last_update":"0001-01-01T00:00:00Z","name_a2s":"Uncletopia | Atlanta | 4 | Community","protocol":17,"map":"koth_ashville_final","folder":"tf","game":"Team Fortress","app_id":440,"player_count":0,"max_players":24,"Bots":0,"server_type":"Dedicated","server_os":"Linux","password":true,"vac":true,"version":"7961495","steam_id":85568392924515188,"keywords":["cp","nocrits","nodmgspread","uncletopia"],"game_id":440,"stv_port":27046,"stv_name":"Uncletopia | Atlanta | 4 | Community | STV","players":null},{"server_id":2,"name":"Uncletopia | Chicago | 1 | All Maps","name_short":"chi-1","host":"chi-1.us.uncletopia.com","port":27015,"enabled":true,"region":"us-central","cc":"us","latitude":41.881832,"longitude":-87.62318,"reserved":0,"last_update":"0001-01-01T00:00:00Z","name_a2s":"Uncletopia | Chicago | 1 | All Maps","protocol":17,"map":"pl_snowycoast","folder":"tf","game":"Team Fortress","app_id":440,"player_count":21,"max_players":24,"Bots":0,"server_type":"Dedicated","server_os":"Linux","password":true,"vac":true,"version":"7961495","steam_id":85568392924469984,"keywords":["nocrits","nodmgspread","payload","uncletopia"],"game_id":440,"stv_port":27016,"stv_name":"Uncletopia | Chicago | 1 | All Maps | STV","players":[{"user_id":896,"name":"AppleTruffle","steam_id":76561198031299571,"connected_time":304000000000,"state":"active","ping":60},{"user_id":898,"name":"Raspylightining","steam_id":76561198148343305,"connected_time":285000000000,"state":"active","ping":52},{"user_id":840,"name":"SteveHarp","steam_id":76561198339530814,"connected_time":4458000000000,"state":"active","ping":75},{"user_id":846,"name":"frank","steam_id":76561198137777483,"connected_time":4341000000000,"state":"active","ping":66},{"user_id":868,"name":"Skeleop","steam_id":76561198981106464,"connected_time":3123000000000,"state":"active","ping":116},{"user_id":900,"name":"pee fartress poo","steam_id":76561198063152319,"connected_time":86000000000,"state":"active","ping":68},{"user_id":873,"name":"fish  ●","steam_id":76561198999217575,"connected_time":2960000000000,"state":"active","ping":69},{"user_id":899,"name":"Strangelove","steam_id":76561198353773611,"connected_time":219000000000,"state":"active","ping":88},{"user_id":871,"name":"4 life","steam_id":76561198175961598,"connected_time":3097000000000,"state":"active","ping":113},{"user_id":895,"name":"ACK","steam_id":76561198130390689,"connected_time":721000000000,"state":"active","ping":113},{"user_id":874,"name":"Method Mon Mothma","steam_id":76561197976110189,"connected_time":2587000000000,"state":"active","ping":68},{"user_id":862,"name":"Grand","steam_id":76561198290143399,"connected_time":3604000000000,"state":"active","ping":65},{"user_id":897,"name":"cold","steam_id":76561198027963611,"connected_time":301000000000,"state":"active","ping":81},{"user_id":901,"name":"TOP 10 HEAVIEST BREAKDOWNS 2009","steam_id":76561198097588802,"connected_time":73000000000,"state":"active","ping":50},{"user_id":883,"name":"Trolley","steam_id":76561198106695948,"connected_time":1911000000000,"state":"active","ping":90},{"user_id":902,"name":"Big Puff","steam_id":76561198209820681,"connected_time":44000000000,"state":"active","ping":66},{"user_id":847,"name":"Zechariah","steam_id":76561198119335156,"connected_time":4330000000000,"state":"active","ping":91},{"user_id":866,"name":"Truffles","steam_id":76561198095868800,"connected_time":3153000000000,"state":"active","ping":82},{"user_id":885,"name":"Outta Kenya","steam_id":76561198153604875,"connected_time":1845000000000,"state":"active","ping":83},{"user_id":889,"name":"on that zaza?","steam_id":76561198038713198,"connected_time":1266000000000,"state":"active","ping":70},{"user_id":825,"name":"CherriKat","steam_id":76561198821297512,"connected_time":6510000000000,"state":"active","ping":95}]},{"server_id":106,"name":"Uncletopia | Chicago | 2 | All Maps","name_short":"chi-2","host":"chi-1.us.uncletopia.com","port":27025,"enabled":true,"region":"us-central","cc":"us","latitude":41.881832,"longitude":-87.62318,"reserved":0,"last_update":"0001-01-01T00:00:00Z","name_a2s":"Uncletopia | Chicago | 2 | All Maps","protocol":17,"map":"cp_sunshine","folder":"tf","game":"Team Fortress","app_id":440,"player_count":7,"max_players":24,"Bots":0,"server_type":"Dedicated","server_os":"Linux","password":true,"vac":true,"version":"7961495","steam_id":85568392924469985,"keywords":["cp","nocrits","nodmgspread","uncletopia"],"game_id":440,"stv_port":27026,"stv_name":"Uncletopia | Chicago | 2 | All Maps | STV","players":[{"user_id":983,"name":"Chechens Spotted","steam_id":76561199028910893,"connected_time":2560000000000,"state":"active","ping":80},{"user_id":1002,"name":"Positronic","steam_id":76561197989578828,"connected_time":797000000000,"state":"active","ping":75},{"user_id":995,"name":"TheSmolPopato","steam_id":76561199076606348,"connected_time":1571000000000,"state":"active","ping":55},{"user_id":974,"name":"i suffer from ligma","steam_id":76561199158496518,"connected_time":3032000000000,"state":"active","ping":140},{"user_id":1000,"name":"jazzology","steam_id":76561199153992127,"connected_time":937000000000,"state":"active","ping":70},{"user_id":1007,"name":"Scout","steam_id":76561198997435292,"connected_time":415000000000,"state":"active","ping":63},{"user_id":1008,"name":"bubbyboytoo","steam_id":76561198060080354,"connected_time":371000000000,"state":"active","ping":83}]},{"server_id":402,"name":"Uncletopia | Chicago | 3 | All Maps","name_short":"chi-3","host":"chi-1.us.uncletopia.com","port":27035,"enabled":true,"region":"us-central","cc":"us","latitude":41.881832,"longitude":-87.62318,"reserved":0,"last_update":"0001-01-01T00:00:00Z","name_a2s":"Uncletopia | Chicago | 3 | All Maps","protocol":17,"map":"pl_badwater","folder":"tf","game":"Team Fortress","app_id":440,"player_count":23,"max_players":24,"Bots":0,"server_type":"Dedicated","server_os":"Linux","password":true,"vac":true,"version":"7961495","steam_id":85568392924515191,"keywords":["nocrits","nodmgspread","payload","uncletopia"],"game_id":440,"stv_port":27036,"stv_name":"Uncletopia | Chicago | 3 | All Maps | STV","players":[{"user_id":650,"name":"Walpinsta","steam_id":76561198394882349,"connected_time":1292000000000,"state":"active","ping":64},{"user_id":628,"name":"Creepymasta","steam_id":76561198392924309,"connected_time":2547000000000,"state":"active","ping":50},{"user_id":666,"name":"TheRealFakeNick","steam_id":76561198097588788,"connected_time":144000000000,"state":"active","ping":81},{"user_id":660,"name":"house neko","steam_id":76561198025288832,"connected_time":829000000000,"state":"active","ping":82},{"user_id":633,"name":"Osteo-Oligarch","steam_id":76561198164731896,"connected_time":2282000000000,"state":"active","ping":76},{"user_id":667,"name":"afroadam","steam_id":76561197993377919,"connected_time":115000000000,"state":"active","ping":57},{"user_id":669,"name":"badboy6996","steam_id":76561197969386201,"connected_time":9000000000,"state":"active","ping":65},{"user_id":636,"name":"Gangrene","steam_id":76561198093362668,"connected_time":2176000000000,"state":"active","ping":83},{"user_id":658,"name":"PiolaCat","steam_id":76561199100535345,"connected_time":966000000000,"state":"active","ping":130},{"user_id":605,"name":"Melly","steam_id":76561198045867175,"connected_time":4586000000000,"state":"active","ping":93},{"user_id":635,"name":"Rhino Beetle","steam_id":76561198830083719,"connected_time":2224000000000,"state":"active","ping":85},{"user_id":652,"name":"Tyjutsu","steam_id":76561198079951159,"connected_time":1241000000000,"state":"active","ping":91},{"user_id":643,"name":"magicmellen","steam_id":76561199210337711,"connected_time":1744000000000,"state":"active","ping":113},{"user_id":647,"name":"Wigl","steam_id":76561198019324464,"connected_time":1510000000000,"state":"active","ping":64},{"user_id":638,"name":"Ganey","steam_id":76561197992841689,"connected_time":2096000000000,"state":"active","ping":69},{"user_id":663,"name":"bee","steam_id":76561198178015361,"connected_time":513000000000,"state":"active","ping":55},{"user_id":591,"name":"Gram Tokers Count Doinkula","steam_id":76561198112811565,"connected_time":5565000000000,"state":"active","ping":74},{"user_id":662,"name":"ii_BlooMoon","steam_id":76561199100597391,"connected_time":771000000000,"state":"active","ping":108},{"user_id":654,"name":"Panda","steam_id":76561198397291137,"connected_time":1202000000000,"state":"active","ping":68},{"user_id":668,"name":"EdgyEdgar","steam_id":76561198332375219,"connected_time":108000000000,"state":"active","ping":116},{"user_id":665,"name":"LVL","steam_id":76561198334403617,"connected_time":192000000000,"state":"active","ping":58},{"user_id":597,"name":"He Who Dared Say \"SuS\"","steam_id":76561198123441203,"connected_time":5354000000000,"state":"active","ping":57},{"user_id":657,"name":"Overture","steam_id":76561198364564873,"connected_time":996000000000,"state":"active","ping":98}]},{"server_id":403,"name":"Uncletopia | Chicago | 4 | All Maps","name_short":"chi-4","host":"chi-1.us.uncletopia.com","port":27045,"enabled":true,"region":"us-central","cc":"us","latitude":41.881832,"longitude":-87.62318,"reserved":0,"last_update":"0001-01-01T00:00:00Z","name_a2s":"Uncletopia | Chicago | 4 | All Maps","protocol":17,"map":"cp_dustbowl","folder":"tf","game":"Team Fortress","app_id":440,"player_count":24,"max_players":24,"Bots":0,"server_type":"Dedicated","server_os":"Linux","password":true,"vac":true,"version":"7961495","steam_id":85568392924515193,"keywords":["cp","nocrits","nodmgspread","uncletopia"],"game_id":440,"stv_port":27046,"stv_name":"Uncletopia | Chicago | 4 | All Maps | STV","players":[{"user_id":441,"name":"wcclark","steam_id":76561198001607116,"connected_time":1273000000000,"state":"active","ping":89},{"user_id":466,"name":"Bratprince","steam_id":76561197981776978,"connected_time":591000000000,"state":"active","ping":169},{"user_id":326,"name":"Noise from pizzatower","steam_id":76561198835144780,"connected_time":10347000000000,"state":"active","ping":70},{"user_id":470,"name":"Lawnmower","steam_id":76561198186680197,"connected_time":302000000000,"state":"active","ping":86},{"user_id":404,"name":"Chilis 2 for 20","steam_id":76561198121544531,"connected_time":3365000000000,"state":"active","ping":77},{"user_id":468,"name":"☮","steam_id":76561198417999443,"connected_time":381000000000,"state":"active","ping":179},{"user_id":408,"name":"AlwaysSmile","steam_id":76561198293385134,"connected_time":3323000000000,"state":"active","ping":74},{"user_id":423,"name":"stealthSNiperX3","steam_id":76561198113648843,"connected_time":2382000000000,"state":"active","ping":74},{"user_id":428,"name":"+03e","steam_id":76561198147970180,"connected_time":1758000000000,"state":"active","ping":50},{"user_id":464,"name":"BLAST!","steam_id":76561198235875882,"connected_time":649000000000,"state":"active","ping":72},{"user_id":447,"name":"Cy4nideCutie","steam_id":76561198126686695,"connected_time":1048000000000,"state":"active","ping":53},{"user_id":448,"name":"Tosh","steam_id":76561198026948976,"connected_time":973000000000,"state":"active","ping":93},{"user_id":389,"name":"Seal","steam_id":76561198043985619,"connected_time":4697000000000,"state":"active","ping":83},{"user_id":471,"name":"Engie-Deer","steam_id":76561198817620456,"connected_time":208000000000,"state":"active","ping":79},{"user_id":451,"name":"A Big Rat","steam_id":76561197990853987,"connected_time":934000000000,"state":"active","ping":64},{"user_id":343,"name":"Digresser","steam_id":76561198016426367,"connected_time":8701000000000,"state":"active","ping":54},{"user_id":434,"name":"EpicNGamerz","steam_id":76561198304292582,"connected_time":1583000000000,"state":"active","ping":126},{"user_id":435,"name":"linklol262","steam_id":76561198305620134,"connected_time":1548000000000,"state":"active","ping":67},{"user_id":386,"name":"ADRIEN BRODY","steam_id":76561198009299473,"connected_time":4927000000000,"state":"active","ping":71},{"user_id":452,"name":"Dr. Pleasant","steam_id":76561198111945101,"connected_time":895000000000,"state":"active","ping":70},{"user_id":453,"name":"SchwiftyGrandpa","steam_id":76561198141185800,"connected_time":887000000000,"state":"active","ping":104},{"user_id":467,"name":"Guts","steam_id":76561198244702428,"connected_time":552000000000,"state":"active","ping":59},{"user_id":421,"name":"drwwby","steam_id":76561198067741339,"connected_time":2447000000000,"state":"active","ping":58},{"user_id":472,"name":"Goose","steam_id":76561198084166129,"connected_time":133000000000,"state":"active","ping":69}]},{"server_id":36,"name":"Uncletopia | Chicago | 5 | All Maps","name_short":"chi-5","host":"chi-2.us.uncletopia.com","port":27015,"enabled":true,"region":"us-central","cc":"us","latitude":41.881832,"longitude":-87.62318,"reserved":0,"last_update":"0001-01-01T00:00:00Z","name_a2s":"Uncletopia | Chicago | 5 | All Maps","protocol":17,"map":"pl_borneo","folder":"tf","game":"Team Fortress","app_id":440,"player_count":18,"max_players":24,"Bots":0,"server_type":"Dedicated","server_os":"Linux","password":true,"vac":true,"version":"7961495","steam_id":85568392924866362,"keywords":["nocrits","nodmgspread","payload","uncletopia"],"game_id":440,"stv_port":27016,"stv_name":"Uncletopia | Chicago | 5 | All Maps | STV","players":[{"user_id":298,"name":"thecal","steam_id":76561198307893384,"connected_time":2066000000000,"state":"active","ping":48},{"user_id":323,"name":"raduski","steam_id":76561198795699119,"connected_time":83000000000,"state":"active","ping":82},{"user_id":320,"name":"Natsuki the Scunt","steam_id":76561199175922684,"connected_time":308000000000,"state":"active","ping":85},{"user_id":310,"name":"Cervidé","steam_id":76561198098579497,"connected_time":999000000000,"state":"active","ping":76},{"user_id":324,"name":"ignoble","steam_id":76561198040084437,"connected_time":16000000000,"state":"active","ping":44},{"user_id":299,"name":"Liquid Oxycodone","steam_id":76561198154162664,"connected_time":2064000000000,"state":"active","ping":67},{"user_id":303,"name":"feed chakra","steam_id":76561198105065307,"connected_time":1892000000000,"state":"active","ping":51},{"user_id":309,"name":"Kng","steam_id":76561198993248203,"connected_time":1297000000000,"state":"active","ping":79},{"user_id":322,"name":"K3ny","steam_id":76561198007754923,"connected_time":151000000000,"state":"active","ping":88},{"user_id":300,"name":"kimchy101","steam_id":76561198202721584,"connected_time":2013000000000,"state":"active","ping":59},{"user_id":301,"name":"November","steam_id":76561198131631865,"connected_time":1989000000000,"state":"active","ping":81},{"user_id":285,"name":"The Real Steve","steam_id":76561198109945719,"connected_time":2399000000000,"state":"active","ping":83},{"user_id":288,"name":"MoreRaptor360","steam_id":76561198318219638,"connected_time":2327000000000,"state":"active","ping":114},{"user_id":319,"name":"Torensz64(But weezer)","steam_id":76561198239036482,"connected_time":365000000000,"state":"active","ping":54},{"user_id":304,"name":"enhanced with disney's FastPlay","steam_id":76561198164134387,"connected_time":1834000000000,"state":"active","ping":111},{"user_id":272,"name":"girl that stinks good","steam_id":76561198119447801,"connected_time":3891000000000,"state":"active","ping":151},{"user_id":316,"name":"raya","steam_id":76561198051504581,"connected_time":622000000000,"state":"active","ping":63},{"user_id":311,"name":"genius of love","steam_id":76561198282764599,"connected_time":963000000000,"state":"active","ping":45}]},{"server_id":37,"name":"Uncletopia | Chicago | 6 | All Maps","name_short":"chi-6","host":"chi-2.us.uncletopia.com","port":27025,"enabled":true,"region":"us-central","cc":"us","latitude":41.881832,"longitude":-87.62318,"reserved":0,"last_update":"0001-01-01T00:00:00Z","name_a2s":"Uncletopia | Chicago | 6 | All Maps","protocol":17,"map":"pl_barnblitz","folder":"tf","game":"Team Fortress","app_id":440,"player_count":22,"max_players":24,"Bots":0,"server_type":"Dedicated","server_os":"Linux","password":true,"vac":true,"version":"7961495","steam_id":85568392924866363,"keywords":["nocrits","nodmgspread","payload","uncletopia"],"game_id":440,"stv_port":27026,"stv_name":"Uncletopia | Chicago | 6 | All Maps | STV","players":[{"user_id":710,"name":"Sac","steam_id":76561198971736420,"connected_time":414000000000,"state":"active","ping":137},{"user_id":716,"name":"Nekrotic","steam_id":76561198309465586,"connected_time":89000000000,"state":"active","ping":84},{"user_id":657,"name":"GIGAHAXX","steam_id":76561197993714726,"connected_time":4805000000000,"state":"active","ping":70},{"user_id":707,"name":"majo","steam_id":76561199443511982,"connected_time":639000000000,"state":"active","ping":45},{"user_id":654,"name":"Vladimir Chirgin","steam_id":76561198170035235,"connected_time":4857000000000,"state":"active","ping":44},{"user_id":712,"name":"Tommy Pickles (Very Cool)","steam_id":76561198391261463,"connected_time":251000000000,"state":"active","ping":67},{"user_id":658,"name":"SquidDaddy","steam_id":76561198096744808,"connected_time":4799000000000,"state":"active","ping":84},{"user_id":692,"name":"Darkmaen","steam_id":76561198060543390,"connected_time":1653000000000,"state":"active","ping":144},{"user_id":655,"name":"Dr. Sex","steam_id":76561198110144123,"connected_time":4850000000000,"state":"active","ping":53},{"user_id":714,"name":"Engideer","steam_id":76561198145733164,"connected_time":185000000000,"state":"active","ping":75},{"user_id":701,"name":"Mufalito","steam_id":76561198951889482,"connected_time":966000000000,"state":"active","ping":147},{"user_id":688,"name":"Nica's Dream","steam_id":76561198028617381,"connected_time":1882000000000,"state":"active","ping":67},{"user_id":717,"name":"Atlas","steam_id":76561198127975050,"connected_time":77000000000,"state":"active","ping":78},{"user_id":645,"name":"zpalmtree","steam_id":76561198134307620,"connected_time":5581000000000,"state":"active","ping":73},{"user_id":677,"name":"Alcohol Hominid","steam_id":76561198320313950,"connected_time":3084000000000,"state":"active","ping":94},{"user_id":663,"name":"Floor chicken nugget","steam_id":76561198840484105,"connected_time":4731000000000,"state":"active","ping":73},{"user_id":693,"name":"Catsontrains","steam_id":76561198066686704,"connected_time":1601000000000,"state":"active","ping":60},{"user_id":715,"name":"knäskål","steam_id":76561198128209264,"connected_time":160000000000,"state":"active","ping":141},{"user_id":687,"name":"Eloi","steam_id":76561198081193565,"connected_time":2202000000000,"state":"active","ping":87},{"user_id":708,"name":":D","steam_id":76561198049258493,"connected_time":611000000000,"state":"active","ping":121},{"user_id":671,"name":"sex denier","steam_id":76561198069407799,"connected_time":3743000000000,"state":"active","ping":75},{"user_id":695,"name":"Raynesko.Yung.Vitamix.Baklava.G","steam_id":76561198044113229,"connected_time":1574000000000,"state":"active","ping":71}]},{"server_id":38,"name":"Uncletopia | Chicago | 7 | Stopwatch","name_short":"chi-7","host":"chi-2.us.uncletopia.com","port":27035,"enabled":true,"region":"us-central","cc":"us","latitude":41.881832,"longitude":-87.62318,"reserved":0,"last_update":"0001-01-01T00:00:00Z","name_a2s":"Uncletopia | Chicago | 7 | Stopwatch","protocol":17,"map":"workshop/cp_reckoner_rc6.ugc674719999","folder":"tf","game":"Team Fortress","app_id":440,"player_count":0,"max_players":24,"Bots":0,"server_type":"Dedicated","server_os":"Linux","password":true,"vac":true,"version":"7961495","steam_id":85568392924866364,"keywords":["cp","nocrits","nodmgspread","uncletopia"],"game_id":440,"stv_port":27036,"stv_name":"Uncletopia | Chicago | 7 | Stopwatch | STV","players":null},{"server_id":39,"name":"Uncletopia | Chicago | 8 | Community","name_short":"chi-8","host":"chi-2.us.uncletopia.com","port":27045,"enabled":true,"region":"us-central","cc":"us","latitude":41.881832,"longitude":-87.62318,"reserved":0,"last_update":"0001-01-01T00:00:00Z","name_a2s":"Uncletopia | Chicago | 8 | Community","protocol":17,"map":"workshop/koth_slaughter_rc1.ugc1712845210","folder":"tf","game":"Team Fortress","app_id":440,"player_count":23,"max_players":24,"Bots":0,"server_type":"Dedicated","server_os":"Linux","password":true,"vac":true,"version":"7961495","steam_id":85568392924866365,"keywords":["cp","nocrits","nodmgspread","uncletopia"],"game_id":440,"stv_port":27046,"stv_name":"Uncletopia | Chicago | 8 | Community | STV","players":[{"user_id":207,"name":"roddy ricch - ballin","steam_id":76561198111290441,"connected_time":43000000000,"state":"active","ping":59},{"user_id":154,"name":"Cute and Funny","steam_id":76561198109885889,"connected_time":4213000000000,"state":"active","ping":91},{"user_id":198,"name":"Cheetose Intolerant","steam_id":76561198013399809,"connected_time":1023000000000,"state":"active","ping":83},{"user_id":124,"name":"stiGGy","steam_id":76561198049311931,"connected_time":6446000000000,"state":"active","ping":75},{"user_id":194,"name":"samb0","steam_id":76561198055876337,"connected_time":1393000000000,"state":"active","ping":81},{"user_id":159,"name":"Ⓑ⓪⓪ⓣⓨⓒⓐⓚⓔⓢ","steam_id":76561198088776421,"connected_time":3614000000000,"state":"active","ping":61},{"user_id":156,"name":"woohooren","steam_id":76561198101840527,"connected_time":3844000000000,"state":"active","ping":105},{"user_id":150,"name":"Azazellotl","steam_id":76561198824814392,"connected_time":4824000000000,"state":"active","ping":91},{"user_id":127,"name":"Jo-Bro","steam_id":76561198179902529,"connected_time":6398000000000,"state":"active","ping":62},{"user_id":195,"name":"[BU773T\u003e","steam_id":76561197991671942,"connected_time":1382000000000,"state":"active","ping":94},{"user_id":199,"name":"aqua","steam_id":76561199407709552,"connected_time":903000000000,"state":"active","ping":60},{"user_id":180,"name":"squish","steam_id":76561198147833204,"connected_time":2511000000000,"state":"active","ping":105},{"user_id":168,"name":"Monte","steam_id":76561198173275715,"connected_time":3186000000000,"state":"active","ping":113},{"user_id":196,"name":"Booty Woyer","steam_id":76561198168852050,"connected_time":1375000000000,"state":"active","ping":80},{"user_id":204,"name":"cilo","steam_id":76561198046163502,"connected_time":464000000000,"state":"active","ping":74},{"user_id":178,"name":"Danmar33","steam_id":76561198056453091,"connected_time":2574000000000,"state":"active","ping":54},{"user_id":179,"name":"Induce Salt","steam_id":76561198116645978,"connected_time":2570000000000,"state":"active","ping":58},{"user_id":182,"name":"LayinPipe","steam_id":76561198042801748,"connected_time":2506000000000,"state":"active","ping":106},{"user_id":201,"name":"Rodrick Knee","steam_id":76561198283021062,"connected_time":759000000000,"state":"active","ping":89},{"user_id":183,"name":"rustyfloofs","steam_id":76561199241064467,"connected_time":2503000000000,"state":"active","ping":74},{"user_id":184,"name":"Chunk","steam_id":76561198204275251,"connected_time":2500000000000,"state":"active","ping":78},{"user_id":202,"name":"yamme","steam_id":76561198117849124,"connected_time":686000000000,"state":"active","ping":114},{"user_id":206,"name":"BUFF THE SCORCH SHOT","steam_id":76561198042899484,"connected_time":311000000000,"state":"active","ping":75}]},{"server_id":8,"name":"Uncletopia | Dallas | 1 | All Maps","name_short":"dal-1","host":"dal-1.us.uncletopia.com","port":27015,"enabled":true,"region":"us-central","cc":"us","latitude":32.779167,"longitude":-96.80889,"reserved":0,"last_update":"0001-01-01T00:00:00Z","name_a2s":"Uncletopia | Dallas | 1 | All Maps","protocol":17,"map":"cp_snakewater_final1","folder":"tf","game":"Team Fortress","app_id":440,"player_count":24,"max_players":24,"Bots":0,"server_type":"Dedicated","server_os":"Linux","password":true,"vac":true,"version":"7961495","steam_id":85568392924469986,"keywords":["cp","nocrits","nodmgspread","uncletopia"],"game_id":440,"stv_port":27016,"stv_name":"Uncletopia | Dallas | 1 | All Maps | STV","players":[{"user_id":694,"name":"meggie","steam_id":76561198038291026,"connected_time":9000000000,"state":"active","ping":79},{"user_id":687,"name":"Kalir","steam_id":76561197996125658,"connected_time":464000000000,"state":"active","ping":74},{"user_id":669,"name":"spiderslash","steam_id":76561198043787070,"connected_time":1274000000000,"state":"active","ping":92},{"user_id":690,"name":"sapphoroth","steam_id":76561198062263639,"connected_time":170000000000,"state":"active","ping":50},{"user_id":620,"name":"lamadre07","steam_id":76561198067337453,"connected_time":4900000000000,"state":"active","ping":72},{"user_id":682,"name":"bombs away!","steam_id":76561198140305247,"connected_time":820000000000,"state":"active","ping":99},{"user_id":671,"name":"Panfried","steam_id":76561198009882074,"connected_time":1230000000000,"state":"active","ping":85},{"user_id":665,"name":"slinky","steam_id":76561198246183704,"connected_time":1599000000000,"state":"active","ping":47},{"user_id":691,"name":"TheScentedCabbage","steam_id":76561198358047003,"connected_time":152000000000,"state":"active","ping":114},{"user_id":692,"name":"1000 Ping","steam_id":76561198098330939,"connected_time":142000000000,"state":"active","ping":98},{"user_id":695,"name":"St. Michael","steam_id":76561198037611052,"connected_time":5000000000,"state":"spawning","ping":254},{"user_id":678,"name":"TheOtherBrush","steam_id":76561199048222977,"connected_time":962000000000,"state":"active","ping":160},{"user_id":681,"name":"Plague Doctor","steam_id":76561198028339405,"connected_time":855000000000,"state":"active","ping":66},{"user_id":679,"name":"Koffy","steam_id":76561198184386039,"connected_time":949000000000,"state":"active","ping":76},{"user_id":610,"name":"ItsCaleB","steam_id":76561198376522348,"connected_time":6137000000000,"state":"active","ping":97},{"user_id":674,"name":"cc","steam_id":76561199215821942,"connected_time":1117000000000,"state":"active","ping":52},{"user_id":683,"name":"pinglefingle","steam_id":76561198216580197,"connected_time":579000000000,"state":"active","ping":79},{"user_id":656,"name":"[BALLS] r30848","steam_id":76561199123984543,"connected_time":1856000000000,"state":"active","ping":49},{"user_id":668,"name":"Boring101","steam_id":76561198300662918,"connected_time":1484000000000,"state":"active","ping":54},{"user_id":630,"name":"Kingboo93","steam_id":76561198330676290,"connected_time":4610000000000,"state":"active","ping":75},{"user_id":675,"name":"pujy","steam_id":76561198126378484,"connected_time":1117000000000,"state":"active","ping":94},{"user_id":676,"name":"MrMind","steam_id":76561199321657653,"connected_time":1113000000000,"state":"active","ping":77},{"user_id":655,"name":"Izzy","steam_id":76561199042250833,"connected_time":1893000000000,"state":"active","ping":47}]},{"server_id":108,"name":"Uncletopia | Dallas | 2 | All Maps","name_short":"dal-2","host":"dal-1.us.uncletopia.com","port":27025,"enabled":true,"region":"us-central","cc":"us","latitude":32.779167,"longitude":-96.80889,"reserved":0,"last_update":"0001-01-01T00:00:00Z","name_a2s":"Uncletopia | Dallas | 2 | All Maps","protocol":17,"map":"pl_barnblitz","folder":"tf","game":"Team Fortress","app_id":440,"player_count":20,"max_players":24,"Bots":0,"server_type":"Dedicated","server_os":"Linux","password":true,"vac":true,"version":"7961495","steam_id":85568392924469988,"keywords":["nocrits","nodmgspread","payload","uncletopia"],"game_id":440,"stv_port":27026,"stv_name":"Uncletopia | Dallas | 2 | All Maps | STV","players":[{"user_id":513,"name":"Zesty Zucchini Ziti","steam_id":76561198092494136,"connected_time":1230000000000,"state":"active","ping":45},{"user_id":507,"name":"Dr. Hashbrown","steam_id":76561198410780370,"connected_time":1489000000000,"state":"active","ping":101},{"user_id":514,"name":"Dynoscord","steam_id":76561199172777455,"connected_time":1205000000000,"state":"active","ping":97},{"user_id":521,"name":"Sapphuchi","steam_id":76561198046706217,"connected_time":941000000000,"state":"active","ping":88},{"user_id":465,"name":"john trevolta","steam_id":76561197998867160,"connected_time":4082000000000,"state":"active","ping":108},{"user_id":493,"name":"MrManlet","steam_id":76561198148597989,"connected_time":1905000000000,"state":"active","ping":121},{"user_id":502,"name":"Hezxp","steam_id":76561198312931111,"connected_time":1819000000000,"state":"active","ping":74},{"user_id":498,"name":"Krow","steam_id":76561198010392099,"connected_time":1857000000000,"state":"active","ping":54},{"user_id":528,"name":"Giovanni573","steam_id":76561198893868040,"connected_time":563000000000,"state":"active","ping":55},{"user_id":525,"name":"Lore","steam_id":76561198098407538,"connected_time":673000000000,"state":"active","ping":74},{"user_id":509,"name":"thumb","steam_id":76561198353762582,"connected_time":1336000000000,"state":"active","ping":87},{"user_id":441,"name":"the master of cats","steam_id":76561198819255576,"connected_time":5568000000000,"state":"active","ping":80},{"user_id":534,"name":"The Notorious Nutter","steam_id":76561198145058709,"connected_time":227000000000,"state":"active","ping":54},{"user_id":535,"name":"somewhat silly","steam_id":76561198010269150,"connected_time":12000000000,"state":"spawning","ping":86},{"user_id":523,"name":"Underscorn","steam_id":76561198374209415,"connected_time":820000000000,"state":"active","ping":59},{"user_id":518,"name":"leaving lunar orbit","steam_id":76561199085974120,"connected_time":1067000000000,"state":"active","ping":93},{"user_id":516,"name":"Not Slavoj Žižek","steam_id":76561198004619616,"connected_time":1171000000000,"state":"active","ping":94},{"user_id":532,"name":"gyat","steam_id":76561198043684960,"connected_time":320000000000,"state":"active","ping":46},{"user_id":511,"name":"OddSlaush","steam_id":76561198043898488,"connected_time":1312000000000,"state":"active","ping":63},{"user_id":533,"name":"selling rice","steam_id":76561198063357023,"connected_time":280000000000,"state":"active","ping":80}]},{"server_id":404,"name":"Uncletopia | Dallas | 3 | All Maps","name_short":"dal-3","host":"dal-1.us.uncletopia.com","port":27035,"enabled":true,"region":"us-central","cc":"us","latitude":32.779167,"longitude":-96.80889,"reserved":0,"last_update":"0001-01-01T00:00:00Z","name_a2s":"Uncletopia | Dallas | 3 | All Maps","protocol":17,"map":"cp_5gorge","folder":"tf","game":"Team Fortress","app_id":440,"player_count":20,"max_players":24,"Bots":0,"server_type":"Dedicated","server_os":"Linux","password":true,"vac":true,"version":"7961495","steam_id":85568392924515219,"keywords":["cp","nocrits","nodmgspread","uncletopia"],"game_id":440,"stv_port":27036,"stv_name":"Uncletopia | Dallas | 3 | All Maps | STV","players":[{"user_id":328,"name":"Tuffcookie34","steam_id":76561198309031637,"connected_time":1890000000000,"state":"active","ping":52},{"user_id":341,"name":"Yongle","steam_id":76561198068591156,"connected_time":155000000000,"state":"active","ping":81},{"user_id":339,"name":"xdab","steam_id":76561198086904171,"connected_time":376000000000,"state":"active","ping":61},{"user_id":321,"name":"FormalCheese","steam_id":76561198068636715,"connected_time":2255000000000,"state":"active","ping":70},{"user_id":331,"name":"Moophin","steam_id":76561198037797703,"connected_time":1233000000000,"state":"active","ping":98},{"user_id":337,"name":"Hugs","steam_id":76561198062726277,"connected_time":624000000000,"state":"active","ping":79},{"user_id":289,"name":"Motivational Man","steam_id":76561198414889101,"connected_time":5188000000000,"state":"active","ping":88},{"user_id":290,"name":"Argon","steam_id":76561199254804349,"connected_time":5170000000000,"state":"active","ping":82},{"user_id":336,"name":"I miss her \u003c/3","steam_id":76561198359141023,"connected_time":745000000000,"state":"active","ping":59},{"user_id":323,"name":"NormalManPerson","steam_id":76561198007436312,"connected_time":2133000000000,"state":"active","ping":105},{"user_id":324,"name":"elisps09","steam_id":76561198985149569,"connected_time":2125000000000,"state":"active","ping":103},{"user_id":325,"name":"-L","steam_id":76561198046074220,"connected_time":2064000000000,"state":"active","ping":61},{"user_id":329,"name":"adam0o0","steam_id":76561198052250279,"connected_time":1875000000000,"state":"active","ping":71},{"user_id":340,"name":"You're not a genius","steam_id":76561198176786799,"connected_time":189000000000,"state":"active","ping":54},{"user_id":318,"name":"Goblin Mode","steam_id":76561198064870076,"connected_time":3070000000000,"state":"active","ping":78},{"user_id":170,"name":"Moonflower ✦","steam_id":76561198191782483,"connected_time":13838000000000,"state":"active","ping":49},{"user_id":326,"name":"Commander Snuggles","steam_id":76561198114056767,"connected_time":2058000000000,"state":"active","ping":90},{"user_id":272,"name":"Cebula33","steam_id":76561197984964095,"connected_time":6643000000000,"state":"active","ping":88},{"user_id":330,"name":"PhattyPhlop","steam_id":76561198153349473,"connected_time":1835000000000,"state":"active","ping":70},{"user_id":334,"name":"pump","steam_id":76561198071705442,"connected_time":807000000000,"state":"active","ping":81}]},{"server_id":405,"name":"Uncletopia | Dallas | 4 | Community","name_short":"dal-4","host":"dal-1.us.uncletopia.com","port":27045,"enabled":true,"region":"us-central","cc":"us","latitude":32.779167,"longitude":-96.80889,"reserved":0,"last_update":"0001-01-01T00:00:00Z","name_a2s":"Uncletopia | Dallas | 4 | Community","protocol":17,"map":"workshop/cp_sulfur_rc2.ugc619869471","folder":"tf","game":"Team Fortress","app_id":440,"player_count":0,"max_players":24,"Bots":0,"server_type":"Dedicated","server_os":"Linux","password":true,"vac":true,"version":"7961495","steam_id":85568392924515220,"keywords":["cp","nocrits","nodmgspread","uncletopia"],"game_id":440,"stv_port":27046,"stv_name":"Uncletopia | Dallas | 4 | Community | STV","players":null},{"server_id":5,"name":"Uncletopia | Frankfurt | 1 | All Maps","name_short":"frk-1","host":"frk-1.de.uncletopia.com","port":27015,"enabled":true,"region":"eu","cc":"de","latitude":50.110924,"longitude":8.682127,"reserved":0,"last_update":"0001-01-01T00:00:00Z","name_a2s":"Uncletopia | Frankfurt | 1 | All Maps","protocol":17,"map":"koth_highpass","folder":"tf","game":"Team Fortress","app_id":440,"player_count":0,"max_players":24,"Bots":0,"server_type":"Dedicated","server_os":"Linux","password":true,"vac":true,"version":"7961495","steam_id":85568392924469989,"keywords":["cp","nocrits","nodmgspread","uncletopia"],"game_id":440,"stv_port":27016,"stv_name":"Uncletopia | Frankfurt | 1 | All Maps | STV","players":null},{"server_id":110,"name":"Uncletopia | Frankfurt | 2 | All Maps","name_short":"frk-2","host":"frk-1.de.uncletopia.com","port":27025,"enabled":true,"region":"eu","cc":"de","latitude":50.110924,"longitude":8.682127,"reserved":0,"last_update":"0001-01-01T00:00:00Z","name_a2s":"Uncletopia | Frankfurt | 2 | All Maps","protocol":17,"map":"cp_dustbowl","folder":"tf","game":"Team Fortress","app_id":440,"player_count":0,"max_players":24,"Bots":0,"server_type":"Dedicated","server_os":"Linux","password":true,"vac":true,"version":"7961495","steam_id":85568392924469990,"keywords":["cp","nocrits","nodmgspread","uncletopia"],"game_id":440,"stv_port":27026,"stv_name":"Uncletopia | Frankfurt | 2 | All Maps | STV","players":null},{"server_id":308,"name":"Uncletopia | Frankfurt | 3 | All Maps","name_short":"frk-3","host":"frk-1.de.uncletopia.com","port":27035,"enabled":true,"region":"eu","cc":"de","latitude":50.110924,"longitude":8.682127,"reserved":0,"last_update":"0001-01-01T00:00:00Z","name_a2s":"Uncletopia | Frankfurt | 3 | All Maps","protocol":17,"map":"pl_barnblitz","folder":"tf","game":"Team Fortress","app_id":440,"player_count":0,"max_players":24,"Bots":0,"server_type":"Dedicated","server_os":"Linux","password":true,"vac":true,"version":"7961495","steam_id":85568392924504274,"keywords":["nocrits","nodmgspread","payload","uncletopia"],"game_id":440,"stv_port":27036,"stv_name":"Uncletopia | Frankfurt | 3 | All Maps | STV","players":null},{"server_id":309,"name":"Uncletopia | Frankfurt | 4 | All Maps","name_short":"frk-4","host":"frk-1.de.uncletopia.com","port":27045,"enabled":true,"region":"eu","cc":"de","latitude":50.110924,"longitude":8.682127,"reserved":0,"last_update":"0001-01-01T00:00:00Z","name_a2s":"Uncletopia | Frankfurt | 4 | All Maps","protocol":17,"map":"koth_highpass","folder":"tf","game":"Team Fortress","app_id":440,"player_count":0,"max_players":24,"Bots":0,"server_type":"Dedicated","server_os":"Linux","password":true,"vac":true,"version":"7961495","steam_id":85568392924504275,"keywords":["cp","nocrits","nodmgspread","uncletopia"],"game_id":440,"stv_port":27046,"stv_name":"Uncletopia | Frankfurt | 4 | All Maps | STV","players":null},{"server_id":310,"name":"Uncletopia | Frankfurt | 5 | All Maps","name_short":"frk-5","host":"frk-1.de.uncletopia.com","port":27055,"enabled":true,"region":"eu","cc":"de","latitude":50.110924,"longitude":8.682127,"reserved":0,"last_update":"0001-01-01T00:00:00Z","name_a2s":"Uncletopia | Frankfurt | 5 | All Maps","protocol":17,"map":"pl_badwater","folder":"tf","game":"Team Fortress","app_id":440,"player_count":0,"max_players":24,"Bots":0,"server_type":"Dedicated","server_os":"Linux","password":true,"vac":true,"version":"7961495","steam_id":85568392924504277,"keywords":["nocrits","nodmgspread","payload","uncletopia"],"game_id":440,"stv_port":27056,"stv_name":"Uncletopia | Frankfurt | 5 | All Maps | STV","players":null},{"server_id":311,"name":"Uncletopia | Frankfurt | 6 | All Maps","name_short":"frk-6","host":"frk-1.de.uncletopia.com","port":27065,"enabled":true,"region":"eu","cc":"de","latitude":50.110924,"longitude":8.682127,"reserved":0,"last_update":"0001-01-01T00:00:00Z","name_a2s":"Uncletopia | Frankfurt | 6 | All Maps","protocol":17,"map":"cp_altitude","folder":"tf","game":"Team Fortress","app_id":440,"player_count":0,"max_players":24,"Bots":0,"server_type":"Dedicated","server_os":"Linux","password":true,"vac":true,"version":"7961495","steam_id":85568392924504278,"keywords":["cp","nocrits","nodmgspread","uncletopia"],"game_id":440,"stv_port":27066,"stv_name":"Uncletopia | Frankfurt | 6 | All Maps | STV","players":null},{"server_id":23,"name":"Uncletopia | Frankfurt | 7 | Stopwatch","name_short":"frk-7","host":"frk-1.de.uncletopia.com","port":27075,"enabled":true,"region":"eu","cc":"de","latitude":50.110924,"longitude":8.682127,"reserved":0,"last_update":"0001-01-01T00:00:00Z","name_a2s":"Uncletopia | Frankfurt | 7 | Stopwatch","protocol":17,"map":"pl_frontier_final","folder":"tf","game":"Team Fortress","app_id":440,"player_count":0,"max_players":24,"Bots":0,"server_type":"Dedicated","server_os":"Linux","password":true,"vac":true,"version":"7961495","steam_id":85568392924742827,"keywords":["nocrits","nodmgspread","payload","uncletopia"],"game_id":440,"stv_port":27076,"stv_name":"Uncletopia | Frankfurt | 7 | Stopwatch | STV","players":null},{"server_id":24,"name":"Uncletopia | Frankfurt | 8 | Community","name_short":"frk-8","host":"frk-1.de.uncletopia.com","port":27085,"enabled":true,"region":"eu","cc":"de","latitude":50.110924,"longitude":8.682127,"reserved":0,"last_update":"0001-01-01T00:00:00Z","name_a2s":"Uncletopia | Frankfurt | 8 | Community","protocol":17,"map":"cp_mountainlab","folder":"tf","game":"Team Fortress","app_id":440,"player_count":0,"max_players":24,"Bots":0,"server_type":"Dedicated","server_os":"Linux","password":true,"vac":true,"version":"7961495","steam_id":85568392924742828,"keywords":["cp","nocrits","nodmgspread","uncletopia"],"game_id":440,"stv_port":27086,"stv_name":"Uncletopia | Frankfurt | 8 | Community | STV","players":null},{"server_id":202,"name":"Uncletopia | Hong Kong | 1 | All Maps","name_short":"hgk-1","host":"hgk-1.hk.uncletopia.com","port":27015,"enabled":true,"region":"asia","cc":"hk","latitude":22.302711,"longitude":114.177216,"reserved":0,"last_update":"0001-01-01T00:00:00Z","name_a2s":"Uncletopia | Hong Kong | 1 | All Maps","protocol":17,"map":"pl_badwater","folder":"tf","game":"Team Fortress","app_id":440,"player_count":24,"max_players":24,"Bots":0,"server_type":"Dedicated","server_os":"Linux","password":true,"vac":true,"version":"7961495","steam_id":85568392924494504,"keywords":["nocrits","nodmgspread","payload","uncletopia"],"game_id":440,"stv_port":27016,"stv_name":"Uncletopia | Hong Kong | 1 | All Maps | STV","players":[{"user_id":154,"name":"komaki","steam_id":76561198989168133,"connected_time":1406000000000,"state":"active","ping":89},{"user_id":70,"name":"Talkk More","steam_id":76561198305424433,"connected_time":6544000000000,"state":"active","ping":77},{"user_id":160,"name":"im_0ff","steam_id":76561198339346695,"connected_time":785000000000,"state":"active","ping":121},{"user_id":150,"name":"Kairos","steam_id":76561198079927520,"connected_time":1887000000000,"state":"active","ping":44},{"user_id":143,"name":"앓는보이","steam_id":76561198966838493,"connected_time":2976000000000,"state":"active","ping":86},{"user_id":48,"name":"ZiNX","steam_id":76561198125816569,"connected_time":8276000000000,"state":"active","ping":135},{"user_id":114,"name":"Creaserg","steam_id":76561198827951097,"connected_time":4930000000000,"state":"active","ping":87},{"user_id":52,"name":"sea-saw day","steam_id":76561198230213828,"connected_time":7869000000000,"state":"active","ping":60},{"user_id":156,"name":"Vesha","steam_id":76561199208233146,"connected_time":1275000000000,"state":"active","ping":86},{"user_id":144,"name":"Samoyed","steam_id":76561198299150410,"connected_time":2944000000000,"state":"active","ping":78},{"user_id":161,"name":"MySejahtera","steam_id":76561198331763015,"connected_time":625000000000,"state":"active","ping":102},{"user_id":138,"name":"derek.patriarca30","steam_id":76561199427230206,"connected_time":3383000000000,"state":"active","ping":69},{"user_id":43,"name":"WORST PYRO MAIN EVER???","steam_id":76561198074339034,"connected_time":8511000000000,"state":"active","ping":77},{"user_id":162,"name":"nyakky","steam_id":76561198927779787,"connected_time":562000000000,"state":"active","ping":95},{"user_id":63,"name":"Galaxywee","steam_id":76561198257501357,"connected_time":7215000000000,"state":"active","ping":90},{"user_id":164,"name":"screaming sniper","steam_id":76561199085568674,"connected_time":362000000000,"state":"active","ping":66},{"user_id":145,"name":"dbgusals0314","steam_id":76561199086949950,"connected_time":2942000000000,"state":"active","ping":121},{"user_id":157,"name":"yw","steam_id":76561199382726488,"connected_time":1182000000000,"state":"active","ping":50},{"user_id":121,"name":"Bacon","steam_id":76561198892429990,"connected_time":4543000000000,"state":"active","ping":59},{"user_id":155,"name":"Hanta","steam_id":76561199031390218,"connected_time":1392000000000,"state":"active","ping":172},{"user_id":153,"name":"RAHHHHH!!!!!!!","steam_id":76561198324008555,"connected_time":1420000000000,"state":"active","ping":59},{"user_id":79,"name":"Lu","steam_id":76561198320532821,"connected_time":5960000000000,"state":"active","ping":68},{"user_id":100,"name":"lesonkim2222","steam_id":76561198980570856,"connected_time":5167000000000,"state":"active","ping":89},{"user_id":47,"name":"I GOT A 96 ON MY MATH","steam_id":76561199137927625,"connected_time":8414000000000,"state":"active","ping":100}]},{"server_id":1,"name":"Uncletopia | Los Angeles | 1 | All Maps","name_short":"lax-1","host":"lax-1.us.uncletopia.com","port":27015,"enabled":true,"region":"us-west","cc":"us","latitude":33.94279,"longitude":-118.41004,"reserved":0,"last_update":"0001-01-01T00:00:00Z","name_a2s":"Uncletopia | Los Angeles | 1 | All Maps","protocol":17,"map":"pl_upward","folder":"tf","game":"Team Fortress","app_id":440,"player_count":24,"max_players":24,"Bots":0,"server_type":"Dedicated","server_os":"Linux","password":true,"vac":true,"version":"7961495","steam_id":85568392924469991,"keywords":["nocrits","nodmgspread","payload","uncletopia"],"game_id":440,"stv_port":27016,"stv_name":"Uncletopia | Los Angeles | 1 | All Maps | STV","players":[{"user_id":398,"name":"detsroy lnogely","steam_id":76561198143132686,"connected_time":2227000000000,"state":"active","ping":87},{"user_id":411,"name":"sola venereum","steam_id":76561198368179166,"connected_time":1483000000000,"state":"active","ping":55},{"user_id":416,"name":"An00bis","steam_id":76561198044084508,"connected_time":681000000000,"state":"active","ping":59},{"user_id":394,"name":"MancalaMadMan","steam_id":76561198347324053,"connected_time":2287000000000,"state":"active","ping":98},{"user_id":428,"name":"KickButtNess","steam_id":76561198093986236,"connected_time":247000000000,"state":"active","ping":46},{"user_id":409,"name":"Ratchet55","steam_id":76561198208655521,"connected_time":1557000000000,"state":"active","ping":92},{"user_id":410,"name":"roach","steam_id":76561198354811369,"connected_time":1550000000000,"state":"active","ping":51},{"user_id":421,"name":"goopgrabber","steam_id":76561199029951083,"connected_time":582000000000,"state":"active","ping":57},{"user_id":384,"name":"a_lilypup","steam_id":76561198163640324,"connected_time":2971000000000,"state":"active","ping":55},{"user_id":418,"name":"Livin' Like Larry","steam_id":76561198313360974,"connected_time":639000000000,"state":"active","ping":52},{"user_id":407,"name":"iaPK","steam_id":76561198056618642,"connected_time":1874000000000,"state":"active","ping":73},{"user_id":342,"name":"Skaði","steam_id":76561198063949642,"connected_time":6184000000000,"state":"active","ping":70},{"user_id":367,"name":"Whisper!","steam_id":76561198119609795,"connected_time":4316000000000,"state":"active","ping":53},{"user_id":348,"name":"Apollo","steam_id":76561198162364702,"connected_time":5295000000000,"state":"active","ping":68},{"user_id":390,"name":"PunyHappyFace","steam_id":76561198118059305,"connected_time":2746000000000,"state":"active","ping":46},{"user_id":336,"name":"Higuma","steam_id":76561198375229012,"connected_time":6795000000000,"state":"active","ping":67},{"user_id":415,"name":"Cope","steam_id":76561198105929029,"connected_time":1238000000000,"state":"active","ping":68},{"user_id":427,"name":"qilin","steam_id":76561198072112445,"connected_time":391000000000,"state":"active","ping":77},{"user_id":420,"name":"Enderkill777","steam_id":76561198876915153,"connected_time":628000000000,"state":"active","ping":72},{"user_id":423,"name":"Gallus Domesticus","steam_id":76561198137242703,"connected_time":563000000000,"state":"active","ping":86},{"user_id":424,"name":"mechanicvirus","steam_id":76561198038161480,"connected_time":560000000000,"state":"active","ping":62},{"user_id":397,"name":"Person Man","steam_id":76561198293857963,"connected_time":2276000000000,"state":"active","ping":65},{"user_id":425,"name":"Magoose","steam_id":76561197964357893,"connected_time":508000000000,"state":"active","ping":92},{"user_id":352,"name":"flo rida","steam_id":76561198226169704,"connected_time":4908000000000,"state":"active","ping":53}]},{"server_id":112,"name":"Uncletopia | Los Angeles | 2 | All Maps","name_short":"lax-2","host":"lax-1.us.uncletopia.com","port":27025,"enabled":true,"region":"us-west","cc":"us","latitude":33.94279,"longitude":-118.41004,"reserved":0,"last_update":"0001-01-01T00:00:00Z","name_a2s":"Uncletopia | Los Angeles | 2 | All Maps","protocol":17,"map":"pl_badwater","folder":"tf","game":"Team Fortress","app_id":440,"player_count":24,"max_players":24,"Bots":0,"server_type":"Dedicated","server_os":"Linux","password":true,"vac":true,"version":"7961495","steam_id":85568392924469992,"keywords":["nocrits","nodmgspread","payload","uncletopia"],"game_id":440,"stv_port":27026,"stv_name":"Uncletopia | Los Angeles | 2 | All Maps | STV","players":[{"user_id":145,"name":"00","steam_id":76561198041700636,"connected_time":56000000000,"state":"active","ping":47},{"user_id":128,"name":"Ayayayayayahuasca","steam_id":76561199002906056,"connected_time":1658000000000,"state":"active","ping":73},{"user_id":125,"name":"card carrying member","steam_id":76561198043558709,"connected_time":2249000000000,"state":"active","ping":68},{"user_id":129,"name":"Monkey","steam_id":76561198155272972,"connected_time":1605000000000,"state":"active","ping":93},{"user_id":146,"name":"hart","steam_id":76561198046073848,"connected_time":52000000000,"state":"active","ping":76},{"user_id":99,"name":"NEBULA","steam_id":76561198086878595,"connected_time":3925000000000,"state":"active","ping":74},{"user_id":121,"name":"Mister Maze","steam_id":76561197970949652,"connected_time":2729000000000,"state":"active","ping":88},{"user_id":100,"name":"DragonJimmy","steam_id":76561198272966565,"connected_time":3912000000000,"state":"active","ping":76},{"user_id":144,"name":"delight","steam_id":76561197980280272,"connected_time":257000000000,"state":"active","ping":75},{"user_id":115,"name":"lasky","steam_id":76561198017030029,"connected_time":3008000000000,"state":"active","ping":60},{"user_id":131,"name":"sans undertale","steam_id":76561199128903858,"connected_time":1561000000000,"state":"active","ping":67},{"user_id":135,"name":"Meepster","steam_id":76561198146305159,"connected_time":1436000000000,"state":"active","ping":60},{"user_id":116,"name":"cielael","steam_id":76561198043971956,"connected_time":2976000000000,"state":"active","ping":57},{"user_id":126,"name":"gorlab","steam_id":76561198025089694,"connected_time":2157000000000,"state":"active","ping":110},{"user_id":147,"name":"John Calibur","steam_id":76561197999986606,"connected_time":18000000000,"state":"spawning","ping":46},{"user_id":58,"name":"Poladroid","steam_id":76561198032005291,"connected_time":7142000000000,"state":"active","ping":55},{"user_id":104,"name":"Canned Lobster","steam_id":76561198110847328,"connected_time":3816000000000,"state":"active","ping":60},{"user_id":136,"name":"Travorski","steam_id":76561198072493142,"connected_time":1427000000000,"state":"active","ping":91},{"user_id":139,"name":"fungi","steam_id":76561198169755734,"connected_time":1341000000000,"state":"active","ping":57},{"user_id":111,"name":"Sad Tony","steam_id":76561198053849851,"connected_time":3408000000000,"state":"active","ping":50},{"user_id":138,"name":"rorywashere /ᐠ - ˕ -マ Ⳋ","steam_id":76561198065825165,"connected_time":1388000000000,"state":"active","ping":92},{"user_id":106,"name":"Nate","steam_id":76561198045186954,"connected_time":3805000000000,"state":"active","ping":47},{"user_id":90,"name":"tie dye die guy","steam_id":76561198049845337,"connected_time":4617000000000,"state":"active","ping":63},{"user_id":143,"name":"Anthid","steam_id":76561198074493797,"connected_time":400000000000,"state":"active","ping":67}]},{"server_id":324,"name":"Uncletopia | Los Angeles | 3 | All Maps","name_short":"lax-3","host":"lax-1.us.uncletopia.com","port":27035,"enabled":true,"region":"us-west","cc":"us","latitude":33.94279,"longitude":-118.41004,"reserved":0,"last_update":"0001-01-01T00:00:00Z","name_a2s":"Uncletopia | Los Angeles | 3 | All Maps","protocol":17,"map":"cp_mountainlab","folder":"tf","game":"Team Fortress","app_id":440,"player_count":24,"max_players":24,"Bots":0,"server_type":"Dedicated","server_os":"Linux","password":true,"vac":true,"version":"7961495","steam_id":85568392924510198,"keywords":["cp","nocrits","nodmgspread","uncletopia"],"game_id":440,"stv_port":27036,"stv_name":"Uncletopia | Los Angeles | 3 | All Maps | STV","players":[{"user_id":384,"name":"greens beans","steam_id":76561198153611491,"connected_time":11673000000000,"state":"active","ping":68},{"user_id":509,"name":"conmaros45","steam_id":76561199492995447,"connected_time":1107000000000,"state":"active","ping":166},{"user_id":508,"name":"Junk Synchron","steam_id":76561198329478764,"connected_time":1138000000000,"state":"active","ping":55},{"user_id":503,"name":"bubbles","steam_id":76561198040940902,"connected_time":1570000000000,"state":"active","ping":45},{"user_id":523,"name":"exx","steam_id":76561198090552145,"connected_time":150000000000,"state":"active","ping":46},{"user_id":483,"name":"sierra","steam_id":76561197969873415,"connected_time":2984000000000,"state":"active","ping":147},{"user_id":494,"name":"Thunder","steam_id":76561198097721532,"connected_time":2150000000000,"state":"active","ping":49},{"user_id":469,"name":"CaiGaming","steam_id":76561198313023508,"connected_time":4921000000000,"state":"active","ping":65},{"user_id":481,"name":"TüCold","steam_id":76561198111278197,"connected_time":3248000000000,"state":"active","ping":60},{"user_id":517,"name":"Loogus","steam_id":76561198811561721,"connected_time":289000000000,"state":"active","ping":60},{"user_id":519,"name":"Maxmind24","steam_id":76561198859888778,"connected_time":257000000000,"state":"active","ping":92},{"user_id":505,"name":"AtomSQRRL","steam_id":76561199151951364,"connected_time":1171000000000,"state":"active","ping":51},{"user_id":497,"name":"Professional Virgin","steam_id":76561199074327402,"connected_time":1939000000000,"state":"active","ping":112},{"user_id":405,"name":"Karg","steam_id":76561198091387866,"connected_time":10450000000000,"state":"active","ping":63},{"user_id":515,"name":"IsThatAJoJoReference","steam_id":76561198835513424,"connected_time":327000000000,"state":"active","ping":72},{"user_id":492,"name":"joeyyfan2011","steam_id":76561199014715203,"connected_time":2391000000000,"state":"active","ping":54},{"user_id":524,"name":"zeltwood","steam_id":76561198982593544,"connected_time":116000000000,"state":"active","ping":72},{"user_id":395,"name":"mine diam","steam_id":76561198119123981,"connected_time":11149000000000,"state":"active","ping":67},{"user_id":500,"name":"JohnnyGitGud","steam_id":76561198401455467,"connected_time":1817000000000,"state":"active","ping":56},{"user_id":522,"name":"chanoc","steam_id":76561198026734746,"connected_time":212000000000,"state":"active","ping":54},{"user_id":525,"name":"cutesness.overload_\u003ew\u003c","steam_id":76561198338739253,"connected_time":104000000000,"state":"active","ping":59},{"user_id":485,"name":"kwetzal","steam_id":76561198845749671,"connected_time":2758000000000,"state":"active","ping":68},{"user_id":489,"name":"BreadnDip","steam_id":76561198362635423,"connected_time":2466000000000,"state":"active","ping":74},{"user_id":507,"name":"soltuno","steam_id":76561198074430565,"connected_time":1158000000000,"state":"active","ping":64}]},{"server_id":25,"name":"Uncletopia | Los Angeles | 4 | Stopwatch","name_short":"lax-4","host":"lax-1.us.uncletopia.com","port":27045,"enabled":true,"region":"us-west","cc":"us","latitude":33.94279,"longitude":-118.41004,"reserved":0,"last_update":"0001-01-01T00:00:00Z","name_a2s":"Uncletopia | Los Angeles | 4 | Stopwatch","protocol":17,"map":"workshop/pl_vigil_rc10.ugc1266210012","folder":"tf","game":"Team Fortress","app_id":440,"player_count":20,"max_players":24,"Bots":0,"server_type":"Dedicated","server_os":"Linux","password":true,"vac":true,"version":"7961495","steam_id":85568392924510199,"keywords":["nocrits","nodmgspread","payload","uncletopia"],"game_id":440,"stv_port":27046,"stv_name":"Uncletopia | Los Angeles | 4 | Stopwatch | STV","players":[{"user_id":180,"name":"Schnitz","steam_id":76561198265484253,"connected_time":5628000000000,"state":"active","ping":59},{"user_id":249,"name":"Tendesius","steam_id":76561198057349433,"connected_time":119000000000,"state":"active","ping":59},{"user_id":177,"name":"StrayGuitarist","steam_id":76561198091315714,"connected_time":5751000000000,"state":"active","ping":58},{"user_id":241,"name":"ĐïɐȐɹɦɆa","steam_id":76561198981411945,"connected_time":489000000000,"state":"active","ping":44},{"user_id":201,"name":"Alf Creepypasta","steam_id":76561198841844093,"connected_time":3215000000000,"state":"active","ping":46},{"user_id":186,"name":"SQbuilder","steam_id":76561198076473375,"connected_time":4445000000000,"state":"active","ping":39},{"user_id":187,"name":"homewurk","steam_id":76561199080327081,"connected_time":4204000000000,"state":"active","ping":74},{"user_id":242,"name":"azureglxy","steam_id":76561198861388315,"connected_time":477000000000,"state":"active","ping":43},{"user_id":250,"name":"CPTforever","steam_id":76561198237767198,"connected_time":69000000000,"state":"active","ping":49},{"user_id":226,"name":"bernadette by iamx reference","steam_id":76561198872605902,"connected_time":1337000000000,"state":"active","ping":51},{"user_id":247,"name":"Wren","steam_id":76561198012067451,"connected_time":357000000000,"state":"active","ping":90},{"user_id":245,"name":"ROME MiG-23MLD","steam_id":76561198236109724,"connected_time":417000000000,"state":"active","ping":45},{"user_id":224,"name":"Mr. Carfox","steam_id":76561198041664428,"connected_time":1407000000000,"state":"active","ping":46},{"user_id":236,"name":"remanedur","steam_id":76561198059459507,"connected_time":643000000000,"state":"active","ping":126},{"user_id":248,"name":"Nitrogen","steam_id":76561198109882761,"connected_time":330000000000,"state":"active","ping":56},{"user_id":228,"name":"Hollow gamer","steam_id":76561198426798913,"connected_time":1285000000000,"state":"active","ping":64},{"user_id":206,"name":"zeel107","steam_id":76561198063892990,"connected_time":2974000000000,"state":"active","ping":82},{"user_id":239,"name":"One Horned Bitch Destroyer","steam_id":76561198045810191,"connected_time":572000000000,"state":"active","ping":74},{"user_id":222,"name":"Fajita Master","steam_id":76561198329150962,"connected_time":1956000000000,"state":"active","ping":102},{"user_id":232,"name":"Dr. Karl, the AUS Science Guy","steam_id":76561198031278747,"connected_time":1149000000000,"state":"active","ping":74}]},{"server_id":11,"name":"Uncletopia | London | 1 | All Maps","name_short":"lon-1","host":"lon-1.uk.uncletopia.com","port":27015,"enabled":true,"region":"eu","cc":"gb","latitude":51.509865,"longitude":-0.118092,"reserved":0,"last_update":"0001-01-01T00:00:00Z","name_a2s":"Uncletopia | London | 1 | All Maps","protocol":17,"map":"koth_highpass","folder":"tf","game":"Team Fortress","app_id":440,"player_count":0,"max_players":24,"Bots":0,"server_type":"Dedicated","server_os":"Linux","password":true,"vac":true,"version":"7961495","steam_id":85568392924367362,"keywords":["cp","nocrits","nodmgspread","uncletopia"],"game_id":440,"stv_port":27016,"stv_name":"Uncletopia | London | 1 | All Maps | STV","players":null},{"server_id":114,"name":"Uncletopia | London | 2 | All Maps","name_short":"lon-2","host":"lon-1.uk.uncletopia.com","port":27025,"enabled":true,"region":"eu","cc":"gb","latitude":51.509865,"longitude":-0.118092,"reserved":0,"last_update":"0001-01-01T00:00:00Z","name_a2s":"Uncletopia | London | 2 | All Maps","protocol":17,"map":"koth_lakeside_final","folder":"tf","game":"Team Fortress","app_id":440,"player_count":0,"max_players":24,"Bots":0,"server_type":"Dedicated","server_os":"Linux","password":true,"vac":true,"version":"7961495","steam_id":85568392924470941,"keywords":["cp","nocrits","nodmgspread","uncletopia"],"game_id":440,"stv_port":27026,"stv_name":"Uncletopia | London | 2 | All Maps | STV","players":null},{"server_id":320,"name":"Uncletopia | London | 3 | All Maps","name_short":"lon-3","host":"lon-1.uk.uncletopia.com","port":27035,"enabled":true,"region":"eu","cc":"gb","latitude":51.509865,"longitude":-0.118092,"reserved":0,"last_update":"0001-01-01T00:00:00Z","name_a2s":"Uncletopia | London | 3 | All Maps","protocol":17,"map":"cp_process_final","folder":"tf","game":"Team Fortress","app_id":440,"player_count":0,"max_players":24,"Bots":0,"server_type":"Dedicated","server_os":"Linux","password":true,"vac":true,"version":"7961495","steam_id":85568392924510192,"keywords":["cp","nocrits","nodmgspread","uncletopia"],"game_id":440,"stv_port":27036,"stv_name":"Uncletopia | London | 3 | All Maps | STV","players":null},{"server_id":321,"name":"Uncletopia | London | 4 | All Maps","name_short":"lon-4","host":"lon-1.uk.uncletopia.com","port":27045,"enabled":true,"region":"eu","cc":"gb","latitude":51.509865,"longitude":-0.118092,"reserved":0,"last_update":"0001-01-01T00:00:00Z","name_a2s":"Uncletopia | London | 4 | All Maps","protocol":17,"map":"koth_cascade","folder":"tf","game":"Team Fortress","app_id":440,"player_count":0,"max_players":24,"Bots":0,"server_type":"Dedicated","server_os":"Linux","password":true,"vac":true,"version":"7961495","steam_id":85568392924510193,"keywords":["cp","nocrits","nodmgspread","uncletopia"],"game_id":440,"stv_port":27046,"stv_name":"Uncletopia | London | 4 | All Maps | STV","players":null},{"server_id":21,"name":"Uncletopia | London | 5 | All Maps","name_short":"lon-5","host":"lon-1.uk.uncletopia.com","port":27055,"enabled":true,"region":"eu","cc":"gb","latitude":51.509865,"longitude":-0.118092,"reserved":0,"last_update":"0001-01-01T00:00:00Z","name_a2s":"Uncletopia | London | 5 | All Maps","protocol":17,"map":"cp_snakewater_final1","folder":"tf","game":"Team Fortress","app_id":440,"player_count":6,"max_players":24,"Bots":0,"server_type":"Dedicated","server_os":"Linux","password":true,"vac":true,"version":"7961495","steam_id":85568392924742829,"keywords":["cp","nocrits","nodmgspread","uncletopia"],"game_id":440,"stv_port":27056,"stv_name":"Uncletopia | London | 5 | All Maps | STV","players":[{"user_id":22,"name":"godzillaturkmen","steam_id":76561198399184483,"connected_time":1136000000000,"state":"active","ping":95},{"user_id":24,"name":"Amandus","steam_id":76561198036281079,"connected_time":877000000000,"state":"active","ping":60},{"user_id":25,"name":"Olaus Maximus","steam_id":76561199008595739,"connected_time":792000000000,"state":"active","ping":84},{"user_id":26,"name":"happy birtday :3","steam_id":76561198086293715,"connected_time":99000000000,"state":"active","ping":66},{"user_id":27,"name":"Gul'dan","steam_id":76561198240466940,"connected_time":34000000000,"state":"spawning","ping":69},{"user_id":9,"name":"ultra lox","steam_id":76561199427318825,"connected_time":3069000000000,"state":"active","ping":326}]},{"server_id":22,"name":"Uncletopia | London | 6 | All Maps","name_short":"lon-6","host":"lon-1.uk.uncletopia.com","port":27065,"enabled":true,"region":"eu","cc":"gb","latitude":51.509865,"longitude":-0.118092,"reserved":0,"last_update":"0001-01-01T00:00:00Z","name_a2s":"Uncletopia | London | 6 | All Maps","protocol":17,"map":"cp_dustbowl","folder":"tf","game":"Team Fortress","app_id":440,"player_count":0,"max_players":24,"Bots":0,"server_type":"Dedicated","server_os":"Linux","password":true,"vac":true,"version":"7961495","steam_id":85568392924742830,"keywords":["cp","nocrits","nodmgspread","uncletopia"],"game_id":440,"stv_port":27066,"stv_name":"Uncletopia | London | 6 | All Maps | STV","players":null},{"server_id":40,"name":"Uncletopia | London | 7 | Stopwatch","name_short":"lon-7","host":"lon-1.uk.uncletopia.com","port":27075,"enabled":true,"region":"eu","cc":"gb","latitude":51.509865,"longitude":-0.118092,"reserved":0,"last_update":"0001-01-01T00:00:00Z","name_a2s":"Uncletopia | London | 7 | Stopwatch","protocol":17,"map":"koth_lakeside_final","folder":"tf","game":"Team Fortress","app_id":440,"player_count":0,"max_players":24,"Bots":0,"server_type":"Dedicated","server_os":"Linux","password":true,"vac":true,"version":"7961495","steam_id":85568392924964314,"keywords":["cp","nocrits","nodmgspread","uncletopia"],"game_id":440,"stv_port":27076,"stv_name":"Uncletopia | London | 7 | Stopwatch | STV","players":null},{"server_id":41,"name":"Uncletopia | London | 8 | Community","name_short":"lon-8","host":"lon-1.uk.uncletopia.com","port":27085,"enabled":true,"region":"eu","cc":"gb","latitude":51.509865,"longitude":-0.118092,"reserved":0,"last_update":"0001-01-01T00:00:00Z","name_a2s":"Uncletopia | London | 8 | Community","protocol":17,"map":"cp_snakewater_final1","folder":"tf","game":"Team Fortress","app_id":440,"player_count":0,"max_players":24,"Bots":0,"server_type":"Dedicated","server_os":"Linux","password":true,"vac":true,"version":"7961495","steam_id":85568392924964315,"keywords":["cp","nocrits","nodmgspread","uncletopia"],"game_id":440,"stv_port":27086,"stv_name":"Uncletopia | London | 8 | Community | STV","players":null},{"server_id":300,"name":"Uncletopia | Montréal | 1 | All Maps","name_short":"mtl-1","host":"mtl-1.ca.uncletopia.com","port":27015,"enabled":true,"region":"us-east","cc":"ca","latitude":45.50889,"longitude":-73.56167,"reserved":0,"last_update":"0001-01-01T00:00:00Z","name_a2s":"","protocol":0,"map":"","folder":"","game":"","app_id":0,"player_count":0,"max_players":0,"Bots":0,"server_type":"","server_os":"","password":false,"vac":false,"version":"","steam_id":0,"keywords":null,"game_id":0,"stv_port":0,"stv_name":"","players":null},{"server_id":301,"name":"Uncletopia | Montréal | 2 | ???","name_short":"mtl-2","host":"mtl-1.ca.uncletopia.com","port":27025,"enabled":true,"region":"us-east","cc":"ca","latitude":45.50889,"longitude":-73.56167,"reserved":0,"last_update":"0001-01-01T00:00:00Z","name_a2s":"","protocol":0,"map":"","folder":"","game":"","app_id":0,"player_count":0,"max_players":0,"Bots":0,"server_type":"","server_os":"","password":false,"vac":false,"version":"","steam_id":0,"keywords":null,"game_id":0,"stv_port":0,"stv_name":"","players":null},{"server_id":13,"name":"Uncletopia | New York City | 1 | All Maps","name_short":"nyc-1","host":"nyc-1.us.uncletopia.com","port":27015,"enabled":true,"region":"us-east","cc":"us","latitude":40.73061,"longitude":-73.93524,"reserved":0,"last_update":"0001-01-01T00:00:00Z","name_a2s":"Uncletopia | New York City | 1 | All Maps","protocol":17,"map":"pl_snowycoast","folder":"tf","game":"Team Fortress","app_id":440,"player_count":20,"max_players":24,"Bots":0,"server_type":"Dedicated","server_os":"Linux","password":true,"vac":true,"version":"7961495","steam_id":85568392924469993,"keywords":["nocrits","nodmgspread","payload","uncletopia"],"game_id":440,"stv_port":27016,"stv_name":"Uncletopia | New York City | 1 | All Maps | STV","players":[{"user_id":615,"name":"Punkin","steam_id":76561198334301755,"connected_time":742000000000,"state":"active","ping":54},{"user_id":558,"name":"Hideo Kojima","steam_id":76561198082582335,"connected_time":6261000000000,"state":"active","ping":54},{"user_id":625,"name":"Wet_Cardboard","steam_id":76561198256733603,"connected_time":378000000000,"state":"active","ping":102},{"user_id":611,"name":"IceCream_axolotl","steam_id":76561199195617432,"connected_time":1711000000000,"state":"active","ping":121},{"user_id":619,"name":"Literally Roxy's Wife Tsuyu","steam_id":76561198175421763,"connected_time":652000000000,"state":"active","ping":75},{"user_id":624,"name":"Gutso","steam_id":76561198089973383,"connected_time":464000000000,"state":"active","ping":151},{"user_id":626,"name":"T0ucan","steam_id":76561198072383460,"connected_time":377000000000,"state":"active","ping":68},{"user_id":616,"name":"0","steam_id":76561198077882008,"connected_time":741000000000,"state":"active","ping":49},{"user_id":628,"name":"=IBM= ChevytoHeavy","steam_id":76561199092049686,"connected_time":194000000000,"state":"active","ping":55},{"user_id":577,"name":"Unk","steam_id":76561198031717617,"connected_time":4661000000000,"state":"active","ping":33},{"user_id":598,"name":"Boo! Boo I Say!","steam_id":76561198272427405,"connected_time":2272000000000,"state":"active","ping":107},{"user_id":623,"name":"MenaCicada","steam_id":76561198886208324,"connected_time":608000000000,"state":"active","ping":56},{"user_id":562,"name":"The Deer Consumer","steam_id":76561198812026312,"connected_time":6073000000000,"state":"active","ping":67},{"user_id":629,"name":"bobbymcbobington","steam_id":76561199089411172,"connected_time":77000000000,"state":"active","ping":121},{"user_id":617,"name":"Relare","steam_id":76561198004059718,"connected_time":740000000000,"state":"active","ping":71},{"user_id":630,"name":"vanta","steam_id":76561198084317504,"connected_time":43000000000,"state":"active","ping":60},{"user_id":612,"name":"concrete_car","steam_id":76561198388207363,"connected_time":1524000000000,"state":"active","ping":70},{"user_id":603,"name":"menk3","steam_id":76561198120888597,"connected_time":1897000000000,"state":"active","ping":57},{"user_id":604,"name":"ImmortalProphet","steam_id":76561198012352477,"connected_time":1806000000000,"state":"active","ping":61},{"user_id":614,"name":"Nordie","steam_id":76561198102297774,"connected_time":752000000000,"state":"active","ping":74}]},{"server_id":14,"name":"Uncletopia | New York City | 2 | All Maps","name_short":"nyc-2","host":"nyc-1.us.uncletopia.com","port":27025,"enabled":true,"region":"us-east","cc":"us","latitude":40.73061,"longitude":-73.93524,"reserved":0,"last_update":"0001-01-01T00:00:00Z","name_a2s":"Uncletopia | New York City | 2 | All Maps","protocol":17,"map":"pl_swiftwater_final1","folder":"tf","game":"Team Fortress","app_id":440,"player_count":3,"max_players":24,"Bots":0,"server_type":"Dedicated","server_os":"Linux","password":true,"vac":true,"version":"7961495","steam_id":85568392924469994,"keywords":["nocrits","nodmgspread","payload","uncletopia"],"game_id":440,"stv_port":27026,"stv_name":"Uncletopia | New York City | 2 | All Maps | STV","players":[{"user_id":752,"name":"Noodlenator10","steam_id":76561198973733862,"connected_time":360000000000,"state":"spawning","ping":275},{"user_id":746,"name":"The Knight","steam_id":76561198055320626,"connected_time":1046000000000,"state":"active","ping":166},{"user_id":753,"name":"gay furry cumflation","steam_id":76561199495570478,"connected_time":327000000000,"state":"spawning","ping":111}]},{"server_id":15,"name":"Uncletopia | New York City | 3 | Stopwatch","name_short":"nyc-3","host":"nyc-1.us.uncletopia.com","port":27035,"enabled":true,"region":"us-east","cc":"us","latitude":40.73061,"longitude":-73.93524,"reserved":0,"last_update":"0001-01-01T00:00:00Z","name_a2s":"Uncletopia | New York City | 3 | Stopwatch","protocol":17,"map":"workshop/koth_ramjam_rc1.ugc459778887","folder":"tf","game":"Team Fortress","app_id":440,"player_count":0,"max_players":24,"Bots":0,"server_type":"Dedicated","server_os":"Linux","password":true,"vac":true,"version":"7961495","steam_id":85568392924742820,"keywords":["cp","nocrits","nodmgspread","uncletopia"],"game_id":440,"stv_port":27036,"stv_name":"Uncletopia | New York City | 3 | Stopwatch | STV","players":null},{"server_id":16,"name":"Uncletopia | New York City | 4 | Community","name_short":"nyc-4","host":"nyc-1.us.uncletopia.com","port":27045,"enabled":true,"region":"us-east","cc":"us","latitude":40.73061,"longitude":-73.93524,"reserved":0,"last_update":"0001-01-01T00:00:00Z","name_a2s":"Uncletopia | New York City | 4 | Community","protocol":17,"map":"workshop/cp_snowbase_b18.ugc2081770490","folder":"tf","game":"Team Fortress","app_id":440,"player_count":0,"max_players":24,"Bots":0,"server_type":"Dedicated","server_os":"Linux","password":true,"vac":true,"version":"7961495","steam_id":85568392924742821,"keywords":["cp","nocrits","nodmgspread","uncletopia"],"game_id":440,"stv_port":27046,"stv_name":"Uncletopia | New York City | 4 | Community | STV","players":null},{"server_id":142,"name":"Uncletopia | São Paulo | 1 | All Maps","name_short":"sao-1","host":"sao-1.br.uncletopia.com","port":27015,"enabled":true,"region":"sa","cc":"br","latitude":-23.533773,"longitude":-46.62529,"reserved":0,"last_update":"0001-01-01T00:00:00Z","name_a2s":"Uncletopia | São Paulo | 1 | All Maps","protocol":17,"map":"koth_lakeside_final","folder":"tf","game":"Team Fortress","app_id":440,"player_count":0,"max_players":24,"Bots":0,"server_type":"Dedicated","server_os":"Linux","password":true,"vac":true,"version":"7961495","steam_id":85568392924469996,"keywords":["cp","nocrits","nodmgspread","uncletopia"],"game_id":440,"stv_port":27016,"stv_name":"Uncletopia | São Paulo | 1 | All Maps | STV","players":null},{"server_id":143,"name":"Uncletopia | São Paulo | 2 | Community","name_short":"sao-2","host":"sao-2.br.uncletopia.com","port":27015,"enabled":true,"region":"sa","cc":"br","latitude":-23.533773,"longitude":-46.62529,"reserved":0,"last_update":"0001-01-01T00:00:00Z","name_a2s":"Uncletopia | São Paulo | 2 | Community","protocol":17,"map":"workshop/koth_bagel_rc6.ugc2514036946","folder":"tf","game":"Team Fortress","app_id":440,"player_count":0,"max_players":24,"Bots":0,"server_type":"Dedicated","server_os":"Linux","password":true,"vac":true,"version":"7961495","steam_id":85568392924485349,"keywords":["cp","nocrits","nodmgspread","uncletopia"],"game_id":440,"stv_port":27016,"stv_name":"Uncletopia | São Paulo | 2 | Community | STV","players":null},{"server_id":7,"name":"Uncletopia | Seattle | 1 | All Maps","name_short":"sea-1","host":"sea-1.us.uncletopia.com","port":27015,"enabled":true,"region":"us-west","cc":"us","latitude":47.608013,"longitude":-122.33517,"reserved":0,"last_update":"0001-01-01T00:00:00Z","name_a2s":"Uncletopia | Seattle | 1 | All Maps","protocol":17,"map":"pl_pier","folder":"tf","game":"Team Fortress","app_id":440,"player_count":0,"max_players":24,"Bots":0,"server_type":"Dedicated","server_os":"Linux","password":false,"vac":true,"version":"7961495","steam_id":85568392924469997,"keywords":["nocrits","nodmgspread","payload","uncletopia"],"game_id":440,"stv_port":27016,"stv_name":"Uncletopia | Seattle | 1 | All Maps | STV","players":null},{"server_id":119,"name":"Uncletopia | Seattle | 2 | All Maps","name_short":"sea-2","host":"sea-1.us.uncletopia.com","port":27025,"enabled":true,"region":"us-west","cc":"us","latitude":47.608013,"longitude":-122.33517,"reserved":0,"last_update":"0001-01-01T00:00:00Z","name_a2s":"Uncletopia | Seattle | 2 | All Maps","protocol":17,"map":"pl_badwater","folder":"tf","game":"Team Fortress","app_id":440,"player_count":0,"max_players":24,"Bots":0,"server_type":"Dedicated","server_os":"Linux","password":false,"vac":true,"version":"7961495","steam_id":85568392924469998,"keywords":["nocrits","nodmgspread","payload","uncletopia"],"game_id":440,"stv_port":27026,"stv_name":"Uncletopia | Seattle | 2 | All Maps | STV","players":null},{"server_id":406,"name":"Uncletopia | Seattle | 3 | Stopwatch","name_short":"sea-3","host":"sea-1.us.uncletopia.com","port":27035,"enabled":true,"region":"us-west","cc":"us","latitude":47.608013,"longitude":-122.33517,"reserved":0,"last_update":"0001-01-01T00:00:00Z","name_a2s":"Uncletopia | Seattle | 3 | Stopwatch","protocol":17,"map":"pl_pier","folder":"tf","game":"Team Fortress","app_id":440,"player_count":0,"max_players":24,"Bots":0,"server_type":"Dedicated","server_os":"Linux","password":false,"vac":true,"version":"7961495","steam_id":85568392924515217,"keywords":["nocrits","nodmgspread","payload","uncletopia"],"game_id":440,"stv_port":27036,"stv_name":"Uncletopia | Seattle | 3 | Stopwatch | STV","players":null},{"server_id":17,"name":"Uncletopia | San Francisco | 1 | All Maps","name_short":"sfo-1","host":"sfo-1.us.uncletopia.com","port":27015,"enabled":true,"region":"us-west","cc":"us","latitude":37.77397,"longitude":-122.4313,"reserved":0,"last_update":"0001-01-01T00:00:00Z","name_a2s":"Uncletopia | San Francisco | 1 | All Maps","protocol":17,"map":"koth_viaduct","folder":"tf","game":"Team Fortress","app_id":440,"player_count":0,"max_players":24,"Bots":0,"server_type":"Dedicated","server_os":"Linux","password":true,"vac":true,"version":"7961495","steam_id":85568392924469999,"keywords":["cp","nocrits","nodmgspread","uncletopia"],"game_id":440,"stv_port":27016,"stv_name":"Uncletopia | San Francisco | 1 | All Maps | STV","players":null},{"server_id":18,"name":"Uncletopia | San Francisco | 2 | All Maps","name_short":"sfo-2","host":"sfo-1.us.uncletopia.com","port":27025,"enabled":true,"region":"us-west","cc":"us","latitude":37.77397,"longitude":-122.4313,"reserved":0,"last_update":"0001-01-01T00:00:00Z","name_a2s":"Uncletopia | San Francisco | 2 | All Maps","protocol":17,"map":"pl_frontier_final","folder":"tf","game":"Team Fortress","app_id":440,"player_count":7,"max_players":24,"Bots":0,"server_type":"Dedicated","server_os":"Linux","password":true,"vac":true,"version":"7961495","steam_id":85568392924470000,"keywords":["nocrits","nodmgspread","payload","uncletopia"],"game_id":440,"stv_port":27026,"stv_name":"Uncletopia | San Francisco | 2 | All Maps | STV","players":[{"user_id":42,"name":"Fork™","steam_id":76561198440233515,"connected_time":7026000000000,"state":"active","ping":128},{"user_id":58,"name":"Delphox Gaming","steam_id":76561199086718862,"connected_time":4438000000000,"state":"active","ping":116},{"user_id":30,"name":"BluCoffee","steam_id":76561198214995967,"connected_time":8824000000000,"state":"active","ping":129},{"user_id":61,"name":"Squids023","steam_id":76561199013031576,"connected_time":3462000000000,"state":"active","ping":69},{"user_id":74,"name":"mrthugpug1732","steam_id":76561198881200768,"connected_time":403000000000,"state":"active","ping":66},{"user_id":72,"name":"Major_Pippy","steam_id":76561198004482878,"connected_time":957000000000,"state":"active","ping":55},{"user_id":73,"name":"RagingRoosevelt","steam_id":76561197985483153,"connected_time":841000000000,"state":"active","ping":59}]},{"server_id":19,"name":"Uncletopia | San Francisco | 3 | Stopwatch","name_short":"sfo-3","host":"sfo-1.us.uncletopia.com","port":27035,"enabled":true,"region":"us-west","cc":"us","latitude":37.77397,"longitude":-122.4313,"reserved":0,"last_update":"0001-01-01T00:00:00Z","name_a2s":"Uncletopia | San Francisco | 3 | Stopwatch","protocol":17,"map":"pl_swiftwater_final1","folder":"tf","game":"Team Fortress","app_id":440,"player_count":0,"max_players":24,"Bots":0,"server_type":"Dedicated","server_os":"Linux","password":true,"vac":true,"version":"7961495","steam_id":85568392924742824,"keywords":["nocrits","nodmgspread","payload","uncletopia"],"game_id":440,"stv_port":27036,"stv_name":"Uncletopia | San Francisco | 3 | Stopwatch | STV","players":null},{"server_id":20,"name":"Uncletopia | San Francisco | 4 | Community","name_short":"sfo-4","host":"sfo-1.us.uncletopia.com","port":27045,"enabled":true,"region":"us-west","cc":"us","latitude":37.77397,"longitude":-122.4313,"reserved":0,"last_update":"0001-01-01T00:00:00Z","name_a2s":"Uncletopia | San Francisco | 4 | Community","protocol":17,"map":"workshop/pl_highwood_b13.ugc1769496557","folder":"tf","game":"Team Fortress","app_id":440,"player_count":2,"max_players":24,"Bots":0,"server_type":"Dedicated","server_os":"Linux","password":true,"vac":true,"version":"7961495","steam_id":85568392924742826,"keywords":["nocrits","nodmgspread","payload","uncletopia"],"game_id":440,"stv_port":27046,"stv_name":"Uncletopia | San Francisco | 4 | Community | STV","players":[{"user_id":18,"name":"Harry Rage!!","steam_id":76561198873895549,"connected_time":355000000000,"state":"active","ping":65},{"user_id":19,"name":"tomandjerry085","steam_id":76561198800789071,"connected_time":321000000000,"state":"active","ping":50}]},{"server_id":141,"name":"Uncletopia | Sydney | 1 | All Maps","name_short":"syd-1","host":"syd-1.au.uncletopia.com","port":27015,"enabled":true,"region":"au","cc":"au","latitude":-33.865143,"longitude":151.2099,"reserved":0,"last_update":"0001-01-01T00:00:00Z","name_a2s":"Uncletopia | Sydney | 1 | All Maps","protocol":17,"map":"pl_badwater","folder":"tf","game":"Team Fortress","app_id":440,"player_count":24,"max_players":24,"Bots":0,"server_type":"Dedicated","server_os":"Linux","password":true,"vac":true,"version":"7961495","steam_id":85568392924470001,"keywords":["nocrits","nodmgspread","payload","uncletopia"],"game_id":440,"stv_port":27016,"stv_name":"Uncletopia | Sydney | 1 | All Maps | STV","players":[{"user_id":305,"name":"whiteshaq","steam_id":76561198131988811,"connected_time":2021000000000,"state":"active","ping":83},{"user_id":297,"name":"n0sTrILS","steam_id":76561199495080809,"connected_time":2487000000000,"state":"active","ping":40},{"user_id":293,"name":"Zeppy","steam_id":76561198074766231,"connected_time":3191000000000,"state":"active","ping":72},{"user_id":287,"name":"Medieval Cucumber Sorcerer","steam_id":76561198972095766,"connected_time":4178000000000,"state":"active","ping":45},{"user_id":249,"name":"alex","steam_id":76561198053382248,"connected_time":6253000000000,"state":"active","ping":50},{"user_id":312,"name":"bron","steam_id":76561198076187044,"connected_time":689000000000,"state":"active","ping":60},{"user_id":295,"name":"Batering","steam_id":76561198039849442,"connected_time":2942000000000,"state":"active","ping":54},{"user_id":251,"name":"callum.jones2008","steam_id":76561198050053720,"connected_time":6154000000000,"state":"active","ping":74},{"user_id":313,"name":"swag messiah","steam_id":76561198380839792,"connected_time":627000000000,"state":"active","ping":40},{"user_id":310,"name":"shark lostworld","steam_id":76561198214534771,"connected_time":1185000000000,"state":"active","ping":46},{"user_id":265,"name":"_MAFKEES","steam_id":76561198233733104,"connected_time":5414000000000,"state":"active","ping":70},{"user_id":311,"name":"Frank","steam_id":76561198142635376,"connected_time":758000000000,"state":"active","ping":55},{"user_id":204,"name":"LeoJoeD","steam_id":76561198161848749,"connected_time":10524000000000,"state":"active","ping":37},{"user_id":319,"name":"Willsy","steam_id":76561198027119367,"connected_time":60000000000,"state":"active","ping":52},{"user_id":306,"name":"Big Spooky Uncle 2","steam_id":76561198051986402,"connected_time":1619000000000,"state":"active","ping":47},{"user_id":317,"name":"one extremely concerned dog","steam_id":76561198122259040,"connected_time":340000000000,"state":"active","ping":40},{"user_id":272,"name":"Aquila","steam_id":76561198042520637,"connected_time":5317000000000,"state":"active","ping":45},{"user_id":309,"name":"water molecules","steam_id":76561198133490050,"connected_time":1302000000000,"state":"active","ping":78},{"user_id":315,"name":"Colonel Cubbage","steam_id":76561198164660157,"connected_time":598000000000,"state":"active","ping":33},{"user_id":316,"name":"Mouse Balls","steam_id":76561199037470627,"connected_time":566000000000,"state":"active","ping":110},{"user_id":277,"name":"cas ganister","steam_id":76561198879023728,"connected_time":5076000000000,"state":"active","ping":84},{"user_id":307,"name":"Chrisy","steam_id":76561198092382473,"connected_time":1610000000000,"state":"active","ping":78},{"user_id":303,"name":"homes inc","steam_id":76561198170188198,"connected_time":2321000000000,"state":"active","ping":52},{"user_id":304,"name":"Owlenstein™","steam_id":76561198093983826,"connected_time":2313000000000,"state":"active","ping":116}]},{"server_id":123,"name":"Uncletopia | Sydney | 2 | All Maps","name_short":"syd-2","host":"syd-1.au.uncletopia.com","port":27025,"enabled":true,"region":"au","cc":"au","latitude":-33.865143,"longitude":151.2099,"reserved":0,"last_update":"0001-01-01T00:00:00Z","name_a2s":"Uncletopia | Sydney | 2 | All Maps","protocol":17,"map":"pl_borneo","folder":"tf","game":"Team Fortress","app_id":440,"player_count":24,"max_players":24,"Bots":0,"server_type":"Dedicated","server_os":"Linux","password":true,"vac":true,"version":"7961495","steam_id":85568392924470002,"keywords":["nocrits","nodmgspread","payload","uncletopia"],"game_id":440,"stv_port":27026,"stv_name":"Uncletopia | Sydney | 2 | All Maps | STV","players":[{"user_id":67,"name":"the lightning guy","steam_id":76561199222027878,"connected_time":136000000000,"state":"active","ping":55},{"user_id":52,"name":"ChocoMilk","steam_id":76561198167049794,"connected_time":851000000000,"state":"active","ping":75},{"user_id":68,"name":"FascismSalad","steam_id":76561198262410973,"connected_time":117000000000,"state":"active","ping":53},{"user_id":65,"name":"Mez","steam_id":76561198045841564,"connected_time":240000000000,"state":"active","ping":102},{"user_id":21,"name":"Nyda","steam_id":76561198152311904,"connected_time":2992000000000,"state":"active","ping":65},{"user_id":58,"name":"Giant Rat","steam_id":76561198110170714,"connected_time":550000000000,"state":"active","ping":59},{"user_id":47,"name":"Grumbo","steam_id":76561198169116395,"connected_time":979000000000,"state":"active","ping":68},{"user_id":63,"name":"militarywombat","steam_id":76561198798651633,"connected_time":327000000000,"state":"active","ping":84},{"user_id":40,"name":"bread","steam_id":76561199405764106,"connected_time":1518000000000,"state":"active","ping":41},{"user_id":50,"name":"DÄNK D0PER$ØN","steam_id":76561198127257666,"connected_time":905000000000,"state":"active","ping":58},{"user_id":26,"name":"Lachy","steam_id":76561199039125185,"connected_time":2839000000000,"state":"active","ping":69},{"user_id":42,"name":"G_XIII","steam_id":76561199177841277,"connected_time":1338000000000,"state":"active","ping":174},{"user_id":43,"name":"Jobamium","steam_id":76561198417125990,"connected_time":1289000000000,"state":"active","ping":69},{"user_id":44,"name":"Chez","steam_id":76561198089925051,"connected_time":1178000000000,"state":"active","ping":97},{"user_id":48,"name":"the kerser","steam_id":76561198212504797,"connected_time":961000000000,"state":"active","ping":70},{"user_id":51,"name":"mmm","steam_id":76561198151416348,"connected_time":892000000000,"state":"active","ping":59},{"user_id":69,"name":"Mooty","steam_id":76561198301293435,"connected_time":99000000000,"state":"active","ping":56},{"user_id":54,"name":"jcoll444","steam_id":76561198143025380,"connected_time":812000000000,"state":"active","ping":64},{"user_id":66,"name":"Zugman","steam_id":76561198093006377,"connected_time":205000000000,"state":"active","ping":72},{"user_id":60,"name":"Gregory (Cow Hater)","steam_id":76561199028542666,"connected_time":471000000000,"state":"active","ping":42},{"user_id":61,"name":"Onion Farmer","steam_id":76561198449452640,"connected_time":448000000000,"state":"active","ping":155},{"user_id":64,"name":"East","steam_id":76561197998179587,"connected_time":292000000000,"state":"active","ping":103},{"user_id":70,"name":"Gunter","steam_id":76561198070406038,"connected_time":92000000000,"state":"spawning","ping":210},{"user_id":71,"name":"wom","steam_id":76561199375834537,"connected_time":81000000000,"state":"active","ping":121}]},{"server_id":395,"name":"Uncletopia | Sydney | 3 | All Maps","name_short":"syd-3","host":"syd-1.au.uncletopia.com","port":27035,"enabled":true,"region":"au","cc":"au","latitude":-33.865143,"longitude":151.2099,"reserved":0,"last_update":"0001-01-01T00:00:00Z","name_a2s":"Uncletopia | Sydney | 3 | All Maps","protocol":17,"map":"pl_frontier_final","folder":"tf","game":"Team Fortress","app_id":440,"player_count":0,"max_players":24,"Bots":0,"server_type":"Dedicated","server_os":"Linux","password":true,"vac":true,"version":"7961495","steam_id":85568392925194467,"keywords":["nocrits","nodmgspread","payload","uncletopia"],"game_id":440,"stv_port":27036,"stv_name":"Uncletopia | Sydney | 3 | All Maps | STV","players":null},{"server_id":396,"name":"Uncletopia | Sydney | 4 | All Maps","name_short":"syd-4","host":"syd-1.au.uncletopia.com","port":27045,"enabled":true,"region":"au","cc":"au","latitude":-33.865143,"longitude":151.2099,"reserved":0,"last_update":"0001-01-01T00:00:00Z","name_a2s":"Uncletopia | Sydney | 4 | All Maps","protocol":17,"map":"koth_cascade","folder":"tf","game":"Team Fortress","app_id":440,"player_count":4,"max_players":24,"Bots":0,"server_type":"Dedicated","server_os":"Linux","password":true,"vac":true,"version":"7961495","steam_id":85568392925397958,"keywords":["cp","nocrits","nodmgspread","uncletopia"],"game_id":440,"stv_port":27046,"stv_name":"Uncletopia | Sydney | 4 | All Maps | STV","players":[{"user_id":15,"name":"mr tank","steam_id":76561199153515178,"connected_time":284000000000,"state":"active","ping":63},{"user_id":16,"name":"mr tank jr","steam_id":76561199304074084,"connected_time":155000000000,"state":"active","ping":57},{"user_id":14,"name":"mr_mat18","steam_id":76561199303303679,"connected_time":438000000000,"state":"active","ping":551},{"user_id":17,"name":"Snuky","steam_id":76561198117902338,"connected_time":18000000000,"state":"active","ping":44}]},{"server_id":58,"name":"Uncletopia | Sydney | 5 | Stopwatch","name_short":"syd-5","host":"syd-1.au.uncletopia.com","port":27055,"enabled":true,"region":"au","cc":"au","latitude":-33.865143,"longitude":151.2099,"reserved":0,"last_update":"0001-01-01T00:00:00Z","name_a2s":"Uncletopia | Sydney | 5 | Stopwatch","protocol":17,"map":"cp_sunshine","folder":"tf","game":"Team Fortress","app_id":440,"player_count":0,"max_players":24,"Bots":0,"server_type":"Dedicated","server_os":"Linux","password":true,"vac":true,"version":"7961495","steam_id":85568392925397959,"keywords":["cp","nocrits","nodmgspread","uncletopia"],"game_id":440,"stv_port":27056,"stv_name":"Uncletopia | Sydney | 5 | Stopwatch | STV","players":null},{"server_id":59,"name":"Uncletopia | Sydney | 6 | Community","name_short":"syd-6","host":"syd-1.au.uncletopia.com","port":27065,"enabled":true,"region":"au","cc":"au","latitude":-33.865143,"longitude":151.2099,"reserved":0,"last_update":"0001-01-01T00:00:00Z","name_a2s":"Uncletopia | Sydney | 6 | Community","protocol":17,"map":"cp_sunshine","folder":"tf","game":"Team Fortress","app_id":440,"player_count":0,"max_players":24,"Bots":0,"server_type":"Dedicated","server_os":"Linux","password":true,"vac":true,"version":"7961495","steam_id":85568392925397960,"keywords":["cp","nocrits","nodmgspread","uncletopia"],"game_id":440,"stv_port":27066,"stv_name":"Uncletopia | Sydney | 6 | Community | STV","players":null},{"server_id":49,"name":"Uncletopia | Warsaw | 1 | All Maps","name_short":"waw-1","host":"waw-1.pl.uncletopia.com","port":27015,"enabled":true,"region":"eu","cc":"pl","latitude":52.2297,"longitude":21.017532,"reserved":0,"last_update":"0001-01-01T00:00:00Z","name_a2s":"Uncletopia | Warsaw | 1 | All Maps","protocol":17,"map":"koth_lakeside_final","folder":"tf","game":"Team Fortress","app_id":440,"player_count":0,"max_players":24,"Bots":0,"server_type":"Dedicated","server_os":"Linux","password":true,"vac":true,"version":"7961495","steam_id":85568392925397850,"keywords":["cp","nocrits","nodmgspread","uncletopia"],"game_id":440,"stv_port":27016,"stv_name":"Uncletopia | Warsaw | 1 | All Maps | STV","players":null},{"server_id":50,"name":"Uncletopia | Warsaw | 2 | All Maps","name_short":"waw-2","host":"waw-1.pl.uncletopia.com","port":27025,"enabled":true,"region":"eu","cc":"pl","latitude":52.2297,"longitude":21.017532,"reserved":0,"last_update":"0001-01-01T00:00:00Z","name_a2s":"Uncletopia | Warsaw | 2 | All Maps","protocol":17,"map":"pl_borneo","folder":"tf","game":"Team Fortress","app_id":440,"player_count":0,"max_players":24,"Bots":0,"server_type":"Dedicated","server_os":"Linux","password":true,"vac":true,"version":"7961495","steam_id":85568392925397851,"keywords":["nocrits","nodmgspread","payload","uncletopia"],"game_id":440,"stv_port":27026,"stv_name":"Uncletopia | Warsaw | 2 | All Maps | STV","players":null},{"server_id":51,"name":"Uncletopia | Warsaw | 3 | All Maps","name_short":"waw-3","host":"waw-1.pl.uncletopia.com","port":27035,"enabled":true,"region":"eu","cc":"pl","latitude":52.2297,"longitude":21.017532,"reserved":0,"last_update":"0001-01-01T00:00:00Z","name_a2s":"Uncletopia | Warsaw | 3 | All Maps","protocol":17,"map":"pl_barnblitz","folder":"tf","game":"Team Fortress","app_id":440,"player_count":0,"max_players":24,"Bots":0,"server_type":"Dedicated","server_os":"Linux","password":true,"vac":true,"version":"7961495","steam_id":85568392925397852,"keywords":["nocrits","nodmgspread","payload","uncletopia"],"game_id":440,"stv_port":27036,"stv_name":"Uncletopia | Warsaw | 3 | All Maps | STV","players":null},{"server_id":52,"name":"Uncletopia | Warsaw | 4 | All Maps","name_short":"waw-4","host":"waw-1.pl.uncletopia.com","port":27045,"enabled":true,"region":"eu","cc":"pl","latitude":52.2297,"longitude":21.017532,"reserved":0,"last_update":"0001-01-01T00:00:00Z","name_a2s":"Uncletopia | Warsaw | 4 | All Maps","protocol":17,"map":"pl_borneo","folder":"tf","game":"Team Fortress","app_id":440,"player_count":0,"max_players":24,"Bots":0,"server_type":"Dedicated","server_os":"Linux","password":true,"vac":true,"version":"7961495","steam_id":85568392925397853,"keywords":["nocrits","nodmgspread","payload","uncletopia"],"game_id":440,"stv_port":27046,"stv_name":"Uncletopia | Warsaw | 4 | All Maps | STV","players":null},{"server_id":53,"name":"Uncletopia | Warsaw | 5 | Stopwatch","name_short":"waw-5","host":"waw-1.pl.uncletopia.com","port":27055,"enabled":true,"region":"eu","cc":"pl","latitude":52.2297,"longitude":21.017532,"reserved":0,"last_update":"0001-01-01T00:00:00Z","name_a2s":"Uncletopia | Warsaw | 5 | Stopwatch","protocol":17,"map":"pl_barnblitz","folder":"tf","game":"Team Fortress","app_id":440,"player_count":0,"max_players":24,"Bots":0,"server_type":"Dedicated","server_os":"Linux","password":true,"vac":true,"version":"7961495","steam_id":85568392925397854,"keywords":["nocrits","nodmgspread","payload","uncletopia"],"game_id":440,"stv_port":27056,"stv_name":"Uncletopia | Warsaw | 5 | Stopwatch | STV","players":null},{"server_id":54,"name":"Uncletopia | Warsaw | 6 | Community","name_short":"waw-6","host":"waw-1.pl.uncletopia.com","port":27065,"enabled":true,"region":"eu","cc":"pl","latitude":52.2297,"longitude":21.017532,"reserved":0,"last_update":"0001-01-01T00:00:00Z","name_a2s":"Uncletopia | Warsaw | 6 | Community","protocol":17,"map":"cp_altitude","folder":"tf","game":"Team Fortress","app_id":440,"player_count":0,"max_players":24,"Bots":0,"server_type":"Dedicated","server_os":"Linux","password":true,"vac":true,"version":"7961495","steam_id":85568392925397856,"keywords":["cp","nocrits","nodmgspread","uncletopia"],"game_id":440,"stv_port":27066,"stv_name":"Uncletopia | Warsaw | 6 | Community | STV","players":null}]}