{"status":true,"message":"","result":[{"server_id":9,"name":"Uncletopia | Atlanta | 1 | All Maps","name_short":"atl-1","host":"atl-1.us.uncletopia.com","port":27015,"enabled":true,"region":"us-east","cc":"us","latitude":33.753746,"longitude":-84.38633,"reserved":0,"last_update":"0001-01-01T00:00:00Z","name_a2s":"Uncletopia | Atlanta | 1 | All Maps","protocol":17,"map":"pl_badwater","folder":"tf","game":"Team Fortress","app_id":440,"player_count":0,"max_players":24,"Bots":0,"server_type":"Dedicated","server_os":"Linux","password":true,"vac":true,"version":"7742253","steam_id":85568392924469982,"keywords":["nocrits","nodmgspread","payload","uncletopia"],"game_id":440,"stv_port":27016,"stv_name":"Uncletopia | Atlanta | 1 | All Maps | STV","players":null},{"server_id":400,"name":"Uncletopia | Atlanta | 3 | Stopwatch Beta","name_short":"atl-3","host":"atl-1.us.uncletopia.com","port":27035,"enabled":true,"region":"us-east","cc":"us","latitude":33.753746,"longitude":-84.38633,"reserved":0,"last_update":"0001-01-01T00:00:00Z","name_a2s":"Uncletopia | Atlanta | 3 | Stopwatch Beta","protocol":17,"map":"pl_upward","folder":"tf","game":"Team Fortress","app_id":440,"player_count":0,"max_players":24,"Bots":0,"server_type":"Dedicated","server_os":"Linux","password":true,"vac":true,"version":"7742253","steam_id":85568392924515187,"keywords":["nocrits","nodmgspread","payload","uncletopia"],"game_id":440,"stv_port":27036,"stv_name":"Uncletopia | Atlanta | 3 | Stopwatch Beta | STV","players":null},{"server_id":401,"name":"Uncletopia | Atlanta | 4 | No Payload","name_short":"atl-4","host":"atl-1.us.uncletopia.com","port":27045,"enabled":true,"region":"us-east","cc":"us","latitude":33.753746,"longitude":-84.38633,"reserved":0,"last_update":"0001-01-01T00:00:00Z","name_a2s":"Uncletopia | Atlanta | 4 | No Payload","protocol":17,"map":"pl_pier","folder":"tf","game":"Team Fortress","app_id":440,"player_count":0,"max_players":24,"Bots":0,"server_type":"Dedicated","server_os":"Linux","password":true,"vac":true,"version":"7723704","steam_id":85568392924515188,"keywords":["nocrits","nodmgspread","payload","uncletopia"],"game_id":440,"stv_port":27046,"stv_name":"Uncletopia | Atlanta | 4 | No Payload | STV","players":null},{"server_id":2,"name":"Uncletopia | Chicago | 1 | All Maps","name_short":"chi-1","host":"chi-1.us.uncletopia.com","port":27015,"enabled":true,"region":"us-central","cc":"us","latitude":41.881832,"longitude":-87.62318,"reserved":0,"last_update":"0001-01-01T00:00:00Z","name_a2s":"Uncletopia | Chicago | 1 | All Maps","protocol":17,"map":"cp_altitude","folder":"tf","game":"Team Fortress","app_id":440,"player_count":0,"max_players":24,"Bots":0,"server_type":"Dedicated","server_os":"Linux","password":true,"vac":true,"version":"7742253","steam_id":85568392924469984,"keywords":["cp","nocrits","nodmgspread","uncletopia"],"game_id":440,"stv_port":27016,"stv_name":"Uncletopia | Chicago | 1 | All Maps | STV","players":null},{"server_id":106,"name":"Uncletopia | Chicago | 2 | All Maps","name_short":"chi-2","host":"chi-1.us.uncletopia.com","port":27025,"enabled":true,"region":"us-central","cc":"us","latitude":41.881832,"longitude":-87.62318,"reserved":0,"last_update":"0001-01-01T00:00:00Z","name_a2s":"Uncletopia | Chicago | 2 | All Maps","protocol":17,"map":"cp_altitude","folder":"tf","game":"Team Fortress","app_id":440,"player_count":0,"max_players":24,"Bots":0,"server_type":"Dedicated","server_os":"Linux","password":true,"vac":true,"version":"7742253","steam_id":85568392924469985,"keywords":["cp","nocrits","nodmgspread","uncletopia"],"game_id":440,"stv_port":27026,"stv_name":"Uncletopia | Chicago | 2 | All Maps | STV","players":null},{"server_id":402,"name":"Uncletopia | Chicago | 3 | All Maps","name_short":"chi-3","host":"chi-1.us.uncletopia.com","port":27035,"enabled":true,"region":"us-central","cc":"us","latitude":41.881832,"longitude":-87.62318,"reserved":0,"last_update":"0001-01-01T00:00:00Z","name_a2s":"Uncletopia | Chicago | 3 | All Maps","protocol":17,"map":"pl_barnblitz","folder":"tf","game":"Team Fortress","app_id":440,"player_count":24,"max_players":24,"Bots":0,"server_type":"Dedicated","server_os":"Linux","password":true,"vac":true,"version":"7742253","steam_id":85568392924515191,"keywords":["nocrits","nodmgspread","payload","uncletopia"],"game_id":440,"stv_port":27036,"stv_name":"Uncletopia | Chicago | 3 | All Maps | STV","players":[{"user_id":77,"name":"COLOSSAL HOG","steam_id":76561198079923652,"connected_time":1749000000000,"state":"active","ping":168},{"user_id":79,"name":"Rappitor","steam_id":76561198105613110,"connected_time":1296000000000,"state":"active","ping":63},{"user_id":87,"name":"xXx_The_REAL_Marge_Simpson_xXx","steam_id":76561199116846851,"connected_time":888000000000,"state":"spawning","ping":93},{"user_id":65,"name":"forklift circumcised","steam_id":76561198278756087,"connected_time":3189000000000,"state":"active","ping":87},{"user_id":93,"name":"HALO 3","steam_id":76561198020825795,"connected_time":290000000000,"state":"spawning","ping":248},{"user_id":90,"name":"Kiss Master","steam_id":76561198289572271,"connected_time":536000000000,"state":"active","ping":198},{"user_id":97,"name":"IPlayGamez","steam_id":76561198041387508,"connected_time":31000000000,"state":"spawning","ping":151},{"user_id":45,"name":"SuperJagops","steam_id":76561198034689716,"connected_time":4531000000000,"state":"spawning","ping":63},{"user_id":74,"name":"Rizd","steam_id":76561199350870177,"connected_time":2845000000000,"state":"spawning","ping":76},{"user_id":14,"name":"burial","steam_id":76561198069431694,"connected_time":6588000000000,"state":"active","ping":186},{"user_id":71,"name":"The Caretaker","steam_id":76561198125241411,"connected_time":2979000000000,"state":"spawning","ping":121},{"user_id":94,"name":"monkey d boofy","steam_id":76561198314114834,"connected_time":279000000000,"state":"active","ping":115},{"user_id":57,"name":"VLADIMIR LENIN'S CAT","steam_id":76561198182999551,"connected_time":3364000000000,"state":"spawning","ping":94},{"user_id":76,"name":"mommy hog","steam_id":76561199230929836,"connected_time":2115000000000,"state":"spawning","ping":111},{"user_id":98,"name":"Ultra-X","steam_id":76561199201770653,"connected_time":6000000000,"state":"spawning","ping":73},{"user_id":85,"name":"Osokless","steam_id":76561198869557959,"connected_time":1072000000000,"state":"spawning","ping":67},{"user_id":95,"name":"Kraul","steam_id":76561198043682060,"connected_time":220000000000,"state":"spawning","ping":88},{"user_id":81,"name":"basil","steam_id":76561198075758026,"connected_time":1245000000000,"state":"spawning","ping":179},{"user_id":75,"name":"NoShen","steam_id":76561198147434663,"connected_time":2563000000000,"state":"active","ping":134},{"user_id":96,"name":"deadbed1825","steam_id":76561198287321660,"connected_time":209000000000,"state":"spawning","ping":90},{"user_id":82,"name":"kermitcreeper(ZAZA)","steam_id":76561199222829972,"connected_time":1180000000000,"state":"active","ping":95},{"user_id":89,"name":"CassandraRC7 (She/her)","steam_id":76561198094123940,"connected_time":663000000000,"state":"spawning","ping":61},{"user_id":47,"name":"skidzz","steam_id":76561198257068611,"connected_time":4166000000000,"state":"active","ping":141},{"user_id":48,"name":"the kind canadian","steam_id":76561199226468456,"connected_time":4166000000000,"state":"active","ping":199}]},{"server_id":403,"name":"Uncletopia | Chicago | 4 | All Maps","name_short":"chi-4","host":"chi-1.us.uncletopia.com","port":27045,"enabled":true,"region":"us-central","cc":"us","latitude":41.881832,"longitude":-87.62318,"reserved":0,"last_update":"0001-01-01T00:00:00Z","name_a2s":"Uncletopia | Chicago | 4 | All Maps","protocol":17,"map":"koth_lakeside_final","folder":"tf","game":"Team Fortress","app_id":440,"player_count":0,"max_players":24,"Bots":0,"server_type":"Dedicated","server_os":"Linux","password":true,"vac":true,"version":"7742253","steam_id":85568392924515193,"keywords":["cp","nocrits","nodmgspread","uncletopia"],"game_id":440,"stv_port":27046,"stv_name":"Uncletopia | Chicago | 4 | All Maps | STV","players":null},{"server_id":36,"name":"Uncletopia | Chicago | 5 | All Maps","name_short":"chi-5","host":"chi-2.us.uncletopia.com","port":27015,"enabled":true,"region":"us-central","cc":"us","latitude":41.881832,"longitude":-87.62318,"reserved":0,"last_update":"0001-01-01T00:00:00Z","name_a2s":"Uncletopia | Chicago | 5 | All Maps","protocol":17,"map":"koth_highpass","folder":"tf","game":"Team Fortress","app_id":440,"player_count":0,"max_players":24,"Bots":0,"server_type":"Dedicated","server_os":"Linux","password":true,"vac":true,"version":"7742253","steam_id":85568392924866362,"keywords":["cp","nocrits","nodmgspread","uncletopia"],"game_id":440,"stv_port":27016,"stv_name":"Uncletopia | Chicago | 5 | All Maps | STV","players":null},{"server_id":37,"name":"Uncletopia | Chicago | 6 | All Maps","name_short":"chi-6","host":"chi-2.us.uncletopia.com","port":27025,"enabled":true,"region":"us-central","cc":"us","latitude":41.881832,"longitude":-87.62318,"reserved":0,"last_update":"0001-01-01T00:00:00Z","name_a2s":"Uncletopia | Chicago | 6 | All Maps","protocol":17,"map":"pl_frontier_final","folder":"tf","game":"Team Fortress","app_id":440,"player_count":0,"max_players":24,"Bots":0,"server_type":"Dedicated","server_os":"Linux","password":true,"vac":true,"version":"7742253","steam_id":85568392924866363,"keywords":["nocrits","nodmgspread","payload","uncletopia"],"game_id":440,"stv_port":27026,"stv_name":"Uncletopia | Chicago | 6 | All Maps | STV","players":null},{"server_id":38,"name":"Uncletopia | Chicago | 7 | Stopwatch Beta","name_short":"chi-7","host":"chi-2.us.uncletopia.com","port":27035,"enabled":true,"region":"us-central","cc":"us","latitude":41.881832,"longitude":-87.62318,"reserved":0,"last_update":"0001-01-01T00:00:00Z","name_a2s":"Uncletopia | Chicago | 7 | Stopwatch Beta","protocol":17,"map":"cp_altitude","folder":"tf","game":"Team Fortress","app_id":440,"player_count":0,"max_players":24,"Bots":0,"server_type":"Dedicated","server_os":"Linux","password":true,"vac":true,"version":"7742253","steam_id":85568392924866364,"keywords":["cp","nocrits","nodmgspread","uncletopia"],"game_id":440,"stv_port":27036,"stv_name":"Uncletopia | Chicago | 7 | Stopwatch Beta | STV","players":null},{"server_id":39,"name":"Uncletopia | Chicago | 8 | Community","name_short":"chi-8","host":"chi-2.us.uncletopia.com","port":27045,"enabled":true,"region":"us-central","cc":"us","latitude":41.881832,"longitude":-87.62318,"reserved":0,"last_update":"0001-01-01T00:00:00Z","name_a2s":"Uncletopia | Chicago | 8 | Community","protocol":17,"map":"koth_cascade","folder":"tf","game":"Team Fortress","app_id":440,"player_count":5,"max_players":24,"Bots":0,"server_type":"Dedicated","server_os":"Linux","password":true,"vac":true,"version":"7742253","steam_id":85568392924866365,"keywords":["cp","nocrits","nodmgspread","uncletopia"],"game_id":440,"stv_port":27046,"stv_name":"Uncletopia | Chicago | 8 | Community | STV","players":[{"user_id":3,"name":"Sure, yeah, totally","steam_id":76561199210977804,"connected_time":1176000000000,"state":"active","ping":57},{"user_id":4,"name":"mega giga payload hater!","steam_id":76561198039727616,"connected_time":1102000000000,"state":"active","ping":61},{"user_id":5,"name":":P","steam_id":76561199439880565,"connected_time":820000000000,"state":"active","ping":66},{"user_id":6,"name":"The Penis Eater","steam_id":76561198272288518,"connected_time":697000000000,"state":"active","ping":73},{"user_id":7,"name":"Dunmaglass","steam_id":76561198128928443,"connected_time":488000000000,"state":"active","ping":71}]},{"server_id":8,"name":"Uncletopia | Dallas | 1 | All Maps","name_short":"dal-1","host":"dal-1.us.uncletopia.com","port":27015,"enabled":true,"region":"us-central","cc":"us","latitude":32.779167,"longitude":-96.80889,"reserved":0,"last_update":"0001-01-01T00:00:00Z","name_a2s":"Uncletopia | Dallas | 1 | All Maps","protocol":17,"map":"koth_viaduct","folder":"tf","game":"Team Fortress","app_id":440,"player_count":0,"max_players":24,"Bots":0,"server_type":"Dedicated","server_os":"Linux","password":true,"vac":true,"version":"7742253","steam_id":85568392924469986,"keywords":["cp","nocrits","nodmgspread","uncletopia"],"game_id":440,"stv_port":27016,"stv_name":"Uncletopia | Dallas | 1 | All Maps | STV","players":null},{"server_id":108,"name":"Uncletopia | Dallas | 2 | All Maps","name_short":"dal-2","host":"dal-1.us.uncletopia.com","port":27025,"enabled":true,"region":"us-central","cc":"us","latitude":32.779167,"longitude":-96.80889,"reserved":0,"last_update":"0001-01-01T00:00:00Z","name_a2s":"Uncletopia | Dallas | 2 | All Maps","protocol":17,"map":"pl_barnblitz","folder":"tf","game":"Team Fortress","app_id":440,"player_count":0,"max_players":24,"Bots":0,"server_type":"Dedicated","server_os":"Linux","password":true,"vac":true,"version":"7742253","steam_id":85568392924469988,"keywords":["nocrits","nodmgspread","payload","uncletopia"],"game_id":440,"stv_port":27026,"stv_name":"Uncletopia | Dallas | 2 | All Maps | STV","players":null},{"server_id":5,"name":"Uncletopia | Frankfurt | 1 | All Maps","name_short":"frk-1","host":"frk-1.de.uncletopia.com","port":27015,"enabled":true,"region":"eu","cc":"de","latitude":50.110924,"longitude":8.682127,"reserved":0,"last_update":"0001-01-01T00:00:00Z","name_a2s":"Uncletopia | Frankfurt | 1 | All Maps","protocol":17,"map":"cp_snakewater_final1","folder":"tf","game":"Team Fortress","app_id":440,"player_count":24,"max_players":24,"Bots":0,"server_type":"Dedicated","server_os":"Linux","password":true,"vac":true,"version":"7742253","steam_id":85568392924469989,"keywords":["cp","nocrits","nodmgspread","uncletopia"],"game_id":440,"stv_port":27016,"stv_name":"Uncletopia | Frankfurt | 1 | All Maps | STV","players":[{"user_id":364,"name":"Tfuj Stary","steam_id":76561198126681452,"connected_time":953000000000,"state":"active","ping":86},{"user_id":342,"name":"Vero_Wk","steam_id":76561199048182950,"connected_time":1900000000000,"state":"active","ping":74},{"user_id":375,"name":"Jonathan","steam_id":76561198087988880,"connected_time":436000000000,"state":"active","ping":44},{"user_id":341,"name":"moopviii","steam_id":76561199177831851,"connected_time":1928000000000,"state":"active","ping":131},{"user_id":362,"name":"Vashontrash99","steam_id":76561199250946319,"connected_time":1069000000000,"state":"active","ping":120},{"user_id":365,"name":"dog_raoul","steam_id":76561198014823179,"connected_time":942000000000,"state":"active","ping":92},{"user_id":349,"name":"post feet","steam_id":76561198019065232,"connected_time":1509000000000,"state":"active","ping":52},{"user_id":379,"name":"where is my egg?","steam_id":76561198172542535,"connected_time":258000000000,"state":"active","ping":76},{"user_id":381,"name":"yeldad","steam_id":76561198447264153,"connected_time":129000000000,"state":"active","ping":128},{"user_id":366,"name":"Assassin","steam_id":76561199016050401,"connected_time":872000000000,"state":"active","ping":122},{"user_id":323,"name":"bigwish | bmod.tf","steam_id":76561197997859723,"connected_time":3167000000000,"state":"active","ping":70},{"user_id":380,"name":"Sedoy","steam_id":76561198390666516,"connected_time":246000000000,"state":"active","ping":90},{"user_id":368,"name":"[1stBdC]SARG Quintal","steam_id":76561198171396362,"connected_time":865000000000,"state":"active","ping":96},{"user_id":377,"name":"ghost","steam_id":76561198189940229,"connected_time":386000000000,"state":"active","ping":65},{"user_id":353,"name":"Cosmetic brain","steam_id":76561198055936410,"connected_time":1331000000000,"state":"active","ping":83},{"user_id":339,"name":"Some sort of a man","steam_id":76561198094250240,"connected_time":2021000000000,"state":"active","ping":102},{"user_id":363,"name":"CRWND","steam_id":76561198329810027,"connected_time":1047000000000,"state":"active","ping":57},{"user_id":372,"name":"mmDuck","steam_id":76561198102527306,"connected_time":781000000000,"state":"active","ping":89},{"user_id":369,"name":"MAJAX","steam_id":76561198254828632,"connected_time":860000000000,"state":"active","ping":70},{"user_id":355,"name":"MomoInTheBox","steam_id":76561197994150695,"connected_time":1247000000000,"state":"active","ping":74},{"user_id":343,"name":"Nickel (28)","steam_id":76561199082683456,"connected_time":1835000000000,"state":"active","ping":101},{"user_id":371,"name":"Retropunk4","steam_id":76561199388575352,"connected_time":819000000000,"state":"active","ping":90},{"user_id":340,"name":"The Funny Cat-Heaby","steam_id":76561198439978112,"connected_time":1944000000000,"state":"active","ping":110},{"user_id":374,"name":"FartGoing","steam_id":76561198122284275,"connected_time":579000000000,"state":"active","ping":77}]},{"server_id":110,"name":"Uncletopia | Frankfurt | 2 | All Maps","name_short":"frk-2","host":"frk-1.de.uncletopia.com","port":27025,"enabled":true,"region":"eu","cc":"de","latitude":50.110924,"longitude":8.682127,"reserved":0,"last_update":"0001-01-01T00:00:00Z","name_a2s":"Uncletopia | Frankfurt | 2 | All Maps","protocol":17,"map":"pl_barnblitz","folder":"tf","game":"Team Fortress","app_id":440,"player_count":24,"max_players":24,"Bots":0,"server_type":"Dedicated","server_os":"Linux","password":true,"vac":true,"version":"7742253","steam_id":85568392924469990,"keywords":["nocrits","nodmgspread","payload","uncletopia"],"game_id":440,"stv_port":27026,"stv_name":"Uncletopia | Frankfurt | 2 | All Maps | STV","players":[{"user_id":153,"name":"lulu","steam_id":76561199147764133,"connected_time":1598000000000,"state":"active","ping":64},{"user_id":155,"name":"zoro","steam_id":76561198083657017,"connected_time":1470000000000,"state":"active","ping":86},{"user_id":113,"name":"moon","steam_id":76561199212557251,"connected_time":4634000000000,"state":"active","ping":135},{"user_id":128,"name":"generic alias","steam_id":76561198271607226,"connected_time":2976000000000,"state":"active","ping":93},{"user_id":105,"name":"Aydin Channel","steam_id":76561198138031624,"connected_time":4959000000000,"state":"active","ping":118},{"user_id":164,"name":"Silky smooth","steam_id":76561198345773558,"connected_time":692000000000,"state":"active","ping":107},{"user_id":168,"name":"nyst","steam_id":76561198400998400,"connected_time":233000000000,"state":"active","ping":75},{"user_id":102,"name":"Miton","steam_id":76561197970323209,"connected_time":5038000000000,"state":"active","ping":78},{"user_id":138,"name":"Big Noot","steam_id":76561198057707263,"connected_time":2351000000000,"state":"active","ping":50},{"user_id":165,"name":"„ÉÜ„Ç§„É´„Çπ","steam_id":76561198022403271,"connected_time":676000000000,"state":"active","ping":45},{"user_id":160,"name":"|--2cm--|","steam_id":76561198796189220,"connected_time":1003000000000,"state":"active","ping":74},{"user_id":161,"name":"Slazaa","steam_id":76561197993252446,"connected_time":989000000000,"state":"active","ping":60},{"user_id":142,"name":"Ronald","steam_id":76561198139741421,"connected_time":2239000000000,"state":"active","ping":87},{"user_id":147,"name":"Johnny","steam_id":76561198880265246,"connected_time":2042000000000,"state":"active","ping":80},{"user_id":117,"name":"Taipan66","steam_id":76561198154094423,"connected_time":3978000000000,"state":"active","ping":72},{"user_id":140,"name":"Taskyy","steam_id":76561198134901175,"connected_time":2315000000000,"state":"active","ping":77},{"user_id":151,"name":"üúè Drepp","steam_id":76561197998867164,"connected_time":1741000000000,"state":"active","ping":59},{"user_id":162,"name":"nordmann","steam_id":76561197970437593,"connected_time":986000000000,"state":"active","ping":88},{"user_id":149,"name":"pepper","steam_id":76561198059782462,"connected_time":1835000000000,"state":"active","ping":56},{"user_id":131,"name":"gagalak","steam_id":76561198089979108,"connected_time":2874000000000,"state":"active","ping":89},{"user_id":167,"name":"brique","steam_id":76561199103944229,"connected_time":498000000000,"state":"active","ping":58},{"user_id":166,"name":"yuh","steam_id":76561199005555839,"connected_time":604000000000,"state":"active","ping":65},{"user_id":134,"name":"leminsc8","steam_id":76561198825084995,"connected_time":2799000000000,"state":"active","ping":44},{"user_id":163,"name":"Extraordinary Absence of Pootis","steam_id":76561198020270981,"connected_time":977000000000,"state":"active","ping":136}]},{"server_id":308,"name":"Uncletopia | Frankfurt | 3 | All Maps","name_short":"frk-3","host":"frk-1.de.uncletopia.com","port":27035,"enabled":true,"region":"eu","cc":"de","latitude":50.110924,"longitude":8.682127,"reserved":0,"last_update":"0001-01-01T00:00:00Z","name_a2s":"Uncletopia | Frankfurt | 3 | All Maps","protocol":17,"map":"cp_dustbowl","folder":"tf","game":"Team Fortress","app_id":440,"player_count":0,"max_players":24,"Bots":0,"server_type":"Dedicated","server_os":"Linux","password":true,"vac":true,"version":"7742253","steam_id":85568392924504274,"keywords":["cp","nocrits","nodmgspread","uncletopia"],"game_id":440,"stv_port":27036,"stv_name":"Uncletopia | Frankfurt | 3 | All Maps | STV","players":null},{"server_id":309,"name":"Uncletopia | Frankfurt | 4 | All Maps","name_short":"frk-4","host":"frk-1.de.uncletopia.com","port":27045,"enabled":true,"region":"eu","cc":"de","latitude":50.110924,"longitude":8.682127,"reserved":0,"last_update":"0001-01-01T00:00:00Z","name_a2s":"Uncletopia | Frankfurt | 4 | All Maps","protocol":17,"map":"koth_viaduct","folder":"tf","game":"Team Fortress","app_id":440,"player_count":0,"max_players":24,"Bots":0,"server_type":"Dedicated","server_os":"Linux","password":true,"vac":true,"version":"7742253","steam_id":85568392924504275,"keywords":["cp","nocrits","nodmgspread","uncletopia"],"game_id":440,"stv_port":27046,"stv_name":"Uncletopia | Frankfurt | 4 | All Maps | STV","players":null},{"server_id":310,"name":"Uncletopia | Frankfurt | 5 | All Maps","name_short":"frk-5","host":"frk-1.de.uncletopia.com","port":27055,"enabled":true,"region":"eu","cc":"de","latitude":50.110924,"longitude":8.682127,"reserved":0,"last_update":"0001-01-01T00:00:00Z","name_a2s":"Uncletopia | Frankfurt | 5 | All Maps","protocol":17,"map":"cp_sunshine","folder":"tf","game":"Team Fortress","app_id":440,"player_count":24,"max_players":24,"Bots":0,"server_type":"Dedicated","server_os":"Linux","password":true,"vac":true,"version":"7742253","steam_id":85568392924504277,"keywords":["cp","nocrits","nodmgspread","uncletopia"],"game_id":440,"stv_port":27056,"stv_name":"Uncletopia | Frankfurt | 5 | All Maps | STV","players":[{"user_id":150,"name":"Gosman","steam_id":76561198062956955,"connected_time":106000000000,"state":"active","ping":66},{"user_id":130,"name":"Kodutah","steam_id":76561198203405574,"connected_time":1201000000000,"state":"active","ping":76},{"user_id":104,"name":"Silent Person","steam_id":76561198107763537,"connected_time":2355000000000,"state":"active","ping":61},{"user_id":126,"name":"Brinnck","steam_id":76561198340776600,"connected_time":1239000000000,"state":"active","ping":56},{"user_id":133,"name":"Spy","steam_id":76561198122074582,"connected_time":1156000000000,"state":"active","ping":89},{"user_id":119,"name":"I want my dog back","steam_id":76561198318748304,"connected_time":1665000000000,"state":"active","ping":120},{"user_id":132,"name":"Rezkey","steam_id":76561198206079048,"connected_time":1185000000000,"state":"active","ping":59},{"user_id":107,"name":"Goliath","steam_id":76561198088583638,"connected_time":2331000000000,"state":"active","ping":48},{"user_id":117,"name":"Iphy","steam_id":76561198137519489,"connected_time":1731000000000,"state":"active","ping":75},{"user_id":134,"name":"Blyatwork","steam_id":76561198825379598,"connected_time":1126000000000,"state":"active","ping":43},{"user_id":135,"name":"Execon","steam_id":76561198073608009,"connected_time":1041000000000,"state":"active","ping":60},{"user_id":138,"name":"Hydro","steam_id":76561199081791855,"connected_time":701000000000,"state":"active","ping":70},{"user_id":145,"name":"Dubious Little Creature","steam_id":76561198167986695,"connected_time":573000000000,"state":"active","ping":45},{"user_id":140,"name":"Wallster","steam_id":76561198329647787,"connected_time":647000000000,"state":"active","ping":74},{"user_id":141,"name":"yd","steam_id":76561198214336561,"connected_time":637000000000,"state":"active","ping":50},{"user_id":66,"name":"Mr.raccoon","steam_id":76561198247751074,"connected_time":5592000000000,"state":"active","ping":68},{"user_id":125,"name":"Borko","steam_id":76561199097266352,"connected_time":1334000000000,"state":"active","ping":77},{"user_id":142,"name":"Zz_Counter","steam_id":76561198153618515,"connected_time":605000000000,"state":"active","ping":70},{"user_id":143,"name":"Mimic","steam_id":76561199204932956,"connected_time":605000000000,"state":"active","ping":50},{"user_id":118,"name":"MasterNaglis","steam_id":76561198348834177,"connected_time":1680000000000,"state":"active","ping":75},{"user_id":144,"name":"I-I","steam_id":76561198267969436,"connected_time":584000000000,"state":"active","ping":64},{"user_id":146,"name":"Lucoa Enjoyer","steam_id":76561198842622419,"connected_time":568000000000,"state":"active","ping":98},{"user_id":147,"name":"help","steam_id":76561199056338917,"connected_time":566000000000,"state":"active","ping":171},{"user_id":121,"name":"[Insert Oneshot refrence]","steam_id":76561198951206047,"connected_time":1665000000000,"state":"active","ping":94}]},{"server_id":311,"name":"Uncletopia | Frankfurt | 6 | All Maps","name_short":"frk-6","host":"frk-1.de.uncletopia.com","port":27065,"enabled":true,"region":"eu","cc":"de","latitude":50.110924,"longitude":8.682127,"reserved":0,"last_update":"0001-01-01T00:00:00Z","name_a2s":"Uncletopia | Frankfurt | 6 | All Maps","protocol":17,"map":"koth_highpass","folder":"tf","game":"Team Fortress","app_id":440,"player_count":0,"max_players":24,"Bots":0,"server_type":"Dedicated","server_os":"Linux","password":true,"vac":true,"version":"7742253","steam_id":85568392924504278,"keywords":["cp","nocrits","nodmgspread","uncletopia"],"game_id":440,"stv_port":27066,"stv_name":"Uncletopia | Frankfurt | 6 | All Maps | STV","players":null},{"server_id":23,"name":"Uncletopia | Frankfurt | 7 | Stopwatch Beta","name_short":"frk-7","host":"frk-1.de.uncletopia.com","port":27075,"enabled":true,"region":"eu","cc":"de","latitude":50.110924,"longitude":8.682127,"reserved":0,"last_update":"0001-01-01T00:00:00Z","name_a2s":"Uncletopia | Frankfurt | 7 | Stopwatch Beta","protocol":17,"map":"pl_upward","folder":"tf","game":"Team Fortress","app_id":440,"player_count":0,"max_players":24,"Bots":0,"server_type":"Dedicated","server_os":"Linux","password":true,"vac":true,"version":"7742253","steam_id":85568392924742827,"keywords":["nocrits","nodmgspread","payload","uncletopia"],"game_id":440,"stv_port":27076,"stv_name":"Uncletopia | Frankfurt | 7 | Stopwatch Beta | STV","players":null},{"server_id":24,"name":"Uncletopia | Frankfurt | 8 | Community","name_short":"frk-8","host":"frk-1.de.uncletopia.com","port":27085,"enabled":true,"region":"eu","cc":"de","latitude":50.110924,"longitude":8.682127,"reserved":0,"last_update":"0001-01-01T00:00:00Z","name_a2s":"Uncletopia | Frankfurt | 8 | Community","protocol":17,"map":"workshop/koth_synthetic_rc6a.ugc1549817316","folder":"tf","game":"Team Fortress","app_id":440,"player_count":0,"max_players":24,"Bots":0,"server_type":"Dedicated","server_os":"Linux","password":true,"vac":true,"version":"7742253","steam_id":85568392924742828,"keywords":["cp","nocrits","nodmgspread","uncletopia"],"game_id":440,"stv_port":27086,"stv_name":"Uncletopia | Frankfurt | 8 | Community | STV","players":null},{"server_id":202,"name":"Uncletopia | Hong Kong | 1 | All Maps","name_short":"hgk-1","host":"hgk-1.hk.uncletopia.com","port":27015,"enabled":true,"region":"asia","cc":"hk","latitude":22.302711,"longitude":114.177216,"reserved":0,"last_update":"0001-01-01T00:00:00Z","name_a2s":"Uncletopia | Hong Kong | 1 | All Maps","protocol":17,"map":"pl_swiftwater_final1","folder":"tf","game":"Team Fortress","app_id":440,"player_count":24,"max_players":24,"Bots":0,"server_type":"Dedicated","server_os":"Linux","password":true,"vac":true,"version":"7742253","steam_id":85568392924494504,"keywords":["nocrits","nodmgspread","payload","uncletopia"],"game_id":440,"stv_port":27016,"stv_name":"Uncletopia | Hong Kong | 1 | All Maps | STV","players":[{"user_id":488,"name":"tuxy","steam_id":76561198996816684,"connected_time":2290000000000,"state":"active","ping":66},{"user_id":501,"name":"ConHosh1","steam_id":76561199387718733,"connected_time":1514000000000,"state":"active","ping":69},{"user_id":492,"name":"62","steam_id":76561199125040367,"connected_time":1681000000000,"state":"active","ping":46},{"user_id":519,"name":"Nice","steam_id":76561199180653046,"connected_time":61000000000,"state":"active","ping":129},{"user_id":494,"name":"am lk","steam_id":76561199077602424,"connected_time":1656000000000,"state":"active","ping":47},{"user_id":444,"name":"Bertengkar","steam_id":76561198213031155,"connected_time":7651000000000,"state":"active","ping":98},{"user_id":506,"name":"Wake up, Mr.West","steam_id":76561198846610729,"connected_time":1338000000000,"state":"active","ping":102},{"user_id":507,"name":"Banana Milk","steam_id":76561198005156257,"connected_time":1279000000000,"state":"active","ping":122},{"user_id":496,"name":"Kek","steam_id":76561199004616229,"connected_time":1634000000000,"state":"spawning","ping":93},{"user_id":517,"name":"Mimosa Samosa","steam_id":76561198435782222,"connected_time":87000000000,"state":"active","ping":51},{"user_id":500,"name":"oppai „Åä„Å£„Å±„ÅÑ protons","steam_id":76561198008307645,"connected_time":1571000000000,"state":"active","ping":77},{"user_id":509,"name":"monkeyman536","steam_id":76561197997717737,"connected_time":1243000000000,"state":"active","ping":124},{"user_id":516,"name":"I am BOX","steam_id":76561198845309411,"connected_time":388000000000,"state":"active","ping":90},{"user_id":520,"name":"Nishizono","steam_id":76561198198136158,"connected_time":56000000000,"state":"connecting","ping":118},{"user_id":466,"name":"P","steam_id":76561198304514505,"connected_time":5034000000000,"state":"active","ping":75},{"user_id":490,"name":"MR. T","steam_id":76561198847421088,"connected_time":2190000000000,"state":"active","ping":122},{"user_id":499,"name":"u/Me(ow)LEx3D","steam_id":76561199227871384,"connected_time":1616000000000,"state":"active","ping":56},{"user_id":502,"name":"lamduahau11","steam_id":76561199236041945,"connected_time":1498000000000,"state":"active","ping":88},{"user_id":515,"name":"QuickStick","steam_id":76561198377845045,"connected_time":613000000000,"state":"active","ping":124},{"user_id":441,"name":"'","steam_id":76561198413116920,"connected_time":8094000000000,"state":"active","ping":83},{"user_id":508,"name":"K3NS #savetf2","steam_id":76561199186541520,"connected_time":1269000000000,"state":"active","ping":134},{"user_id":511,"name":"p1st0n","steam_id":76561198992723983,"connected_time":1100000000000,"state":"active","ping":96},{"user_id":514,"name":"yam","steam_id":76561198980933984,"connected_time":730000000000,"state":"active","ping":88},{"user_id":518,"name":"unchi","steam_id":76561197969873415,"connected_time":87000000000,"state":"active","ping":100}]},{"server_id":1,"name":"Uncletopia | Los Angeles | 1 | All Maps","name_short":"lax-1","host":"lax-1.us.uncletopia.com","port":27015,"enabled":true,"region":"us-west","cc":"us","latitude":33.94279,"longitude":-118.41004,"reserved":0,"last_update":"0001-01-01T00:00:00Z","name_a2s":"Uncletopia | Los Angeles | 1 | All Maps","protocol":17,"map":"pl_borneo","folder":"tf","game":"Team Fortress","app_id":440,"player_count":0,"max_players":24,"Bots":0,"server_type":"Dedicated","server_os":"Linux","password":true,"vac":true,"version":"7742253","steam_id":85568392924469991,"keywords":["nocrits","nodmgspread","payload","uncletopia"],"game_id":440,"stv_port":27016,"stv_name":"Uncletopia | Los Angeles | 1 | All Maps | STV","players":null},{"server_id":112,"name":"Uncletopia | Los Angeles | 2 | All Maps","name_short":"lax-2","host":"lax-1.us.uncletopia.com","port":27025,"enabled":true,"region":"us-west","cc":"us","latitude":33.94279,"longitude":-118.41004,"reserved":0,"last_update":"0001-01-01T00:00:00Z","name_a2s":"Uncletopia | Los Angeles | 2 | All Maps","protocol":17,"map":"pl_upward","folder":"tf","game":"Team Fortress","app_id":440,"player_count":0,"max_players":24,"Bots":0,"server_type":"Dedicated","server_os":"Linux","password":true,"vac":true,"version":"7742253","steam_id":85568392924469992,"keywords":["nocrits","nodmgspread","payload","uncletopia"],"game_id":440,"stv_port":27026,"stv_name":"Uncletopia | Los Angeles | 2 | All Maps | STV","players":null},{"server_id":324,"name":"Uncletopia | Los Angeles | 3 | All Maps","name_short":"lax-3","host":"lax-1.us.uncletopia.com","port":27035,"enabled":true,"region":"us-west","cc":"us","latitude":33.94279,"longitude":-118.41004,"reserved":0,"last_update":"0001-01-01T00:00:00Z","name_a2s":"Uncletopia | Los Angeles | 3 | All Maps","protocol":17,"map":"pl_borneo","folder":"tf","game":"Team Fortress","app_id":440,"player_count":0,"max_players":24,"Bots":0,"server_type":"Dedicated","server_os":"Linux","password":true,"vac":true,"version":"7742253","steam_id":85568392924510198,"keywords":["nocrits","nodmgspread","payload","uncletopia"],"game_id":440,"stv_port":27036,"stv_name":"Uncletopia | Los Angeles | 3 | All Maps | STV","players":null},{"server_id":25,"name":"Uncletopia | Los Angeles | 4 | Stopwatch Beta","name_short":"lax-4","host":"lax-1.us.uncletopia.com","port":27045,"enabled":true,"region":"us-west","cc":"us","latitude":33.94279,"longitude":-118.41004,"reserved":0,"last_update":"0001-01-01T00:00:00Z","name_a2s":"Uncletopia | Los Angeles | 4 | Stopwatch Beta","protocol":17,"map":"cp_process_final","folder":"tf","game":"Team Fortress","app_id":440,"player_count":0,"max_players":24,"Bots":0,"server_type":"Dedicated","server_os":"Linux","password":true,"vac":true,"version":"7742253","steam_id":85568392924510199,"keywords":["cp","nocrits","nodmgspread","uncletopia"],"game_id":440,"stv_port":27046,"stv_name":"Uncletopia | Los Angeles | 4 | Stopwatch Beta | STV","players":null},{"server_id":11,"name":"Uncletopia | London | 1 | All Maps","name_short":"lon-1","host":"lon-1.uk.uncletopia.com","port":27015,"enabled":true,"region":"eu","cc":"gb","latitude":51.509865,"longitude":-0.118092,"reserved":0,"last_update":"0001-01-01T00:00:00Z","name_a2s":"Uncletopia | London | 1 | All Maps","protocol":17,"map":"pl_swiftwater_final1","folder":"tf","game":"Team Fortress","app_id":440,"player_count":24,"max_players":24,"Bots":0,"server_type":"Dedicated","server_os":"Linux","password":true,"vac":true,"version":"7742253","steam_id":85568392924367362,"keywords":["nocrits","nodmgspread","payload","uncletopia"],"game_id":440,"stv_port":27016,"stv_name":"Uncletopia | London | 1 | All Maps | STV","players":[{"user_id":239,"name":"MyFirstTimeeeeelel","steam_id":76561199235376543,"connected_time":1023000000000,"state":"active","ping":70},{"user_id":247,"name":"Average Demoman Enjoyer","steam_id":76561198327637965,"connected_time":780000000000,"state":"active","ping":81},{"user_id":255,"name":"Shymtzack","steam_id":76561198160369616,"connected_time":357000000000,"state":"active","ping":101},{"user_id":189,"name":"Zoran Snajper","steam_id":76561198312564061,"connected_time":3382000000000,"state":"active","ping":69},{"user_id":229,"name":"Salesman","steam_id":76561198045527771,"connected_time":1802000000000,"state":"active","ping":55},{"user_id":249,"name":"Icarus300","steam_id":76561198015125766,"connected_time":593000000000,"state":"active","ping":99},{"user_id":244,"name":"hmscole09","steam_id":76561198811362788,"connected_time":914000000000,"state":"active","ping":39},{"user_id":209,"name":"Iducks","steam_id":76561199100633985,"connected_time":2442000000000,"state":"active","ping":52},{"user_id":235,"name":"silicon based life form","steam_id":76561199127121346,"connected_time":1243000000000,"state":"active","ping":52},{"user_id":245,"name":"Panda","steam_id":76561198176342325,"connected_time":857000000000,"state":"active","ping":89},{"user_id":256,"name":"cslevi","steam_id":76561198142858923,"connected_time":193000000000,"state":"active","ping":77},{"user_id":252,"name":"Los Pollos Hermanos","steam_id":76561198146425583,"connected_time":536000000000,"state":"active","ping":71},{"user_id":246,"name":"Arctic","steam_id":76561199100669439,"connected_time":827000000000,"state":"active","ping":48},{"user_id":221,"name":"nudjura","steam_id":76561198281986139,"connected_time":2131000000000,"state":"active","ping":35},{"user_id":257,"name":"Ivun","steam_id":76561198250199228,"connected_time":128000000000,"state":"active","ping":134},{"user_id":227,"name":"luma","steam_id":76561198081649669,"connected_time":1979000000000,"state":"active","ping":75},{"user_id":230,"name":"–ò–Ω—Å–ø–µ–∫—Ç–æ—Ä –ê—Ç–∞—Å","steam_id":76561199175688390,"connected_time":1717000000000,"state":"active","ping":87},{"user_id":243,"name":"hipster_doofus","steam_id":76561197970902697,"connected_time":926000000000,"state":"active","ping":53},{"user_id":250,"name":"Thors","steam_id":76561197968739075,"connected_time":577000000000,"state":"active","ping":45},{"user_id":224,"name":"\u003e_\u003c","steam_id":76561199216923710,"connected_time":2055000000000,"state":"active","ping":138},{"user_id":232,"name":"—Ç—É–∫–∫—É –∏—Ä–º–∞","steam_id":76561197998715016,"connected_time":1619000000000,"state":"active","ping":70},{"user_id":225,"name":"how do i aim","steam_id":76561199230772684,"connected_time":2009000000000,"state":"active","ping":45},{"user_id":238,"name":"Heninem","steam_id":76561197998252354,"connected_time":1045000000000,"state":"active","ping":75},{"user_id":254,"name":"Dolcelatte","steam_id":76561198038501770,"connected_time":481000000000,"state":"active","ping":64}]},{"server_id":114,"name":"Uncletopia | London | 2 | All Maps","name_short":"lon-2","host":"lon-1.uk.uncletopia.com","port":27025,"enabled":true,"region":"eu","cc":"gb","latitude":51.509865,"longitude":-0.118092,"reserved":0,"last_update":"0001-01-01T00:00:00Z","name_a2s":"Uncletopia | London | 2 | All Maps","protocol":17,"map":"koth_harvest_final","folder":"tf","game":"Team Fortress","app_id":440,"player_count":24,"max_players":24,"Bots":0,"server_type":"Dedicated","server_os":"Linux","password":true,"vac":true,"version":"7742253","steam_id":85568392924470941,"keywords":["cp","nocrits","nodmgspread","uncletopia"],"game_id":440,"stv_port":27026,"stv_name":"Uncletopia | London | 2 | All Maps | STV","players":[{"user_id":201,"name":"handsome steve","steam_id":76561198388750592,"connected_time":1402000000000,"state":"active","ping":59},{"user_id":198,"name":"Equinox","steam_id":76561199055592635,"connected_time":1439000000000,"state":"active","ping":50},{"user_id":234,"name":"simn","steam_id":76561198159182269,"connected_time":62000000000,"state":"active","ping":59},{"user_id":191,"name":"BASSLAU36 PLAYS TF2?","steam_id":76561198099594482,"connected_time":2263000000000,"state":"active","ping":93},{"user_id":192,"name":"RinzL","steam_id":76561198149165007,"connected_time":2210000000000,"state":"active","ping":60},{"user_id":178,"name":"r06u3","steam_id":76561198254099253,"connected_time":3090000000000,"state":"active","ping":180},{"user_id":186,"name":"TheBeardedM1G","steam_id":76561198040208946,"connected_time":2495000000000,"state":"active","ping":45},{"user_id":203,"name":"Jar","steam_id":76561198156384007,"connected_time":1374000000000,"state":"active","ping":52},{"user_id":215,"name":"tryna git gud","steam_id":76561199135672389,"connected_time":1167000000000,"state":"active","ping":57},{"user_id":165,"name":"G/3","steam_id":76561198234844188,"connected_time":3479000000000,"state":"active","ping":52},{"user_id":232,"name":"qunqo!","steam_id":76561198336608145,"connected_time":231000000000,"state":"active","ping":91},{"user_id":155,"name":"casual zyzz praiser","steam_id":76561198022382969,"connected_time":4483000000000,"state":"active","ping":76},{"user_id":226,"name":"cottard","steam_id":76561198451550035,"connected_time":572000000000,"state":"active","ping":84},{"user_id":227,"name":"Jamie Hyneman","steam_id":76561198364121077,"connected_time":561000000000,"state":"active","ping":95},{"user_id":219,"name":"playing this game from samsung","steam_id":76561198080631634,"connected_time":999000000000,"state":"active","ping":50},{"user_id":209,"name":"charlag_khan","steam_id":76561197991768268,"connected_time":1247000000000,"state":"active","ping":63},{"user_id":210,"name":"3igen3ggy","steam_id":76561197989548015,"connected_time":1241000000000,"state":"active","ping":70},{"user_id":211,"name":"Sweetcheesus","steam_id":76561198022299033,"connected_time":1236000000000,"state":"active","ping":52},{"user_id":228,"name":"eatmysword_","steam_id":76561199063665709,"connected_time":547000000000,"state":"active","ping":98},{"user_id":129,"name":"nedilya","steam_id":76561198039692077,"connected_time":6148000000000,"state":"active","ping":64},{"user_id":229,"name":"insane","steam_id":76561198968160899,"connected_time":449000000000,"state":"active","ping":64},{"user_id":193,"name":"sleppykoche milk boy","steam_id":76561199046520128,"connected_time":1924000000000,"state":"active","ping":53},{"user_id":217,"name":"alko_bone","steam_id":76561198557773514,"connected_time":1137000000000,"state":"active","ping":117},{"user_id":231,"name":"Perpetual Pub Push","steam_id":76561198256714846,"connected_time":360000000000,"state":"active","ping":30}]},{"server_id":320,"name":"Uncletopia | London | 3 | All Maps","name_short":"lon-3","host":"lon-1.uk.uncletopia.com","port":27035,"enabled":true,"region":"eu","cc":"gb","latitude":51.509865,"longitude":-0.118092,"reserved":0,"last_update":"0001-01-01T00:00:00Z","name_a2s":"Uncletopia | London | 3 | All Maps","protocol":17,"map":"koth_lakeside_final","folder":"tf","game":"Team Fortress","app_id":440,"player_count":4,"max_players":24,"Bots":0,"server_type":"Dedicated","server_os":"Linux","password":true,"vac":true,"version":"7742253","steam_id":85568392924510192,"keywords":["cp","nocrits","nodmgspread","uncletopia"],"game_id":440,"stv_port":27036,"stv_name":"Uncletopia | London | 3 | All Maps | STV","players":[{"user_id":17,"name":"Frazzles","steam_id":76561199228009586,"connected_time":202000000000,"state":"active","ping":52},{"user_id":18,"name":"Archvyle","steam_id":76561198445328161,"connected_time":73000000000,"state":"active","ping":64},{"user_id":19,"name":"Zytaco","steam_id":76561198038616656,"connected_time":57000000000,"state":"active","ping":54},{"user_id":20,"name":"MooK","steam_id":76561198361784169,"connected_time":38000000000,"state":"active","ping":85}]},{"server_id":321,"name":"Uncletopia | London | 4 | All Maps","name_short":"lon-4","host":"lon-1.uk.uncletopia.com","port":27045,"enabled":true,"region":"eu","cc":"gb","latitude":51.509865,"longitude":-0.118092,"reserved":0,"last_update":"0001-01-01T00:00:00Z","name_a2s":"Uncletopia | London | 4 | All Maps","protocol":17,"map":"pl_frontier_final","folder":"tf","game":"Team Fortress","app_id":440,"player_count":24,"max_players":24,"Bots":0,"server_type":"Dedicated","server_os":"Linux","password":true,"vac":true,"version":"7742253","steam_id":85568392924510193,"keywords":["nocrits","nodmgspread","payload","uncletopia"],"game_id":440,"stv_port":27046,"stv_name":"Uncletopia | London | 4 | All Maps | STV","players":[{"user_id":302,"name":"Dr. WAH","steam_id":76561198297778149,"connected_time":535000000000,"state":"active","ping":66},{"user_id":297,"name":"Pipper","steam_id":76561197970326616,"connected_time":756000000000,"state":"active","ping":54},{"user_id":244,"name":"Nomad994","steam_id":76561198051908201,"connected_time":3808000000000,"state":"active","ping":90},{"user_id":269,"name":"Tort","steam_id":76561198329646769,"connected_time":2586000000000,"state":"active","ping":44},{"user_id":285,"name":"sv_MrGibbs","steam_id":76561198114071972,"connected_time":1306000000000,"state":"active","ping":44},{"user_id":290,"name":"dafydd","steam_id":76561198052200325,"connected_time":923000000000,"state":"active","ping":85},{"user_id":303,"name":"RNTenant","steam_id":76561198081863650,"connected_time":509000000000,"state":"active","ping":84},{"user_id":306,"name":"gustavo cringe","steam_id":76561198046873337,"connected_time":255000000000,"state":"active","ping":58},{"user_id":236,"name":"Schizophrenia","steam_id":76561198315642032,"connected_time":4560000000000,"state":"active","ping":75},{"user_id":271,"name":"Gotou","steam_id":76561198101532240,"connected_time":2565000000000,"state":"active","ping":60},{"user_id":294,"name":"McGov","steam_id":76561198211361463,"connected_time":887000000000,"state":"active","ping":60},{"user_id":198,"name":"Axy","steam_id":76561198244029740,"connected_time":6030000000000,"state":"active","ping":49},{"user_id":282,"name":"Panzerwaffle","steam_id":76561198030382800,"connected_time":1345000000000,"state":"active","ping":51},{"user_id":301,"name":"brtaba","steam_id":76561198796334790,"connected_time":597000000000,"state":"active","ping":66},{"user_id":288,"name":"Yaire","steam_id":76561198017343510,"connected_time":1106000000000,"state":"active","ping":59},{"user_id":284,"name":"Knee-eater","steam_id":76561199114057061,"connected_time":1311000000000,"state":"active","ping":57},{"user_id":299,"name":"Slug Warrior","steam_id":76561197996052704,"connected_time":631000000000,"state":"active","ping":133},{"user_id":307,"name":"soar","steam_id":76561198010662796,"connected_time":248000000000,"state":"active","ping":47},{"user_id":286,"name":"√úbergine","steam_id":76561198175517826,"connected_time":1305000000000,"state":"active","ping":57},{"user_id":287,"name":"jwesa","steam_id":76561198018330092,"connected_time":1288000000000,"state":"active","ping":89},{"user_id":279,"name":"Mor'du","steam_id":76561198274105878,"connected_time":1913000000000,"state":"active","ping":86},{"user_id":276,"name":"·óúÀ∞·óú","steam_id":76561198148074472,"connected_time":2188000000000,"state":"active","ping":59},{"user_id":235,"name":"British Disapproval","steam_id":76561198001375260,"connected_time":4708000000000,"state":"active","ping":47},{"user_id":266,"name":"ra","steam_id":76561198147277460,"connected_time":2663000000000,"state":"active","ping":73}]},{"server_id":21,"name":"Uncletopia | London | 5 | All Maps","name_short":"lon-5","host":"lon-1.uk.uncletopia.com","port":27055,"enabled":true,"region":"eu","cc":"gb","latitude":51.509865,"longitude":-0.118092,"reserved":0,"last_update":"0001-01-01T00:00:00Z","name_a2s":"Uncletopia | London | 5 | All Maps","protocol":17,"map":"koth_highpass","folder":"tf","game":"Team Fortress","app_id":440,"player_count":0,"max_players":24,"Bots":0,"server_type":"Dedicated","server_os":"Linux","password":true,"vac":true,"version":"7742253","steam_id":85568392924742829,"keywords":["cp","nocrits","nodmgspread","uncletopia"],"game_id":440,"stv_port":27056,"stv_name":"Uncletopia | London | 5 | All Maps | STV","players":null},{"server_id":22,"name":"Uncletopia | London | 6 | All Maps","name_short":"lon-6","host":"lon-1.uk.uncletopia.com","port":27065,"enabled":true,"region":"eu","cc":"gb","latitude":51.509865,"longitude":-0.118092,"reserved":0,"last_update":"0001-01-01T00:00:00Z","name_a2s":"Uncletopia | London | 6 | All Maps","protocol":17,"map":"cp_process_final","folder":"tf","game":"Team Fortress","app_id":440,"player_count":24,"max_players":24,"Bots":0,"server_type":"Dedicated","server_os":"Linux","password":true,"vac":true,"version":"7742253","steam_id":85568392924742830,"keywords":["cp","nocrits","nodmgspread","uncletopia"],"game_id":440,"stv_port":27066,"stv_name":"Uncletopia | London | 6 | All Maps | STV","players":[{"user_id":285,"name":"Sto√Øcisme","steam_id":76561198127441800,"connected_time":1377000000000,"state":"active","ping":61},{"user_id":287,"name":"Mr.Cupcake","steam_id":76561198152711174,"connected_time":1214000000000,"state":"active","ping":66},{"user_id":282,"name":"Dimitri_612","steam_id":76561199223984137,"connected_time":1891000000000,"state":"active","ping":58},{"user_id":298,"name":"Alessiodoomboy","steam_id":76561198355274960,"connected_time":380000000000,"state":"active","ping":44},{"user_id":233,"name":"Merry Yuletide","steam_id":76561198032359132,"connected_time":5178000000000,"state":"active","ping":45},{"user_id":281,"name":"danny.leuhew","steam_id":76561199229544765,"connected_time":1922000000000,"state":"active","ping":111},{"user_id":294,"name":"waffle toaster","steam_id":76561198799089628,"connected_time":671000000000,"state":"active","ping":54},{"user_id":223,"name":"player","steam_id":76561198054474684,"connected_time":5783000000000,"state":"active","ping":85},{"user_id":299,"name":"rlty","steam_id":76561198009395055,"connected_time":380000000000,"state":"active","ping":121},{"user_id":290,"name":"AlexCr02zer","steam_id":76561199102364541,"connected_time":853000000000,"state":"active","ping":60},{"user_id":268,"name":"torn","steam_id":76561198223003236,"connected_time":2721000000000,"state":"active","ping":55},{"user_id":262,"name":"Comunisation","steam_id":76561199131568273,"connected_time":2952000000000,"state":"active","ping":82},{"user_id":288,"name":"Dominus.","steam_id":76561199065917088,"connected_time":1207000000000,"state":"active","ping":47},{"user_id":295,"name":"Pass_Me_Your_Human_Rights","steam_id":76561198448357990,"connected_time":667000000000,"state":"active","ping":67},{"user_id":272,"name":"somehow danced","steam_id":76561198128250460,"connected_time":2638000000000,"state":"active","ping":106},{"user_id":259,"name":"Flare","steam_id":76561198039098320,"connected_time":3530000000000,"state":"active","ping":54},{"user_id":301,"name":"SpilledMilk","steam_id":76561198174123971,"connected_time":171000000000,"state":"active","ping":61},{"user_id":292,"name":"No, Why?","steam_id":76561198888755969,"connected_time":711000000000,"state":"active","ping":72},{"user_id":297,"name":"I'm playing with Bluetooth head","steam_id":76561198848650365,"connected_time":438000000000,"state":"active","ping":77},{"user_id":249,"name":"glyph","steam_id":76561197980736364,"connected_time":4034000000000,"state":"active","ping":85},{"user_id":296,"name":"azzy","steam_id":76561198061293740,"connected_time":544000000000,"state":"active","ping":84},{"user_id":277,"name":"jeff","steam_id":76561198272815746,"connected_time":2547000000000,"state":"active","ping":50},{"user_id":220,"name":"ALARM","steam_id":76561198120686521,"connected_time":6302000000000,"state":"active","ping":64},{"user_id":278,"name":"Acheron","steam_id":76561198306593373,"connected_time":2543000000000,"state":"active","ping":77}]},{"server_id":40,"name":"Uncletopia | London | 7 | No Payload","name_short":"lon-7","host":"lon-1.uk.uncletopia.com","port":27075,"enabled":true,"region":"eu","cc":"gb","latitude":51.509865,"longitude":-0.118092,"reserved":0,"last_update":"0001-01-01T00:00:00Z","name_a2s":"Uncletopia | London | 7 | No Payload","protocol":17,"map":"cp_badlands","folder":"tf","game":"Team Fortress","app_id":440,"player_count":0,"max_players":24,"Bots":0,"server_type":"Dedicated","server_os":"Linux","password":true,"vac":true,"version":"7742253","steam_id":85568392924964314,"keywords":["cp","nocrits","nodmgspread","uncletopia"],"game_id":440,"stv_port":27076,"stv_name":"Uncletopia | London | 7 | No Payload | STV","players":null},{"server_id":41,"name":"Uncletopia | London | 8 | Community","name_short":"lon-8","host":"lon-1.uk.uncletopia.com","port":27085,"enabled":true,"region":"eu","cc":"gb","latitude":51.509865,"longitude":-0.118092,"reserved":0,"last_update":"0001-01-01T00:00:00Z","name_a2s":"Uncletopia | London | 8 | Community","protocol":17,"map":"workshop/cp_logjam_rc12.ugc454812035","folder":"tf","game":"Team Fortress","app_id":440,"player_count":0,"max_players":24,"Bots":0,"server_type":"Dedicated","server_os":"Linux","password":true,"vac":true,"version":"7742253","steam_id":85568392924964315,"keywords":["cp","nocrits","nodmgspread","uncletopia"],"game_id":440,"stv_port":27086,"stv_name":"Uncletopia | London | 8 | Community | STV","players":null},{"server_id":300,"name":"Uncletopia | Montr√©al | 1 | All Maps","name_short":"mtl-1","host":"mtl-1.ca.uncletopia.com","port":27015,"enabled":true,"region":"us-east","cc":"ca","latitude":45.50889,"longitude":-73.56167,"reserved":0,"last_update":"0001-01-01T00:00:00Z","name_a2s":"Uncletopia | Montr√©al | 1 | All Maps","protocol":17,"map":"koth_lakeside_final","folder":"tf","game":"Team Fortress","app_id":440,"player_count":0,"max_players":24,"Bots":0,"server_type":"Dedicated","server_os":"Linux","password":true,"vac":true,"version":"7742253","steam_id":85568392924500087,"keywords":["cp","nocrits","nodmgspread","uncletopia"],"game_id":440,"stv_port":27016,"stv_name":"Uncletopia | Montr√©al | 1 | All Maps | STV","players":null},{"server_id":301,"name":"Uncletopia | Montr√©al | 2 | All Maps","name_short":"mtl-2","host":"mtl-1.ca.uncletopia.com","port":27025,"enabled":true,"region":"us-east","cc":"ca","latitude":45.50889,"longitude":-73.56167,"reserved":0,"last_update":"0001-01-01T00:00:00Z","name_a2s":"Uncletopia | Montr√©al | 2 | All Maps","protocol":17,"map":"koth_lakeside_final","folder":"tf","game":"Team Fortress","app_id":440,"player_count":0,"max_players":24,"Bots":0,"server_type":"Dedicated","server_os":"Linux","password":true,"vac":true,"version":"7742253","steam_id":85568392924500088,"keywords":["cp","nocrits","nodmgspread","uncletopia"],"game_id":440,"stv_port":27026,"stv_name":"Uncletopia | Montr√©al | 2 | All Maps | STV","players":null},{"server_id":302,"name":"Uncletopia | Montr√©al | 3 | All Maps","name_short":"mtl-3","host":"mtl-1.ca.uncletopia.com","port":27035,"enabled":true,"region":"us-east","cc":"ca","latitude":45.50889,"longitude":-73.56167,"reserved":0,"last_update":"0001-01-01T00:00:00Z","name_a2s":"Uncletopia | Montr√©al | 3 | All Maps","protocol":17,"map":"pl_badwater","folder":"tf","game":"Team Fortress","app_id":440,"player_count":0,"max_players":24,"Bots":0,"server_type":"Dedicated","server_os":"Linux","password":true,"vac":true,"version":"7742253","steam_id":85568392924500089,"keywords":["nocrits","nodmgspread","payload","uncletopia"],"game_id":440,"stv_port":27036,"stv_name":"Uncletopia | Montr√©al | 3 | All Maps | STV","players":null},{"server_id":303,"name":"Uncletopia | Montr√©al | 4 | No Payload","name_short":"mtl-4","host":"mtl-1.ca.uncletopia.com","port":27045,"enabled":true,"region":"us-east","cc":"ca","latitude":45.50889,"longitude":-73.56167,"reserved":0,"last_update":"0001-01-01T00:00:00Z","name_a2s":"Uncletopia | Montr√©al | 4 | No Payload","protocol":17,"map":"koth_highpass","folder":"tf","game":"Team Fortress","app_id":440,"player_count":0,"max_players":24,"Bots":0,"server_type":"Dedicated","server_os":"Linux","password":true,"vac":true,"version":"7742253","steam_id":85568392924500090,"keywords":["cp","nocrits","nodmgspread","uncletopia"],"game_id":440,"stv_port":27046,"stv_name":"Uncletopia | Montr√©al | 4 | No Payload | STV","players":null},{"server_id":13,"name":"Uncletopia | New York City | 1 | All Maps","name_short":"nyc-1","host":"nyc-1.us.uncletopia.com","port":27015,"enabled":true,"region":"us-east","cc":"us","latitude":40.73061,"longitude":-73.93524,"reserved":0,"last_update":"0001-01-01T00:00:00Z","name_a2s":"Uncletopia | New York City | 1 | All Maps","protocol":17,"map":"cp_process_final","folder":"tf","game":"Team Fortress","app_id":440,"player_count":0,"max_players":24,"Bots":0,"server_type":"Dedicated","server_os":"Linux","password":true,"vac":true,"version":"7742253","steam_id":85568392924469993,"keywords":["cp","nocrits","nodmgspread","uncletopia"],"game_id":440,"stv_port":27016,"stv_name":"Uncletopia | New York City | 1 | All Maps | STV","players":null},{"server_id":14,"name":"Uncletopia | New York City | 2 | All Maps","name_short":"nyc-2","host":"nyc-1.us.uncletopia.com","port":27025,"enabled":true,"region":"us-east","cc":"us","latitude":40.73061,"longitude":-73.93524,"reserved":0,"last_update":"0001-01-01T00:00:00Z","name_a2s":"Uncletopia | New York City | 2 | All Maps","protocol":17,"map":"pl_borneo","folder":"tf","game":"Team Fortress","app_id":440,"player_count":0,"max_players":24,"Bots":0,"server_type":"Dedicated","server_os":"Linux","password":true,"vac":true,"version":"7742253","steam_id":85568392924469994,"keywords":["nocrits","nodmgspread","payload","uncletopia"],"game_id":440,"stv_port":27026,"stv_name":"Uncletopia | New York City | 2 | All Maps | STV","players":null},{"server_id":15,"name":"Uncletopia | New York City | 3 | Stopwatch Beta","name_short":"nyc-3","host":"nyc-1.us.uncletopia.com","port":27035,"enabled":true,"region":"us-east","cc":"us","latitude":40.73061,"longitude":-73.93524,"reserved":0,"last_update":"0001-01-01T00:00:00Z","name_a2s":"Uncletopia | New York City | 3 | Stopwatch Beta","protocol":17,"map":"cp_altitude","folder":"tf","game":"Team Fortress","app_id":440,"player_count":0,"max_players":24,"Bots":0,"server_type":"Dedicated","server_os":"Linux","password":true,"vac":true,"version":"7742253","steam_id":85568392924742820,"keywords":["cp","nocrits","nodmgspread","uncletopia"],"game_id":440,"stv_port":27036,"stv_name":"Uncletopia | New York City | 3 | Stopwatch Beta | STV","players":null},{"server_id":16,"name":"Uncletopia | New York City | 4 | Community","name_short":"nyc-4","host":"nyc-1.us.uncletopia.com","port":27045,"enabled":true,"region":"us-east","cc":"us","latitude":40.73061,"longitude":-73.93524,"reserved":0,"last_update":"0001-01-01T00:00:00Z","name_a2s":"Uncletopia | New York City | 4 | Community","protocol":17,"map":"pl_barnblitz","folder":"tf","game":"Team Fortress","app_id":440,"player_count":0,"max_players":24,"Bots":0,"server_type":"Dedicated","server_os":"Linux","password":true,"vac":true,"version":"7742253","steam_id":85568392924742821,"keywords":["nocrits","nodmgspread","payload","uncletopia"],"game_id":440,"stv_port":27046,"stv_name":"Uncletopia | New York City | 4 | Community | STV","players":null},{"server_id":142,"name":"Uncletopia | S√£o Paulo | 1 | All Maps","name_short":"sao-1","host":"sao-1.br.uncletopia.com","port":27015,"enabled":true,"region":"sa","cc":"br","latitude":-23.533773,"longitude":-46.62529,"reserved":0,"last_update":"0001-01-01T00:00:00Z","name_a2s":"Uncletopia | S√£o Paulo | 1 | All Maps","protocol":17,"map":"koth_cascade","folder":"tf","game":"Team Fortress","app_id":440,"player_count":0,"max_players":24,"Bots":0,"server_type":"Dedicated","server_os":"Linux","password":true,"vac":true,"version":"7742253","steam_id":85568392924469996,"keywords":["cp","nocrits","nodmgspread","uncletopia"],"game_id":440,"stv_port":27016,"stv_name":"Uncletopia | S√£o Paulo | 1 | All Maps | STV","players":null},{"server_id":143,"name":"Uncletopia | S√£o Paulo | 2 | All Maps","name_short":"sao-2","host":"sao-2.br.uncletopia.com","port":27015,"enabled":true,"region":"sa","cc":"br","latitude":-23.533773,"longitude":-46.62529,"reserved":0,"last_update":"0001-01-01T00:00:00Z","name_a2s":"Uncletopia | S√£o Paulo | 2 | All Maps","protocol":17,"map":"pl_upward","folder":"tf","game":"Team Fortress","app_id":440,"player_count":3,"max_players":24,"Bots":0,"server_type":"Dedicated","server_os":"Linux","password":true,"vac":true,"version":"7742253","steam_id":85568392924485349,"keywords":["nocrits","nodmgspread","payload","uncletopia"],"game_id":440,"stv_port":27016,"stv_name":"Uncletopia | S√£o Paulo | 2 | All Maps | STV","players":[{"user_id":3,"name":"T.TV/the_h0x","steam_id":76561198148506825,"connected_time":1068000000000,"state":"active","ping":35},{"user_id":4,"name":"Blepy","steam_id":76561198199455773,"connected_time":1036000000000,"state":"active","ping":91},{"user_id":5,"name":"Ï¶àÌïò","steam_id":76561198143438576,"connected_time":571000000000,"state":"active","ping":30}]},{"server_id":7,"name":"Uncletopia | Seattle | 1 | All Maps","name_short":"sea-1","host":"sea-1.us.uncletopia.com","port":27015,"enabled":true,"region":"us-west","cc":"us","latitude":47.608013,"longitude":-122.33517,"reserved":0,"last_update":"0001-01-01T00:00:00Z","name_a2s":"Uncletopia | Seattle | 1 | All Maps","protocol":17,"map":"pl_badwater","folder":"tf","game":"Team Fortress","app_id":440,"player_count":23,"max_players":24,"Bots":0,"server_type":"Dedicated","server_os":"Linux","password":true,"vac":true,"version":"7742253","steam_id":85568392924469997,"keywords":["nocrits","nodmgspread","payload","uncletopia"],"game_id":440,"stv_port":27016,"stv_name":"Uncletopia | Seattle | 1 | All Maps | STV","players":[{"user_id":3,"name":"Rick Assley","steam_id":76561198365019199,"connected_time":706000000000,"state":"active","ping":105},{"user_id":4,"name":"Totally Original Name","steam_id":76561199376462977,"connected_time":705000000000,"state":"active","ping":133},{"user_id":5,"name":"Psycho Tech","steam_id":76561198130480412,"connected_time":705000000000,"state":"active","ping":75},{"user_id":24,"name":"StormRage","steam_id":76561199435079308,"connected_time":87000000000,"state":"active","ping":171},{"user_id":7,"name":"Eleanor Skittle","steam_id":76561198116903554,"connected_time":702000000000,"state":"active","ping":43},{"user_id":8,"name":"StŒürm","steam_id":76561198140983063,"connected_time":702000000000,"state":"active","ping":109},{"user_id":18,"name":"Sad Sapling","steam_id":76561198075612150,"connected_time":317000000000,"state":"active","ping":138},{"user_id":16,"name":"SawmanX2","steam_id":76561199200912169,"connected_time":405000000000,"state":"active","ping":112},{"user_id":11,"name":"Ventastega","steam_id":76561197999366317,"connected_time":602000000000,"state":"active","ping":127},{"user_id":12,"name":"DualiTea","steam_id":76561198081733870,"connected_time":484000000000,"state":"active","ping":94},{"user_id":13,"name":"√ò kromer","steam_id":76561198173472294,"connected_time":476000000000,"state":"active","ping":110},{"user_id":14,"name":"collacot","steam_id":76561198243248798,"connected_time":469000000000,"state":"active","ping":137},{"user_id":15,"name":"Little Linguine","steam_id":76561198816986370,"connected_time":459000000000,"state":"active","ping":91},{"user_id":17,"name":"woodrow","steam_id":76561198323702203,"connected_time":373000000000,"state":"active","ping":90},{"user_id":23,"name":"Barbatruc","steam_id":76561198119019916,"connected_time":152000000000,"state":"active","ping":209},{"user_id":25,"name":"Super Noob","steam_id":76561199179611350,"connected_time":69000000000,"state":"spawning","ping":114},{"user_id":22,"name":"Ping","steam_id":76561199206514106,"connected_time":218000000000,"state":"active","ping":109},{"user_id":26,"name":"Kagami Hiiragi Lucky Star","steam_id":76561199169786627,"connected_time":35000000000,"state":"active","ping":107},{"user_id":27,"name":"‚ô•Yesterday‚ô•","steam_id":76561198348199088,"connected_time":32000000000,"state":"active","ping":74},{"user_id":28,"name":"Jeff (100 hours of sniper)","steam_id":76561198094572694,"connected_time":19000000000,"state":"spawning","ping":163},{"user_id":29,"name":"dexolexa","steam_id":76561198869600197,"connected_time":10000000000,"state":"spawning","ping":246},{"user_id":30,"name":"–≥—Ä—É—Å—Ç–Ω—ã–π","steam_id":76561198274550638,"connected_time":2000000000,"state":"spawning","ping":111},{"user_id":31,"name":"mrbeast109385079350229083479082","steam_id":76561198370687830,"connected_time":0,"state":"spawning","ping":26}]},{"server_id":119,"name":"Uncletopia | Seattle | 2 | All Maps","name_short":"sea-2","host":"sea-1.us.uncletopia.com","port":27025,"enabled":true,"region":"us-west","cc":"us","latitude":47.608013,"longitude":-122.33517,"reserved":0,"last_update":"0001-01-01T00:00:00Z","name_a2s":"Uncletopia | Seattle | 2 | All Maps","protocol":17,"map":"pl_swiftwater_final1","folder":"tf","game":"Team Fortress","app_id":440,"player_count":0,"max_players":24,"Bots":0,"server_type":"Dedicated","server_os":"Linux","password":true,"vac":true,"version":"7742253","steam_id":85568392924469998,"keywords":["nocrits","nodmgspread","payload","uncletopia"],"game_id":440,"stv_port":27026,"stv_name":"Uncletopia | Seattle | 2 | All Maps | STV","players":null},{"server_id":406,"name":"Uncletopia | Seattle | 3 | Stopwatch Beta","name_short":"sea-3","host":"sea-1.us.uncletopia.com","port":27035,"enabled":true,"region":"us-west","cc":"us","latitude":47.608013,"longitude":-122.33517,"reserved":0,"last_update":"0001-01-01T00:00:00Z","name_a2s":"Uncletopia | Seattle | 3 | Stopwatch Beta","protocol":17,"map":"pl_upward","folder":"tf","game":"Team Fortress","app_id":440,"player_count":0,"max_players":24,"Bots":0,"server_type":"Dedicated","server_os":"Linux","password":true,"vac":false,"version":"7742253","steam_id":0,"keywords":["nocrits","nodmgspread","payload","uncletopia"],"game_id":440,"stv_port":27036,"stv_name":"Uncletopia | Seattle | 3 | Stopwatch Beta | STV","players":null},{"server_id":17,"name":"Uncletopia | San Francisco | 1 | All Maps","name_short":"sfo-1","host":"sfo-1.us.uncletopia.com","port":27015,"enabled":true,"region":"us-west","cc":"us","latitude":37.77397,"longitude":-122.4313,"reserved":0,"last_update":"0001-01-01T00:00:00Z","name_a2s":"Uncletopia | San Francisco | 1 | All Maps","protocol":17,"map":"koth_cascade","folder":"tf","game":"Team Fortress","app_id":440,"player_count":0,"max_players":24,"Bots":0,"server_type":"Dedicated","server_os":"Linux","password":true,"vac":true,"version":"7742253","steam_id":85568392924469999,"keywords":["cp","nocrits","nodmgspread","uncletopia"],"game_id":440,"stv_port":27016,"stv_name":"Uncletopia | San Francisco | 1 | All Maps | STV","players":null},{"server_id":18,"name":"Uncletopia | San Francisco | 2 | All Maps","name_short":"sfo-2","host":"sfo-1.us.uncletopia.com","port":27025,"enabled":true,"region":"us-west","cc":"us","latitude":37.77397,"longitude":-122.4313,"reserved":0,"last_update":"0001-01-01T00:00:00Z","name_a2s":"Uncletopia | San Francisco | 2 | All Maps","protocol":17,"map":"cp_process_final","folder":"tf","game":"Team Fortress","app_id":440,"player_count":0,"max_players":24,"Bots":0,"server_type":"Dedicated","server_os":"Linux","password":true,"vac":true,"version":"7742253","steam_id":85568392924470000,"keywords":["cp","nocrits","nodmgspread","uncletopia"],"game_id":440,"stv_port":27026,"stv_name":"Uncletopia | San Francisco | 2 | All Maps | STV","players":null},{"server_id":19,"name":"Uncletopia | San Francisco | 3 | Stopwatch Beta","name_short":"sfo-3","host":"sfo-1.us.uncletopia.com","port":27035,"enabled":true,"region":"us-west","cc":"us","latitude":37.77397,"longitude":-122.4313,"reserved":0,"last_update":"0001-01-01T00:00:00Z","name_a2s":"Uncletopia | San Francisco | 3 | Stopwatch Beta","protocol":17,"map":"cp_snakewater_final1","folder":"tf","game":"Team Fortress","app_id":440,"player_count":0,"max_players":24,"Bots":0,"server_type":"Dedicated","server_os":"Linux","password":true,"vac":true,"version":"7742253","steam_id":85568392924742824,"keywords":["cp","nocrits","nodmgspread","uncletopia"],"game_id":440,"stv_port":27036,"stv_name":"Uncletopia | San Francisco | 3 | Stopwatch Beta | STV","players":null},{"server_id":20,"name":"Uncletopia | San Francisco | 4 | Community","name_short":"sfo-4","host":"sfo-1.us.uncletopia.com","port":27045,"enabled":true,"region":"us-west","cc":"us","latitude":37.77397,"longitude":-122.4313,"reserved":0,"last_update":"0001-01-01T00:00:00Z","name_a2s":"Uncletopia | San Francisco | 4 | Community","protocol":17,"map":"cp_altitude","folder":"tf","game":"Team Fortress","app_id":440,"player_count":0,"max_players":24,"Bots":0,"server_type":"Dedicated","server_os":"Linux","password":true,"vac":true,"version":"7742253","steam_id":85568392924742826,"keywords":["cp","nocrits","nodmgspread","uncletopia"],"game_id":440,"stv_port":27046,"stv_name":"Uncletopia | San Francisco | 4 | Community | STV","players":null},{"server_id":141,"name":"Uncletopia | Sydney | 1 | All Maps","name_short":"syd-1","host":"syd-1.au.uncletopia.com","port":27015,"enabled":true,"region":"au","cc":"au","latitude":-33.865143,"longitude":151.2099,"reserved":0,"last_update":"0001-01-01T00:00:00Z","name_a2s":"Uncletopia | Sydney | 1 | All Maps","protocol":17,"map":"cp_sunshine","folder":"tf","game":"Team Fortress","app_id":440,"player_count":6,"max_players":24,"Bots":0,"server_type":"Dedicated","server_os":"Linux","password":true,"vac":true,"version":"7742253","steam_id":85568392924470001,"keywords":["cp","nocrits","nodmgspread","uncletopia"],"game_id":440,"stv_port":27016,"stv_name":"Uncletopia | Sydney | 1 | All Maps | STV","players":[{"user_id":733,"name":"expunged","steam_id":76561199121374960,"connected_time":329000000000,"state":"active","ping":126},{"user_id":686,"name":"Branko","steam_id":76561199262196710,"connected_time":3985000000000,"state":"active","ping":45},{"user_id":721,"name":"tim88435","steam_id":76561198089653987,"connected_time":959000000000,"state":"active","ping":44},{"user_id":735,"name":"doctor morbin' (real)","steam_id":76561199365241695,"connected_time":46000000000,"state":"active","ping":124},{"user_id":730,"name":"Your Pyro Girlfriend \u003e:3","steam_id":76561199060433627,"connected_time":595000000000,"state":"active","ping":86},{"user_id":703,"name":"Merrynova","steam_id":76561198147747463,"connected_time":3148000000000,"state":"active","ping":64}]},{"server_id":123,"name":"Uncletopia | Sydney | 2 | All Maps","name_short":"syd-2","host":"syd-1.au.uncletopia.com","port":27025,"enabled":true,"region":"au","cc":"au","latitude":-33.865143,"longitude":151.2099,"reserved":0,"last_update":"0001-01-01T00:00:00Z","name_a2s":"Uncletopia | Sydney | 2 | All Maps","protocol":17,"map":"cp_snakewater_final1","folder":"tf","game":"Team Fortress","app_id":440,"player_count":0,"max_players":24,"Bots":0,"server_type":"Dedicated","server_os":"Linux","password":true,"vac":true,"version":"7742253","steam_id":85568392924470002,"keywords":["cp","nocrits","nodmgspread","uncletopia"],"game_id":440,"stv_port":27026,"stv_name":"Uncletopia | Sydney | 2 | All Maps | STV","players":null},{"server_id":395,"name":"Uncletopia | Sydney | 3 | All Maps","name_short":"syd-3","host":"syd-1.au.uncletopia.com","port":27035,"enabled":true,"region":"au","cc":"au","latitude":-33.865143,"longitude":151.2099,"reserved":0,"last_update":"0001-01-01T00:00:00Z","name_a2s":"Uncletopia | Sydney | 3 | All Maps","protocol":17,"map":"koth_lakeside_final","folder":"tf","game":"Team Fortress","app_id":440,"player_count":0,"max_players":24,"Bots":0,"server_type":"Dedicated","server_os":"Linux","password":true,"vac":true,"version":"7742253","steam_id":85568392925194467,"keywords":["cp","nocrits","nodmgspread","uncletopia"],"game_id":440,"stv_port":27036,"stv_name":"Uncletopia | Sydney | 3 | All Maps | STV","players":null},{"server_id":396,"name":"Uncletopia | Sydney | 4 | All Maps","name_short":"syd-4","host":"syd-1.au.uncletopia.com","port":27045,"enabled":true,"region":"au","cc":"au","latitude":-33.865143,"longitude":151.2099,"reserved":0,"last_update":"0001-01-01T00:00:00Z","name_a2s":"Uncletopia | Sydney | 4 | All Maps","protocol":17,"map":"pl_borneo","folder":"tf","game":"Team Fortress","app_id":440,"player_count":0,"max_players":24,"Bots":0,"server_type":"Dedicated","server_os":"Linux","password":true,"vac":true,"version":"7742253","steam_id":85568392925397958,"keywords":["nocrits","nodmgspread","payload","uncletopia"],"game_id":440,"stv_port":27046,"stv_name":"Uncletopia | Sydney | 4 | All Maps | STV","players":null},{"server_id":58,"name":"Uncletopia | Sydney | 5 | Stopwatch Beta","name_short":"syd-5","host":"syd-1.au.uncletopia.com","port":27055,"enabled":true,"region":"au","cc":"au","latitude":-33.865143,"longitude":151.2099,"reserved":0,"last_update":"0001-01-01T00:00:00Z","name_a2s":"Uncletopia | Sydney | 5 | Stopwatch Beta","protocol":17,"map":"workshop/koth_ashville_final.ugc2130459942","folder":"tf","game":"Team Fortress","app_id":440,"player_count":0,"max_players":24,"Bots":0,"server_type":"Dedicated","server_os":"Linux","password":true,"vac":true,"version":"7742253","steam_id":85568392925397959,"keywords":["cp","nocrits","nodmgspread","uncletopia"],"game_id":440,"stv_port":27056,"stv_name":"Uncletopia | Sydney | 5 | Stopwatch Beta | STV","players":null},{"server_id":59,"name":"Uncletopia | Sydney | 6 | Community","name_short":"syd-6","host":"syd-1.au.uncletopia.com","port":27065,"enabled":true,"region":"au","cc":"au","latitude":-33.865143,"longitude":151.2099,"reserved":0,"last_update":"0001-01-01T00:00:00Z","name_a2s":"Uncletopia | Sydney | 6 | Community","protocol":17,"map":"workshop/pl_fifthcurve_rc1.ugc648227046","folder":"tf","game":"Team Fortress","app_id":440,"player_count":0,"max_players":24,"Bots":0,"server_type":"Dedicated","server_os":"Linux","password":true,"vac":true,"version":"7742253","steam_id":85568392925397960,"keywords":["nocrits","nodmgspread","payload","uncletopia"],"game_id":440,"stv_port":27066,"stv_name":"Uncletopia | Sydney | 6 | Community | STV","players":null},{"server_id":49,"name":"Uncletopia | Warsaw | 1 | All Maps","name_short":"waw-1","host":"waw-1.pl.uncletopia.com","port":27015,"enabled":true,"region":"eu","cc":"pl","latitude":52.2297,"longitude":21.017532,"reserved":0,"last_update":"0001-01-01T00:00:00Z","name_a2s":"Uncletopia | Warsaw | 1 | All Maps","protocol":17,"map":"koth_lakeside_final","folder":"tf","game":"Team Fortress","app_id":440,"player_count":0,"max_players":24,"Bots":0,"server_type":"Dedicated","server_os":"Linux","password":true,"vac":true,"version":"7723704","steam_id":85568392925397850,"keywords":["cp","nocrits","nodmgspread","uncletopia"],"game_id":440,"stv_port":27016,"stv_name":"Uncletopia | Warsaw | 1 | All Maps | STV","players":null},{"server_id":50,"name":"Uncletopia | Warsaw | 2 | All Maps","name_short":"waw-2","host":"waw-1.pl.uncletopia.com","port":27025,"enabled":true,"region":"eu","cc":"pl","latitude":52.2297,"longitude":21.017532,"reserved":0,"last_update":"0001-01-01T00:00:00Z","name_a2s":"Uncletopia | Warsaw | 2 | All Maps","protocol":17,"map":"cp_mountainlab","folder":"tf","game":"Team Fortress","app_id":440,"player_count":0,"max_players":24,"Bots":0,"server_type":"Dedicated","server_os":"Linux","password":true,"vac":true,"version":"7742253","steam_id":85568392925397851,"keywords":["cp","nocrits","nodmgspread","uncletopia"],"game_id":440,"stv_port":27026,"stv_name":"Uncletopia | Warsaw | 2 | All Maps | STV","players":null},{"server_id":51,"name":"Uncletopia | Warsaw | 3 | All Maps","name_short":"waw-3","host":"waw-1.pl.uncletopia.com","port":27035,"enabled":true,"region":"eu","cc":"pl","latitude":52.2297,"longitude":21.017532,"reserved":0,"last_update":"0001-01-01T00:00:00Z","name_a2s":"Uncletopia | Warsaw | 3 | All Maps","protocol":17,"map":"pl_frontier_final","folder":"tf","game":"Team Fortress","app_id":440,"player_count":0,"max_players":24,"Bots":0,"server_type":"Dedicated","server_os":"Linux","password":true,"vac":true,"version":"7742253","steam_id":85568392925397852,"keywords":["nocrits","nodmgspread","payload","uncletopia"],"game_id":440,"stv_port":27036,"stv_name":"Uncletopia | Warsaw | 3 | All Maps | STV","players":null},{"server_id":52,"name":"Uncletopia | Warsaw | 4 | All Maps","name_short":"waw-4","host":"waw-1.pl.uncletopia.com","port":27045,"enabled":true,"region":"eu","cc":"pl","latitude":52.2297,"longitude":21.017532,"reserved":0,"last_update":"0001-01-01T00:00:00Z","name_a2s":"Uncletopia | Warsaw | 4 | All Maps","protocol":17,"map":"cp_mountainlab","folder":"tf","game":"Team Fortress","app_id":440,"player_count":0,"max_players":24,"Bots":0,"server_type":"Dedicated","server_os":"Linux","password":true,"vac":true,"version":"7742253","steam_id":85568392925397853,"keywords":["cp","nocrits","nodmgspread","uncletopia"],"game_id":440,"stv_port":27046,"stv_name":"Uncletopia | Warsaw | 4 | All Maps | STV","players":null},{"server_id":53,"name":"Uncletopia | Warsaw | 5 | Stopwatch Beta","name_short":"waw-5","host":"waw-1.pl.uncletopia.com","port":27055,"enabled":true,"region":"eu","cc":"pl","latitude":52.2297,"longitude":21.017532,"reserved":0,"last_update":"0001-01-01T00:00:00Z","name_a2s":"Uncletopia | Warsaw | 5 | Stopwatch Beta","protocol":17,"map":"pl_pier","folder":"tf","game":"Team Fortress","app_id":440,"player_count":0,"max_players":24,"Bots":0,"server_type":"Dedicated","server_os":"Linux","password":true,"vac":true,"version":"7742253","steam_id":85568392925397854,"keywords":["nocrits","nodmgspread","payload","uncletopia"],"game_id":440,"stv_port":27056,"stv_name":"Uncletopia | Warsaw | 5 | Stopwatch Beta | STV","players":null},{"server_id":54,"name":"Uncletopia | Warsaw | 6 | Community","name_short":"waw-6","host":"waw-1.pl.uncletopia.com","port":27065,"enabled":true,"region":"eu","cc":"pl","latitude":52.2297,"longitude":21.017532,"reserved":0,"last_update":"0001-01-01T00:00:00Z","name_a2s":"Uncletopia | Warsaw | 6 | Community","protocol":17,"map":"workshop/koth_slaughter_rc1.ugc1712845210","folder":"tf","game":"Team Fortress","app_id":440,"player_count":0,"max_players":24,"Bots":0,"server_type":"Dedicated","server_os":"Linux","password":true,"vac":true,"version":"7742253","steam_id":85568392925397856,"keywords":["cp","nocrits","nodmgspread","uncletopia"],"game_id":440,"stv_port":27066,"stv_name":"Uncletopia | Warsaw | 6 | Community | STV","players":null}]}