{"status":true,"message":"","result":[{"server_id":9,"name":"Uncletopia | Atlanta | 1 | All Maps","name_short":"atl-1","host":"atl-1.us.uncletopia.com","port":27015,"enabled":true,"region":"us-east","cc":"us","latitude":33.753746,"longitude":-84.38633,"reserved":0,"last_update":"0001-01-01T00:00:00Z","name_a2s":"Uncletopia | Atlanta | 1 | All Maps","protocol":17,"map":"pl_swiftwater_final1","folder":"tf","game":"Team Fortress","app_id":440,"player_count":9,"max_players":24,"Bots":0,"server_type":"Dedicated","server_os":"Linux","password":true,"vac":true,"version":"7723704","steam_id":85568392924469982,"keywords":["nocrits","nodmgspread","payload","uncletopia"],"game_id":440,"stv_port":27016,"stv_name":"Uncletopia | Atlanta | 1 | All Maps | STV","players":[{"user_id":15,"name":"ATL1 | on my hunting trip","steam_id":76561198315341646,"connected_time":1751000000000,"state":"active","ping":64},{"user_id":16,"name":"sheep","steam_id":76561198172943006,"connected_time":1657000000000,"state":"active","ping":60},{"user_id":19,"name":"mr_dripnsplash","steam_id":76561199145352716,"connected_time":1222000000000,"state":"active","ping":56},{"user_id":22,"name":"squig_","steam_id":76561198043726592,"connected_time":826000000000,"state":"active","ping":60},{"user_id":23,"name":"anhedonia","steam_id":76561198014557455,"connected_time":291000000000,"state":"active","ping":79},{"user_id":24,"name":"bdkaine1","steam_id":76561198133545467,"connected_time":173000000000,"state":"active","ping":46},{"user_id":25,"name":"PadrePockets","steam_id":76561197993251606,"connected_time":112000000000,"state":"active","ping":59},{"user_id":26,"name":"CoherentCarpet („Éé‡≤†Áõä‡≤†)\ufffd\ufffd","steam_id":76561198045625360,"connected_time":86000000000,"state":"active","ping":124},{"user_id":27,"name":"Shepper2k","steam_id":76561198033960883,"connected_time":62000000000,"state":"spawning","ping":191}]},{"server_id":400,"name":"Uncletopia | Atlanta | 3 | Stopwatch Beta","name_short":"atl-3","host":"atl-1.us.uncletopia.com","port":27035,"enabled":true,"region":"us-east","cc":"us","latitude":33.753746,"longitude":-84.38633,"reserved":0,"last_update":"0001-01-01T00:00:00Z","name_a2s":"Uncletopia | Atlanta | 3 | Stopwatch Beta","protocol":17,"map":"koth_cascade","folder":"tf","game":"Team Fortress","app_id":440,"player_count":0,"max_players":24,"Bots":0,"server_type":"Dedicated","server_os":"Linux","password":true,"vac":true,"version":"7723704","steam_id":85568392924515187,"keywords":["cp","nocrits","nodmgspread","uncletopia"],"game_id":440,"stv_port":27036,"stv_name":"Uncletopia | Atlanta | 3 | Stopwatch Beta | STV","players":null},{"server_id":401,"name":"Uncletopia | Atlanta | 4 | No Payload","name_short":"atl-4","host":"atl-1.us.uncletopia.com","port":27045,"enabled":true,"region":"us-east","cc":"us","latitude":33.753746,"longitude":-84.38633,"reserved":0,"last_update":"0001-01-01T00:00:00Z","name_a2s":"Uncletopia | Atlanta | 4 | No Payload","protocol":17,"map":"pl_pier","folder":"tf","game":"Team Fortress","app_id":440,"player_count":0,"max_players":24,"Bots":0,"server_type":"Dedicated","server_os":"Linux","password":true,"vac":true,"version":"7723704","steam_id":85568392924515188,"keywords":["nocrits","nodmgspread","payload","uncletopia"],"game_id":440,"stv_port":27046,"stv_name":"Uncletopia | Atlanta | 4 | No Payload | STV","players":null},{"server_id":2,"name":"Uncletopia | Chicago | 1 | All Maps","name_short":"chi-1","host":"chi-1.us.uncletopia.com","port":27015,"enabled":true,"region":"us-central","cc":"us","latitude":41.881832,"longitude":-87.62318,"reserved":0,"last_update":"0001-01-01T00:00:00Z","name_a2s":"Uncletopia | Chicago | 1 | All Maps","protocol":17,"map":"koth_lakeside_final","folder":"tf","game":"Team Fortress","app_id":440,"player_count":24,"max_players":24,"Bots":0,"server_type":"Dedicated","server_os":"Linux","password":true,"vac":true,"version":"7723704","steam_id":85568392924469984,"keywords":["cp","nocrits","nodmgspread","uncletopia"],"game_id":440,"stv_port":27016,"stv_name":"Uncletopia | Chicago | 1 | All Maps | STV","players":[{"user_id":84,"name":"mommy claus","steam_id":76561199230929836,"connected_time":1930000000000,"state":"active","ping":84},{"user_id":92,"name":"CMC","steam_id":76561198065859204,"connected_time":1491000000000,"state":"active","ping":75},{"user_id":93,"name":"Kraul","steam_id":76561198043682060,"connected_time":1472000000000,"state":"active","ping":77},{"user_id":81,"name":"lambmyth","steam_id":76561199215261209,"connected_time":2493000000000,"state":"active","ping":76},{"user_id":86,"name":"TwistedCamel","steam_id":76561198011396500,"connected_time":1836000000000,"state":"active","ping":51},{"user_id":91,"name":"vortexgamer","steam_id":76561197999435527,"connected_time":1591000000000,"state":"active","ping":63},{"user_id":9,"name":"Kol","steam_id":76561199151398882,"connected_time":9073000000000,"state":"active","ping":90},{"user_id":94,"name":"Jailbreak","steam_id":76561198802085218,"connected_time":1457000000000,"state":"active","ping":67},{"user_id":70,"name":"ENORMOUS HOG","steam_id":76561198079923652,"connected_time":4080000000000,"state":"active","ping":77},{"user_id":89,"name":"SRV","steam_id":76561198026589960,"connected_time":1729000000000,"state":"active","ping":55},{"user_id":98,"name":"name him golfball","steam_id":76561198068958789,"connected_time":1235000000000,"state":"active","ping":59},{"user_id":54,"name":"valtiel","steam_id":76561198165212575,"connected_time":6093000000000,"state":"active","ping":61},{"user_id":113,"name":"Mortimer Khan","steam_id":76561197968829990,"connected_time":142000000000,"state":"active","ping":78},{"user_id":105,"name":"wizorb","steam_id":76561198002172674,"connected_time":682000000000,"state":"active","ping":72},{"user_id":95,"name":"Drunk on Sodium","steam_id":76561199016285746,"connected_time":1438000000000,"state":"active","ping":121},{"user_id":106,"name":"Ruusty","steam_id":76561198327249755,"connected_time":562000000000,"state":"active","ping":68},{"user_id":83,"name":"Vem","steam_id":76561198117273112,"connected_time":2322000000000,"state":"active","ping":63},{"user_id":109,"name":"luxin","steam_id":76561198399383047,"connected_time":309000000000,"state":"active","ping":63},{"user_id":116,"name":"griptape","steam_id":76561198078415931,"connected_time":0,"state":"spawning","ping":42},{"user_id":51,"name":"lost in spaaaaace","steam_id":76561199085974120,"connected_time":6578000000000,"state":"active","ping":58},{"user_id":101,"name":"pinglefingle","steam_id":76561198216580197,"connected_time":1026000000000,"state":"active","ping":78},{"user_id":100,"name":"Feared Gamer","steam_id":76561198350127514,"connected_time":1118000000000,"state":"active","ping":60},{"user_id":64,"name":"The Engie","steam_id":76561198029782412,"connected_time":4656000000000,"state":"active","ping":66},{"user_id":115,"name":"Joseph Madre","steam_id":76561199084714284,"connected_time":139000000000,"state":"active","ping":60}]},{"server_id":106,"name":"Uncletopia | Chicago | 2 | All Maps","name_short":"chi-2","host":"chi-1.us.uncletopia.com","port":27025,"enabled":true,"region":"us-central","cc":"us","latitude":41.881832,"longitude":-87.62318,"reserved":0,"last_update":"0001-01-01T00:00:00Z","name_a2s":"Uncletopia | Chicago | 2 | All Maps","protocol":17,"map":"koth_highpass","folder":"tf","game":"Team Fortress","app_id":440,"player_count":0,"max_players":24,"Bots":0,"server_type":"Dedicated","server_os":"Linux","password":true,"vac":true,"version":"7723704","steam_id":85568392924469985,"keywords":["cp","nocrits","nodmgspread","uncletopia"],"game_id":440,"stv_port":27026,"stv_name":"Uncletopia | Chicago | 2 | All Maps | STV","players":null},{"server_id":402,"name":"Uncletopia | Chicago | 3 | All Maps","name_short":"chi-3","host":"chi-1.us.uncletopia.com","port":27035,"enabled":true,"region":"us-central","cc":"us","latitude":41.881832,"longitude":-87.62318,"reserved":0,"last_update":"0001-01-01T00:00:00Z","name_a2s":"Uncletopia | Chicago | 3 | All Maps","protocol":17,"map":"cp_mountainlab","folder":"tf","game":"Team Fortress","app_id":440,"player_count":0,"max_players":24,"Bots":0,"server_type":"Dedicated","server_os":"Linux","password":true,"vac":true,"version":"7723704","steam_id":85568392924515191,"keywords":["cp","nocrits","nodmgspread","uncletopia"],"game_id":440,"stv_port":27036,"stv_name":"Uncletopia | Chicago | 3 | All Maps | STV","players":null},{"server_id":403,"name":"Uncletopia | Chicago | 4 | All Maps","name_short":"chi-4","host":"chi-1.us.uncletopia.com","port":27045,"enabled":true,"region":"us-central","cc":"us","latitude":41.881832,"longitude":-87.62318,"reserved":0,"last_update":"0001-01-01T00:00:00Z","name_a2s":"Uncletopia | Chicago | 4 | All Maps","protocol":17,"map":"pl_swiftwater_final1","folder":"tf","game":"Team Fortress","app_id":440,"player_count":0,"max_players":24,"Bots":0,"server_type":"Dedicated","server_os":"Linux","password":true,"vac":true,"version":"7723704","steam_id":85568392924515193,"keywords":["nocrits","nodmgspread","payload","uncletopia"],"game_id":440,"stv_port":27046,"stv_name":"Uncletopia | Chicago | 4 | All Maps | STV","players":null},{"server_id":36,"name":"Uncletopia | Chicago | 5 | All Maps","name_short":"chi-5","host":"chi-2.us.uncletopia.com","port":27015,"enabled":true,"region":"us-central","cc":"us","latitude":41.881832,"longitude":-87.62318,"reserved":0,"last_update":"0001-01-01T00:00:00Z","name_a2s":"Uncletopia | Chicago | 5 | All Maps","protocol":17,"map":"cp_altitude","folder":"tf","game":"Team Fortress","app_id":440,"player_count":0,"max_players":24,"Bots":0,"server_type":"Dedicated","server_os":"Linux","password":true,"vac":true,"version":"7723704","steam_id":85568392924866362,"keywords":["cp","nocrits","nodmgspread","uncletopia"],"game_id":440,"stv_port":27016,"stv_name":"Uncletopia | Chicago | 5 | All Maps | STV","players":null},{"server_id":37,"name":"Uncletopia | Chicago | 6 | All Maps","name_short":"chi-6","host":"chi-2.us.uncletopia.com","port":27025,"enabled":true,"region":"us-central","cc":"us","latitude":41.881832,"longitude":-87.62318,"reserved":0,"last_update":"0001-01-01T00:00:00Z","name_a2s":"Uncletopia | Chicago | 6 | All Maps","protocol":17,"map":"koth_viaduct","folder":"tf","game":"Team Fortress","app_id":440,"player_count":0,"max_players":24,"Bots":0,"server_type":"Dedicated","server_os":"Linux","password":true,"vac":true,"version":"7723704","steam_id":85568392924866363,"keywords":["cp","nocrits","nodmgspread","uncletopia"],"game_id":440,"stv_port":27026,"stv_name":"Uncletopia | Chicago | 6 | All Maps | STV","players":null},{"server_id":38,"name":"Uncletopia | Chicago | 7 | Stopwatch Beta","name_short":"chi-7","host":"chi-2.us.uncletopia.com","port":27035,"enabled":true,"region":"us-central","cc":"us","latitude":41.881832,"longitude":-87.62318,"reserved":0,"last_update":"0001-01-01T00:00:00Z","name_a2s":"Uncletopia | Chicago | 7 | Stopwatch Beta","protocol":17,"map":"pl_upward","folder":"tf","game":"Team Fortress","app_id":440,"player_count":0,"max_players":24,"Bots":0,"server_type":"Dedicated","server_os":"Linux","password":true,"vac":true,"version":"7723704","steam_id":85568392924866364,"keywords":["nocrits","nodmgspread","payload","uncletopia"],"game_id":440,"stv_port":27036,"stv_name":"Uncletopia | Chicago | 7 | Stopwatch Beta | STV","players":null},{"server_id":39,"name":"Uncletopia | Chicago | 8 | Community","name_short":"chi-8","host":"chi-2.us.uncletopia.com","port":27045,"enabled":true,"region":"us-central","cc":"us","latitude":41.881832,"longitude":-87.62318,"reserved":0,"last_update":"0001-01-01T00:00:00Z","name_a2s":"Uncletopia | Chicago | 8 | Community","protocol":17,"map":"pl_frontier_final","folder":"tf","game":"Team Fortress","app_id":440,"player_count":0,"max_players":24,"Bots":0,"server_type":"Dedicated","server_os":"Linux","password":true,"vac":true,"version":"7723704","steam_id":85568392924866365,"keywords":["nocrits","nodmgspread","payload","uncletopia"],"game_id":440,"stv_port":27046,"stv_name":"Uncletopia | Chicago | 8 | Community | STV","players":null},{"server_id":8,"name":"Uncletopia | Dallas | 1 | All Maps","name_short":"dal-1","host":"dal-1.us.uncletopia.com","port":27015,"enabled":true,"region":"us-central","cc":"us","latitude":32.779167,"longitude":-96.80889,"reserved":0,"last_update":"0001-01-01T00:00:00Z","name_a2s":"Uncletopia | Dallas | 1 | All Maps","protocol":17,"map":"pl_frontier_final","folder":"tf","game":"Team Fortress","app_id":440,"player_count":1,"max_players":24,"Bots":0,"server_type":"Dedicated","server_os":"Linux","password":true,"vac":true,"version":"7723704","steam_id":85568392924469986,"keywords":["nocrits","nodmgspread","payload","uncletopia"],"game_id":440,"stv_port":27016,"stv_name":"Uncletopia | Dallas | 1 | All Maps | STV","players":[{"user_id":3,"name":"dylandraco844","steam_id":76561198886947936,"connected_time":87000000000,"state":"active","ping":48}]},{"server_id":108,"name":"Uncletopia | Dallas | 2 | All Maps","name_short":"dal-2","host":"dal-1.us.uncletopia.com","port":27025,"enabled":true,"region":"us-central","cc":"us","latitude":32.779167,"longitude":-96.80889,"reserved":0,"last_update":"0001-01-01T00:00:00Z","name_a2s":"Uncletopia | Dallas | 2 | All Maps","protocol":17,"map":"pl_borneo","folder":"tf","game":"Team Fortress","app_id":440,"player_count":0,"max_players":24,"Bots":0,"server_type":"Dedicated","server_os":"Linux","password":true,"vac":true,"version":"7723704","steam_id":85568392924469988,"keywords":["nocrits","nodmgspread","payload","uncletopia"],"game_id":440,"stv_port":27026,"stv_name":"Uncletopia | Dallas | 2 | All Maps | STV","players":null},{"server_id":5,"name":"Uncletopia | Frankfurt | 1 | All Maps","name_short":"frk-1","host":"frk-1.de.uncletopia.com","port":27015,"enabled":true,"region":"eu","cc":"de","latitude":50.110924,"longitude":8.682127,"reserved":0,"last_update":"0001-01-01T00:00:00Z","name_a2s":"Uncletopia | Frankfurt | 1 | All Maps","protocol":17,"map":"pl_frontier_final","folder":"tf","game":"Team Fortress","app_id":440,"player_count":22,"max_players":24,"Bots":0,"server_type":"Dedicated","server_os":"Linux","password":true,"vac":true,"version":"7723704","steam_id":85568392924469989,"keywords":["nocrits","nodmgspread","payload","uncletopia"],"game_id":440,"stv_port":27016,"stv_name":"Uncletopia | Frankfurt | 1 | All Maps | STV","players":[{"user_id":90,"name":"dualshock 4","steam_id":76561198891999531,"connected_time":3785000000000,"state":"active","ping":75},{"user_id":134,"name":"TheUndeadMage","steam_id":76561198068074285,"connected_time":1339000000000,"state":"active","ping":60},{"user_id":147,"name":"Pete  Bogs","steam_id":76561198049172471,"connected_time":193000000000,"state":"active","ping":71},{"user_id":146,"name":"Turkish Spy","steam_id":76561198831177630,"connected_time":196000000000,"state":"active","ping":87},{"user_id":152,"name":"Coyote the Airplane","steam_id":76561198344502070,"connected_time":145000000000,"state":"active","ping":62},{"user_id":135,"name":"Gabys","steam_id":76561198282892553,"connected_time":1335000000000,"state":"active","ping":73},{"user_id":144,"name":"Sir William Gaming","steam_id":76561198037676472,"connected_time":218000000000,"state":"active","ping":80},{"user_id":155,"name":"–ò–Ω—Å–ø–µ–∫—Ç–æ—Ä –ê—Ç–∞—Å","steam_id":76561199175688390,"connected_time":59000000000,"state":"active","ping":75},{"user_id":79,"name":"wasps","steam_id":76561198049485054,"connected_time":4501000000000,"state":"active","ping":89},{"user_id":140,"name":"–ë–∞—Ä–æ–Ω —Ñ–æ–Ω –í—ã–µ–±–æ–Ω","steam_id":76561198110470565,"connected_time":350000000000,"state":"active","ping":102},{"user_id":150,"name":"seishiliar","steam_id":76561198355587569,"connected_time":164000000000,"state":"active","ping":117},{"user_id":151,"name":"indigoneüë®üé§","steam_id":76561198374503618,"connected_time":150000000000,"state":"active","ping":69},{"user_id":113,"name":"jaMie","steam_id":76561198170148783,"connected_time":2644000000000,"state":"active","ping":54},{"user_id":130,"name":"prosto crabic","steam_id":76561198294473783,"connected_time":1645000000000,"state":"active","ping":111},{"user_id":122,"name":"Beb","steam_id":76561198106119248,"connected_time":2400000000000,"state":"active","ping":59},{"user_id":131,"name":"Mclovin567","steam_id":76561198799105302,"connected_time":1629000000000,"state":"active","ping":57},{"user_id":153,"name":"Nyanzey","steam_id":76561198872362188,"connected_time":88000000000,"state":"active","ping":45},{"user_id":154,"name":"Pain in a Box","steam_id":76561197990777173,"connected_time":79000000000,"state":"active","ping":59},{"user_id":142,"name":"DeCypher","steam_id":76561198171992619,"connected_time":257000000000,"state":"active","ping":63},{"user_id":93,"name":"Volkswagen Golf 4","steam_id":76561198156433244,"connected_time":3726000000000,"state":"active","ping":81},{"user_id":143,"name":"grrr","steam_id":76561198036486671,"connected_time":242000000000,"state":"active","ping":60},{"user_id":94,"name":"Kvadrat","steam_id":76561198022834916,"connected_time":3703000000000,"state":"active","ping":120}]},{"server_id":110,"name":"Uncletopia | Frankfurt | 2 | All Maps","name_short":"frk-2","host":"frk-1.de.uncletopia.com","port":27025,"enabled":true,"region":"eu","cc":"de","latitude":50.110924,"longitude":8.682127,"reserved":0,"last_update":"0001-01-01T00:00:00Z","name_a2s":"Uncletopia | Frankfurt | 2 | All Maps","protocol":17,"map":"koth_highpass","folder":"tf","game":"Team Fortress","app_id":440,"player_count":0,"max_players":24,"Bots":0,"server_type":"Dedicated","server_os":"Linux","password":true,"vac":true,"version":"7723704","steam_id":85568392924469990,"keywords":["cp","nocrits","nodmgspread","uncletopia"],"game_id":440,"stv_port":27026,"stv_name":"Uncletopia | Frankfurt | 2 | All Maps | STV","players":null},{"server_id":308,"name":"Uncletopia | Frankfurt | 3 | All Maps","name_short":"frk-3","host":"frk-1.de.uncletopia.com","port":27035,"enabled":true,"region":"eu","cc":"de","latitude":50.110924,"longitude":8.682127,"reserved":0,"last_update":"0001-01-01T00:00:00Z","name_a2s":"Uncletopia | Frankfurt | 3 | All Maps","protocol":17,"map":"pl_borneo","folder":"tf","game":"Team Fortress","app_id":440,"player_count":24,"max_players":24,"Bots":0,"server_type":"Dedicated","server_os":"Linux","password":true,"vac":true,"version":"7723704","steam_id":85568392924504274,"keywords":["nocrits","nodmgspread","payload","uncletopia"],"game_id":440,"stv_port":27036,"stv_name":"Uncletopia | Frankfurt | 3 | All Maps | STV","players":[{"user_id":59,"name":"citronous","steam_id":76561198093290934,"connected_time":2812000000000,"state":"active","ping":57},{"user_id":81,"name":"Joy","steam_id":76561198155314925,"connected_time":1083000000000,"state":"active","ping":67},{"user_id":43,"name":"fiyahstorm","steam_id":76561197992574261,"connected_time":4170000000000,"state":"active","ping":50},{"user_id":82,"name":"Belfast","steam_id":76561198295327009,"connected_time":1078000000000,"state":"active","ping":105},{"user_id":58,"name":"nymthae","steam_id":76561197991795120,"connected_time":2879000000000,"state":"active","ping":60},{"user_id":93,"name":"Baruu","steam_id":76561199130278220,"connected_time":520000000000,"state":"active","ping":81},{"user_id":98,"name":"Qatuk","steam_id":76561198857696199,"connected_time":139000000000,"state":"active","ping":56},{"user_id":85,"name":"SaltyCupcakes","steam_id":76561198256386417,"connected_time":818000000000,"state":"active","ping":53},{"user_id":51,"name":"nej... nejjj.. neeejjj","steam_id":76561198295967237,"connected_time":3522000000000,"state":"active","ping":73},{"user_id":71,"name":"drippin jimmy","steam_id":76561198219243969,"connected_time":1792000000000,"state":"active","ping":54},{"user_id":97,"name":"El Pito","steam_id":76561198299753334,"connected_time":458000000000,"state":"active","ping":66},{"user_id":53,"name":"sir Hiss","steam_id":76561198372256154,"connected_time":3474000000000,"state":"active","ping":79},{"user_id":49,"name":"Yatsuzume","steam_id":76561198059762108,"connected_time":3684000000000,"state":"active","ping":90},{"user_id":88,"name":"natalie","steam_id":76561198084507532,"connected_time":696000000000,"state":"active","ping":74},{"user_id":27,"name":"Intheweb33","steam_id":76561198082873786,"connected_time":4766000000000,"state":"active","ping":83},{"user_id":86,"name":"TNTBeaver ‚ò¨","steam_id":76561199083241015,"connected_time":812000000000,"state":"active","ping":140},{"user_id":31,"name":"WUNNA","steam_id":76561198999848273,"connected_time":4551000000000,"state":"active","ping":76},{"user_id":80,"name":"steven","steam_id":76561198028240570,"connected_time":1140000000000,"state":"active","ping":58},{"user_id":78,"name":"Pingu","steam_id":76561198074477219,"connected_time":1359000000000,"state":"active","ping":59},{"user_id":47,"name":"hushhx","steam_id":76561198216200092,"connected_time":4073000000000,"state":"active","ping":65},{"user_id":99,"name":"Nickel (28) [F2P]","steam_id":76561199082683456,"connected_time":37000000000,"state":"active","ping":101},{"user_id":72,"name":"night.s","steam_id":76561198326287823,"connected_time":1779000000000,"state":"active","ping":77},{"user_id":96,"name":"MARNEX","steam_id":76561198149296726,"connected_time":479000000000,"state":"active","ping":91},{"user_id":94,"name":"LasagnaLarry22","steam_id":76561198089478290,"connected_time":517000000000,"state":"active","ping":56}]},{"server_id":309,"name":"Uncletopia | Frankfurt | 4 | All Maps","name_short":"frk-4","host":"frk-1.de.uncletopia.com","port":27045,"enabled":true,"region":"eu","cc":"de","latitude":50.110924,"longitude":8.682127,"reserved":0,"last_update":"0001-01-01T00:00:00Z","name_a2s":"Uncletopia | Frankfurt | 4 | All Maps","protocol":17,"map":"pl_snowycoast","folder":"tf","game":"Team Fortress","app_id":440,"player_count":4,"max_players":24,"Bots":0,"server_type":"Dedicated","server_os":"Linux","password":true,"vac":true,"version":"7723704","steam_id":85568392924504275,"keywords":["nocrits","nodmgspread","payload","uncletopia"],"game_id":440,"stv_port":27046,"stv_name":"Uncletopia | Frankfurt | 4 | All Maps | STV","players":[{"user_id":97,"name":"tealoverr.190","steam_id":76561199028497703,"connected_time":395000000000,"state":"active","ping":90},{"user_id":98,"name":"I-I","steam_id":76561198267969436,"connected_time":364000000000,"state":"active","ping":64},{"user_id":71,"name":"fried","steam_id":76561198307522022,"connected_time":3413000000000,"state":"active","ping":55},{"user_id":75,"name":"SaSSolino","steam_id":76561198011308018,"connected_time":3181000000000,"state":"active","ping":36}]},{"server_id":310,"name":"Uncletopia | Frankfurt | 5 | All Maps","name_short":"frk-5","host":"frk-1.de.uncletopia.com","port":27055,"enabled":true,"region":"eu","cc":"de","latitude":50.110924,"longitude":8.682127,"reserved":0,"last_update":"0001-01-01T00:00:00Z","name_a2s":"Uncletopia | Frankfurt | 5 | All Maps","protocol":17,"map":"pl_pier","folder":"tf","game":"Team Fortress","app_id":440,"player_count":24,"max_players":24,"Bots":0,"server_type":"Dedicated","server_os":"Linux","password":true,"vac":true,"version":"7723704","steam_id":85568392924504277,"keywords":["nocrits","nodmgspread","payload","uncletopia"],"game_id":440,"stv_port":27056,"stv_name":"Uncletopia | Frankfurt | 5 | All Maps | STV","players":[{"user_id":83,"name":"PhantomStriker","steam_id":76561199116689935,"connected_time":1755000000000,"state":"active","ping":61},{"user_id":50,"name":"|==[—à–ø—Ä–∏—Ü]\u003e--- RAMA","steam_id":76561198040423618,"connected_time":4333000000000,"state":"active","ping":75},{"user_id":101,"name":"trans werewolf","steam_id":76561198107235989,"connected_time":934000000000,"state":"active","ping":62},{"user_id":85,"name":"–Å–∂–∏–∫ –°–∞–Ω—è","steam_id":76561198376307313,"connected_time":1417000000000,"state":"active","ping":147},{"user_id":73,"name":"Graceium","steam_id":76561198271802336,"connected_time":2866000000000,"state":"active","ping":60},{"user_id":16,"name":"Ta–øgen","steam_id":76561198120329367,"connected_time":6841000000000,"state":"active","ping":90},{"user_id":87,"name":"KFC Enjoyer","steam_id":76561198840259819,"connected_time":1286000000000,"state":"active","ping":46},{"user_id":103,"name":"Dr. WAH","steam_id":76561198297778149,"connected_time":553000000000,"state":"active","ping":83},{"user_id":104,"name":"ReDsinat0r","steam_id":76561198365973345,"connected_time":531000000000,"state":"active","ping":61},{"user_id":102,"name":"gion","steam_id":76561199065121816,"connected_time":716000000000,"state":"active","ping":99},{"user_id":105,"name":"Extraordinary Absence of Pootis","steam_id":76561198020270981,"connected_time":508000000000,"state":"active","ping":136},{"user_id":106,"name":"lowcostfish.co.uk","steam_id":76561198126022039,"connected_time":502000000000,"state":"active","ping":59},{"user_id":107,"name":"Ross from F.R.I.E.N.D.S.","steam_id":76561198008511665,"connected_time":495000000000,"state":"active","ping":60},{"user_id":108,"name":"greg's mom","steam_id":76561198050525471,"connected_time":408000000000,"state":"active","ping":64},{"user_id":47,"name":"N1KOS","steam_id":76561198035444701,"connected_time":4448000000000,"state":"active","ping":91},{"user_id":112,"name":"Goliath","steam_id":76561198088583638,"connected_time":65000000000,"state":"active","ping":57},{"user_id":100,"name":"cslevi","steam_id":76561198142858923,"connected_time":1010000000000,"state":"active","ping":78},{"user_id":110,"name":"Cipher Guy","steam_id":76561198987064749,"connected_time":376000000000,"state":"active","ping":119},{"user_id":66,"name":"Captain Brexit","steam_id":76561199025230103,"connected_time":3290000000000,"state":"active","ping":70},{"user_id":77,"name":"kevin","steam_id":76561198363842731,"connected_time":2336000000000,"state":"active","ping":60},{"user_id":113,"name":"William Francisian The 98th","steam_id":76561198380177250,"connected_time":24000000000,"state":"active","ping":104},{"user_id":95,"name":"Farmercy","steam_id":76561198000038039,"connected_time":1143000000000,"state":"active","ping":54},{"user_id":61,"name":"VBNM","steam_id":76561198316509516,"connected_time":3579000000000,"state":"active","ping":67},{"user_id":96,"name":"pummed","steam_id":76561198827108475,"connected_time":1132000000000,"state":"active","ping":67}]},{"server_id":311,"name":"Uncletopia | Frankfurt | 6 | All Maps","name_short":"frk-6","host":"frk-1.de.uncletopia.com","port":27065,"enabled":true,"region":"eu","cc":"de","latitude":50.110924,"longitude":8.682127,"reserved":0,"last_update":"0001-01-01T00:00:00Z","name_a2s":"Uncletopia | Frankfurt | 6 | All Maps","protocol":17,"map":"koth_cascade","folder":"tf","game":"Team Fortress","app_id":440,"player_count":1,"max_players":24,"Bots":0,"server_type":"Dedicated","server_os":"Linux","password":true,"vac":true,"version":"7723704","steam_id":85568392924504278,"keywords":["cp","nocrits","nodmgspread","uncletopia"],"game_id":440,"stv_port":27066,"stv_name":"Uncletopia | Frankfurt | 6 | All Maps | STV","players":[{"user_id":9,"name":"zuraw","steam_id":76561199118495669,"connected_time":171000000000,"state":"active","ping":71}]},{"server_id":23,"name":"Uncletopia | Frankfurt | 7 | Stopwatch Beta","name_short":"frk-7","host":"frk-1.de.uncletopia.com","port":27075,"enabled":true,"region":"eu","cc":"de","latitude":50.110924,"longitude":8.682127,"reserved":0,"last_update":"0001-01-01T00:00:00Z","name_a2s":"Uncletopia | Frankfurt | 7 | Stopwatch Beta","protocol":17,"map":"koth_viaduct","folder":"tf","game":"Team Fortress","app_id":440,"player_count":0,"max_players":24,"Bots":0,"server_type":"Dedicated","server_os":"Linux","password":true,"vac":true,"version":"7723704","steam_id":85568392924742827,"keywords":["cp","nocrits","nodmgspread","uncletopia"],"game_id":440,"stv_port":27076,"stv_name":"Uncletopia | Frankfurt | 7 | Stopwatch Beta | STV","players":null},{"server_id":24,"name":"Uncletopia | Frankfurt | 8 | Community","name_short":"frk-8","host":"frk-1.de.uncletopia.com","port":27085,"enabled":true,"region":"eu","cc":"de","latitude":50.110924,"longitude":8.682127,"reserved":0,"last_update":"0001-01-01T00:00:00Z","name_a2s":"Uncletopia | Frankfurt | 8 | Community","protocol":17,"map":"workshop/koth_bagel_rc5.ugc2514036946","folder":"tf","game":"Team Fortress","app_id":440,"player_count":1,"max_players":24,"Bots":0,"server_type":"Dedicated","server_os":"Linux","password":true,"vac":true,"version":"7723704","steam_id":85568392924742828,"keywords":["cp","nocrits","nodmgspread","uncletopia"],"game_id":440,"stv_port":27086,"stv_name":"Uncletopia | Frankfurt | 8 | Community | STV","players":[{"user_id":16,"name":"quack","steam_id":76561198121003465,"connected_time":139000000000,"state":"active","ping":60}]},{"server_id":202,"name":"Uncletopia | Hong Kong | 1 | All Maps","name_short":"hgk-1","host":"hgk-1.hk.uncletopia.com","port":27015,"enabled":true,"region":"asia","cc":"hk","latitude":22.302711,"longitude":114.177216,"reserved":0,"last_update":"0001-01-01T00:00:00Z","name_a2s":"Uncletopia | Hong Kong | 1 | All Maps","protocol":17,"map":"pl_barnblitz","folder":"tf","game":"Team Fortress","app_id":440,"player_count":24,"max_players":24,"Bots":0,"server_type":"Dedicated","server_os":"Linux","password":true,"vac":true,"version":"7723704","steam_id":85568392924494504,"keywords":["nocrits","nodmgspread","payload","uncletopia"],"game_id":440,"stv_port":27016,"stv_name":"Uncletopia | Hong Kong | 1 | All Maps | STV","players":[{"user_id":433,"name":"RandomGuy1085","steam_id":76561199053910995,"connected_time":8001000000000,"state":"active","ping":78},{"user_id":328,"name":"Bertengkar","steam_id":76561198213031155,"connected_time":16027000000000,"state":"active","ping":98},{"user_id":418,"name":"silversol","steam_id":76561198004570036,"connected_time":9260000000000,"state":"active","ping":98},{"user_id":394,"name":"instant karma","steam_id":76561198027307933,"connected_time":11265000000000,"state":"active","ping":48},{"user_id":481,"name":"+W+","steam_id":76561197997220367,"connected_time":4988000000000,"state":"active","ping":47},{"user_id":500,"name":"Firefang099","steam_id":76561198136685157,"connected_time":3049000000000,"state":"active","ping":56},{"user_id":508,"name":"\u003c\u003cDunce](:-p)-|---\u003c","steam_id":76561199190321580,"connected_time":2531000000000,"state":"active","ping":75},{"user_id":530,"name":"r/leroy","steam_id":76561199137927625,"connected_time":667000000000,"state":"active","ping":113},{"user_id":528,"name":"moopviii","steam_id":76561199177831851,"connected_time":687000000000,"state":"active","ping":159},{"user_id":504,"name":"Kall","steam_id":76561197993608660,"connected_time":2862000000000,"state":"active","ping":94},{"user_id":535,"name":"Gotta be Mad","steam_id":76561198013546584,"connected_time":328000000000,"state":"active","ping":60},{"user_id":516,"name":"ÊØç„ÅÆËÇâÂõ£Â≠ê","steam_id":76561198069561896,"connected_time":1812000000000,"state":"active","ping":40},{"user_id":477,"name":"\"SKS\"","steam_id":76561198187995386,"connected_time":5166000000000,"state":"active","ping":81},{"user_id":354,"name":"2022WEEK51","steam_id":76561198413116920,"connected_time":13838000000000,"state":"active","ping":86},{"user_id":502,"name":"keingift","steam_id":76561198073466874,"connected_time":2996000000000,"state":"active","ping":72},{"user_id":519,"name":"Kurtie","steam_id":76561198144737876,"connected_time":1768000000000,"state":"active","ping":62},{"user_id":484,"name":"lk‚ùÜ","steam_id":76561199077602424,"connected_time":4453000000000,"state":"active","ping":54},{"user_id":526,"name":"Vladimir Spencer Pootis","steam_id":76561198144686119,"connected_time":1187000000000,"state":"active","ping":79},{"user_id":505,"name":"Puddin","steam_id":76561198140052918,"connected_time":2861000000000,"state":"active","ping":89},{"user_id":473,"name":"chaoticrecon","steam_id":76561199078255117,"connected_time":5187000000000,"state":"active","ping":83},{"user_id":507,"name":"u/MeLEx3D","steam_id":76561199227871384,"connected_time":2774000000000,"state":"active","ping":58},{"user_id":523,"name":"FrankOceanLover911","steam_id":76561198400698408,"connected_time":1570000000000,"state":"active","ping":91},{"user_id":524,"name":"17","steam_id":76561198241530712,"connected_time":1568000000000,"state":"active","ping":59},{"user_id":532,"name":"dkrgrptgj","steam_id":76561199445694770,"connected_time":654000000000,"state":"active","ping":138}]},{"server_id":1,"name":"Uncletopia | Los Angeles | 1 | All Maps","name_short":"lax-1","host":"lax-1.us.uncletopia.com","port":27015,"enabled":true,"region":"us-west","cc":"us","latitude":33.94279,"longitude":-118.41004,"reserved":0,"last_update":"0001-01-01T00:00:00Z","name_a2s":"Uncletopia | Los Angeles | 1 | All Maps","protocol":17,"map":"pl_pier","folder":"tf","game":"Team Fortress","app_id":440,"player_count":0,"max_players":24,"Bots":0,"server_type":"Dedicated","server_os":"Linux","password":true,"vac":true,"version":"7723704","steam_id":85568392924469991,"keywords":["nocrits","nodmgspread","payload","uncletopia"],"game_id":440,"stv_port":27016,"stv_name":"Uncletopia | Los Angeles | 1 | All Maps | STV","players":null},{"server_id":112,"name":"Uncletopia | Los Angeles | 2 | All Maps","name_short":"lax-2","host":"lax-1.us.uncletopia.com","port":27025,"enabled":true,"region":"us-west","cc":"us","latitude":33.94279,"longitude":-118.41004,"reserved":0,"last_update":"0001-01-01T00:00:00Z","name_a2s":"Uncletopia | Los Angeles | 2 | All Maps","protocol":17,"map":"koth_viaduct","folder":"tf","game":"Team Fortress","app_id":440,"player_count":0,"max_players":24,"Bots":0,"server_type":"Dedicated","server_os":"Linux","password":true,"vac":true,"version":"7723704","steam_id":85568392924469992,"keywords":["cp","nocrits","nodmgspread","uncletopia"],"game_id":440,"stv_port":27026,"stv_name":"Uncletopia | Los Angeles | 2 | All Maps | STV","players":null},{"server_id":324,"name":"Uncletopia | Los Angeles | 3 | All Maps","name_short":"lax-3","host":"lax-1.us.uncletopia.com","port":27035,"enabled":true,"region":"us-west","cc":"us","latitude":33.94279,"longitude":-118.41004,"reserved":0,"last_update":"0001-01-01T00:00:00Z","name_a2s":"Uncletopia | Los Angeles | 3 | All Maps","protocol":17,"map":"koth_viaduct","folder":"tf","game":"Team Fortress","app_id":440,"player_count":0,"max_players":24,"Bots":0,"server_type":"Dedicated","server_os":"Linux","password":true,"vac":true,"version":"7723704","steam_id":85568392924510198,"keywords":["cp","nocrits","nodmgspread","uncletopia"],"game_id":440,"stv_port":27036,"stv_name":"Uncletopia | Los Angeles | 3 | All Maps | STV","players":null},{"server_id":25,"name":"Uncletopia | Los Angeles | 4 | Stopwatch Beta","name_short":"lax-4","host":"lax-1.us.uncletopia.com","port":27045,"enabled":true,"region":"us-west","cc":"us","latitude":33.94279,"longitude":-118.41004,"reserved":0,"last_update":"0001-01-01T00:00:00Z","name_a2s":"Uncletopia | Los Angeles | 4 | Stopwatch Beta","protocol":17,"map":"cp_sunshine","folder":"tf","game":"Team Fortress","app_id":440,"player_count":0,"max_players":24,"Bots":0,"server_type":"Dedicated","server_os":"Linux","password":true,"vac":true,"version":"7723704","steam_id":85568392924510199,"keywords":["cp","nocrits","nodmgspread","uncletopia"],"game_id":440,"stv_port":27046,"stv_name":"Uncletopia | Los Angeles | 4 | Stopwatch Beta | STV","players":null},{"server_id":11,"name":"Uncletopia | London | 1 | All Maps","name_short":"lon-1","host":"lon-1.uk.uncletopia.com","port":27015,"enabled":true,"region":"eu","cc":"gb","latitude":51.509865,"longitude":-0.118092,"reserved":0,"last_update":"0001-01-01T00:00:00Z","name_a2s":"Uncletopia | London | 1 | All Maps","protocol":17,"map":"pl_upward","folder":"tf","game":"Team Fortress","app_id":440,"player_count":24,"max_players":24,"Bots":0,"server_type":"Dedicated","server_os":"Linux","password":true,"vac":true,"version":"7723704","steam_id":85568392924367362,"keywords":["nocrits","nodmgspread","payload","uncletopia"],"game_id":440,"stv_port":27016,"stv_name":"Uncletopia | London | 1 | All Maps | STV","players":[{"user_id":430,"name":"naleksi","steam_id":76561198018391055,"connected_time":621000000000,"state":"active","ping":92},{"user_id":403,"name":"gagalak","steam_id":76561198089979108,"connected_time":1880000000000,"state":"active","ping":105},{"user_id":399,"name":"JeanCorben","steam_id":76561197965133561,"connected_time":2145000000000,"state":"active","ping":33},{"user_id":431,"name":"popdog","steam_id":76561199225397974,"connected_time":476000000000,"state":"active","ping":256},{"user_id":364,"name":"ryftomania","steam_id":76561198429138254,"connected_time":4812000000000,"state":"active","ping":67},{"user_id":423,"name":"Citrus","steam_id":76561198090650837,"connected_time":903000000000,"state":"active","ping":49},{"user_id":411,"name":"Sverhrazym","steam_id":76561198868708664,"connected_time":1695000000000,"state":"active","ping":105},{"user_id":417,"name":"Sgreff","steam_id":76561198036304365,"connected_time":1607000000000,"state":"active","ping":39},{"user_id":434,"name":"Zee‚ù§","steam_id":76561198274550638,"connected_time":28000000000,"state":"active","ping":146},{"user_id":396,"name":"a fruitful and unwind","steam_id":76561198978029443,"connected_time":2674000000000,"state":"active","ping":91},{"user_id":409,"name":"Seru","steam_id":76561199219827214,"connected_time":1710000000000,"state":"active","ping":149},{"user_id":410,"name":"QuantumSauce","steam_id":76561199220077934,"connected_time":1698000000000,"state":"active","ping":53},{"user_id":419,"name":"Sipsu","steam_id":76561198059424107,"connected_time":1474000000000,"state":"active","ping":79},{"user_id":400,"name":"Zateske","steam_id":76561198047446276,"connected_time":2127000000000,"state":"active","ping":61},{"user_id":429,"name":"John Taxenfraud","steam_id":76561199011358805,"connected_time":835000000000,"state":"active","ping":134},{"user_id":433,"name":"Kiwimpediment","steam_id":76561198322781400,"connected_time":55000000000,"state":"active","ping":138},{"user_id":435,"name":"Caesium_R4","steam_id":76561198432410602,"connected_time":22000000000,"state":"active","ping":112},{"user_id":401,"name":"gamerweed5","steam_id":76561198087651151,"connected_time":2097000000000,"state":"active","ping":39},{"user_id":392,"name":"MyFirstTimeeeeelel","steam_id":76561199235376543,"connected_time":2963000000000,"state":"active","ping":65},{"user_id":424,"name":"azzy","steam_id":76561198061293740,"connected_time":895000000000,"state":"active","ping":83},{"user_id":436,"name":"coin abuser","steam_id":76561199042470246,"connected_time":13000000000,"state":"active","ping":64},{"user_id":418,"name":"chey","steam_id":76561198035380064,"connected_time":1566000000000,"state":"active","ping":46},{"user_id":416,"name":"try meditation","steam_id":76561198190690201,"connected_time":1627000000000,"state":"active","ping":72},{"user_id":425,"name":"SugipuLaur","steam_id":76561199138556623,"connected_time":891000000000,"state":"active","ping":75}]},{"server_id":114,"name":"Uncletopia | London | 2 | All Maps","name_short":"lon-2","host":"lon-1.uk.uncletopia.com","port":27025,"enabled":true,"region":"eu","cc":"gb","latitude":51.509865,"longitude":-0.118092,"reserved":0,"last_update":"0001-01-01T00:00:00Z","name_a2s":"Uncletopia | London | 2 | All Maps","protocol":17,"map":"pl_borneo","folder":"tf","game":"Team Fortress","app_id":440,"player_count":24,"max_players":24,"Bots":0,"server_type":"Dedicated","server_os":"Linux","password":true,"vac":true,"version":"7723704","steam_id":85568392924470941,"keywords":["nocrits","nodmgspread","payload","uncletopia"],"game_id":440,"stv_port":27026,"stv_name":"Uncletopia | London | 2 | All Maps | STV","players":[{"user_id":220,"name":"Thesis","steam_id":76561199308784371,"connected_time":1945000000000,"state":"active","ping":58},{"user_id":251,"name":"drew","steam_id":76561198012304706,"connected_time":181000000000,"state":"active","ping":105},{"user_id":219,"name":"‚ù§ Nomayy_ ‚ù§","steam_id":76561198201364639,"connected_time":1971000000000,"state":"active","ping":116},{"user_id":168,"name":"Celtins","steam_id":76561198839837475,"connected_time":4596000000000,"state":"active","ping":48},{"user_id":235,"name":"Fortezza","steam_id":76561198972539903,"connected_time":1123000000000,"state":"active","ping":60},{"user_id":252,"name":"the white wizard","steam_id":76561198853566184,"connected_time":72000000000,"state":"active","ping":83},{"user_id":191,"name":"Nedge","steam_id":76561197963549701,"connected_time":3356000000000,"state":"active","ping":52},{"user_id":229,"name":"del2o","steam_id":76561199072601822,"connected_time":1347000000000,"state":"active","ping":123},{"user_id":242,"name":"kalaa ‚Ä†","steam_id":76561198134652336,"connected_time":404000000000,"state":"active","ping":61},{"user_id":214,"name":"Umbreon","steam_id":76561198092251286,"connected_time":2267000000000,"state":"active","ping":151},{"user_id":237,"name":"cryyptt_ ‚òÖ","steam_id":76561198059566837,"connected_time":624000000000,"state":"active","ping":47},{"user_id":238,"name":"Furry Enjoyer","steam_id":76561198046219588,"connected_time":599000000000,"state":"active","ping":59},{"user_id":233,"name":"Kahvi","steam_id":76561198723244199,"connected_time":1140000000000,"state":"active","ping":76},{"user_id":245,"name":"SparkleButt","steam_id":76561199128547077,"connected_time":293000000000,"state":"active","ping":65},{"user_id":206,"name":"Noob_with_source","steam_id":76561198870362103,"connected_time":2598000000000,"state":"active","ping":59},{"user_id":230,"name":"fishfin","steam_id":76561198255819115,"connected_time":1324000000000,"state":"active","ping":154},{"user_id":175,"name":"1 month Big Earner challenge","steam_id":76561198799097492,"connected_time":4525000000000,"state":"active","ping":45},{"user_id":177,"name":"Garfield Gaming","steam_id":76561198254539791,"connected_time":4486000000000,"state":"active","ping":46},{"user_id":246,"name":"TinyPixel@THG","steam_id":76561198050789840,"connected_time":266000000000,"state":"active","ping":47},{"user_id":244,"name":"evan_is_sauce","steam_id":76561199086802383,"connected_time":323000000000,"state":"active","ping":184},{"user_id":248,"name":"Jayco","steam_id":76561198122497262,"connected_time":251000000000,"state":"active","ping":45},{"user_id":216,"name":"Monet","steam_id":76561198087656854,"connected_time":2117000000000,"state":"active","ping":65},{"user_id":226,"name":"Venus‚ö¢","steam_id":76561198018602969,"connected_time":1757000000000,"state":"active","ping":60},{"user_id":227,"name":"Narvhal√∏","steam_id":76561198147495474,"connected_time":1748000000000,"state":"active","ping":45}]},{"server_id":320,"name":"Uncletopia | London | 3 | All Maps","name_short":"lon-3","host":"lon-1.uk.uncletopia.com","port":27035,"enabled":true,"region":"eu","cc":"gb","latitude":51.509865,"longitude":-0.118092,"reserved":0,"last_update":"0001-01-01T00:00:00Z","name_a2s":"Uncletopia | London | 3 | All Maps","protocol":17,"map":"pl_badwater","folder":"tf","game":"Team Fortress","app_id":440,"player_count":23,"max_players":24,"Bots":0,"server_type":"Dedicated","server_os":"Linux","password":true,"vac":true,"version":"7723704","steam_id":85568392924510192,"keywords":["nocrits","nodmgspread","payload","uncletopia"],"game_id":440,"stv_port":27036,"stv_name":"Uncletopia | London | 3 | All Maps | STV","players":[{"user_id":149,"name":"Sza","steam_id":76561198022132105,"connected_time":3557000000000,"state":"active","ping":64},{"user_id":208,"name":"name","steam_id":76561198152620745,"connected_time":47000000000,"state":"active","ping":51},{"user_id":209,"name":"fierce_A2","steam_id":76561198301836443,"connected_time":35000000000,"state":"active","ping":120},{"user_id":192,"name":"COOLKID69","steam_id":76561198173989362,"connected_time":1254000000000,"state":"active","ping":60},{"user_id":206,"name":"Mr.Sharky","steam_id":76561198810074030,"connected_time":275000000000,"state":"active","ping":51},{"user_id":207,"name":"ugly","steam_id":76561199050412617,"connected_time":73000000000,"state":"active","ping":113},{"user_id":203,"name":"festive w00sh","steam_id":76561198179463343,"connected_time":573000000000,"state":"active","ping":44},{"user_id":101,"name":"Welder","steam_id":76561198355300561,"connected_time":7154000000000,"state":"active","ping":75},{"user_id":165,"name":"goofy goober","steam_id":76561198013237629,"connected_time":2980000000000,"state":"active","ping":89},{"user_id":170,"name":"UltimateSlayer","steam_id":76561198384109309,"connected_time":2786000000000,"state":"active","ping":60},{"user_id":155,"name":"shenanigan","steam_id":76561198043452925,"connected_time":3373000000000,"state":"active","ping":82},{"user_id":191,"name":"spesmarine42","steam_id":76561199404806029,"connected_time":1489000000000,"state":"active","ping":79},{"user_id":201,"name":"Millero15","steam_id":76561198143105719,"connected_time":633000000000,"state":"active","ping":74},{"user_id":189,"name":"Juss","steam_id":76561198298722637,"connected_time":1515000000000,"state":"active","ping":72},{"user_id":200,"name":"Carrot Arc","steam_id":76561198164957006,"connected_time":765000000000,"state":"active","ping":79},{"user_id":159,"name":"British Disapproval","steam_id":76561198001375260,"connected_time":3237000000000,"state":"active","ping":54},{"user_id":193,"name":"tuukka","steam_id":76561198890409949,"connected_time":1229000000000,"state":"active","ping":109},{"user_id":202,"name":"thekoolest88","steam_id":76561199022415672,"connected_time":632000000000,"state":"active","ping":160},{"user_id":204,"name":"omnibombulator","steam_id":76561198025858897,"connected_time":548000000000,"state":"active","ping":46},{"user_id":199,"name":"Brinier","steam_id":76561199012604288,"connected_time":784000000000,"state":"active","ping":68},{"user_id":176,"name":"Cookoo","steam_id":76561197999127438,"connected_time":2499000000000,"state":"active","ping":51},{"user_id":177,"name":"Hot Beverage Enjoyer","steam_id":76561198060638325,"connected_time":2481000000000,"state":"active","ping":54},{"user_id":179,"name":"Flare","steam_id":76561198039098320,"connected_time":2443000000000,"state":"active","ping":48}]},{"server_id":321,"name":"Uncletopia | London | 4 | All Maps","name_short":"lon-4","host":"lon-1.uk.uncletopia.com","port":27045,"enabled":true,"region":"eu","cc":"gb","latitude":51.509865,"longitude":-0.118092,"reserved":0,"last_update":"0001-01-01T00:00:00Z","name_a2s":"Uncletopia | London | 4 | All Maps","protocol":17,"map":"koth_lakeside_final","folder":"tf","game":"Team Fortress","app_id":440,"player_count":1,"max_players":24,"Bots":0,"server_type":"Dedicated","server_os":"Linux","password":true,"vac":true,"version":"7723704","steam_id":85568392924510193,"keywords":["cp","nocrits","nodmgspread","uncletopia"],"game_id":440,"stv_port":27046,"stv_name":"Uncletopia | London | 4 | All Maps | STV","players":[{"user_id":5,"name":"Noname","steam_id":76561199099815054,"connected_time":75000000000,"state":"active","ping":88}]},{"server_id":21,"name":"Uncletopia | London | 5 | All Maps","name_short":"lon-5","host":"lon-1.uk.uncletopia.com","port":27055,"enabled":true,"region":"eu","cc":"gb","latitude":51.509865,"longitude":-0.118092,"reserved":0,"last_update":"0001-01-01T00:00:00Z","name_a2s":"Uncletopia | London | 5 | All Maps","protocol":17,"map":"pl_snowycoast","folder":"tf","game":"Team Fortress","app_id":440,"player_count":0,"max_players":24,"Bots":0,"server_type":"Dedicated","server_os":"Linux","password":true,"vac":true,"version":"7723704","steam_id":85568392924742829,"keywords":["nocrits","nodmgspread","payload","uncletopia"],"game_id":440,"stv_port":27056,"stv_name":"Uncletopia | London | 5 | All Maps | STV","players":null},{"server_id":22,"name":"Uncletopia | London | 6 | All Maps","name_short":"lon-6","host":"lon-1.uk.uncletopia.com","port":27065,"enabled":true,"region":"eu","cc":"gb","latitude":51.509865,"longitude":-0.118092,"reserved":0,"last_update":"0001-01-01T00:00:00Z","name_a2s":"Uncletopia | London | 6 | All Maps","protocol":17,"map":"pl_barnblitz","folder":"tf","game":"Team Fortress","app_id":440,"player_count":0,"max_players":24,"Bots":0,"server_type":"Dedicated","server_os":"Linux","password":true,"vac":true,"version":"7723704","steam_id":85568392924742830,"keywords":["nocrits","nodmgspread","payload","uncletopia"],"game_id":440,"stv_port":27066,"stv_name":"Uncletopia | London | 6 | All Maps | STV","players":null},{"server_id":40,"name":"Uncletopia | London | 7 | No Payload","name_short":"lon-7","host":"lon-1.uk.uncletopia.com","port":27075,"enabled":true,"region":"eu","cc":"gb","latitude":51.509865,"longitude":-0.118092,"reserved":0,"last_update":"0001-01-01T00:00:00Z","name_a2s":"Uncletopia | London | 7 | No Payload","protocol":17,"map":"plr_nightfall_final","folder":"tf","game":"Team Fortress","app_id":440,"player_count":3,"max_players":24,"Bots":0,"server_type":"Dedicated","server_os":"Linux","password":true,"vac":true,"version":"7723704","steam_id":85568392924964314,"keywords":["nocrits","nodmgspread","payload","uncletopia"],"game_id":440,"stv_port":27076,"stv_name":"Uncletopia | London | 7 | No Payload | STV","players":[{"user_id":10,"name":"water bottle","steam_id":76561199141538535,"connected_time":1069000000000,"state":"active","ping":53},{"user_id":8,"name":"Toomanynames","steam_id":76561199071235509,"connected_time":1420000000000,"state":"active","ping":45},{"user_id":11,"name":"cream crimson","steam_id":76561199442415175,"connected_time":347000000000,"state":"active","ping":86}]},{"server_id":41,"name":"Uncletopia | London | 8 | Community","name_short":"lon-8","host":"lon-1.uk.uncletopia.com","port":27085,"enabled":true,"region":"eu","cc":"gb","latitude":51.509865,"longitude":-0.118092,"reserved":0,"last_update":"0001-01-01T00:00:00Z","name_a2s":"Uncletopia | London | 8 | Community","protocol":17,"map":"koth_highpass","folder":"tf","game":"Team Fortress","app_id":440,"player_count":0,"max_players":24,"Bots":0,"server_type":"Dedicated","server_os":"Linux","password":true,"vac":true,"version":"7723704","steam_id":85568392924964315,"keywords":["cp","nocrits","nodmgspread","uncletopia"],"game_id":440,"stv_port":27086,"stv_name":"Uncletopia | London | 8 | Community | STV","players":null},{"server_id":300,"name":"Uncletopia | Montr√©al | 1 | All Maps","name_short":"mtl-1","host":"mtl-1.ca.uncletopia.com","port":27015,"enabled":true,"region":"us-east","cc":"ca","latitude":45.50889,"longitude":-73.56167,"reserved":0,"last_update":"0001-01-01T00:00:00Z","name_a2s":"Uncletopia | Montr√©al | 1 | All Maps","protocol":17,"map":"pl_upward","folder":"tf","game":"Team Fortress","app_id":440,"player_count":0,"max_players":24,"Bots":0,"server_type":"Dedicated","server_os":"Linux","password":true,"vac":true,"version":"7723704","steam_id":85568392924500087,"keywords":["nocrits","nodmgspread","payload","uncletopia"],"game_id":440,"stv_port":27016,"stv_name":"Uncletopia | Montr√©al | 1 | All Maps | STV","players":null},{"server_id":301,"name":"Uncletopia | Montr√©al | 2 | All Maps","name_short":"mtl-2","host":"mtl-1.ca.uncletopia.com","port":27025,"enabled":true,"region":"us-east","cc":"ca","latitude":45.50889,"longitude":-73.56167,"reserved":0,"last_update":"0001-01-01T00:00:00Z","name_a2s":"Uncletopia | Montr√©al | 2 | All Maps","protocol":17,"map":"cp_process_final","folder":"tf","game":"Team Fortress","app_id":440,"player_count":0,"max_players":24,"Bots":0,"server_type":"Dedicated","server_os":"Linux","password":true,"vac":true,"version":"7723704","steam_id":85568392924500088,"keywords":["cp","nocrits","nodmgspread","uncletopia"],"game_id":440,"stv_port":27026,"stv_name":"Uncletopia | Montr√©al | 2 | All Maps | STV","players":null},{"server_id":302,"name":"Uncletopia | Montr√©al | 3 | All Maps","name_short":"mtl-3","host":"mtl-1.ca.uncletopia.com","port":27035,"enabled":true,"region":"us-east","cc":"ca","latitude":45.50889,"longitude":-73.56167,"reserved":0,"last_update":"0001-01-01T00:00:00Z","name_a2s":"Uncletopia | Montr√©al | 3 | All Maps","protocol":17,"map":"pl_barnblitz","folder":"tf","game":"Team Fortress","app_id":440,"player_count":0,"max_players":24,"Bots":0,"server_type":"Dedicated","server_os":"Linux","password":true,"vac":true,"version":"7723704","steam_id":85568392924500089,"keywords":["nocrits","nodmgspread","payload","uncletopia"],"game_id":440,"stv_port":27036,"stv_name":"Uncletopia | Montr√©al | 3 | All Maps | STV","players":null},{"server_id":303,"name":"Uncletopia | Montr√©al | 4 | No Payload","name_short":"mtl-4","host":"mtl-1.ca.uncletopia.com","port":27045,"enabled":true,"region":"us-east","cc":"ca","latitude":45.50889,"longitude":-73.56167,"reserved":0,"last_update":"0001-01-01T00:00:00Z","name_a2s":"Uncletopia | Montr√©al | 4 | No Payload","protocol":17,"map":"koth_cascade","folder":"tf","game":"Team Fortress","app_id":440,"player_count":0,"max_players":24,"Bots":0,"server_type":"Dedicated","server_os":"Linux","password":true,"vac":true,"version":"7723704","steam_id":85568392924500090,"keywords":["cp","nocrits","nodmgspread","uncletopia"],"game_id":440,"stv_port":27046,"stv_name":"Uncletopia | Montr√©al | 4 | No Payload | STV","players":null},{"server_id":13,"name":"Uncletopia | New York City | 1 | All Maps","name_short":"nyc-1","host":"nyc-1.us.uncletopia.com","port":27015,"enabled":true,"region":"us-east","cc":"us","latitude":40.73061,"longitude":-73.93524,"reserved":0,"last_update":"0001-01-01T00:00:00Z","name_a2s":"Uncletopia | New York City | 1 | All Maps","protocol":17,"map":"pl_upward","folder":"tf","game":"Team Fortress","app_id":440,"player_count":0,"max_players":24,"Bots":0,"server_type":"Dedicated","server_os":"Linux","password":true,"vac":true,"version":"7723704","steam_id":85568392924469993,"keywords":["nocrits","nodmgspread","payload","uncletopia"],"game_id":440,"stv_port":27016,"stv_name":"Uncletopia | New York City | 1 | All Maps | STV","players":null},{"server_id":14,"name":"Uncletopia | New York City | 2 | All Maps","name_short":"nyc-2","host":"nyc-1.us.uncletopia.com","port":27025,"enabled":true,"region":"us-east","cc":"us","latitude":40.73061,"longitude":-73.93524,"reserved":0,"last_update":"0001-01-01T00:00:00Z","name_a2s":"Uncletopia | New York City | 2 | All Maps","protocol":17,"map":"pl_barnblitz","folder":"tf","game":"Team Fortress","app_id":440,"player_count":0,"max_players":24,"Bots":0,"server_type":"Dedicated","server_os":"Linux","password":true,"vac":true,"version":"7723704","steam_id":85568392924469994,"keywords":["nocrits","nodmgspread","payload","uncletopia"],"game_id":440,"stv_port":27026,"stv_name":"Uncletopia | New York City | 2 | All Maps | STV","players":null},{"server_id":15,"name":"Uncletopia | New York City | 3 | Stopwatch Beta","name_short":"nyc-3","host":"nyc-1.us.uncletopia.com","port":27035,"enabled":true,"region":"us-east","cc":"us","latitude":40.73061,"longitude":-73.93524,"reserved":0,"last_update":"0001-01-01T00:00:00Z","name_a2s":"Uncletopia | New York City | 3 | Stopwatch Beta","protocol":17,"map":"cp_process_final","folder":"tf","game":"Team Fortress","app_id":440,"player_count":0,"max_players":24,"Bots":0,"server_type":"Dedicated","server_os":"Linux","password":true,"vac":true,"version":"7723704","steam_id":85568392924742820,"keywords":["cp","nocrits","nodmgspread","uncletopia"],"game_id":440,"stv_port":27036,"stv_name":"Uncletopia | New York City | 3 | Stopwatch Beta | STV","players":null},{"server_id":16,"name":"Uncletopia | New York City | 4 | Community","name_short":"nyc-4","host":"nyc-1.us.uncletopia.com","port":27045,"enabled":true,"region":"us-east","cc":"us","latitude":40.73061,"longitude":-73.93524,"reserved":0,"last_update":"0001-01-01T00:00:00Z","name_a2s":"Uncletopia | New York City | 4 | Community","protocol":17,"map":"pl_frontier_final","folder":"tf","game":"Team Fortress","app_id":440,"player_count":0,"max_players":24,"Bots":0,"server_type":"Dedicated","server_os":"Linux","password":true,"vac":true,"version":"7723704","steam_id":85568392924742821,"keywords":["nocrits","nodmgspread","payload","uncletopia"],"game_id":440,"stv_port":27046,"stv_name":"Uncletopia | New York City | 4 | Community | STV","players":null},{"server_id":142,"name":"Uncletopia | S√£o Paulo | 1 | All Maps","name_short":"sao-1","host":"sao-1.br.uncletopia.com","port":27015,"enabled":true,"region":"sa","cc":"br","latitude":-23.533773,"longitude":-46.62529,"reserved":0,"last_update":"0001-01-01T00:00:00Z","name_a2s":"Uncletopia | S√£o Paulo | 1 | All Maps","protocol":17,"map":"pl_borneo","folder":"tf","game":"Team Fortress","app_id":440,"player_count":0,"max_players":24,"Bots":0,"server_type":"Dedicated","server_os":"Linux","password":true,"vac":true,"version":"7723704","steam_id":85568392924469996,"keywords":["nocrits","nodmgspread","payload","uncletopia"],"game_id":440,"stv_port":27016,"stv_name":"Uncletopia | S√£o Paulo | 1 | All Maps | STV","players":null},{"server_id":143,"name":"Uncletopia | S√£o Paulo | 2 | All Maps","name_short":"sao-2","host":"sao-2.br.uncletopia.com","port":27015,"enabled":true,"region":"sa","cc":"br","latitude":-23.533773,"longitude":-46.62529,"reserved":0,"last_update":"0001-01-01T00:00:00Z","name_a2s":"Uncletopia | S√£o Paulo | 2 | All Maps","protocol":17,"map":"cp_process_final","folder":"tf","game":"Team Fortress","app_id":440,"player_count":0,"max_players":24,"Bots":0,"server_type":"Dedicated","server_os":"Linux","password":true,"vac":true,"version":"7723704","steam_id":85568392924485349,"keywords":["cp","nocrits","nodmgspread","uncletopia"],"game_id":440,"stv_port":27016,"stv_name":"Uncletopia | S√£o Paulo | 2 | All Maps | STV","players":null},{"server_id":7,"name":"Uncletopia | Seattle | 1 | All Maps","name_short":"sea-1","host":"sea-1.us.uncletopia.com","port":27015,"enabled":true,"region":"us-west","cc":"us","latitude":47.608013,"longitude":-122.33517,"reserved":0,"last_update":"0001-01-01T00:00:00Z","name_a2s":"Uncletopia | Seattle | 1 | All Maps","protocol":17,"map":"koth_cascade","folder":"tf","game":"Team Fortress","app_id":440,"player_count":0,"max_players":24,"Bots":0,"server_type":"Dedicated","server_os":"Linux","password":true,"vac":true,"version":"7723704","steam_id":85568392924469997,"keywords":["cp","nocrits","nodmgspread","uncletopia"],"game_id":440,"stv_port":27016,"stv_name":"Uncletopia | Seattle | 1 | All Maps | STV","players":null},{"server_id":119,"name":"Uncletopia | Seattle | 2 | All Maps","name_short":"sea-2","host":"sea-1.us.uncletopia.com","port":27025,"enabled":true,"region":"us-west","cc":"us","latitude":47.608013,"longitude":-122.33517,"reserved":0,"last_update":"0001-01-01T00:00:00Z","name_a2s":"Uncletopia | Seattle | 2 | All Maps","protocol":17,"map":"pl_barnblitz","folder":"tf","game":"Team Fortress","app_id":440,"player_count":0,"max_players":24,"Bots":0,"server_type":"Dedicated","server_os":"Linux","password":true,"vac":true,"version":"7723704","steam_id":85568392924469998,"keywords":["nocrits","nodmgspread","payload","uncletopia"],"game_id":440,"stv_port":27026,"stv_name":"Uncletopia | Seattle | 2 | All Maps | STV","players":null},{"server_id":406,"name":"Uncletopia | Seattle | 3 | Stopwatch Beta","name_short":"sea-3","host":"sea-1.us.uncletopia.com","port":27035,"enabled":true,"region":"us-west","cc":"us","latitude":47.608013,"longitude":-122.33517,"reserved":0,"last_update":"0001-01-01T00:00:00Z","name_a2s":"Uncletopia | Seattle | 3 | Stopwatch Beta","protocol":17,"map":"cp_altitude","folder":"tf","game":"Team Fortress","app_id":440,"player_count":0,"max_players":24,"Bots":0,"server_type":"Dedicated","server_os":"Linux","password":true,"vac":false,"version":"7723704","steam_id":0,"keywords":["cp","nocrits","nodmgspread","uncletopia"],"game_id":440,"stv_port":27036,"stv_name":"Uncletopia | Seattle | 3 | Stopwatch Beta | STV","players":null},{"server_id":17,"name":"Uncletopia | San Francisco | 1 | All Maps","name_short":"sfo-1","host":"sfo-1.us.uncletopia.com","port":27015,"enabled":true,"region":"us-west","cc":"us","latitude":37.77397,"longitude":-122.4313,"reserved":0,"last_update":"0001-01-01T00:00:00Z","name_a2s":"Uncletopia | San Francisco | 1 | All Maps","protocol":17,"map":"cp_process_final","folder":"tf","game":"Team Fortress","app_id":440,"player_count":0,"max_players":24,"Bots":0,"server_type":"Dedicated","server_os":"Linux","password":true,"vac":true,"version":"7723704","steam_id":85568392924469999,"keywords":["cp","nocrits","nodmgspread","uncletopia"],"game_id":440,"stv_port":27016,"stv_name":"Uncletopia | San Francisco | 1 | All Maps | STV","players":null},{"server_id":18,"name":"Uncletopia | San Francisco | 2 | All Maps","name_short":"sfo-2","host":"sfo-1.us.uncletopia.com","port":27025,"enabled":true,"region":"us-west","cc":"us","latitude":37.77397,"longitude":-122.4313,"reserved":0,"last_update":"0001-01-01T00:00:00Z","name_a2s":"Uncletopia | San Francisco | 2 | All Maps","protocol":17,"map":"pl_upward","folder":"tf","game":"Team Fortress","app_id":440,"player_count":0,"max_players":24,"Bots":0,"server_type":"Dedicated","server_os":"Linux","password":true,"vac":true,"version":"7723704","steam_id":85568392924470000,"keywords":["nocrits","nodmgspread","payload","uncletopia"],"game_id":440,"stv_port":27026,"stv_name":"Uncletopia | San Francisco | 2 | All Maps | STV","players":null},{"server_id":19,"name":"Uncletopia | San Francisco | 3 | Stopwatch Beta","name_short":"sfo-3","host":"sfo-1.us.uncletopia.com","port":27035,"enabled":true,"region":"us-west","cc":"us","latitude":37.77397,"longitude":-122.4313,"reserved":0,"last_update":"0001-01-01T00:00:00Z","name_a2s":"Uncletopia | San Francisco | 3 | Stopwatch Beta","protocol":17,"map":"pl_pier","folder":"tf","game":"Team Fortress","app_id":440,"player_count":0,"max_players":24,"Bots":0,"server_type":"Dedicated","server_os":"Linux","password":true,"vac":true,"version":"7723704","steam_id":85568392924742824,"keywords":["nocrits","nodmgspread","payload","uncletopia"],"game_id":440,"stv_port":27036,"stv_name":"Uncletopia | San Francisco | 3 | Stopwatch Beta | STV","players":null},{"server_id":20,"name":"Uncletopia | San Francisco | 4 | Community","name_short":"sfo-4","host":"sfo-1.us.uncletopia.com","port":27045,"enabled":true,"region":"us-west","cc":"us","latitude":37.77397,"longitude":-122.4313,"reserved":0,"last_update":"0001-01-01T00:00:00Z","name_a2s":"Uncletopia | San Francisco | 4 | Community","protocol":17,"map":"koth_cascade","folder":"tf","game":"Team Fortress","app_id":440,"player_count":0,"max_players":24,"Bots":0,"server_type":"Dedicated","server_os":"Linux","password":true,"vac":true,"version":"7723704","steam_id":85568392924742826,"keywords":["cp","nocrits","nodmgspread","uncletopia"],"game_id":440,"stv_port":27046,"stv_name":"Uncletopia | San Francisco | 4 | Community | STV","players":null},{"server_id":141,"name":"Uncletopia | Sydney | 1 | All Maps","name_short":"syd-1","host":"syd-1.au.uncletopia.com","port":27015,"enabled":true,"region":"au","cc":"au","latitude":-33.865143,"longitude":151.2099,"reserved":0,"last_update":"0001-01-01T00:00:00Z","name_a2s":"Uncletopia | Sydney | 1 | All Maps","protocol":17,"map":"koth_lakeside_final","folder":"tf","game":"Team Fortress","app_id":440,"player_count":0,"max_players":24,"Bots":0,"server_type":"Dedicated","server_os":"Linux","password":true,"vac":true,"version":"7723704","steam_id":85568392924470001,"keywords":["cp","nocrits","nodmgspread","uncletopia"],"game_id":440,"stv_port":27016,"stv_name":"Uncletopia | Sydney | 1 | All Maps | STV","players":null},{"server_id":123,"name":"Uncletopia | Sydney | 2 | All Maps","name_short":"syd-2","host":"syd-1.au.uncletopia.com","port":27025,"enabled":true,"region":"au","cc":"au","latitude":-33.865143,"longitude":151.2099,"reserved":0,"last_update":"0001-01-01T00:00:00Z","name_a2s":"Uncletopia | Sydney | 2 | All Maps","protocol":17,"map":"pl_upward","folder":"tf","game":"Team Fortress","app_id":440,"player_count":0,"max_players":24,"Bots":0,"server_type":"Dedicated","server_os":"Linux","password":true,"vac":true,"version":"7723704","steam_id":85568392924470002,"keywords":["nocrits","nodmgspread","payload","uncletopia"],"game_id":440,"stv_port":27026,"stv_name":"Uncletopia | Sydney | 2 | All Maps | STV","players":null},{"server_id":395,"name":"Uncletopia | Sydney | 3 | All Maps","name_short":"syd-3","host":"syd-1.au.uncletopia.com","port":27035,"enabled":true,"region":"au","cc":"au","latitude":-33.865143,"longitude":151.2099,"reserved":0,"last_update":"0001-01-01T00:00:00Z","name_a2s":"Uncletopia | Sydney | 3 | All Maps","protocol":17,"map":"cp_dustbowl","folder":"tf","game":"Team Fortress","app_id":440,"player_count":0,"max_players":24,"Bots":0,"server_type":"Dedicated","server_os":"Linux","password":true,"vac":true,"version":"7723704","steam_id":85568392925194467,"keywords":["cp","nocrits","nodmgspread","uncletopia"],"game_id":440,"stv_port":27036,"stv_name":"Uncletopia | Sydney | 3 | All Maps | STV","players":null},{"server_id":396,"name":"Uncletopia | Sydney | 4 | All Maps","name_short":"syd-4","host":"syd-1.au.uncletopia.com","port":27045,"enabled":true,"region":"au","cc":"au","latitude":-33.865143,"longitude":151.2099,"reserved":0,"last_update":"0001-01-01T00:00:00Z","name_a2s":"Uncletopia | Sydney | 4 | All Maps","protocol":17,"map":"koth_viaduct","folder":"tf","game":"Team Fortress","app_id":440,"player_count":7,"max_players":24,"Bots":0,"server_type":"Dedicated","server_os":"Linux","password":true,"vac":true,"version":"7723704","steam_id":85568392925397958,"keywords":["cp","nocrits","nodmgspread","uncletopia"],"game_id":440,"stv_port":27046,"stv_name":"Uncletopia | Sydney | 4 | All Maps | STV","players":[{"user_id":40,"name":"Snipper","steam_id":76561199227682729,"connected_time":2142000000000,"state":"active","ping":78},{"user_id":41,"name":"Sancho","steam_id":76561197995288524,"connected_time":2040000000000,"state":"active","ping":54},{"user_id":42,"name":"Ethos","steam_id":76561197970514852,"connected_time":2030000000000,"state":"active","ping":50},{"user_id":44,"name":"GrotesqueHorse","steam_id":76561198151298791,"connected_time":910000000000,"state":"active","ping":149},{"user_id":45,"name":"BlackMarketDoctor","steam_id":76561199087075409,"connected_time":898000000000,"state":"active","ping":150},{"user_id":49,"name":"„Ç§„Éä„Ç§„É¨","steam_id":76561198299742244,"connected_time":358000000000,"state":"active","ping":258},{"user_id":50,"name":"Ôº°ÔΩâÔΩíÔΩÇÔΩåÔΩÅÔΩìÔΩî","steam_id":76561199010558927,"connected_time":147000000000,"state":"active","ping":282}]},{"server_id":58,"name":"Uncletopia | Sydney | 5 | Stopwatch Beta","name_short":"syd-5","host":"syd-1.au.uncletopia.com","port":27055,"enabled":true,"region":"au","cc":"au","latitude":-33.865143,"longitude":151.2099,"reserved":0,"last_update":"0001-01-01T00:00:00Z","name_a2s":"Uncletopia | Sydney | 5 | Stopwatch Beta","protocol":17,"map":"cp_altitude","folder":"tf","game":"Team Fortress","app_id":440,"player_count":0,"max_players":24,"Bots":0,"server_type":"Dedicated","server_os":"Linux","password":true,"vac":true,"version":"7723704","steam_id":85568392925397959,"keywords":["cp","nocrits","nodmgspread","uncletopia"],"game_id":440,"stv_port":27056,"stv_name":"Uncletopia | Sydney | 5 | Stopwatch Beta | STV","players":null},{"server_id":59,"name":"Uncletopia | Sydney | 6 | Community","name_short":"syd-6","host":"syd-1.au.uncletopia.com","port":27065,"enabled":true,"region":"au","cc":"au","latitude":-33.865143,"longitude":151.2099,"reserved":0,"last_update":"0001-01-01T00:00:00Z","name_a2s":"Uncletopia | Sydney | 6 | Community","protocol":17,"map":"workshop/pl_fifthcurve_rc1.ugc648227046","folder":"tf","game":"Team Fortress","app_id":440,"player_count":0,"max_players":24,"Bots":0,"server_type":"Dedicated","server_os":"Linux","password":true,"vac":true,"version":"7723704","steam_id":85568392925397960,"keywords":["nocrits","nodmgspread","payload","uncletopia"],"game_id":440,"stv_port":27066,"stv_name":"Uncletopia | Sydney | 6 | Community | STV","players":null},{"server_id":49,"name":"Uncletopia | Warsaw | 1 | All Maps","name_short":"waw-1","host":"waw-1.pl.uncletopia.com","port":27015,"enabled":true,"region":"eu","cc":"pl","latitude":52.2297,"longitude":21.017532,"reserved":0,"last_update":"0001-01-01T00:00:00Z","name_a2s":"Uncletopia | Warsaw | 1 | All Maps","protocol":17,"map":"pl_snowycoast","folder":"tf","game":"Team Fortress","app_id":440,"player_count":0,"max_players":24,"Bots":0,"server_type":"Dedicated","server_os":"Linux","password":true,"vac":true,"version":"7723704","steam_id":85568392925397850,"keywords":["nocrits","nodmgspread","payload","uncletopia"],"game_id":440,"stv_port":27016,"stv_name":"Uncletopia | Warsaw | 1 | All Maps | STV","players":null},{"server_id":50,"name":"Uncletopia | Warsaw | 2 | All Maps","name_short":"waw-2","host":"waw-1.pl.uncletopia.com","port":27025,"enabled":true,"region":"eu","cc":"pl","latitude":52.2297,"longitude":21.017532,"reserved":0,"last_update":"0001-01-01T00:00:00Z","name_a2s":"Uncletopia | Warsaw | 2 | All Maps","protocol":17,"map":"pl_barnblitz","folder":"tf","game":"Team Fortress","app_id":440,"player_count":0,"max_players":24,"Bots":0,"server_type":"Dedicated","server_os":"Linux","password":true,"vac":true,"version":"7723704","steam_id":85568392925397851,"keywords":["nocrits","nodmgspread","payload","uncletopia"],"game_id":440,"stv_port":27026,"stv_name":"Uncletopia | Warsaw | 2 | All Maps | STV","players":null},{"server_id":51,"name":"Uncletopia | Warsaw | 3 | All Maps","name_short":"waw-3","host":"waw-1.pl.uncletopia.com","port":27035,"enabled":true,"region":"eu","cc":"pl","latitude":52.2297,"longitude":21.017532,"reserved":0,"last_update":"0001-01-01T00:00:00Z","name_a2s":"Uncletopia | Warsaw | 3 | All Maps","protocol":17,"map":"pl_barnblitz","folder":"tf","game":"Team Fortress","app_id":440,"player_count":0,"max_players":24,"Bots":0,"server_type":"Dedicated","server_os":"Linux","password":true,"vac":true,"version":"7723704","steam_id":85568392925397852,"keywords":["nocrits","nodmgspread","payload","uncletopia"],"game_id":440,"stv_port":27036,"stv_name":"Uncletopia | Warsaw | 3 | All Maps | STV","players":null},{"server_id":52,"name":"Uncletopia | Warsaw | 4 | All Maps","name_short":"waw-4","host":"waw-1.pl.uncletopia.com","port":27045,"enabled":true,"region":"eu","cc":"pl","latitude":52.2297,"longitude":21.017532,"reserved":0,"last_update":"0001-01-01T00:00:00Z","name_a2s":"Uncletopia | Warsaw | 4 | All Maps","protocol":17,"map":"pl_snowycoast","folder":"tf","game":"Team Fortress","app_id":440,"player_count":0,"max_players":24,"Bots":0,"server_type":"Dedicated","server_os":"Linux","password":true,"vac":true,"version":"7723704","steam_id":85568392925397853,"keywords":["nocrits","nodmgspread","payload","uncletopia"],"game_id":440,"stv_port":27046,"stv_name":"Uncletopia | Warsaw | 4 | All Maps | STV","players":null},{"server_id":53,"name":"Uncletopia | Warsaw | 5 | Stopwatch Beta","name_short":"waw-5","host":"waw-1.pl.uncletopia.com","port":27055,"enabled":true,"region":"eu","cc":"pl","latitude":52.2297,"longitude":21.017532,"reserved":0,"last_update":"0001-01-01T00:00:00Z","name_a2s":"Uncletopia | Warsaw | 5 | Stopwatch Beta","protocol":17,"map":"cp_sunshine","folder":"tf","game":"Team Fortress","app_id":440,"player_count":0,"max_players":24,"Bots":0,"server_type":"Dedicated","server_os":"Linux","password":true,"vac":true,"version":"7723704","steam_id":85568392925397854,"keywords":["cp","nocrits","nodmgspread","uncletopia"],"game_id":440,"stv_port":27056,"stv_name":"Uncletopia | Warsaw | 5 | Stopwatch Beta | STV","players":null},{"server_id":54,"name":"Uncletopia | Warsaw | 6 | Community","name_short":"waw-6","host":"waw-1.pl.uncletopia.com","port":27065,"enabled":true,"region":"eu","cc":"pl","latitude":52.2297,"longitude":21.017532,"reserved":0,"last_update":"0001-01-01T00:00:00Z","name_a2s":"Uncletopia | Warsaw | 6 | Community","protocol":17,"map":"workshop/koth_synthetic_rc6a.ugc1549817316","folder":"tf","game":"Team Fortress","app_id":440,"player_count":0,"max_players":24,"Bots":0,"server_type":"Dedicated","server_os":"Linux","password":true,"vac":true,"version":"7723704","steam_id":85568392925397856,"keywords":["cp","nocrits","nodmgspread","uncletopia"],"game_id":440,"stv_port":27066,"stv_name":"Uncletopia | Warsaw | 6 | Community | STV","players":null}]}