{"status":true,"message":"","result":[{"server_id":9,"name":"Uncletopia | Atlanta | 1 | All Maps","name_short":"atl-1","host":"atl-1.us.uncletopia.com","port":27015,"enabled":true,"region":"us-east","cc":"us","latitude":33.753746,"longitude":-84.38633,"reserved":0,"last_update":"0001-01-01T00:00:00Z","name_a2s":"Uncletopia | Atlanta | 1 | All Maps","protocol":17,"map":"cp_dustbowl","folder":"tf","game":"Team Fortress","app_id":440,"player_count":24,"max_players":24,"Bots":0,"server_type":"Dedicated","server_os":"Linux","password":true,"vac":true,"version":"7757534","steam_id":85568392924469982,"keywords":["cp","nocrits","nodmgspread","uncletopia"],"game_id":440,"stv_port":27016,"stv_name":"Uncletopia | Atlanta | 1 | All Maps | STV","players":[{"user_id":380,"name":"vitamin","steam_id":76561198277799227,"connected_time":4878000000000,"state":"active","ping":60},{"user_id":438,"name":"MyamE","steam_id":76561198133278462,"connected_time":58000000000,"state":"active","ping":73},{"user_id":426,"name":"Veilos","steam_id":76561198071897172,"connected_time":503000000000,"state":"active","ping":85},{"user_id":440,"name":"Kraftlos","steam_id":76561198074350350,"connected_time":42000000000,"state":"active","ping":78},{"user_id":437,"name":"Got Hat?","steam_id":76561197998486431,"connected_time":113000000000,"state":"active","ping":60},{"user_id":391,"name":"Happy Tree Friends","steam_id":76561198110694072,"connected_time":3747000000000,"state":"active","ping":87},{"user_id":427,"name":"The Pope","steam_id":76561198313560302,"connected_time":500000000000,"state":"active","ping":40},{"user_id":421,"name":"NEM","steam_id":76561199241131104,"connected_time":534000000000,"state":"active","ping":84},{"user_id":442,"name":"nory","steam_id":76561198031819070,"connected_time":20000000000,"state":"active","ping":110},{"user_id":423,"name":"tf2engi | trade.tf","steam_id":76561198176175113,"connected_time":527000000000,"state":"active","ping":70},{"user_id":384,"name":"1 2fort sized Chihuahua","steam_id":76561198130772096,"connected_time":4229000000000,"state":"active","ping":53},{"user_id":433,"name":"üî•üêá","steam_id":76561198357456014,"connected_time":264000000000,"state":"active","ping":99},{"user_id":397,"name":"Duck","steam_id":76561198061652621,"connected_time":2718000000000,"state":"active","ping":64},{"user_id":424,"name":"CAPT Splashclaw","steam_id":76561198110019410,"connected_time":527000000000,"state":"active","ping":81},{"user_id":441,"name":"Large Charles","steam_id":76561197999663001,"connected_time":41000000000,"state":"active","ping":79},{"user_id":443,"name":"DFR DeezNoodlez","steam_id":76561198246700372,"connected_time":19000000000,"state":"active","ping":61},{"user_id":402,"name":"T Jit","steam_id":76561197993371179,"connected_time":2408000000000,"state":"active","ping":45},{"user_id":429,"name":"89","steam_id":76561198106308056,"connected_time":469000000000,"state":"active","ping":97},{"user_id":434,"name":"puke","steam_id":76561197999279693,"connected_time":260000000000,"state":"active","ping":90},{"user_id":309,"name":"Chipmunk Gaming","steam_id":76561198251851220,"connected_time":6957000000000,"state":"active","ping":57},{"user_id":410,"name":"‚áå|œütriKer|‚áã","steam_id":76561199389089862,"connected_time":1431000000000,"state":"active","ping":142},{"user_id":418,"name":"Jin Gulilo","steam_id":76561198065151242,"connected_time":583000000000,"state":"active","ping":76},{"user_id":419,"name":"atl1 Quality","steam_id":76561198361132101,"connected_time":582000000000,"state":"active","ping":91},{"user_id":425,"name":"O'Keearns","steam_id":76561198042213797,"connected_time":527000000000,"state":"active","ping":45}]},{"server_id":104,"name":"Uncletopia | Atlanta | 2 | All Maps","name_short":"atl-2","host":"atl-1.us.uncletopia.com","port":27025,"enabled":true,"region":"us-east","cc":"us","latitude":33.753746,"longitude":-84.38633,"reserved":0,"last_update":"0001-01-01T00:00:00Z","name_a2s":"Uncletopia | Atlanta | 2 | All Maps","protocol":17,"map":"pl_borneo","folder":"tf","game":"Team Fortress","app_id":440,"player_count":24,"max_players":24,"Bots":0,"server_type":"Dedicated","server_os":"Linux","password":true,"vac":true,"version":"7757534","steam_id":85568392924469983,"keywords":["nocrits","nodmgspread","payload","uncletopia"],"game_id":440,"stv_port":27026,"stv_name":"Uncletopia | Atlanta | 2 | All Maps | STV","players":[{"user_id":17,"name":"jerry","steam_id":76561198422891994,"connected_time":3321000000000,"state":"active","ping":168},{"user_id":54,"name":"Mr.Clean(All Purpose Cleaner)","steam_id":76561198208014257,"connected_time":1632000000000,"state":"active","ping":74},{"user_id":51,"name":"Electroid","steam_id":76561199092263960,"connected_time":1663000000000,"state":"active","ping":54},{"user_id":19,"name":"hidithebob","steam_id":76561198095826955,"connected_time":3293000000000,"state":"active","ping":55},{"user_id":20,"name":"Madd Maxx","steam_id":76561198339584998,"connected_time":2875000000000,"state":"active","ping":89},{"user_id":49,"name":"faka","steam_id":76561199093280815,"connected_time":1905000000000,"state":"active","ping":100},{"user_id":25,"name":"svj","steam_id":76561198074318183,"connected_time":2739000000000,"state":"active","ping":56},{"user_id":37,"name":"crunchy obama","steam_id":76561198044485217,"connected_time":2418000000000,"state":"active","ping":113},{"user_id":61,"name":"BurgerPizza","steam_id":76561198151256410,"connected_time":817000000000,"state":"active","ping":127},{"user_id":63,"name":"Buck","steam_id":76561198064244796,"connected_time":508000000000,"state":"active","ping":63},{"user_id":28,"name":"UNIT 220","steam_id":76561198042243497,"connected_time":2719000000000,"state":"active","ping":78},{"user_id":64,"name":"Ice cream man","steam_id":76561198051519116,"connected_time":445000000000,"state":"active","ping":60},{"user_id":57,"name":"FancyBones","steam_id":76561198180198885,"connected_time":1268000000000,"state":"active","ping":75},{"user_id":56,"name":"Momki","steam_id":76561198072944509,"connected_time":1291000000000,"state":"active","ping":89},{"user_id":32,"name":"Something Generic","steam_id":76561198989826375,"connected_time":2513000000000,"state":"active","ping":95},{"user_id":33,"name":"DRAKE FAN #1","steam_id":76561198353456379,"connected_time":2484000000000,"state":"active","ping":78},{"user_id":35,"name":"Wungsten","steam_id":76561198047983571,"connected_time":2450000000000,"state":"active","ping":52},{"user_id":36,"name":"jaqalope","steam_id":76561198152144009,"connected_time":2445000000000,"state":"active","ping":93},{"user_id":58,"name":"gamerlegend47","steam_id":76561198122776598,"connected_time":1261000000000,"state":"active","ping":54},{"user_id":59,"name":"Pydro","steam_id":76561197995995820,"connected_time":1117000000000,"state":"active","ping":54},{"user_id":66,"name":"CapnKris22","steam_id":76561198049010994,"connected_time":255000000000,"state":"active","ping":88},{"user_id":41,"name":"polaris","steam_id":76561198212481737,"connected_time":2368000000000,"state":"active","ping":67},{"user_id":67,"name":"FHC | Nyle","steam_id":76561198045652639,"connected_time":164000000000,"state":"active","ping":120},{"user_id":43,"name":"Healing Weapons Guy","steam_id":76561198005608047,"connected_time":2340000000000,"state":"active","ping":95}]},{"server_id":400,"name":"Uncletopia | Atlanta | 3 | Community","name_short":"atl-3","host":"atl-1.us.uncletopia.com","port":27035,"enabled":true,"region":"us-east","cc":"us","latitude":33.753746,"longitude":-84.38633,"reserved":0,"last_update":"0001-01-01T00:00:00Z","name_a2s":"Uncletopia | Atlanta | 3 | Community","protocol":17,"map":"workshop/koth_trenchfoot_b1a.ugc731436616","folder":"tf","game":"Team Fortress","app_id":440,"player_count":0,"max_players":24,"Bots":0,"server_type":"Dedicated","server_os":"Linux","password":true,"vac":true,"version":"7757534","steam_id":85568392924515187,"keywords":["cp","nocrits","nodmgspread","uncletopia"],"game_id":440,"stv_port":27036,"stv_name":"Uncletopia | Atlanta | 3 | Community | STV","players":null},{"server_id":401,"name":"Uncletopia | Atlanta | 4 | No Payload","name_short":"atl-4","host":"atl-1.us.uncletopia.com","port":27045,"enabled":true,"region":"us-east","cc":"us","latitude":33.753746,"longitude":-84.38633,"reserved":0,"last_update":"0001-01-01T00:00:00Z","name_a2s":"","protocol":0,"map":"","folder":"","game":"","app_id":0,"player_count":0,"max_players":0,"Bots":0,"server_type":"","server_os":"","password":false,"vac":false,"version":"","steam_id":0,"keywords":null,"game_id":0,"stv_port":0,"stv_name":"","players":null},{"server_id":2,"name":"Uncletopia | Chicago | 1 | All Maps","name_short":"chi-1","host":"chi-1.us.uncletopia.com","port":27015,"enabled":true,"region":"us-central","cc":"us","latitude":41.881832,"longitude":-87.62318,"reserved":0,"last_update":"0001-01-01T00:00:00Z","name_a2s":"Uncletopia | Chicago | 1 | All Maps","protocol":17,"map":"cp_dustbowl","folder":"tf","game":"Team Fortress","app_id":440,"player_count":24,"max_players":24,"Bots":0,"server_type":"Dedicated","server_os":"Linux","password":true,"vac":true,"version":"7757534","steam_id":85568392924469984,"keywords":["cp","nocrits","nodmgspread","uncletopia"],"game_id":440,"stv_port":27016,"stv_name":"Uncletopia | Chicago | 1 | All Maps | STV","players":[{"user_id":89,"name":"ÔºîÔºê Ôº¶Ôº∞Ôº≥","steam_id":76561198272394965,"connected_time":7575000000000,"state":"active","ping":132},{"user_id":196,"name":"‚ô•Angel Dust‚ô•","steam_id":76561198233658032,"connected_time":1148000000000,"state":"active","ping":123},{"user_id":186,"name":"SlurpyTheDog","steam_id":76561198799733154,"connected_time":1384000000000,"state":"active","ping":63},{"user_id":148,"name":"PKBEAST_7","steam_id":76561198177136537,"connected_time":3990000000000,"state":"active","ping":91},{"user_id":184,"name":"Alara","steam_id":76561198083144491,"connected_time":1396000000000,"state":"active","ping":58},{"user_id":192,"name":"Nebula","steam_id":76561198795878862,"connected_time":1250000000000,"state":"active","ping":68},{"user_id":209,"name":"A happy lad","steam_id":76561198873788192,"connected_time":658000000000,"state":"active","ping":72},{"user_id":189,"name":"Quaker Oats","steam_id":76561197992800293,"connected_time":1365000000000,"state":"active","ping":93},{"user_id":190,"name":"ribbonborn","steam_id":76561198001195423,"connected_time":1334000000000,"state":"active","ping":95},{"user_id":197,"name":"DylanGuy","steam_id":76561198800767851,"connected_time":1143000000000,"state":"active","ping":74},{"user_id":191,"name":"SlitherDoodle","steam_id":76561198000275473,"connected_time":1277000000000,"state":"active","ping":64},{"user_id":193,"name":"AX0L_","steam_id":76561199008960175,"connected_time":1211000000000,"state":"active","ping":46},{"user_id":162,"name":"Neon","steam_id":76561198089067907,"connected_time":2794000000000,"state":"active","ping":67},{"user_id":194,"name":"superplasticguy","steam_id":76561198800358844,"connected_time":1211000000000,"state":"active","ping":81},{"user_id":199,"name":"bojack from the show bojack hor","steam_id":76561198053006712,"connected_time":1111000000000,"state":"active","ping":61},{"user_id":198,"name":"Toaster Time","steam_id":76561198158794507,"connected_time":1139000000000,"state":"active","ping":88},{"user_id":200,"name":"I Listen to Genesis on Repeat","steam_id":76561198238932358,"connected_time":1083000000000,"state":"active","ping":117},{"user_id":206,"name":"caption cool","steam_id":76561197990612056,"connected_time":792000000000,"state":"active","ping":45},{"user_id":132,"name":"stop reddit","steam_id":76561198166982558,"connected_time":5624000000000,"state":"active","ping":92},{"user_id":208,"name":"DDMM5008","steam_id":76561198013373274,"connected_time":670000000000,"state":"active","ping":68},{"user_id":172,"name":"Hertz","steam_id":76561198245322982,"connected_time":1744000000000,"state":"active","ping":48},{"user_id":201,"name":"Technic","steam_id":76561198200302281,"connected_time":1081000000000,"state":"active","ping":74},{"user_id":207,"name":"Waluigi","steam_id":76561198891626233,"connected_time":787000000000,"state":"active","ping":70},{"user_id":122,"name":"Training Arc","steam_id":76561198038832034,"connected_time":6071000000000,"state":"active","ping":105}]},{"server_id":106,"name":"Uncletopia | Chicago | 2 | All Maps","name_short":"chi-2","host":"chi-1.us.uncletopia.com","port":27025,"enabled":true,"region":"us-central","cc":"us","latitude":41.881832,"longitude":-87.62318,"reserved":0,"last_update":"0001-01-01T00:00:00Z","name_a2s":"Uncletopia | Chicago | 2 | All Maps","protocol":17,"map":"pl_swiftwater_final1","folder":"tf","game":"Team Fortress","app_id":440,"player_count":24,"max_players":24,"Bots":0,"server_type":"Dedicated","server_os":"Linux","password":true,"vac":true,"version":"7757534","steam_id":85568392924469985,"keywords":["nocrits","nodmgspread","payload","uncletopia"],"game_id":440,"stv_port":27026,"stv_name":"Uncletopia | Chicago | 2 | All Maps | STV","players":[{"user_id":480,"name":"AidanAF04","steam_id":76561198166134992,"connected_time":3829000000000,"state":"active","ping":77},{"user_id":525,"name":"OddSlaush","steam_id":76561198043898488,"connected_time":1729000000000,"state":"active","ping":102},{"user_id":535,"name":"Bridgitte","steam_id":76561198029045445,"connected_time":1228000000000,"state":"active","ping":87},{"user_id":489,"name":"Wep","steam_id":76561198067112101,"connected_time":3739000000000,"state":"active","ping":62},{"user_id":541,"name":"John Halo from Halo (real)","steam_id":76561198013308693,"connected_time":536000000000,"state":"active","ping":66},{"user_id":291,"name":"TwistedTurk","steam_id":76561198082047119,"connected_time":16444000000000,"state":"active","ping":72},{"user_id":527,"name":"Winter the Witchie","steam_id":76561198151971178,"connected_time":1674000000000,"state":"active","ping":70},{"user_id":539,"name":"Cousin Corn on the Cob","steam_id":76561198049837377,"connected_time":626000000000,"state":"active","ping":42},{"user_id":516,"name":"Felipe Ramirez 2013","steam_id":76561198150497397,"connected_time":2360000000000,"state":"active","ping":53},{"user_id":551,"name":"AzuriousAlex","steam_id":76561198158026405,"connected_time":64000000000,"state":"active","ping":82},{"user_id":153,"name":"Ajax","steam_id":76561197962240140,"connected_time":27878000000000,"state":"active","ping":72},{"user_id":542,"name":"Kapitan Bomba","steam_id":76561199102087660,"connected_time":478000000000,"state":"active","ping":65},{"user_id":540,"name":"fuckterry","steam_id":76561198271957738,"connected_time":601000000000,"state":"active","ping":66},{"user_id":529,"name":"xbox turn off","steam_id":76561198040912048,"connected_time":1652000000000,"state":"active","ping":51},{"user_id":510,"name":"Tforcer3519","steam_id":76561198383268065,"connected_time":2994000000000,"state":"active","ping":61},{"user_id":543,"name":"sootyquill","steam_id":76561198186883927,"connected_time":456000000000,"state":"active","ping":89},{"user_id":537,"name":"PERDONAME POR TODO ELIZABEEEETH","steam_id":76561198256886614,"connected_time":1161000000000,"state":"active","ping":115},{"user_id":492,"name":"Kit kyat","steam_id":76561198235786296,"connected_time":3651000000000,"state":"active","ping":61},{"user_id":549,"name":"jrdoran","steam_id":76561197984753094,"connected_time":192000000000,"state":"active","ping":63},{"user_id":538,"name":"bag of welch's with only yellow","steam_id":76561198992914023,"connected_time":1147000000000,"state":"active","ping":59},{"user_id":545,"name":"RoFrogle","steam_id":76561199078941377,"connected_time":441000000000,"state":"active","ping":72},{"user_id":550,"name":"airballer \u003e:3","steam_id":76561198165899125,"connected_time":190000000000,"state":"active","ping":72},{"user_id":524,"name":"Human Person","steam_id":76561198283855440,"connected_time":1925000000000,"state":"active","ping":168},{"user_id":547,"name":"hatchetax","steam_id":76561199013337543,"connected_time":309000000000,"state":"active","ping":70}]},{"server_id":402,"name":"Uncletopia | Chicago | 3 | All Maps","name_short":"chi-3","host":"chi-1.us.uncletopia.com","port":27035,"enabled":true,"region":"us-central","cc":"us","latitude":41.881832,"longitude":-87.62318,"reserved":0,"last_update":"0001-01-01T00:00:00Z","name_a2s":"Uncletopia | Chicago | 3 | All Maps","protocol":17,"map":"koth_viaduct","folder":"tf","game":"Team Fortress","app_id":440,"player_count":24,"max_players":24,"Bots":0,"server_type":"Dedicated","server_os":"Linux","password":true,"vac":true,"version":"7757534","steam_id":85568392924515191,"keywords":["cp","nocrits","nodmgspread","uncletopia"],"game_id":440,"stv_port":27036,"stv_name":"Uncletopia | Chicago | 3 | All Maps | STV","players":[{"user_id":63,"name":"Œ≤eta","steam_id":76561198978885260,"connected_time":2851000000000,"state":"active","ping":51},{"user_id":93,"name":"Furious George","steam_id":76561198405111646,"connected_time":900000000000,"state":"active","ping":98},{"user_id":83,"name":"IceTwit","steam_id":76561198350809326,"connected_time":1832000000000,"state":"active","ping":60},{"user_id":97,"name":"friendly brap","steam_id":76561199102540393,"connected_time":344000000000,"state":"active","ping":58},{"user_id":18,"name":"Zoo Keeper Engie","steam_id":76561198064380111,"connected_time":4989000000000,"state":"active","ping":88},{"user_id":98,"name":"lcy13vv","steam_id":76561197995997446,"connected_time":251000000000,"state":"active","ping":52},{"user_id":20,"name":"GourdHorde","steam_id":76561198061961819,"connected_time":4958000000000,"state":"active","ping":53},{"user_id":47,"name":"andyiscolorless","steam_id":76561199239870921,"connected_time":4150000000000,"state":"active","ping":134},{"user_id":94,"name":"hoot.","steam_id":76561198066876703,"connected_time":380000000000,"state":"active","ping":50},{"user_id":23,"name":"Goobus","steam_id":76561198013808088,"connected_time":4855000000000,"state":"active","ping":63},{"user_id":80,"name":"IPlayGamez","steam_id":76561198041387508,"connected_time":1870000000000,"state":"active","ping":55},{"user_id":64,"name":"KSupes","steam_id":76561199131995067,"connected_time":2808000000000,"state":"active","ping":49},{"user_id":69,"name":"eNoble","steam_id":76561197993408761,"connected_time":2733000000000,"state":"active","ping":106},{"user_id":92,"name":"klevin","steam_id":76561198799106535,"connected_time":994000000000,"state":"active","ping":71},{"user_id":89,"name":"joen","steam_id":76561198808378733,"connected_time":1675000000000,"state":"active","ping":79},{"user_id":30,"name":"gorf?","steam_id":76561198142286417,"connected_time":4764000000000,"state":"active","ping":60},{"user_id":82,"name":"JennaShinx","steam_id":76561198074773762,"connected_time":1846000000000,"state":"active","ping":54},{"user_id":75,"name":"Owl Pacino","steam_id":76561197979970666,"connected_time":2219000000000,"state":"active","ping":54},{"user_id":95,"name":"muffinm565","steam_id":76561199135226250,"connected_time":367000000000,"state":"active","ping":97},{"user_id":72,"name":"roman","steam_id":76561198170066797,"connected_time":2548000000000,"state":"active","ping":62},{"user_id":78,"name":"guywholikesSOUP","steam_id":76561198006670369,"connected_time":1891000000000,"state":"active","ping":60},{"user_id":62,"name":"SithDestroyer","steam_id":76561198183901886,"connected_time":3017000000000,"state":"active","ping":87},{"user_id":88,"name":"BasicPeaches","steam_id":76561198190890150,"connected_time":1751000000000,"state":"active","ping":80},{"user_id":76,"name":"TJThomas","steam_id":76561198038292405,"connected_time":2115000000000,"state":"active","ping":74}]},{"server_id":403,"name":"Uncletopia | Chicago | 4 | All Maps","name_short":"chi-4","host":"chi-1.us.uncletopia.com","port":27045,"enabled":true,"region":"us-central","cc":"us","latitude":41.881832,"longitude":-87.62318,"reserved":0,"last_update":"0001-01-01T00:00:00Z","name_a2s":"Uncletopia | Chicago | 4 | All Maps","protocol":17,"map":"koth_badlands","folder":"tf","game":"Team Fortress","app_id":440,"player_count":24,"max_players":24,"Bots":0,"server_type":"Dedicated","server_os":"Linux","password":true,"vac":true,"version":"7757534","steam_id":85568392924515193,"keywords":["cp","nocrits","nodmgspread","uncletopia"],"game_id":440,"stv_port":27046,"stv_name":"Uncletopia | Chicago | 4 | All Maps | STV","players":[{"user_id":229,"name":"Would You Make Me A Sandwich?","steam_id":76561198152332211,"connected_time":832000000000,"state":"active","ping":55},{"user_id":218,"name":"Seven76","steam_id":76561198075334888,"connected_time":1551000000000,"state":"active","ping":64},{"user_id":230,"name":"gyozaking","steam_id":76561197972312696,"connected_time":828000000000,"state":"active","ping":42},{"user_id":117,"name":"Kedata","steam_id":76561198047750050,"connected_time":4134000000000,"state":"active","ping":43},{"user_id":198,"name":"pete_the_cat_2014","steam_id":76561198199266047,"connected_time":2020000000000,"state":"active","ping":57},{"user_id":207,"name":"Protato","steam_id":76561198061182563,"connected_time":1816000000000,"state":"active","ping":74},{"user_id":231,"name":"Snoop, the Dogg","steam_id":76561198041338030,"connected_time":816000000000,"state":"active","ping":86},{"user_id":166,"name":"LegendaryMister151","steam_id":76561198064890524,"connected_time":2843000000000,"state":"active","ping":88},{"user_id":223,"name":"Idiot Prince (They/Them)","steam_id":76561198048205270,"connected_time":1410000000000,"state":"active","ping":94},{"user_id":224,"name":"Sexual Butt","steam_id":76561198102241399,"connected_time":1399000000000,"state":"active","ping":53},{"user_id":76,"name":"hints of mauve","steam_id":76561198025681784,"connected_time":4992000000000,"state":"active","ping":64},{"user_id":124,"name":"capybara","steam_id":76561198182288455,"connected_time":4019000000000,"state":"active","ping":55},{"user_id":238,"name":"Brahan","steam_id":76561198024629210,"connected_time":168000000000,"state":"active","ping":78},{"user_id":188,"name":"Grand Piano Tuna","steam_id":76561198135137213,"connected_time":2289000000000,"state":"active","ping":72},{"user_id":173,"name":"Dr. Marvello","steam_id":76561198107573800,"connected_time":2671000000000,"state":"active","ping":75},{"user_id":35,"name":"Rick O'Connell","steam_id":76561198140709878,"connected_time":7351000000000,"state":"active","ping":77},{"user_id":226,"name":"brea?","steam_id":76561198025130409,"connected_time":1272000000000,"state":"active","ping":78},{"user_id":163,"name":"Slugcat","steam_id":76561198322183028,"connected_time":2893000000000,"state":"active","ping":93},{"user_id":237,"name":"[DEEP] Danmar33","steam_id":76561198056453091,"connected_time":238000000000,"state":"active","ping":49},{"user_id":228,"name":"wiiblob","steam_id":76561198109106242,"connected_time":1100000000000,"state":"active","ping":135},{"user_id":234,"name":"Scared Duck","steam_id":76561198081348409,"connected_time":493000000000,"state":"active","ping":64},{"user_id":168,"name":"rax","steam_id":76561198987579589,"connected_time":2835000000000,"state":"active","ping":47},{"user_id":62,"name":"_Lusty_","steam_id":76561198876948142,"connected_time":5810000000000,"state":"active","ping":61},{"user_id":236,"name":"Goober","steam_id":76561198988863807,"connected_time":485000000000,"state":"active","ping":74}]},{"server_id":36,"name":"Uncletopia | Chicago | 5 | All Maps","name_short":"chi-5","host":"chi-2.us.uncletopia.com","port":27015,"enabled":true,"region":"us-central","cc":"us","latitude":41.881832,"longitude":-87.62318,"reserved":0,"last_update":"0001-01-01T00:00:00Z","name_a2s":"Uncletopia | Chicago | 5 | All Maps","protocol":17,"map":"pl_upward","folder":"tf","game":"Team Fortress","app_id":440,"player_count":24,"max_players":24,"Bots":0,"server_type":"Dedicated","server_os":"Linux","password":true,"vac":true,"version":"7757534","steam_id":85568392924866362,"keywords":["nocrits","nodmgspread","payload","uncletopia"],"game_id":440,"stv_port":27016,"stv_name":"Uncletopia | Chicago | 5 | All Maps | STV","players":[{"user_id":163,"name":"Usman","steam_id":76561198430295625,"connected_time":1190000000000,"state":"active","ping":54},{"user_id":128,"name":"Tone","steam_id":76561198139386202,"connected_time":4282000000000,"state":"active","ping":47},{"user_id":164,"name":"CousinCarL","steam_id":76561198028421250,"connected_time":1186000000000,"state":"active","ping":63},{"user_id":162,"name":"DamerDoozle","steam_id":76561199121686201,"connected_time":1243000000000,"state":"active","ping":69},{"user_id":161,"name":"Connick The Hedgehog","steam_id":76561198388471011,"connected_time":1663000000000,"state":"active","ping":62},{"user_id":159,"name":"MrCalmL.I","steam_id":76561198966598137,"connected_time":1764000000000,"state":"active","ping":67},{"user_id":94,"name":"AnonymousCritter","steam_id":76561198864475187,"connected_time":6843000000000,"state":"active","ping":48},{"user_id":150,"name":"Goose of Wisdom","steam_id":76561198233465044,"connected_time":2288000000000,"state":"active","ping":69},{"user_id":134,"name":"TheCheeseWizard","steam_id":76561198058931315,"connected_time":3270000000000,"state":"active","ping":55},{"user_id":171,"name":"Just a premium noob [TCPub]","steam_id":76561198061414553,"connected_time":89000000000,"state":"active","ping":111},{"user_id":160,"name":"cooltool21","steam_id":76561197996817585,"connected_time":1764000000000,"state":"active","ping":75},{"user_id":173,"name":"michael myers gaming","steam_id":76561198155843685,"connected_time":71000000000,"state":"active","ping":103},{"user_id":174,"name":"Rhutebeer","steam_id":76561198018302761,"connected_time":70000000000,"state":"active","ping":101},{"user_id":152,"name":"Fuzzy Toast","steam_id":76561198028067781,"connected_time":2240000000000,"state":"active","ping":39},{"user_id":165,"name":"The","steam_id":76561198109783729,"connected_time":1185000000000,"state":"active","ping":56},{"user_id":121,"name":"Endzilla88","steam_id":76561198257926514,"connected_time":4438000000000,"state":"active","ping":69},{"user_id":155,"name":"Cat in Your Backyard","steam_id":76561197979078330,"connected_time":1982000000000,"state":"active","ping":58},{"user_id":170,"name":"Cottontail","steam_id":76561198213634567,"connected_time":97000000000,"state":"active","ping":108},{"user_id":156,"name":"KnockBoots69","steam_id":76561198057528868,"connected_time":1974000000000,"state":"active","ping":92},{"user_id":167,"name":"SirJellyRolls","steam_id":76561198119277244,"connected_time":990000000000,"state":"active","ping":75},{"user_id":175,"name":"jeremy elbertson","steam_id":76561198044420428,"connected_time":20000000000,"state":"spawning","ping":62},{"user_id":123,"name":"MooleTheDoole","steam_id":76561199216480625,"connected_time":4421000000000,"state":"active","ping":98},{"user_id":158,"name":"General Jimbo","steam_id":76561198075426735,"connected_time":1804000000000,"state":"active","ping":86},{"user_id":141,"name":"ËìùÂÖâÁâà‰πîÊ±°Âû¢","steam_id":76561199088154401,"connected_time":2862000000000,"state":"active","ping":65}]},{"server_id":37,"name":"Uncletopia | Chicago | 6 | All Maps","name_short":"chi-6","host":"chi-2.us.uncletopia.com","port":27025,"enabled":true,"region":"us-central","cc":"us","latitude":41.881832,"longitude":-87.62318,"reserved":0,"last_update":"0001-01-01T00:00:00Z","name_a2s":"Uncletopia | Chicago | 6 | All Maps","protocol":17,"map":"pl_swiftwater_final1","folder":"tf","game":"Team Fortress","app_id":440,"player_count":2,"max_players":24,"Bots":0,"server_type":"Dedicated","server_os":"Linux","password":true,"vac":true,"version":"7757534","steam_id":85568392924866363,"keywords":["nocrits","nodmgspread","payload","uncletopia"],"game_id":440,"stv_port":27026,"stv_name":"Uncletopia | Chicago | 6 | All Maps | STV","players":[{"user_id":12,"name":"Uber","steam_id":76561198040700972,"connected_time":23000000000,"state":"spawning","ping":67},{"user_id":13,"name":"lods[of]emone","steam_id":76561198014487544,"connected_time":3000000000,"state":"spawning","ping":74}]},{"server_id":38,"name":"Uncletopia | Chicago | 7 | Stopwatch Beta","name_short":"chi-7","host":"chi-2.us.uncletopia.com","port":27035,"enabled":true,"region":"us-central","cc":"us","latitude":41.881832,"longitude":-87.62318,"reserved":0,"last_update":"0001-01-01T00:00:00Z","name_a2s":"Uncletopia | Chicago | 7 | Stopwatch Beta","protocol":17,"map":"pl_barnblitz","folder":"tf","game":"Team Fortress","app_id":440,"player_count":0,"max_players":24,"Bots":0,"server_type":"Dedicated","server_os":"Linux","password":true,"vac":true,"version":"7757534","steam_id":85568392924866364,"keywords":["nocrits","nodmgspread","payload","uncletopia"],"game_id":440,"stv_port":27036,"stv_name":"Uncletopia | Chicago | 7 | Stopwatch Beta | STV","players":null},{"server_id":39,"name":"Uncletopia | Chicago | 8 | Community","name_short":"chi-8","host":"chi-2.us.uncletopia.com","port":27045,"enabled":true,"region":"us-central","cc":"us","latitude":41.881832,"longitude":-87.62318,"reserved":0,"last_update":"0001-01-01T00:00:00Z","name_a2s":"Uncletopia | Chicago | 8 | Community","protocol":17,"map":"workshop/koth_slaughter_rc1.ugc1712845210","folder":"tf","game":"Team Fortress","app_id":440,"player_count":0,"max_players":24,"Bots":0,"server_type":"Dedicated","server_os":"Linux","password":true,"vac":true,"version":"7757534","steam_id":85568392924866365,"keywords":["cp","nocrits","nodmgspread","uncletopia"],"game_id":440,"stv_port":27046,"stv_name":"Uncletopia | Chicago | 8 | Community | STV","players":null},{"server_id":8,"name":"Uncletopia | Dallas | 1 | All Maps","name_short":"dal-1","host":"dal-1.us.uncletopia.com","port":27015,"enabled":true,"region":"us-central","cc":"us","latitude":32.779167,"longitude":-96.80889,"reserved":0,"last_update":"0001-01-01T00:00:00Z","name_a2s":"Uncletopia | Dallas | 1 | All Maps","protocol":17,"map":"pl_swiftwater_final1","folder":"tf","game":"Team Fortress","app_id":440,"player_count":24,"max_players":24,"Bots":0,"server_type":"Dedicated","server_os":"Linux","password":true,"vac":true,"version":"7757534","steam_id":85568392924469986,"keywords":["nocrits","nodmgspread","payload","uncletopia"],"game_id":440,"stv_port":27016,"stv_name":"Uncletopia | Dallas | 1 | All Maps | STV","players":[{"user_id":449,"name":"icm2008","steam_id":76561199277408836,"connected_time":2758000000000,"state":"active","ping":88},{"user_id":393,"name":"TothBrush","steam_id":76561198028254471,"connected_time":8672000000000,"state":"active","ping":70},{"user_id":465,"name":"Bobby Zimmeruski","steam_id":76561198171428589,"connected_time":1740000000000,"state":"active","ping":45},{"user_id":452,"name":"Kitsune","steam_id":76561198241094670,"connected_time":2605000000000,"state":"active","ping":87},{"user_id":463,"name":"Donkski","steam_id":76561198406895347,"connected_time":1811000000000,"state":"active","ping":63},{"user_id":481,"name":"Captain Falcon real","steam_id":76561198171082595,"connected_time":851000000000,"state":"active","ping":76},{"user_id":494,"name":"VixianUwU","steam_id":76561198948815060,"connected_time":390000000000,"state":"active","ping":67},{"user_id":495,"name":"BULLSHIT MATADOR","steam_id":76561198044488913,"connected_time":305000000000,"state":"active","ping":64},{"user_id":467,"name":"Tails The Fox uwu","steam_id":76561198999384275,"connected_time":1707000000000,"state":"active","ping":186},{"user_id":496,"name":"duane (stinks good)","steam_id":76561198149565822,"connected_time":223000000000,"state":"active","ping":84},{"user_id":468,"name":"luscaPUTO","steam_id":76561199037598902,"connected_time":1693000000000,"state":"active","ping":132},{"user_id":470,"name":"Minlit","steam_id":76561198205832799,"connected_time":1627000000000,"state":"active","ping":54},{"user_id":464,"name":"Herothroughtime","steam_id":76561198104355231,"connected_time":1769000000000,"state":"active","ping":90},{"user_id":489,"name":"ZodiacThundaga","steam_id":76561199025117814,"connected_time":477000000000,"state":"active","ping":99},{"user_id":490,"name":"porn‚ãÜ","steam_id":76561198986534519,"connected_time":452000000000,"state":"active","ping":101},{"user_id":469,"name":"Theta Yeti","steam_id":76561198216780915,"connected_time":1666000000000,"state":"active","ping":86},{"user_id":471,"name":"[Ender]","steam_id":76561198103480149,"connected_time":1620000000000,"state":"active","ping":97},{"user_id":493,"name":"Sadper","steam_id":76561198356803246,"connected_time":416000000000,"state":"active","ping":81},{"user_id":472,"name":"Samz_World","steam_id":76561199095174815,"connected_time":1572000000000,"state":"active","ping":69},{"user_id":484,"name":"jake","steam_id":76561199406261605,"connected_time":762000000000,"state":"active","ping":59},{"user_id":492,"name":"mr unchained","steam_id":76561198043209660,"connected_time":437000000000,"state":"active","ping":85},{"user_id":443,"name":"jzplr üé∑üêõ","steam_id":76561198091901520,"connected_time":3956000000000,"state":"active","ping":75},{"user_id":448,"name":"Aztea","steam_id":76561198982089893,"connected_time":2789000000000,"state":"active","ping":90},{"user_id":486,"name":"Jack from Jack in The Box","steam_id":76561199083594971,"connected_time":719000000000,"state":"active","ping":65}]},{"server_id":108,"name":"Uncletopia | Dallas | 2 | All Maps","name_short":"dal-2","host":"dal-1.us.uncletopia.com","port":27025,"enabled":true,"region":"us-central","cc":"us","latitude":32.779167,"longitude":-96.80889,"reserved":0,"last_update":"0001-01-01T00:00:00Z","name_a2s":"Uncletopia | Dallas | 2 | All Maps","protocol":17,"map":"pl_swiftwater_final1","folder":"tf","game":"Team Fortress","app_id":440,"player_count":24,"max_players":24,"Bots":0,"server_type":"Dedicated","server_os":"Linux","password":true,"vac":true,"version":"7757534","steam_id":85568392924469988,"keywords":["nocrits","nodmgspread","payload","uncletopia"],"game_id":440,"stv_port":27026,"stv_name":"Uncletopia | Dallas | 2 | All Maps | STV","players":[{"user_id":326,"name":"Tritium","steam_id":76561198043305626,"connected_time":396000000000,"state":"active","ping":94},{"user_id":304,"name":"Healer Wolxer","steam_id":76561197999816472,"connected_time":1172000000000,"state":"active","ping":65},{"user_id":334,"name":"Shadowcaster","steam_id":76561198059600807,"connected_time":99000000000,"state":"active","ping":49},{"user_id":306,"name":"You Know What You Did","steam_id":76561198218558897,"connected_time":1045000000000,"state":"active","ping":133},{"user_id":322,"name":"Angel_Bonnie","steam_id":76561199229447760,"connected_time":597000000000,"state":"active","ping":91},{"user_id":315,"name":"MeMyBongusAndTheGreatOutdoors","steam_id":76561198097708978,"connected_time":899000000000,"state":"active","ping":51},{"user_id":332,"name":"crumbles","steam_id":76561198168707036,"connected_time":244000000000,"state":"active","ping":86},{"user_id":316,"name":"Mellou","steam_id":76561198212048740,"connected_time":848000000000,"state":"active","ping":48},{"user_id":318,"name":"[chef] iron","steam_id":76561197970888616,"connected_time":756000000000,"state":"active","ping":60},{"user_id":308,"name":"Jam Jams","steam_id":76561198128811267,"connected_time":1010000000000,"state":"active","ping":116},{"user_id":327,"name":"bendera","steam_id":76561197965486503,"connected_time":396000000000,"state":"active","ping":89},{"user_id":321,"name":"dog","steam_id":76561198295237946,"connected_time":689000000000,"state":"active","ping":81},{"user_id":310,"name":"Fremond Games","steam_id":76561198847910046,"connected_time":1004000000000,"state":"active","ping":109},{"user_id":272,"name":"Zen Skye","steam_id":76561198114452552,"connected_time":4802000000000,"state":"active","ping":87},{"user_id":317,"name":"Aeri","steam_id":76561197996522919,"connected_time":802000000000,"state":"active","ping":99},{"user_id":311,"name":"the meta","steam_id":76561199071495058,"connected_time":977000000000,"state":"active","ping":78},{"user_id":325,"name":"Jared In Target","steam_id":76561198372449718,"connected_time":546000000000,"state":"active","ping":39},{"user_id":287,"name":"Dude bro","steam_id":76561198249916746,"connected_time":3462000000000,"state":"active","ping":81},{"user_id":313,"name":"Just a BLU Toon","steam_id":76561198273199771,"connected_time":959000000000,"state":"active","ping":98},{"user_id":330,"name":"Estetrius","steam_id":76561198016993850,"connected_time":267000000000,"state":"active","ping":59},{"user_id":314,"name":"Scrombello Portabello","steam_id":76561198193574042,"connected_time":958000000000,"state":"active","ping":99},{"user_id":324,"name":"Bumbo Blast","steam_id":76561198061498882,"connected_time":592000000000,"state":"active","ping":60},{"user_id":277,"name":"GlizzLord","steam_id":76561198321010427,"connected_time":4330000000000,"state":"active","ping":80},{"user_id":331,"name":"DargaribdusPersonOfLordlyCalibe","steam_id":76561198020876416,"connected_time":267000000000,"state":"active","ping":72}]},{"server_id":5,"name":"Uncletopia | Frankfurt | 1 | All Maps","name_short":"frk-1","host":"frk-1.de.uncletopia.com","port":27015,"enabled":true,"region":"eu","cc":"de","latitude":50.110924,"longitude":8.682127,"reserved":0,"last_update":"0001-01-01T00:00:00Z","name_a2s":"Uncletopia | Frankfurt | 1 | All Maps","protocol":17,"map":"cp_altitude","folder":"tf","game":"Team Fortress","app_id":440,"player_count":21,"max_players":24,"Bots":0,"server_type":"Dedicated","server_os":"Linux","password":true,"vac":true,"version":"7757534","steam_id":85568392924469989,"keywords":["cp","nocrits","nodmgspread","uncletopia"],"game_id":440,"stv_port":27016,"stv_name":"Uncletopia | Frankfurt | 1 | All Maps | STV","players":[{"user_id":781,"name":"Ptahotep","steam_id":76561198008708645,"connected_time":178000000000,"state":"active","ping":64},{"user_id":740,"name":"„ÄéOH MY GOD„Äè","steam_id":76561198965563236,"connected_time":3268000000000,"state":"active","ping":62},{"user_id":773,"name":"sam.detective","steam_id":76561197963552834,"connected_time":931000000000,"state":"active","ping":92},{"user_id":751,"name":"Yelowchy","steam_id":76561198199416121,"connected_time":2714000000000,"state":"active","ping":61},{"user_id":766,"name":"ldshwt","steam_id":76561198090364357,"connected_time":1544000000000,"state":"active","ping":57},{"user_id":776,"name":"Hann√º","steam_id":76561197969886128,"connected_time":846000000000,"state":"active","ping":66},{"user_id":775,"name":"Artur ‚òª","steam_id":76561198264297604,"connected_time":910000000000,"state":"active","ping":77},{"user_id":777,"name":"Edek","steam_id":76561197995835321,"connected_time":819000000000,"state":"active","ping":54},{"user_id":782,"name":"TheGreen","steam_id":76561199166275672,"connected_time":107000000000,"state":"active","ping":161},{"user_id":779,"name":"tired","steam_id":76561198046838168,"connected_time":401000000000,"state":"active","ping":46},{"user_id":744,"name":"Portal2Player","steam_id":76561198062870114,"connected_time":3154000000000,"state":"active","ping":154},{"user_id":769,"name":"Premysl","steam_id":76561198075584825,"connected_time":1300000000000,"state":"active","ping":63},{"user_id":760,"name":"Lego Man","steam_id":76561198110822595,"connected_time":1841000000000,"state":"active","ping":88},{"user_id":785,"name":"BlacKreacher","steam_id":76561198398124354,"connected_time":27000000000,"state":"active","ping":167},{"user_id":786,"name":"fluzeraa","steam_id":76561198038748489,"connected_time":20000000000,"state":"active","ping":69},{"user_id":719,"name":"s a i","steam_id":76561197970379754,"connected_time":4632000000000,"state":"active","ping":50},{"user_id":771,"name":"major snags","steam_id":76561198308393015,"connected_time":1173000000000,"state":"active","ping":59},{"user_id":738,"name":"Mussolini","steam_id":76561198218384865,"connected_time":3487000000000,"state":"active","ping":94},{"user_id":695,"name":"kpn","steam_id":76561198063512694,"connected_time":5769000000000,"state":"active","ping":51},{"user_id":780,"name":"GuSkand","steam_id":76561198043775605,"connected_time":388000000000,"state":"active","ping":76},{"user_id":698,"name":"dn4k","steam_id":76561199221755690,"connected_time":5714000000000,"state":"active","ping":73}]},{"server_id":110,"name":"Uncletopia | Frankfurt | 2 | All Maps","name_short":"frk-2","host":"frk-1.de.uncletopia.com","port":27025,"enabled":true,"region":"eu","cc":"de","latitude":50.110924,"longitude":8.682127,"reserved":0,"last_update":"0001-01-01T00:00:00Z","name_a2s":"Uncletopia | Frankfurt | 2 | All Maps","protocol":17,"map":"cp_sunshine","folder":"tf","game":"Team Fortress","app_id":440,"player_count":24,"max_players":24,"Bots":0,"server_type":"Dedicated","server_os":"Linux","password":true,"vac":true,"version":"7757534","steam_id":85568392924469990,"keywords":["cp","nocrits","nodmgspread","uncletopia"],"game_id":440,"stv_port":27026,"stv_name":"Uncletopia | Frankfurt | 2 | All Maps | STV","players":[{"user_id":224,"name":"Ach Wheesht","steam_id":76561197996993222,"connected_time":4309000000000,"state":"active","ping":58},{"user_id":289,"name":"mike\"3loavesofbread\"jones","steam_id":76561198064342804,"connected_time":1245000000000,"state":"active","ping":70},{"user_id":306,"name":"ddec45","steam_id":76561198153175196,"connected_time":190000000000,"state":"active","ping":85},{"user_id":276,"name":"e36 1.8","steam_id":76561198134203031,"connected_time":1574000000000,"state":"active","ping":62},{"user_id":277,"name":"Subterranean","steam_id":76561198106684566,"connected_time":1514000000000,"state":"active","ping":80},{"user_id":307,"name":"Hookiest Owler","steam_id":76561198872013525,"connected_time":77000000000,"state":"active","ping":92},{"user_id":280,"name":"Trash Cortex","steam_id":76561198991110334,"connected_time":1389000000000,"state":"active","ping":67},{"user_id":301,"name":"Aesthetic Alcoholism","steam_id":76561198044418968,"connected_time":481000000000,"state":"active","ping":54},{"user_id":290,"name":"elijah","steam_id":76561198093936708,"connected_time":1238000000000,"state":"active","ping":59},{"user_id":303,"name":"don ign","steam_id":76561198831654242,"connected_time":269000000000,"state":"active","ping":117},{"user_id":299,"name":"Poeder","steam_id":76561198385843387,"connected_time":586000000000,"state":"active","ping":72},{"user_id":257,"name":"Miedzan","steam_id":76561198405250516,"connected_time":2064000000000,"state":"active","ping":65},{"user_id":304,"name":"Spook","steam_id":76561198174716897,"connected_time":257000000000,"state":"active","ping":63},{"user_id":278,"name":"Levitating Lasagne","steam_id":76561198006066574,"connected_time":1491000000000,"state":"active","ping":81},{"user_id":294,"name":"–ü–µ—Å –ü–∞—Ç—Ä–æ–Ω","steam_id":76561198273199378,"connected_time":1125000000000,"state":"active","ping":62},{"user_id":286,"name":"Vitamin Weee","steam_id":76561199183937747,"connected_time":1328000000000,"state":"active","ping":85},{"user_id":273,"name":"janti  #NEWTF2Hunt","steam_id":76561199387238623,"connected_time":1727000000000,"state":"active","ping":90},{"user_id":295,"name":"lynceus","steam_id":76561198131209426,"connected_time":1101000000000,"state":"active","ping":69},{"user_id":288,"name":"princess","steam_id":76561197994492154,"connected_time":1305000000000,"state":"active","ping":71},{"user_id":309,"name":"engineer drip","steam_id":76561198991032570,"connected_time":41000000000,"state":"active","ping":78},{"user_id":292,"name":"jeff","steam_id":76561198272815746,"connected_time":1183000000000,"state":"active","ping":59},{"user_id":293,"name":"„ÅÇ„Å™„Åü„ÅÆ„Éü„Éº„Éû„Ç¶„ÇíËÄï\ufffd","steam_id":76561198017114970,"connected_time":1134000000000,"state":"active","ping":59},{"user_id":310,"name":"The Chosen One","steam_id":76561199046984627,"connected_time":39000000000,"state":"active","ping":176},{"user_id":297,"name":"joebot","steam_id":76561197975606100,"connected_time":800000000000,"state":"active","ping":141}]},{"server_id":308,"name":"Uncletopia | Frankfurt | 3 | All Maps","name_short":"frk-3","host":"frk-1.de.uncletopia.com","port":27035,"enabled":true,"region":"eu","cc":"de","latitude":50.110924,"longitude":8.682127,"reserved":0,"last_update":"0001-01-01T00:00:00Z","name_a2s":"Uncletopia | Frankfurt | 3 | All Maps","protocol":17,"map":"pl_upward","folder":"tf","game":"Team Fortress","app_id":440,"player_count":24,"max_players":24,"Bots":0,"server_type":"Dedicated","server_os":"Linux","password":true,"vac":true,"version":"7757534","steam_id":85568392924504274,"keywords":["nocrits","nodmgspread","payload","uncletopia"],"game_id":440,"stv_port":27036,"stv_name":"Uncletopia | Frankfurt | 3 | All Maps | STV","players":[{"user_id":296,"name":"Lexios","steam_id":76561198079780864,"connected_time":1044000000000,"state":"active","ping":55},{"user_id":275,"name":"Nameless","steam_id":76561198274105878,"connected_time":2449000000000,"state":"active","ping":85},{"user_id":301,"name":"Cocane Concho","steam_id":76561198139690063,"connected_time":437000000000,"state":"active","ping":44},{"user_id":302,"name":"LionKing","steam_id":76561198023399545,"connected_time":403000000000,"state":"active","ping":48},{"user_id":269,"name":"scout TF2","steam_id":76561198072037878,"connected_time":3246000000000,"state":"active","ping":61},{"user_id":282,"name":"bruh","steam_id":76561198059635136,"connected_time":2007000000000,"state":"active","ping":67},{"user_id":279,"name":"senior pomidor","steam_id":76561198123659806,"connected_time":2032000000000,"state":"active","ping":98},{"user_id":303,"name":"Honest Tom's Discount Beef","steam_id":76561198029971392,"connected_time":324000000000,"state":"active","ping":72},{"user_id":291,"name":".javaw","steam_id":76561198165955030,"connected_time":1541000000000,"state":"active","ping":105},{"user_id":274,"name":"D_Ink","steam_id":76561198267716662,"connected_time":2880000000000,"state":"active","ping":46},{"user_id":292,"name":"TidB","steam_id":76561198055342304,"connected_time":1314000000000,"state":"active","ping":57},{"user_id":249,"name":"Hercules","steam_id":76561198041164170,"connected_time":5787000000000,"state":"active","ping":60},{"user_id":280,"name":"Juiceydough","steam_id":76561197997323419,"connected_time":2029000000000,"state":"active","ping":87},{"user_id":307,"name":"Officer Big Mac","steam_id":76561197972008326,"connected_time":144000000000,"state":"active","ping":80},{"user_id":298,"name":".erik (real)","steam_id":76561197962112424,"connected_time":987000000000,"state":"active","ping":76},{"user_id":283,"name":"Doctor Marijuana","steam_id":76561198288289879,"connected_time":1971000000000,"state":"active","ping":76},{"user_id":268,"name":"Garoiop","steam_id":76561198082326459,"connected_time":3293000000000,"state":"active","ping":48},{"user_id":284,"name":"harizzment","steam_id":76561198890409949,"connected_time":1951000000000,"state":"active","ping":103},{"user_id":309,"name":"proph","steam_id":76561197998803950,"connected_time":80000000000,"state":"active","ping":54},{"user_id":305,"name":"kaelan!","steam_id":76561198001425310,"connected_time":306000000000,"state":"active","ping":75},{"user_id":287,"name":"laser","steam_id":76561198036030697,"connected_time":1862000000000,"state":"active","ping":60},{"user_id":306,"name":"Haha?","steam_id":76561198056882245,"connected_time":250000000000,"state":"active","ping":57},{"user_id":246,"name":"Syd","steam_id":76561198020515027,"connected_time":6011000000000,"state":"active","ping":64},{"user_id":308,"name":"beckler","steam_id":76561198029266963,"connected_time":109000000000,"state":"active","ping":48}]},{"server_id":309,"name":"Uncletopia | Frankfurt | 4 | All Maps","name_short":"frk-4","host":"frk-1.de.uncletopia.com","port":27045,"enabled":true,"region":"eu","cc":"de","latitude":50.110924,"longitude":8.682127,"reserved":0,"last_update":"0001-01-01T00:00:00Z","name_a2s":"Uncletopia | Frankfurt | 4 | All Maps","protocol":17,"map":"cp_dustbowl","folder":"tf","game":"Team Fortress","app_id":440,"player_count":0,"max_players":24,"Bots":0,"server_type":"Dedicated","server_os":"Linux","password":true,"vac":true,"version":"7757534","steam_id":85568392924504275,"keywords":["cp","nocrits","nodmgspread","uncletopia"],"game_id":440,"stv_port":27046,"stv_name":"Uncletopia | Frankfurt | 4 | All Maps | STV","players":null},{"server_id":310,"name":"Uncletopia | Frankfurt | 5 | All Maps","name_short":"frk-5","host":"frk-1.de.uncletopia.com","port":27055,"enabled":true,"region":"eu","cc":"de","latitude":50.110924,"longitude":8.682127,"reserved":0,"last_update":"0001-01-01T00:00:00Z","name_a2s":"Uncletopia | Frankfurt | 5 | All Maps","protocol":17,"map":"koth_lakeside_final","folder":"tf","game":"Team Fortress","app_id":440,"player_count":0,"max_players":24,"Bots":0,"server_type":"Dedicated","server_os":"Linux","password":true,"vac":true,"version":"7757534","steam_id":85568392924504277,"keywords":["cp","nocrits","nodmgspread","uncletopia"],"game_id":440,"stv_port":27056,"stv_name":"Uncletopia | Frankfurt | 5 | All Maps | STV","players":null},{"server_id":311,"name":"Uncletopia | Frankfurt | 6 | All Maps","name_short":"frk-6","host":"frk-1.de.uncletopia.com","port":27065,"enabled":true,"region":"eu","cc":"de","latitude":50.110924,"longitude":8.682127,"reserved":0,"last_update":"0001-01-01T00:00:00Z","name_a2s":"Uncletopia | Frankfurt | 6 | All Maps","protocol":17,"map":"pl_pier","folder":"tf","game":"Team Fortress","app_id":440,"player_count":5,"max_players":24,"Bots":0,"server_type":"Dedicated","server_os":"Linux","password":true,"vac":true,"version":"7757534","steam_id":85568392924504278,"keywords":["nocrits","nodmgspread","payload","uncletopia"],"game_id":440,"stv_port":27066,"stv_name":"Uncletopia | Frankfurt | 6 | All Maps | STV","players":[{"user_id":714,"name":"Almaynax","steam_id":76561198039757994,"connected_time":2092000000000,"state":"active","ping":87},{"user_id":734,"name":"all snipers are edgy cowards","steam_id":76561198060200599,"connected_time":369000000000,"state":"active","ping":86},{"user_id":735,"name":"hedon/","steam_id":76561198249832770,"connected_time":367000000000,"state":"active","ping":53},{"user_id":697,"name":"torn","steam_id":76561198223003236,"connected_time":4142000000000,"state":"active","ping":45},{"user_id":694,"name":"waffle toaster","steam_id":76561198799089628,"connected_time":4356000000000,"state":"active","ping":59}]},{"server_id":23,"name":"Uncletopia | Frankfurt | 7 | Stopwatch Beta","name_short":"frk-7","host":"frk-1.de.uncletopia.com","port":27075,"enabled":true,"region":"eu","cc":"de","latitude":50.110924,"longitude":8.682127,"reserved":0,"last_update":"0001-01-01T00:00:00Z","name_a2s":"Uncletopia | Frankfurt | 7 | Stopwatch Beta","protocol":17,"map":"workshop/koth_ramjam_rc1.ugc459778887","folder":"tf","game":"Team Fortress","app_id":440,"player_count":0,"max_players":24,"Bots":0,"server_type":"Dedicated","server_os":"Linux","password":true,"vac":true,"version":"7757534","steam_id":85568392924742827,"keywords":["cp","nocrits","nodmgspread","uncletopia"],"game_id":440,"stv_port":27076,"stv_name":"Uncletopia | Frankfurt | 7 | Stopwatch Beta | STV","players":null},{"server_id":24,"name":"Uncletopia | Frankfurt | 8 | Community","name_short":"frk-8","host":"frk-1.de.uncletopia.com","port":27085,"enabled":true,"region":"eu","cc":"de","latitude":50.110924,"longitude":8.682127,"reserved":0,"last_update":"0001-01-01T00:00:00Z","name_a2s":"Uncletopia | Frankfurt | 8 | Community","protocol":17,"map":"workshop/cp_croissant_final.ugc458840209","folder":"tf","game":"Team Fortress","app_id":440,"player_count":1,"max_players":24,"Bots":0,"server_type":"Dedicated","server_os":"Linux","password":true,"vac":true,"version":"7757534","steam_id":85568392924742828,"keywords":["cp","nocrits","nodmgspread","uncletopia"],"game_id":440,"stv_port":27086,"stv_name":"Uncletopia | Frankfurt | 8 | Community | STV","players":[{"user_id":426,"name":"yes I'm running the loose canno","steam_id":76561198444415179,"connected_time":24000000000,"state":"active","ping":165}]},{"server_id":202,"name":"Uncletopia | Hong Kong | 1 | All Maps","name_short":"hgk-1","host":"hgk-1.hk.uncletopia.com","port":27015,"enabled":true,"region":"asia","cc":"hk","latitude":22.302711,"longitude":114.177216,"reserved":0,"last_update":"0001-01-01T00:00:00Z","name_a2s":"Uncletopia | Hong Kong | 1 | All Maps","protocol":17,"map":"pl_borneo","folder":"tf","game":"Team Fortress","app_id":440,"player_count":0,"max_players":24,"Bots":0,"server_type":"Dedicated","server_os":"Linux","password":true,"vac":true,"version":"7757534","steam_id":85568392924494504,"keywords":["nocrits","nodmgspread","payload","uncletopia"],"game_id":440,"stv_port":27016,"stv_name":"Uncletopia | Hong Kong | 1 | All Maps | STV","players":null},{"server_id":1,"name":"Uncletopia | Los Angeles | 1 | All Maps","name_short":"lax-1","host":"lax-1.us.uncletopia.com","port":27015,"enabled":true,"region":"us-west","cc":"us","latitude":33.94279,"longitude":-118.41004,"reserved":0,"last_update":"0001-01-01T00:00:00Z","name_a2s":"Uncletopia | Los Angeles | 1 | All Maps","protocol":17,"map":"pl_frontier_final","folder":"tf","game":"Team Fortress","app_id":440,"player_count":24,"max_players":24,"Bots":0,"server_type":"Dedicated","server_os":"Linux","password":true,"vac":true,"version":"7757534","steam_id":85568392924469991,"keywords":["nocrits","nodmgspread","payload","uncletopia"],"game_id":440,"stv_port":27016,"stv_name":"Uncletopia | Los Angeles | 1 | All Maps | STV","players":[{"user_id":112,"name":"tweet","steam_id":76561198166515735,"connected_time":2714000000000,"state":"active","ping":53},{"user_id":45,"name":"rustyorion","steam_id":76561198439186347,"connected_time":7775000000000,"state":"active","ping":74},{"user_id":135,"name":"what is","steam_id":76561198329367716,"connected_time":806000000000,"state":"active","ping":62},{"user_id":143,"name":"The Super Mario Bros. Movie","steam_id":76561198871692156,"connected_time":491000000000,"state":"active","ping":77},{"user_id":138,"name":"Schnitz","steam_id":76561198265484253,"connected_time":582000000000,"state":"active","ping":50},{"user_id":148,"name":"Wizowd","steam_id":76561198167702261,"connected_time":14000000000,"state":"spawning","ping":60},{"user_id":80,"name":"4 Itchy Tasty","steam_id":76561198009869383,"connected_time":5179000000000,"state":"active","ping":105},{"user_id":100,"name":"June","steam_id":76561198141803658,"connected_time":3569000000000,"state":"active","ping":45},{"user_id":144,"name":"sagekiss","steam_id":76561198038831240,"connected_time":441000000000,"state":"active","ping":81},{"user_id":29,"name":"Sanic","steam_id":76561198083124962,"connected_time":8835000000000,"state":"active","ping":79},{"user_id":147,"name":"TrinnerToast","steam_id":76561199026887450,"connected_time":44000000000,"state":"active","ping":45},{"user_id":98,"name":"Pump","steam_id":76561198085846167,"connected_time":3863000000000,"state":"active","ping":65},{"user_id":136,"name":"Nibotshooter","steam_id":76561199284825579,"connected_time":804000000000,"state":"active","ping":73},{"user_id":126,"name":"hakken","steam_id":76561199102391736,"connected_time":1837000000000,"state":"active","ping":45},{"user_id":108,"name":"Bad Namesman","steam_id":76561198027205470,"connected_time":2958000000000,"state":"active","ping":59},{"user_id":58,"name":"Risky","steam_id":76561198231029328,"connected_time":7287000000000,"state":"active","ping":46},{"user_id":139,"name":"Thunder","steam_id":76561198097721532,"connected_time":580000000000,"state":"active","ping":46},{"user_id":146,"name":"v_v","steam_id":76561198126358045,"connected_time":117000000000,"state":"active","ping":105},{"user_id":140,"name":"uzr","steam_id":76561198799343084,"connected_time":550000000000,"state":"active","ping":48},{"user_id":109,"name":"Shamrock Shake Oct.10.2020 @8pm","steam_id":76561198833313201,"connected_time":2927000000000,"state":"active","ping":52},{"user_id":137,"name":"M3tr0idPrim3","steam_id":76561198138329107,"connected_time":593000000000,"state":"active","ping":52},{"user_id":60,"name":"Eden","steam_id":76561198081284664,"connected_time":6992000000000,"state":"active","ping":45},{"user_id":94,"name":"Slumpbuster23","steam_id":76561198890029912,"connected_time":4103000000000,"state":"active","ping":49},{"user_id":142,"name":"Joe2","steam_id":76561199088646500,"connected_time":525000000000,"state":"active","ping":132}]},{"server_id":112,"name":"Uncletopia | Los Angeles | 2 | All Maps","name_short":"lax-2","host":"lax-1.us.uncletopia.com","port":27025,"enabled":true,"region":"us-west","cc":"us","latitude":33.94279,"longitude":-118.41004,"reserved":0,"last_update":"0001-01-01T00:00:00Z","name_a2s":"Uncletopia | Los Angeles | 2 | All Maps","protocol":17,"map":"pl_snowycoast","folder":"tf","game":"Team Fortress","app_id":440,"player_count":0,"max_players":24,"Bots":0,"server_type":"Dedicated","server_os":"Linux","password":true,"vac":true,"version":"7757534","steam_id":85568392924469992,"keywords":["nocrits","nodmgspread","payload","uncletopia"],"game_id":440,"stv_port":27026,"stv_name":"Uncletopia | Los Angeles | 2 | All Maps | STV","players":null},{"server_id":324,"name":"Uncletopia | Los Angeles | 3 | All Maps","name_short":"lax-3","host":"lax-1.us.uncletopia.com","port":27035,"enabled":true,"region":"us-west","cc":"us","latitude":33.94279,"longitude":-118.41004,"reserved":0,"last_update":"0001-01-01T00:00:00Z","name_a2s":"Uncletopia | Los Angeles | 3 | All Maps","protocol":17,"map":"pl_barnblitz","folder":"tf","game":"Team Fortress","app_id":440,"player_count":0,"max_players":24,"Bots":0,"server_type":"Dedicated","server_os":"Linux","password":true,"vac":true,"version":"7757534","steam_id":85568392924510198,"keywords":["nocrits","nodmgspread","payload","uncletopia"],"game_id":440,"stv_port":27036,"stv_name":"Uncletopia | Los Angeles | 3 | All Maps | STV","players":null},{"server_id":25,"name":"Uncletopia | Los Angeles | 4 | Stopwatch Beta","name_short":"lax-4","host":"lax-1.us.uncletopia.com","port":27045,"enabled":true,"region":"us-west","cc":"us","latitude":33.94279,"longitude":-118.41004,"reserved":0,"last_update":"0001-01-01T00:00:00Z","name_a2s":"Uncletopia | Los Angeles | 4 | Stopwatch Beta","protocol":17,"map":"pl_swiftwater_final1","folder":"tf","game":"Team Fortress","app_id":440,"player_count":0,"max_players":24,"Bots":0,"server_type":"Dedicated","server_os":"Linux","password":true,"vac":true,"version":"7757534","steam_id":85568392924510199,"keywords":["nocrits","nodmgspread","payload","uncletopia"],"game_id":440,"stv_port":27046,"stv_name":"Uncletopia | Los Angeles | 4 | Stopwatch Beta | STV","players":null},{"server_id":11,"name":"Uncletopia | London | 1 | All Maps","name_short":"lon-1","host":"lon-1.uk.uncletopia.com","port":27015,"enabled":true,"region":"eu","cc":"gb","latitude":51.509865,"longitude":-0.118092,"reserved":0,"last_update":"0001-01-01T00:00:00Z","name_a2s":"Uncletopia | London | 1 | All Maps","protocol":17,"map":"cp_process_final","folder":"tf","game":"Team Fortress","app_id":440,"player_count":24,"max_players":24,"Bots":0,"server_type":"Dedicated","server_os":"Linux","password":true,"vac":true,"version":"7757534","steam_id":85568392924367362,"keywords":["cp","nocrits","nodmgspread","uncletopia"],"game_id":440,"stv_port":27016,"stv_name":"Uncletopia | London | 1 | All Maps | STV","players":[{"user_id":455,"name":"Bobirulez","steam_id":76561198009125458,"connected_time":640000000000,"state":"active","ping":74},{"user_id":449,"name":"SOPHIIEE","steam_id":76561198443798981,"connected_time":847000000000,"state":"active","ping":51},{"user_id":454,"name":"BreadBubbles","steam_id":76561198174332826,"connected_time":668000000000,"state":"active","ping":58},{"user_id":453,"name":"Iphy","steam_id":76561198137519489,"connected_time":687000000000,"state":"active","ping":76},{"user_id":469,"name":"f√©nix","steam_id":76561198083199151,"connected_time":8000000000,"state":"spawning","ping":56},{"user_id":381,"name":"H2Orange","steam_id":76561198082128552,"connected_time":5105000000000,"state":"active","ping":75},{"user_id":456,"name":"sloppy transgirl toppy","steam_id":76561198057092208,"connected_time":633000000000,"state":"active","ping":75},{"user_id":443,"name":"Rustyy","steam_id":76561198973687664,"connected_time":1491000000000,"state":"active","ping":58},{"user_id":430,"name":"ExactPluto","steam_id":76561198849956594,"connected_time":2256000000000,"state":"active","ping":69},{"user_id":451,"name":"ashley","steam_id":76561198448551449,"connected_time":757000000000,"state":"active","ping":37},{"user_id":448,"name":"$n√òw","steam_id":76561198238781028,"connected_time":1023000000000,"state":"active","ping":105},{"user_id":457,"name":"sora","steam_id":76561198096547662,"connected_time":603000000000,"state":"active","ping":53},{"user_id":442,"name":"gnarly business","steam_id":76561198832688767,"connected_time":1604000000000,"state":"active","ping":47},{"user_id":466,"name":"N3lly/add me for mix","steam_id":76561198815271970,"connected_time":265000000000,"state":"active","ping":74},{"user_id":459,"name":"Oki (Bon)","steam_id":76561199047748534,"connected_time":548000000000,"state":"active","ping":61},{"user_id":428,"name":"SHADOW WIZARD MONEY GANG","steam_id":76561198179324075,"connected_time":2422000000000,"state":"active","ping":60},{"user_id":460,"name":"MichaelTheSlav","steam_id":76561198151626040,"connected_time":499000000000,"state":"active","ping":77},{"user_id":467,"name":"‚ù§ToxicAngel‚ù§","steam_id":76561198062208751,"connected_time":130000000000,"state":"active","ping":47},{"user_id":468,"name":"Wedgeridoo","steam_id":76561198082813907,"connected_time":108000000000,"state":"active","ping":116},{"user_id":461,"name":"Prome","steam_id":76561199050383942,"connected_time":465000000000,"state":"active","ping":60},{"user_id":463,"name":"elchi","steam_id":76561198009531752,"connected_time":435000000000,"state":"active","ping":60},{"user_id":446,"name":"LIGHTWEIGHT BABY","steam_id":76561198002761980,"connected_time":1403000000000,"state":"active","ping":59},{"user_id":464,"name":"pizza time","steam_id":76561199015899793,"connected_time":420000000000,"state":"active","ping":51},{"user_id":465,"name":"beastierbeast","steam_id":76561199030645530,"connected_time":407000000000,"state":"active","ping":152}]},{"server_id":114,"name":"Uncletopia | London | 2 | All Maps","name_short":"lon-2","host":"lon-1.uk.uncletopia.com","port":27025,"enabled":true,"region":"eu","cc":"gb","latitude":51.509865,"longitude":-0.118092,"reserved":0,"last_update":"0001-01-01T00:00:00Z","name_a2s":"Uncletopia | London | 2 | All Maps","protocol":17,"map":"cp_dustbowl","folder":"tf","game":"Team Fortress","app_id":440,"player_count":24,"max_players":24,"Bots":0,"server_type":"Dedicated","server_os":"Linux","password":true,"vac":true,"version":"7757534","steam_id":85568392924470941,"keywords":["cp","nocrits","nodmgspread","uncletopia"],"game_id":440,"stv_port":27026,"stv_name":"Uncletopia | London | 2 | All Maps | STV","players":[{"user_id":724,"name":"The cost of living in the UK","steam_id":76561199000520747,"connected_time":665000000000,"state":"active","ping":48},{"user_id":661,"name":"Een schaap zonder slaap","steam_id":76561198084808410,"connected_time":4542000000000,"state":"active","ping":62},{"user_id":684,"name":"giclure :;","steam_id":76561197986362828,"connected_time":2823000000000,"state":"active","ping":103},{"user_id":713,"name":"Lubrsi","steam_id":76561198040208195,"connected_time":1201000000000,"state":"active","ping":51},{"user_id":715,"name":"makaronrycy","steam_id":76561198018208790,"connected_time":1082000000000,"state":"active","ping":75},{"user_id":717,"name":"fruit (derogatory)","steam_id":76561198032787233,"connected_time":955000000000,"state":"active","ping":78},{"user_id":721,"name":"Meddler","steam_id":76561198033001402,"connected_time":852000000000,"state":"active","ping":38},{"user_id":662,"name":"Night Fury","steam_id":76561197995207032,"connected_time":4519000000000,"state":"active","ping":84},{"user_id":681,"name":"Yuzu","steam_id":76561198121694613,"connected_time":3680000000000,"state":"active","ping":50},{"user_id":692,"name":"Spetse","steam_id":76561197990649972,"connected_time":2524000000000,"state":"active","ping":91},{"user_id":726,"name":"XFAX","steam_id":76561197973627932,"connected_time":305000000000,"state":"active","ping":71},{"user_id":627,"name":"Carrotcracker","steam_id":76561198034862396,"connected_time":6397000000000,"state":"active","ping":82},{"user_id":709,"name":"Umberto Bossi","steam_id":76561198136150267,"connected_time":1600000000000,"state":"active","ping":62},{"user_id":718,"name":"choob303","steam_id":76561198206375860,"connected_time":941000000000,"state":"active","ping":59},{"user_id":710,"name":"five easy hot d0gs","steam_id":76561198163081194,"connected_time":1596000000000,"state":"active","ping":45},{"user_id":711,"name":"Mulenmul","steam_id":76561199039796992,"connected_time":1593000000000,"state":"active","ping":53},{"user_id":719,"name":"FireStorm","steam_id":76561198350478325,"connected_time":917000000000,"state":"active","ping":37},{"user_id":720,"name":"Ar|es","steam_id":76561198819160313,"connected_time":910000000000,"state":"active","ping":85},{"user_id":626,"name":"eeeeee","steam_id":76561198017786875,"connected_time":6462000000000,"state":"active","ping":72},{"user_id":725,"name":"ThatGamingKiwi","steam_id":76561199170522237,"connected_time":627000000000,"state":"active","ping":140},{"user_id":723,"name":"Sneikijs","steam_id":76561198052549308,"connected_time":760000000000,"state":"active","ping":54},{"user_id":712,"name":"Gimble Pimble","steam_id":76561198054422282,"connected_time":1588000000000,"state":"active","ping":142},{"user_id":707,"name":"A Pigeon","steam_id":76561198114090555,"connected_time":1750000000000,"state":"active","ping":79},{"user_id":727,"name":"Father Krang","steam_id":76561197996783226,"connected_time":104000000000,"state":"active","ping":74}]},{"server_id":320,"name":"Uncletopia | London | 3 | All Maps","name_short":"lon-3","host":"lon-1.uk.uncletopia.com","port":27035,"enabled":true,"region":"eu","cc":"gb","latitude":51.509865,"longitude":-0.118092,"reserved":0,"last_update":"0001-01-01T00:00:00Z","name_a2s":"Uncletopia | London | 3 | All Maps","protocol":17,"map":"koth_viaduct","folder":"tf","game":"Team Fortress","app_id":440,"player_count":0,"max_players":24,"Bots":0,"server_type":"Dedicated","server_os":"Linux","password":true,"vac":true,"version":"7757534","steam_id":85568392924510192,"keywords":["cp","nocrits","nodmgspread","uncletopia"],"game_id":440,"stv_port":27036,"stv_name":"Uncletopia | London | 3 | All Maps | STV","players":null},{"server_id":321,"name":"Uncletopia | London | 4 | All Maps","name_short":"lon-4","host":"lon-1.uk.uncletopia.com","port":27045,"enabled":true,"region":"eu","cc":"gb","latitude":51.509865,"longitude":-0.118092,"reserved":0,"last_update":"0001-01-01T00:00:00Z","name_a2s":"Uncletopia | London | 4 | All Maps","protocol":17,"map":"pl_barnblitz","folder":"tf","game":"Team Fortress","app_id":440,"player_count":24,"max_players":24,"Bots":0,"server_type":"Dedicated","server_os":"Linux","password":true,"vac":true,"version":"7757534","steam_id":85568392924510193,"keywords":["nocrits","nodmgspread","payload","uncletopia"],"game_id":440,"stv_port":27046,"stv_name":"Uncletopia | London | 4 | All Maps | STV","players":[{"user_id":94,"name":"V1","steam_id":76561198845397091,"connected_time":703000000000,"state":"active","ping":51},{"user_id":95,"name":"beheading video from 2009","steam_id":76561198834897089,"connected_time":699000000000,"state":"active","ping":71},{"user_id":96,"name":"lelecobi324","steam_id":76561198878030367,"connected_time":659000000000,"state":"active","ping":96},{"user_id":71,"name":"Max Andrew","steam_id":76561198158955194,"connected_time":3327000000000,"state":"active","ping":72},{"user_id":72,"name":"weleenkerk","steam_id":76561198143969491,"connected_time":3277000000000,"state":"active","ping":62},{"user_id":93,"name":"brainrot","steam_id":76561199414716848,"connected_time":1022000000000,"state":"active","ping":75},{"user_id":82,"name":"X45Y","steam_id":76561198112534025,"connected_time":2483000000000,"state":"active","ping":49},{"user_id":97,"name":"saimiHops","steam_id":76561198080431475,"connected_time":654000000000,"state":"active","ping":60},{"user_id":91,"name":"Earthman","steam_id":76561198137424821,"connected_time":1301000000000,"state":"active","ping":62},{"user_id":107,"name":":)","steam_id":76561198977420882,"connected_time":355000000000,"state":"active","ping":39},{"user_id":75,"name":"FluoducK","steam_id":76561198158175778,"connected_time":3165000000000,"state":"active","ping":69},{"user_id":99,"name":"yosh","steam_id":76561199316310715,"connected_time":514000000000,"state":"active","ping":96},{"user_id":92,"name":"Vezage","steam_id":76561198064916164,"connected_time":1106000000000,"state":"active","ping":68},{"user_id":100,"name":"kotamine","steam_id":76561198068907991,"connected_time":504000000000,"state":"active","ping":72},{"user_id":85,"name":"ELON MUSK","steam_id":76561198132788284,"connected_time":2092000000000,"state":"active","ping":57},{"user_id":90,"name":"Insain Bolt!","steam_id":76561198025687726,"connected_time":1428000000000,"state":"active","ping":73},{"user_id":110,"name":"coach","steam_id":76561198064775867,"connected_time":252000000000,"state":"active","ping":95},{"user_id":101,"name":"STiNGHAN","steam_id":76561198023989090,"connected_time":497000000000,"state":"active","ping":87},{"user_id":102,"name":"Valentine","steam_id":76561198121343565,"connected_time":481000000000,"state":"active","ping":59},{"user_id":88,"name":"s√∂p√∂rotta","steam_id":76561198144836297,"connected_time":1582000000000,"state":"active","ping":59},{"user_id":103,"name":"Regan","steam_id":76561198100631086,"connected_time":475000000000,"state":"active","ping":59},{"user_id":65,"name":"disc0rd","steam_id":76561197985965776,"connected_time":4196000000000,"state":"active","ping":66},{"user_id":111,"name":"Spycrab101","steam_id":76561198141836805,"connected_time":94000000000,"state":"active","ping":53},{"user_id":105,"name":"jovi_","steam_id":76561198449280552,"connected_time":445000000000,"state":"active","ping":50}]},{"server_id":21,"name":"Uncletopia | London | 5 | All Maps","name_short":"lon-5","host":"lon-1.uk.uncletopia.com","port":27055,"enabled":true,"region":"eu","cc":"gb","latitude":51.509865,"longitude":-0.118092,"reserved":0,"last_update":"0001-01-01T00:00:00Z","name_a2s":"Uncletopia | London | 5 | All Maps","protocol":17,"map":"koth_lakeside_final","folder":"tf","game":"Team Fortress","app_id":440,"player_count":0,"max_players":24,"Bots":0,"server_type":"Dedicated","server_os":"Linux","password":true,"vac":true,"version":"7757534","steam_id":85568392924742829,"keywords":["cp","nocrits","nodmgspread","uncletopia"],"game_id":440,"stv_port":27056,"stv_name":"Uncletopia | London | 5 | All Maps | STV","players":null},{"server_id":22,"name":"Uncletopia | London | 6 | All Maps","name_short":"lon-6","host":"lon-1.uk.uncletopia.com","port":27065,"enabled":true,"region":"eu","cc":"gb","latitude":51.509865,"longitude":-0.118092,"reserved":0,"last_update":"0001-01-01T00:00:00Z","name_a2s":"Uncletopia | London | 6 | All Maps","protocol":17,"map":"koth_cascade","folder":"tf","game":"Team Fortress","app_id":440,"player_count":5,"max_players":24,"Bots":0,"server_type":"Dedicated","server_os":"Linux","password":true,"vac":true,"version":"7757534","steam_id":85568392924742830,"keywords":["cp","nocrits","nodmgspread","uncletopia"],"game_id":440,"stv_port":27066,"stv_name":"Uncletopia | London | 6 | All Maps | STV","players":[{"user_id":110,"name":"FZARKY","steam_id":76561199013370791,"connected_time":421000000000,"state":"active","ping":59},{"user_id":83,"name":"Redkiller","steam_id":76561199453655288,"connected_time":1922000000000,"state":"active","ping":131},{"user_id":82,"name":"Milosz52","steam_id":76561199060940204,"connected_time":2226000000000,"state":"active","ping":84},{"user_id":94,"name":"hmscole09","steam_id":76561198811362788,"connected_time":1438000000000,"state":"active","ping":56},{"user_id":92,"name":"N.M.E","steam_id":76561198012351470,"connected_time":1563000000000,"state":"active","ping":44}]},{"server_id":40,"name":"Uncletopia | London | 7 | No Payload","name_short":"lon-7","host":"lon-1.uk.uncletopia.com","port":27075,"enabled":true,"region":"eu","cc":"gb","latitude":51.509865,"longitude":-0.118092,"reserved":0,"last_update":"0001-01-01T00:00:00Z","name_a2s":"Uncletopia | London | 7 | No Payload","protocol":17,"map":"koth_lakeside_final","folder":"tf","game":"Team Fortress","app_id":440,"player_count":0,"max_players":24,"Bots":0,"server_type":"Dedicated","server_os":"Linux","password":true,"vac":true,"version":"7757534","steam_id":85568392924964314,"keywords":["cp","nocrits","nodmgspread","uncletopia"],"game_id":440,"stv_port":27076,"stv_name":"Uncletopia | London | 7 | No Payload | STV","players":null},{"server_id":41,"name":"Uncletopia | London | 8 | Community","name_short":"lon-8","host":"lon-1.uk.uncletopia.com","port":27085,"enabled":true,"region":"eu","cc":"gb","latitude":51.509865,"longitude":-0.118092,"reserved":0,"last_update":"0001-01-01T00:00:00Z","name_a2s":"Uncletopia | London | 8 | Community","protocol":17,"map":"workshop/cp_alloy_rc3.ugc592805587","folder":"tf","game":"Team Fortress","app_id":440,"player_count":0,"max_players":24,"Bots":0,"server_type":"Dedicated","server_os":"Linux","password":true,"vac":true,"version":"7757534","steam_id":85568392924964315,"keywords":["cp","nocrits","nodmgspread","uncletopia"],"game_id":440,"stv_port":27086,"stv_name":"Uncletopia | London | 8 | Community | STV","players":null},{"server_id":300,"name":"Uncletopia | Montr√©al | 1 | All Maps","name_short":"mtl-1","host":"mtl-1.ca.uncletopia.com","port":27015,"enabled":true,"region":"us-east","cc":"ca","latitude":45.50889,"longitude":-73.56167,"reserved":0,"last_update":"0001-01-01T00:00:00Z","name_a2s":"Uncletopia | Montr√©al | 1 | All Maps","protocol":17,"map":"pl_snowycoast","folder":"tf","game":"Team Fortress","app_id":440,"player_count":2,"max_players":24,"Bots":0,"server_type":"Dedicated","server_os":"Linux","password":true,"vac":true,"version":"7757534","steam_id":85568392924500087,"keywords":["nocrits","nodmgspread","payload","uncletopia"],"game_id":440,"stv_port":27016,"stv_name":"Uncletopia | Montr√©al | 1 | All Maps | STV","players":[{"user_id":10,"name":"dayker2468","steam_id":76561199228876237,"connected_time":1959000000000,"state":"active","ping":76},{"user_id":12,"name":"tyrlan60018","steam_id":76561199139231642,"connected_time":1593000000000,"state":"active","ping":80}]},{"server_id":301,"name":"Uncletopia | Montr√©al | 2 | All Maps","name_short":"mtl-2","host":"mtl-1.ca.uncletopia.com","port":27025,"enabled":true,"region":"us-east","cc":"ca","latitude":45.50889,"longitude":-73.56167,"reserved":0,"last_update":"0001-01-01T00:00:00Z","name_a2s":"Uncletopia | Montr√©al | 2 | All Maps","protocol":17,"map":"cp_altitude","folder":"tf","game":"Team Fortress","app_id":440,"player_count":0,"max_players":24,"Bots":0,"server_type":"Dedicated","server_os":"Linux","password":true,"vac":true,"version":"7757534","steam_id":85568392924500088,"keywords":["cp","nocrits","nodmgspread","uncletopia"],"game_id":440,"stv_port":27026,"stv_name":"Uncletopia | Montr√©al | 2 | All Maps | STV","players":null},{"server_id":302,"name":"Uncletopia | Montr√©al | 3 | All Maps","name_short":"mtl-3","host":"mtl-1.ca.uncletopia.com","port":27035,"enabled":true,"region":"us-east","cc":"ca","latitude":45.50889,"longitude":-73.56167,"reserved":0,"last_update":"0001-01-01T00:00:00Z","name_a2s":"Uncletopia | Montr√©al | 3 | All Maps","protocol":17,"map":"pl_swiftwater_final1","folder":"tf","game":"Team Fortress","app_id":440,"player_count":0,"max_players":24,"Bots":0,"server_type":"Dedicated","server_os":"Linux","password":true,"vac":true,"version":"7757534","steam_id":85568392924500089,"keywords":["nocrits","nodmgspread","payload","uncletopia"],"game_id":440,"stv_port":27036,"stv_name":"Uncletopia | Montr√©al | 3 | All Maps | STV","players":null},{"server_id":303,"name":"Uncletopia | Montr√©al | 4 | No Payload","name_short":"mtl-4","host":"mtl-1.ca.uncletopia.com","port":27045,"enabled":true,"region":"us-east","cc":"ca","latitude":45.50889,"longitude":-73.56167,"reserved":0,"last_update":"0001-01-01T00:00:00Z","name_a2s":"Uncletopia | Montr√©al | 4 | No Payload","protocol":17,"map":"cp_mossrock","folder":"tf","game":"Team Fortress","app_id":440,"player_count":0,"max_players":24,"Bots":0,"server_type":"Dedicated","server_os":"Linux","password":true,"vac":true,"version":"7757534","steam_id":85568392924500090,"keywords":["cp","nocrits","nodmgspread","uncletopia"],"game_id":440,"stv_port":27046,"stv_name":"Uncletopia | Montr√©al | 4 | No Payload | STV","players":null},{"server_id":13,"name":"Uncletopia | New York City | 1 | All Maps","name_short":"nyc-1","host":"nyc-1.us.uncletopia.com","port":27015,"enabled":true,"region":"us-east","cc":"us","latitude":40.73061,"longitude":-73.93524,"reserved":0,"last_update":"0001-01-01T00:00:00Z","name_a2s":"Uncletopia | New York City | 1 | All Maps","protocol":17,"map":"pl_borneo","folder":"tf","game":"Team Fortress","app_id":440,"player_count":24,"max_players":24,"Bots":0,"server_type":"Dedicated","server_os":"Linux","password":true,"vac":true,"version":"7757534","steam_id":85568392924469993,"keywords":["nocrits","nodmgspread","payload","uncletopia"],"game_id":440,"stv_port":27016,"stv_name":"Uncletopia | New York City | 1 | All Maps | STV","players":[{"user_id":118,"name":"BerthaEartha","steam_id":76561198799428743,"connected_time":11469000000000,"state":"active","ping":52},{"user_id":177,"name":"FS Jorda","steam_id":76561198071421459,"connected_time":6034000000000,"state":"active","ping":34},{"user_id":231,"name":"Bad Rollout","steam_id":76561197971948876,"connected_time":1589000000000,"state":"active","ping":77},{"user_id":237,"name":"Z4LTte","steam_id":76561198283258068,"connected_time":1401000000000,"state":"active","ping":45},{"user_id":245,"name":"Egpta","steam_id":76561198237840238,"connected_time":921000000000,"state":"active","ping":55},{"user_id":241,"name":"man behind the slaughter (F2P)","steam_id":76561198854070384,"connected_time":1256000000000,"state":"active","ping":107},{"user_id":229,"name":"aiden","steam_id":76561198449527009,"connected_time":1626000000000,"state":"active","ping":61},{"user_id":247,"name":"Spazzid","steam_id":76561199445100850,"connected_time":746000000000,"state":"active","ping":74},{"user_id":248,"name":"LukeLeal","steam_id":76561198049822995,"connected_time":744000000000,"state":"active","ping":149},{"user_id":249,"name":"Cwafflezz","steam_id":76561199116635411,"connected_time":605000000000,"state":"active","ping":73},{"user_id":251,"name":"LuBzEur0b3ats","steam_id":76561199041041574,"connected_time":438000000000,"state":"active","ping":60},{"user_id":253,"name":"Kelpy","steam_id":76561198294906383,"connected_time":110000000000,"state":"active","ping":46},{"user_id":219,"name":"SpaceFox","steam_id":76561198316756477,"connected_time":2355000000000,"state":"active","ping":62},{"user_id":212,"name":"CRAZY engineer","steam_id":76561198887937902,"connected_time":3264000000000,"state":"active","ping":59},{"user_id":243,"name":"gopnik gaming","steam_id":76561198064194222,"connected_time":1223000000000,"state":"active","ping":82},{"user_id":230,"name":"golem","steam_id":76561198355040593,"connected_time":1611000000000,"state":"active","ping":56},{"user_id":238,"name":"doodlenoodles","steam_id":76561199345823430,"connected_time":1400000000000,"state":"active","ping":47},{"user_id":246,"name":"Reverse Centaur","steam_id":76561199071984712,"connected_time":826000000000,"state":"active","ping":30},{"user_id":244,"name":"the bron jame","steam_id":76561198371235518,"connected_time":1056000000000,"state":"active","ping":146},{"user_id":250,"name":"PackedGorgon","steam_id":76561198042686806,"connected_time":590000000000,"state":"active","ping":109},{"user_id":197,"name":"Count Flandy","steam_id":76561198009708759,"connected_time":4551000000000,"state":"active","ping":67},{"user_id":155,"name":"UEK","steam_id":76561198132903869,"connected_time":7959000000000,"state":"active","ping":79},{"user_id":201,"name":"Bigsumoslammer","steam_id":76561198044505076,"connected_time":4514000000000,"state":"active","ping":45},{"user_id":144,"name":"bingle fantano 2","steam_id":76561197997139225,"connected_time":8728000000000,"state":"active","ping":50}]},{"server_id":14,"name":"Uncletopia | New York City | 2 | All Maps","name_short":"nyc-2","host":"nyc-1.us.uncletopia.com","port":27025,"enabled":true,"region":"us-east","cc":"us","latitude":40.73061,"longitude":-73.93524,"reserved":0,"last_update":"0001-01-01T00:00:00Z","name_a2s":"Uncletopia | New York City | 2 | All Maps","protocol":17,"map":"pl_barnblitz","folder":"tf","game":"Team Fortress","app_id":440,"player_count":25,"max_players":24,"Bots":0,"server_type":"Dedicated","server_os":"Linux","password":true,"vac":true,"version":"7757534","steam_id":85568392924469994,"keywords":["nocrits","nodmgspread","payload","uncletopia"],"game_id":440,"stv_port":27026,"stv_name":"Uncletopia | New York City | 2 | All Maps | STV","players":[{"user_id":445,"name":"Ignalis","steam_id":76561198025662927,"connected_time":512000000000,"state":"active","ping":60},{"user_id":393,"name":"BakerTheDavid","steam_id":76561198801177078,"connected_time":4342000000000,"state":"active","ping":98},{"user_id":389,"name":"LOITUMA","steam_id":76561198105669920,"connected_time":4657000000000,"state":"active","ping":118},{"user_id":403,"name":"The Power","steam_id":76561198060566884,"connected_time":2507000000000,"state":"active","ping":130},{"user_id":427,"name":"ChebJeb","steam_id":76561198981377081,"connected_time":722000000000,"state":"active","ping":65},{"user_id":453,"name":"your local forecast","steam_id":76561198042243083,"connected_time":300000000000,"state":"active","ping":48},{"user_id":428,"name":"Kidzbopsicle","steam_id":76561198047660691,"connected_time":720000000000,"state":"active","ping":42},{"user_id":469,"name":"white ray","steam_id":76561198026664629,"connected_time":25000000000,"state":"active","ping":46},{"user_id":452,"name":"Alexhcgar„ÉÖ","steam_id":76561198085706389,"connected_time":355000000000,"state":"active","ping":97},{"user_id":470,"name":"Peri","steam_id":76561198255311543,"connected_time":4000000000,"state":"spawning","ping":80},{"user_id":375,"name":"Cuntslinger","steam_id":76561198303948269,"connected_time":5666000000000,"state":"active","ping":80},{"user_id":399,"name":"Ifrit","steam_id":76561198044730782,"connected_time":3385000000000,"state":"active","ping":97},{"user_id":458,"name":"Smart Fella","steam_id":76561198397662124,"connected_time":235000000000,"state":"active","ping":91},{"user_id":376,"name":"Tallyden","steam_id":76561197998572962,"connected_time":5665000000000,"state":"active","ping":81},{"user_id":414,"name":"Ginger Jesus","steam_id":76561198052386458,"connected_time":1435000000000,"state":"active","ping":44},{"user_id":415,"name":"ElGan!!","steam_id":76561198065947701,"connected_time":1435000000000,"state":"active","ping":58},{"user_id":416,"name":"Prometheus Jones","steam_id":76561198059087964,"connected_time":1411000000000,"state":"active","ping":79},{"user_id":392,"name":"Cheese Sandwich","steam_id":76561198154238064,"connected_time":4419000000000,"state":"active","ping":132},{"user_id":417,"name":"LunarrD","steam_id":76561198811220107,"connected_time":1410000000000,"state":"active","ping":68},{"user_id":368,"name":"Two-Teste Tommy","steam_id":76561198064308936,"connected_time":6456000000000,"state":"active","ping":60},{"user_id":384,"name":"im really bad sorry","steam_id":76561198277163301,"connected_time":4886000000000,"state":"active","ping":82},{"user_id":423,"name":"ShaqtusHD(She/Her)","steam_id":76561199138286233,"connected_time":1129000000000,"state":"active","ping":67},{"user_id":422,"name":"GearsyGaming","steam_id":76561199068149254,"connected_time":1209000000000,"state":"active","ping":145},{"user_id":424,"name":"Fine Wine","steam_id":76561198125528334,"connected_time":909000000000,"state":"active","ping":59},{"user_id":459,"name":"Cosmic Torgue","steam_id":76561198828724945,"connected_time":221000000000,"state":"active","ping":100}]},{"server_id":15,"name":"Uncletopia | New York City | 3 | Stopwatch Beta","name_short":"nyc-3","host":"nyc-1.us.uncletopia.com","port":27035,"enabled":true,"region":"us-east","cc":"us","latitude":40.73061,"longitude":-73.93524,"reserved":0,"last_update":"0001-01-01T00:00:00Z","name_a2s":"Uncletopia | New York City | 3 | Stopwatch Beta","protocol":17,"map":"koth_lakeside_final","folder":"tf","game":"Team Fortress","app_id":440,"player_count":12,"max_players":24,"Bots":0,"server_type":"Dedicated","server_os":"Linux","password":true,"vac":true,"version":"7757534","steam_id":85568392924742820,"keywords":["cp","nocrits","nodmgspread","uncletopia"],"game_id":440,"stv_port":27036,"stv_name":"Uncletopia | New York City | 3 | Stopwatch Beta | STV","players":[{"user_id":22,"name":"nfseskimo","steam_id":76561198078745666,"connected_time":503000000000,"state":"active","ping":120},{"user_id":13,"name":"yer_nerd","steam_id":76561199435454093,"connected_time":2586000000000,"state":"active","ping":61},{"user_id":23,"name":"Thequirka","steam_id":76561198968058652,"connected_time":306000000000,"state":"active","ping":131},{"user_id":15,"name":"Zoro from Wano Country","steam_id":76561198221619936,"connected_time":1165000000000,"state":"active","ping":87},{"user_id":25,"name":"President Vex","steam_id":76561198157557477,"connected_time":162000000000,"state":"active","ping":422},{"user_id":26,"name":"ball fondler","steam_id":76561199013798048,"connected_time":101000000000,"state":"active","ping":76},{"user_id":27,"name":"gome","steam_id":76561198080784921,"connected_time":94000000000,"state":"active","ping":58},{"user_id":28,"name":"detonao","steam_id":76561198411663861,"connected_time":88000000000,"state":"active","ping":173},{"user_id":29,"name":"Bison (the Great)","steam_id":76561198250784554,"connected_time":74000000000,"state":"active","ping":89},{"user_id":30,"name":"TF18","steam_id":76561199267543243,"connected_time":34000000000,"state":"active","ping":73},{"user_id":31,"name":"I ate those food","steam_id":76561198084614149,"connected_time":33000000000,"state":"active","ping":38},{"user_id":32,"name":"poiuytrewqwqwqwqwqwqwqwqwqwqwqw","steam_id":76561199105253001,"connected_time":12000000000,"state":"active","ping":50}]},{"server_id":16,"name":"Uncletopia | New York City | 4 | Community","name_short":"nyc-4","host":"nyc-1.us.uncletopia.com","port":27045,"enabled":true,"region":"us-east","cc":"us","latitude":40.73061,"longitude":-73.93524,"reserved":0,"last_update":"0001-01-01T00:00:00Z","name_a2s":"Uncletopia | New York City | 4 | Community","protocol":17,"map":"workshop/pl_corrode_rc2.ugc546577989","folder":"tf","game":"Team Fortress","app_id":440,"player_count":0,"max_players":24,"Bots":0,"server_type":"Dedicated","server_os":"Linux","password":true,"vac":true,"version":"7757534","steam_id":85568392924742821,"keywords":["nocrits","nodmgspread","payload","uncletopia"],"game_id":440,"stv_port":27046,"stv_name":"Uncletopia | New York City | 4 | Community | STV","players":null},{"server_id":142,"name":"Uncletopia | S√£o Paulo | 1 | All Maps","name_short":"sao-1","host":"sao-1.br.uncletopia.com","port":27015,"enabled":true,"region":"sa","cc":"br","latitude":-23.533773,"longitude":-46.62529,"reserved":0,"last_update":"0001-01-01T00:00:00Z","name_a2s":"Uncletopia | S√£o Paulo | 1 | All Maps","protocol":17,"map":"koth_lakeside_final","folder":"tf","game":"Team Fortress","app_id":440,"player_count":0,"max_players":24,"Bots":0,"server_type":"Dedicated","server_os":"Linux","password":true,"vac":true,"version":"7757534","steam_id":85568392924469996,"keywords":["cp","nocrits","nodmgspread","uncletopia"],"game_id":440,"stv_port":27016,"stv_name":"Uncletopia | S√£o Paulo | 1 | All Maps | STV","players":null},{"server_id":143,"name":"Uncletopia | S√£o Paulo | 2 | All Maps","name_short":"sao-2","host":"sao-2.br.uncletopia.com","port":27015,"enabled":true,"region":"sa","cc":"br","latitude":-23.533773,"longitude":-46.62529,"reserved":0,"last_update":"0001-01-01T00:00:00Z","name_a2s":"Uncletopia | S√£o Paulo | 2 | All Maps","protocol":17,"map":"pl_borneo","folder":"tf","game":"Team Fortress","app_id":440,"player_count":0,"max_players":24,"Bots":0,"server_type":"Dedicated","server_os":"Linux","password":true,"vac":true,"version":"7757534","steam_id":85568392924485349,"keywords":["nocrits","nodmgspread","payload","uncletopia"],"game_id":440,"stv_port":27016,"stv_name":"Uncletopia | S√£o Paulo | 2 | All Maps | STV","players":null},{"server_id":7,"name":"Uncletopia | Seattle | 1 | All Maps","name_short":"sea-1","host":"sea-1.us.uncletopia.com","port":27015,"enabled":true,"region":"us-west","cc":"us","latitude":47.608013,"longitude":-122.33517,"reserved":0,"last_update":"0001-01-01T00:00:00Z","name_a2s":"Uncletopia | Seattle | 1 | All Maps","protocol":17,"map":"pl_borneo","folder":"tf","game":"Team Fortress","app_id":440,"player_count":24,"max_players":24,"Bots":0,"server_type":"Dedicated","server_os":"Linux","password":true,"vac":true,"version":"7757534","steam_id":85568392924469997,"keywords":["nocrits","nodmgspread","payload","uncletopia"],"game_id":440,"stv_port":27016,"stv_name":"Uncletopia | Seattle | 1 | All Maps | STV","players":[{"user_id":394,"name":"Fujiwara no Mokou","steam_id":76561198063315650,"connected_time":5840000000000,"state":"active","ping":81},{"user_id":448,"name":"Blitzy","steam_id":76561198149472890,"connected_time":2160000000000,"state":"active","ping":62},{"user_id":438,"name":"jayeskae","steam_id":76561198144220801,"connected_time":3023000000000,"state":"active","ping":46},{"user_id":374,"name":"HighJingo","steam_id":76561198846814390,"connected_time":6409000000000,"state":"active","ping":101},{"user_id":439,"name":"fake gamer","steam_id":76561198049784197,"connected_time":3021000000000,"state":"active","ping":61},{"user_id":460,"name":"lili","steam_id":76561199391478575,"connected_time":296000000000,"state":"active","ping":70},{"user_id":457,"name":"Elias with Z","steam_id":76561199234281089,"connected_time":1349000000000,"state":"active","ping":314},{"user_id":459,"name":"Tyler\u0026Fingers","steam_id":76561198085154485,"connected_time":1016000000000,"state":"active","ping":134},{"user_id":454,"name":"rice white","steam_id":76561198320732910,"connected_time":1548000000000,"state":"active","ping":117},{"user_id":451,"name":"Kyrisuu","steam_id":76561198362711064,"connected_time":2015000000000,"state":"active","ping":110},{"user_id":462,"name":"GgDionne","steam_id":76561198079684772,"connected_time":54000000000,"state":"active","ping":56},{"user_id":463,"name":"yaldabaoth","steam_id":76561198084606869,"connected_time":41000000000,"state":"active","ping":86},{"user_id":418,"name":"CIA","steam_id":76561198000136489,"connected_time":3946000000000,"state":"active","ping":51},{"user_id":444,"name":"KB","steam_id":76561198314767260,"connected_time":2833000000000,"state":"active","ping":124},{"user_id":458,"name":"The Moon","steam_id":76561198082926682,"connected_time":1075000000000,"state":"active","ping":60},{"user_id":445,"name":"shart","steam_id":76561198039002838,"connected_time":2617000000000,"state":"active","ping":138},{"user_id":431,"name":"Confirmed Bachelor","steam_id":76561198441041496,"connected_time":3623000000000,"state":"active","ping":56},{"user_id":461,"name":"fish","steam_id":76561198059510391,"connected_time":147000000000,"state":"active","ping":62},{"user_id":436,"name":"‚ô• Milo Stefferson ‚ô•","steam_id":76561198056269538,"connected_time":3184000000000,"state":"active","ping":56},{"user_id":443,"name":"ratie","steam_id":76561198059399661,"connected_time":2956000000000,"state":"active","ping":84},{"user_id":430,"name":"Squiliam","steam_id":76561198025278006,"connected_time":3688000000000,"state":"active","ping":97},{"user_id":426,"name":"chanoc","steam_id":76561198026734746,"connected_time":3746000000000,"state":"active","ping":72},{"user_id":428,"name":"The Professor","steam_id":76561198046165617,"connected_time":3735000000000,"state":"active","ping":119},{"user_id":447,"name":"Dlion0","steam_id":76561198069810035,"connected_time":2291000000000,"state":"active","ping":90}]},{"server_id":119,"name":"Uncletopia | Seattle | 2 | All Maps","name_short":"sea-2","host":"sea-1.us.uncletopia.com","port":27025,"enabled":true,"region":"us-west","cc":"us","latitude":47.608013,"longitude":-122.33517,"reserved":0,"last_update":"0001-01-01T00:00:00Z","name_a2s":"Uncletopia | Seattle | 2 | All Maps","protocol":17,"map":"cp_mountainlab","folder":"tf","game":"Team Fortress","app_id":440,"player_count":24,"max_players":24,"Bots":0,"server_type":"Dedicated","server_os":"Linux","password":true,"vac":true,"version":"7757534","steam_id":85568392924469998,"keywords":["cp","nocrits","nodmgspread","uncletopia"],"game_id":440,"stv_port":27026,"stv_name":"Uncletopia | Seattle | 2 | All Maps | STV","players":[{"user_id":188,"name":"Skinny Pete","steam_id":76561198801608576,"connected_time":2951000000000,"state":"active","ping":116},{"user_id":216,"name":"The Pepsi¬Æ Superbowl¬Æ!","steam_id":76561198080828981,"connected_time":1117000000000,"state":"active","ping":73},{"user_id":211,"name":"K2f","steam_id":76561198049600563,"connected_time":1629000000000,"state":"active","ping":79},{"user_id":156,"name":"Minerkid2004","steam_id":76561198044262827,"connected_time":4651000000000,"state":"active","ping":64},{"user_id":228,"name":"blub","steam_id":76561198138879405,"connected_time":496000000000,"state":"active","ping":133},{"user_id":229,"name":"MagicalBoyChan","steam_id":76561198024776873,"connected_time":443000000000,"state":"active","ping":68},{"user_id":230,"name":"seats","steam_id":76561197998756039,"connected_time":411000000000,"state":"active","ping":75},{"user_id":205,"name":"2.jump.studio","steam_id":76561199098290495,"connected_time":2063000000000,"state":"active","ping":62},{"user_id":158,"name":"Tom","steam_id":76561198070630154,"connected_time":4620000000000,"state":"active","ping":80},{"user_id":226,"name":"Adversarry","steam_id":76561198964350076,"connected_time":540000000000,"state":"active","ping":100},{"user_id":197,"name":"N√º√æ","steam_id":76561198043956703,"connected_time":2455000000000,"state":"active","ping":73},{"user_id":209,"name":"Jesh","steam_id":76561198137710574,"connected_time":1913000000000,"state":"active","ping":148},{"user_id":232,"name":"no vc no c","steam_id":76561197989503095,"connected_time":26000000000,"state":"active","ping":150},{"user_id":233,"name":"Painkiller","steam_id":76561198049787400,"connected_time":24000000000,"state":"active","ping":80},{"user_id":204,"name":"Vonstro","steam_id":76561198079130855,"connected_time":2113000000000,"state":"active","ping":55},{"user_id":224,"name":"Rhino Beetle","steam_id":76561198830083719,"connected_time":613000000000,"state":"active","ping":134},{"user_id":196,"name":"Bavi Ratto","steam_id":76561198333569494,"connected_time":2614000000000,"state":"active","ping":47},{"user_id":198,"name":"en.wikipedia.org/wiki/Nae_Nae","steam_id":76561198418288939,"connected_time":2421000000000,"state":"active","ping":71},{"user_id":207,"name":"Kraul","steam_id":76561198043682060,"connected_time":2014000000000,"state":"active","ping":117},{"user_id":208,"name":"bRAX","steam_id":76561198123030809,"connected_time":2012000000000,"state":"active","ping":89},{"user_id":162,"name":"Chimpanzee","steam_id":76561198850387282,"connected_time":4543000000000,"state":"active","ping":123},{"user_id":215,"name":"strabes","steam_id":76561197961480297,"connected_time":1282000000000,"state":"active","ping":76},{"user_id":175,"name":"Keamy","steam_id":76561199471434875,"connected_time":3822000000000,"state":"active","ping":43},{"user_id":186,"name":"The Poot","steam_id":76561198093889730,"connected_time":3262000000000,"state":"active","ping":105}]},{"server_id":406,"name":"Uncletopia | Seattle | 3 | Stopwatch Beta","name_short":"sea-3","host":"sea-1.us.uncletopia.com","port":27035,"enabled":true,"region":"us-west","cc":"us","latitude":47.608013,"longitude":-122.33517,"reserved":0,"last_update":"0001-01-01T00:00:00Z","name_a2s":"Uncletopia | Seattle | 3 | Stopwatch Beta","protocol":17,"map":"koth_lakeside_final","folder":"tf","game":"Team Fortress","app_id":440,"player_count":0,"max_players":24,"Bots":0,"server_type":"Dedicated","server_os":"Linux","password":true,"vac":true,"version":"7757534","steam_id":85568392924515217,"keywords":["cp","nocrits","nodmgspread","uncletopia"],"game_id":440,"stv_port":27036,"stv_name":"Uncletopia | Seattle | 3 | Stopwatch Beta | STV","players":null},{"server_id":17,"name":"Uncletopia | San Francisco | 1 | All Maps","name_short":"sfo-1","host":"sfo-1.us.uncletopia.com","port":27015,"enabled":true,"region":"us-west","cc":"us","latitude":37.77397,"longitude":-122.4313,"reserved":0,"last_update":"0001-01-01T00:00:00Z","name_a2s":"Uncletopia | San Francisco | 1 | All Maps","protocol":17,"map":"koth_lakeside_final","folder":"tf","game":"Team Fortress","app_id":440,"player_count":0,"max_players":24,"Bots":0,"server_type":"Dedicated","server_os":"Linux","password":true,"vac":true,"version":"7757534","steam_id":85568392924469999,"keywords":["cp","nocrits","nodmgspread","uncletopia"],"game_id":440,"stv_port":27016,"stv_name":"Uncletopia | San Francisco | 1 | All Maps | STV","players":null},{"server_id":18,"name":"Uncletopia | San Francisco | 2 | All Maps","name_short":"sfo-2","host":"sfo-1.us.uncletopia.com","port":27025,"enabled":true,"region":"us-west","cc":"us","latitude":37.77397,"longitude":-122.4313,"reserved":0,"last_update":"0001-01-01T00:00:00Z","name_a2s":"Uncletopia | San Francisco | 2 | All Maps","protocol":17,"map":"koth_highpass","folder":"tf","game":"Team Fortress","app_id":440,"player_count":0,"max_players":24,"Bots":0,"server_type":"Dedicated","server_os":"Linux","password":true,"vac":true,"version":"7757534","steam_id":85568392924470000,"keywords":["cp","nocrits","nodmgspread","uncletopia"],"game_id":440,"stv_port":27026,"stv_name":"Uncletopia | San Francisco | 2 | All Maps | STV","players":null},{"server_id":19,"name":"Uncletopia | San Francisco | 3 | Stopwatch Beta","name_short":"sfo-3","host":"sfo-1.us.uncletopia.com","port":27035,"enabled":true,"region":"us-west","cc":"us","latitude":37.77397,"longitude":-122.4313,"reserved":0,"last_update":"0001-01-01T00:00:00Z","name_a2s":"Uncletopia | San Francisco | 3 | Stopwatch Beta","protocol":17,"map":"pl_borneo","folder":"tf","game":"Team Fortress","app_id":440,"player_count":0,"max_players":24,"Bots":0,"server_type":"Dedicated","server_os":"Linux","password":true,"vac":true,"version":"7757534","steam_id":85568392924742824,"keywords":["nocrits","nodmgspread","payload","uncletopia"],"game_id":440,"stv_port":27036,"stv_name":"Uncletopia | San Francisco | 3 | Stopwatch Beta | STV","players":null},{"server_id":20,"name":"Uncletopia | San Francisco | 4 | Community","name_short":"sfo-4","host":"sfo-1.us.uncletopia.com","port":27045,"enabled":true,"region":"us-west","cc":"us","latitude":37.77397,"longitude":-122.4313,"reserved":0,"last_update":"0001-01-01T00:00:00Z","name_a2s":"Uncletopia | San Francisco | 4 | Community","protocol":17,"map":"cp_altitude","folder":"tf","game":"Team Fortress","app_id":440,"player_count":0,"max_players":24,"Bots":0,"server_type":"Dedicated","server_os":"Linux","password":true,"vac":true,"version":"7757534","steam_id":85568392924742826,"keywords":["cp","nocrits","nodmgspread","uncletopia"],"game_id":440,"stv_port":27046,"stv_name":"Uncletopia | San Francisco | 4 | Community | STV","players":null},{"server_id":141,"name":"Uncletopia | Sydney | 1 | All Maps","name_short":"syd-1","host":"syd-1.au.uncletopia.com","port":27015,"enabled":true,"region":"au","cc":"au","latitude":-33.865143,"longitude":151.2099,"reserved":0,"last_update":"0001-01-01T00:00:00Z","name_a2s":"Uncletopia | Sydney | 1 | All Maps","protocol":17,"map":"koth_viaduct","folder":"tf","game":"Team Fortress","app_id":440,"player_count":0,"max_players":24,"Bots":0,"server_type":"Dedicated","server_os":"Linux","password":true,"vac":true,"version":"7757534","steam_id":85568392924470001,"keywords":["cp","nocrits","nodmgspread","uncletopia"],"game_id":440,"stv_port":27016,"stv_name":"Uncletopia | Sydney | 1 | All Maps | STV","players":null},{"server_id":123,"name":"Uncletopia | Sydney | 2 | All Maps","name_short":"syd-2","host":"syd-1.au.uncletopia.com","port":27025,"enabled":true,"region":"au","cc":"au","latitude":-33.865143,"longitude":151.2099,"reserved":0,"last_update":"0001-01-01T00:00:00Z","name_a2s":"Uncletopia | Sydney | 2 | All Maps","protocol":17,"map":"cp_process_final","folder":"tf","game":"Team Fortress","app_id":440,"player_count":0,"max_players":24,"Bots":0,"server_type":"Dedicated","server_os":"Linux","password":true,"vac":true,"version":"7757534","steam_id":85568392924470002,"keywords":["cp","nocrits","nodmgspread","uncletopia"],"game_id":440,"stv_port":27026,"stv_name":"Uncletopia | Sydney | 2 | All Maps | STV","players":null},{"server_id":395,"name":"Uncletopia | Sydney | 3 | All Maps","name_short":"syd-3","host":"syd-1.au.uncletopia.com","port":27035,"enabled":true,"region":"au","cc":"au","latitude":-33.865143,"longitude":151.2099,"reserved":0,"last_update":"0001-01-01T00:00:00Z","name_a2s":"Uncletopia | Sydney | 3 | All Maps","protocol":17,"map":"cp_sunshine","folder":"tf","game":"Team Fortress","app_id":440,"player_count":0,"max_players":24,"Bots":0,"server_type":"Dedicated","server_os":"Linux","password":true,"vac":true,"version":"7757534","steam_id":85568392925194467,"keywords":["cp","nocrits","nodmgspread","uncletopia"],"game_id":440,"stv_port":27036,"stv_name":"Uncletopia | Sydney | 3 | All Maps | STV","players":null},{"server_id":396,"name":"Uncletopia | Sydney | 4 | All Maps","name_short":"syd-4","host":"syd-1.au.uncletopia.com","port":27045,"enabled":true,"region":"au","cc":"au","latitude":-33.865143,"longitude":151.2099,"reserved":0,"last_update":"0001-01-01T00:00:00Z","name_a2s":"Uncletopia | Sydney | 4 | All Maps","protocol":17,"map":"koth_highpass","folder":"tf","game":"Team Fortress","app_id":440,"player_count":0,"max_players":24,"Bots":0,"server_type":"Dedicated","server_os":"Linux","password":true,"vac":true,"version":"7757534","steam_id":85568392925397958,"keywords":["cp","nocrits","nodmgspread","uncletopia"],"game_id":440,"stv_port":27046,"stv_name":"Uncletopia | Sydney | 4 | All Maps | STV","players":null},{"server_id":58,"name":"Uncletopia | Sydney | 5 | Stopwatch Beta","name_short":"syd-5","host":"syd-1.au.uncletopia.com","port":27055,"enabled":true,"region":"au","cc":"au","latitude":-33.865143,"longitude":151.2099,"reserved":0,"last_update":"0001-01-01T00:00:00Z","name_a2s":"Uncletopia | Sydney | 5 | Stopwatch Beta","protocol":17,"map":"koth_cascade","folder":"tf","game":"Team Fortress","app_id":440,"player_count":0,"max_players":24,"Bots":0,"server_type":"Dedicated","server_os":"Linux","password":true,"vac":true,"version":"7757534","steam_id":85568392925397959,"keywords":["cp","nocrits","nodmgspread","uncletopia"],"game_id":440,"stv_port":27056,"stv_name":"Uncletopia | Sydney | 5 | Stopwatch Beta | STV","players":null},{"server_id":59,"name":"Uncletopia | Sydney | 6 | Community","name_short":"syd-6","host":"syd-1.au.uncletopia.com","port":27065,"enabled":true,"region":"au","cc":"au","latitude":-33.865143,"longitude":151.2099,"reserved":0,"last_update":"0001-01-01T00:00:00Z","name_a2s":"Uncletopia | Sydney | 6 | Community","protocol":17,"map":"cp_snakewater_final1","folder":"tf","game":"Team Fortress","app_id":440,"player_count":0,"max_players":24,"Bots":0,"server_type":"Dedicated","server_os":"Linux","password":true,"vac":true,"version":"7757534","steam_id":85568392925397960,"keywords":["cp","nocrits","nodmgspread","uncletopia"],"game_id":440,"stv_port":27066,"stv_name":"Uncletopia | Sydney | 6 | Community | STV","players":null},{"server_id":49,"name":"Uncletopia | Warsaw | 1 | All Maps","name_short":"waw-1","host":"waw-1.pl.uncletopia.com","port":27015,"enabled":true,"region":"eu","cc":"pl","latitude":52.2297,"longitude":21.017532,"reserved":0,"last_update":"0001-01-01T00:00:00Z","name_a2s":"","protocol":0,"map":"","folder":"","game":"","app_id":0,"player_count":0,"max_players":0,"Bots":0,"server_type":"","server_os":"","password":false,"vac":false,"version":"","steam_id":0,"keywords":null,"game_id":0,"stv_port":0,"stv_name":"","players":null},{"server_id":50,"name":"Uncletopia | Warsaw | 2 | All Maps","name_short":"waw-2","host":"waw-1.pl.uncletopia.com","port":27025,"enabled":true,"region":"eu","cc":"pl","latitude":52.2297,"longitude":21.017532,"reserved":0,"last_update":"0001-01-01T00:00:00Z","name_a2s":"Uncletopia | Warsaw | 2 | All Maps","protocol":17,"map":"koth_viaduct","folder":"tf","game":"Team Fortress","app_id":440,"player_count":0,"max_players":24,"Bots":0,"server_type":"Dedicated","server_os":"Linux","password":true,"vac":true,"version":"7757534","steam_id":85568392925397851,"keywords":["cp","nocrits","nodmgspread","uncletopia"],"game_id":440,"stv_port":27026,"stv_name":"Uncletopia | Warsaw | 2 | All Maps | STV","players":null},{"server_id":51,"name":"Uncletopia | Warsaw | 3 | All Maps","name_short":"waw-3","host":"waw-1.pl.uncletopia.com","port":27035,"enabled":true,"region":"eu","cc":"pl","latitude":52.2297,"longitude":21.017532,"reserved":0,"last_update":"0001-01-01T00:00:00Z","name_a2s":"Uncletopia | Warsaw | 3 | All Maps","protocol":17,"map":"koth_lakeside_final","folder":"tf","game":"Team Fortress","app_id":440,"player_count":0,"max_players":24,"Bots":0,"server_type":"Dedicated","server_os":"Linux","password":true,"vac":true,"version":"7757534","steam_id":85568392925397852,"keywords":["cp","nocrits","nodmgspread","uncletopia"],"game_id":440,"stv_port":27036,"stv_name":"Uncletopia | Warsaw | 3 | All Maps | STV","players":null},{"server_id":52,"name":"Uncletopia | Warsaw | 4 | All Maps","name_short":"waw-4","host":"waw-1.pl.uncletopia.com","port":27045,"enabled":true,"region":"eu","cc":"pl","latitude":52.2297,"longitude":21.017532,"reserved":0,"last_update":"0001-01-01T00:00:00Z","name_a2s":"Uncletopia | Warsaw | 4 | All Maps","protocol":17,"map":"koth_lakeside_final","folder":"tf","game":"Team Fortress","app_id":440,"player_count":0,"max_players":24,"Bots":0,"server_type":"Dedicated","server_os":"Linux","password":true,"vac":true,"version":"7757534","steam_id":85568392925397853,"keywords":["cp","nocrits","nodmgspread","uncletopia"],"game_id":440,"stv_port":27046,"stv_name":"Uncletopia | Warsaw | 4 | All Maps | STV","players":null},{"server_id":53,"name":"Uncletopia | Warsaw | 5 | Stopwatch Beta","name_short":"waw-5","host":"waw-1.pl.uncletopia.com","port":27055,"enabled":true,"region":"eu","cc":"pl","latitude":52.2297,"longitude":21.017532,"reserved":0,"last_update":"0001-01-01T00:00:00Z","name_a2s":"Uncletopia | Warsaw | 5 | Stopwatch Beta","protocol":17,"map":"pl_borneo","folder":"tf","game":"Team Fortress","app_id":440,"player_count":0,"max_players":24,"Bots":0,"server_type":"Dedicated","server_os":"Linux","password":true,"vac":true,"version":"7757534","steam_id":85568392925397854,"keywords":["nocrits","nodmgspread","payload","uncletopia"],"game_id":440,"stv_port":27056,"stv_name":"Uncletopia | Warsaw | 5 | Stopwatch Beta | STV","players":null},{"server_id":54,"name":"Uncletopia | Warsaw | 6 | Community","name_short":"waw-6","host":"waw-1.pl.uncletopia.com","port":27065,"enabled":true,"region":"eu","cc":"pl","latitude":52.2297,"longitude":21.017532,"reserved":0,"last_update":"0001-01-01T00:00:00Z","name_a2s":"Uncletopia | Warsaw | 6 | Community","protocol":17,"map":"workshop/koth_kemptown_rc1.ugc767410655","folder":"tf","game":"Team Fortress","app_id":440,"player_count":0,"max_players":24,"Bots":0,"server_type":"Dedicated","server_os":"Linux","password":true,"vac":true,"version":"7757534","steam_id":85568392925397856,"keywords":["cp","nocrits","nodmgspread","uncletopia"],"game_id":440,"stv_port":27066,"stv_name":"Uncletopia | Warsaw | 6 | Community | STV","players":null}]}