{"status":true,"message":"","result":[{"server_id":9,"name":"Uncletopia | Atlanta | 1 | All Maps","name_short":"atl-1","host":"atl-1.us.uncletopia.com","port":27015,"enabled":true,"region":"us-east","cc":"us","latitude":33.753746,"longitude":-84.38633,"reserved":0,"last_update":"0001-01-01T00:00:00Z","name_a2s":"Uncletopia | Atlanta | 1 | All Maps","protocol":17,"map":"pl_borneo","folder":"tf","game":"Team Fortress","app_id":440,"player_count":24,"max_players":24,"Bots":0,"server_type":"Dedicated","server_os":"Linux","password":true,"vac":true,"version":"7742253","steam_id":85568392924469982,"keywords":["nocrits","nodmgspread","payload","uncletopia"],"game_id":440,"stv_port":27016,"stv_name":"Uncletopia | Atlanta | 1 | All Maps | STV","players":[{"user_id":280,"name":"Hylic","steam_id":76561199051314589,"connected_time":6484000000000,"state":"active","ping":77},{"user_id":328,"name":"Bandicario","steam_id":76561198432036026,"connected_time":267000000000,"state":"active","ping":50},{"user_id":308,"name":"ash","steam_id":76561198127890645,"connected_time":2484000000000,"state":"active","ping":68},{"user_id":329,"name":"IZISOO","steam_id":76561198970380577,"connected_time":167000000000,"state":"active","ping":74},{"user_id":217,"name":"forklift circumcised","steam_id":76561198278756087,"connected_time":12755000000000,"state":"active","ping":77},{"user_id":205,"name":"Rappitor","steam_id":76561198105613110,"connected_time":13356000000000,"state":"active","ping":75},{"user_id":330,"name":"will b. gaming","steam_id":76561198101707249,"connected_time":164000000000,"state":"active","ping":55},{"user_id":334,"name":"EmotreX","steam_id":76561198366518989,"connected_time":66000000000,"state":"active","ping":84},{"user_id":312,"name":"Luucyf3r","steam_id":76561198141820085,"connected_time":2230000000000,"state":"active","ping":59},{"user_id":324,"name":"ATL1 | Lav4ie They/Them","steam_id":76561198825997674,"connected_time":1066000000000,"state":"active","ping":60},{"user_id":229,"name":"Pablogonzales.2009","steam_id":76561198981009008,"connected_time":11072000000000,"state":"active","ping":69},{"user_id":320,"name":"AB24","steam_id":76561199080017254,"connected_time":1620000000000,"state":"active","ping":60},{"user_id":335,"name":"Cosmos Rogue","steam_id":76561198378791617,"connected_time":25000000000,"state":"active","ping":72},{"user_id":294,"name":"Veilos","steam_id":76561198071897172,"connected_time":4116000000000,"state":"active","ping":75},{"user_id":333,"name":"Gaming123","steam_id":76561198801780168,"connected_time":125000000000,"state":"active","ping":65},{"user_id":307,"name":"Birch","steam_id":76561198316231704,"connected_time":2504000000000,"state":"active","ping":55},{"user_id":331,"name":"Im High","steam_id":76561198049954886,"connected_time":162000000000,"state":"active","ping":67},{"user_id":315,"name":"Angel","steam_id":76561198175654911,"connected_time":1943000000000,"state":"active","ping":73},{"user_id":258,"name":"floofy","steam_id":76561198389769098,"connected_time":8138000000000,"state":"active","ping":89},{"user_id":303,"name":"AliCeline","steam_id":76561198207017241,"connected_time":2854000000000,"state":"active","ping":70},{"user_id":305,"name":"HexedShadowWolf","steam_id":76561198080396780,"connected_time":2575000000000,"state":"active","ping":49},{"user_id":321,"name":"Crab12","steam_id":76561198398818373,"connected_time":1436000000000,"state":"active","ping":64},{"user_id":314,"name":"'the' professional","steam_id":76561199164971892,"connected_time":1955000000000,"state":"active","ping":117},{"user_id":327,"name":"thomasdee725","steam_id":76561199189526173,"connected_time":561000000000,"state":"active","ping":83}]},{"server_id":400,"name":"Uncletopia | Atlanta | 3 | Stopwatch Beta","name_short":"atl-3","host":"atl-1.us.uncletopia.com","port":27035,"enabled":true,"region":"us-east","cc":"us","latitude":33.753746,"longitude":-84.38633,"reserved":0,"last_update":"0001-01-01T00:00:00Z","name_a2s":"Uncletopia | Atlanta | 3 | Stopwatch Beta","protocol":17,"map":"workshop/cp_process_f11.ugc2302948105","folder":"tf","game":"Team Fortress","app_id":440,"player_count":0,"max_players":24,"Bots":0,"server_type":"Dedicated","server_os":"Linux","password":true,"vac":true,"version":"7742253","steam_id":85568392924515187,"keywords":["cp","nocrits","nodmgspread","uncletopia"],"game_id":440,"stv_port":27036,"stv_name":"Uncletopia | Atlanta | 3 | Stopwatch Beta | STV","players":null},{"server_id":401,"name":"Uncletopia | Atlanta | 4 | No Payload","name_short":"atl-4","host":"atl-1.us.uncletopia.com","port":27045,"enabled":true,"region":"us-east","cc":"us","latitude":33.753746,"longitude":-84.38633,"reserved":0,"last_update":"0001-01-01T00:00:00Z","name_a2s":"Uncletopia | Atlanta | 4 | No Payload","protocol":17,"map":"pl_pier","folder":"tf","game":"Team Fortress","app_id":440,"player_count":0,"max_players":24,"Bots":0,"server_type":"Dedicated","server_os":"Linux","password":true,"vac":true,"version":"7723704","steam_id":85568392924515188,"keywords":["nocrits","nodmgspread","payload","uncletopia"],"game_id":440,"stv_port":27046,"stv_name":"Uncletopia | Atlanta | 4 | No Payload | STV","players":null},{"server_id":2,"name":"Uncletopia | Chicago | 1 | All Maps","name_short":"chi-1","host":"chi-1.us.uncletopia.com","port":27015,"enabled":true,"region":"us-central","cc":"us","latitude":41.881832,"longitude":-87.62318,"reserved":0,"last_update":"0001-01-01T00:00:00Z","name_a2s":"Uncletopia | Chicago | 1 | All Maps","protocol":17,"map":"cp_granary","folder":"tf","game":"Team Fortress","app_id":440,"player_count":24,"max_players":24,"Bots":0,"server_type":"Dedicated","server_os":"Linux","password":true,"vac":true,"version":"7742253","steam_id":85568392924469984,"keywords":["cp","nocrits","nodmgspread","uncletopia"],"game_id":440,"stv_port":27016,"stv_name":"Uncletopia | Chicago | 1 | All Maps | STV","players":[{"user_id":311,"name":"maS","steam_id":76561198033846407,"connected_time":957000000000,"state":"active","ping":50},{"user_id":247,"name":"sammy","steam_id":76561199001307670,"connected_time":5969000000000,"state":"active","ping":91},{"user_id":276,"name":"Jolly evil little man","steam_id":76561198311053471,"connected_time":3679000000000,"state":"active","ping":76},{"user_id":219,"name":"Argo","steam_id":76561198353725622,"connected_time":8907000000000,"state":"active","ping":81},{"user_id":314,"name":"Backside540","steam_id":76561197960602545,"connected_time":870000000000,"state":"active","ping":95},{"user_id":319,"name":"baguette","steam_id":76561198066048980,"connected_time":771000000000,"state":"active","ping":42},{"user_id":273,"name":"stop","steam_id":76561198268686419,"connected_time":3992000000000,"state":"active","ping":63},{"user_id":297,"name":"no","steam_id":76561198248853140,"connected_time":1636000000000,"state":"active","ping":49},{"user_id":312,"name":"Thilo","steam_id":76561197987278784,"connected_time":941000000000,"state":"active","ping":67},{"user_id":306,"name":"Spirosity","steam_id":76561198013485753,"connected_time":1196000000000,"state":"active","ping":72},{"user_id":304,"name":"debin","steam_id":76561198070711217,"connected_time":1258000000000,"state":"active","ping":57},{"user_id":241,"name":"the deadliest pyroshark","steam_id":76561198374227766,"connected_time":6726000000000,"state":"active","ping":72},{"user_id":263,"name":"Cleric","steam_id":76561198045887994,"connected_time":4542000000000,"state":"active","ping":46},{"user_id":293,"name":"easiest airshotter","steam_id":76561198812385770,"connected_time":2787000000000,"state":"active","ping":75},{"user_id":317,"name":"SumGuy","steam_id":76561198046671137,"connected_time":810000000000,"state":"active","ping":82},{"user_id":271,"name":"‚ô• Femboy‚ô•Ventily ‚ô•","steam_id":76561198157260335,"connected_time":4189000000000,"state":"active","ping":56},{"user_id":322,"name":"Iggy Dogg","steam_id":76561198059602545,"connected_time":302000000000,"state":"active","ping":51},{"user_id":295,"name":"det","steam_id":76561198170859755,"connected_time":2364000000000,"state":"active","ping":76},{"user_id":288,"name":"Elena Manetta","steam_id":76561197998344054,"connected_time":2957000000000,"state":"active","ping":57},{"user_id":289,"name":"darwin -rng","steam_id":76561198093829623,"connected_time":2956000000000,"state":"active","ping":86},{"user_id":325,"name":"Gobby Princess","steam_id":76561198051902438,"connected_time":98000000000,"state":"active","ping":69},{"user_id":320,"name":"mega giga payload hater!","steam_id":76561198039727616,"connected_time":753000000000,"state":"active","ping":62},{"user_id":292,"name":"catface","steam_id":76561198096347625,"connected_time":2940000000000,"state":"active","ping":85},{"user_id":318,"name":"BurnN8or101","steam_id":76561198132668224,"connected_time":805000000000,"state":"active","ping":79}]},{"server_id":106,"name":"Uncletopia | Chicago | 2 | All Maps","name_short":"chi-2","host":"chi-1.us.uncletopia.com","port":27025,"enabled":true,"region":"us-central","cc":"us","latitude":41.881832,"longitude":-87.62318,"reserved":0,"last_update":"0001-01-01T00:00:00Z","name_a2s":"Uncletopia | Chicago | 2 | All Maps","protocol":17,"map":"koth_viaduct","folder":"tf","game":"Team Fortress","app_id":440,"player_count":24,"max_players":24,"Bots":0,"server_type":"Dedicated","server_os":"Linux","password":true,"vac":true,"version":"7742253","steam_id":85568392924469985,"keywords":["cp","nocrits","nodmgspread","uncletopia"],"game_id":440,"stv_port":27026,"stv_name":"Uncletopia | Chicago | 2 | All Maps | STV","players":[{"user_id":131,"name":"Cupidmeh","steam_id":76561198138669654,"connected_time":5646000000000,"state":"active","ping":63},{"user_id":165,"name":"Fitts1099","steam_id":76561198044986906,"connected_time":3413000000000,"state":"active","ping":46},{"user_id":223,"name":"Ace Chromatica","steam_id":76561198042211131,"connected_time":148000000000,"state":"active","ping":45},{"user_id":218,"name":"Cutcleaner","steam_id":76561199000925667,"connected_time":421000000000,"state":"active","ping":76},{"user_id":186,"name":"ocelotridervi","steam_id":76561198271956384,"connected_time":1778000000000,"state":"active","ping":65},{"user_id":217,"name":"Bones","steam_id":76561198084646266,"connected_time":457000000000,"state":"active","ping":73},{"user_id":224,"name":"IRAcide","steam_id":76561198236149504,"connected_time":127000000000,"state":"active","ping":94},{"user_id":89,"name":"riri ·óú·¥ó·óú","steam_id":76561198055462404,"connected_time":9575000000000,"state":"active","ping":87},{"user_id":219,"name":"teddy","steam_id":76561198802483027,"connected_time":339000000000,"state":"active","ping":74},{"user_id":225,"name":"no wtf not that","steam_id":76561198461518382,"connected_time":48000000000,"state":"active","ping":53},{"user_id":211,"name":"Arildis","steam_id":76561198123516977,"connected_time":613000000000,"state":"active","ping":61},{"user_id":226,"name":"festive jester","steam_id":76561198079609974,"connected_time":42000000000,"state":"active","ping":104},{"user_id":209,"name":"bought this cart for 15 dollars","steam_id":76561198253731826,"connected_time":859000000000,"state":"active","ping":74},{"user_id":196,"name":"YASAI JUICE","steam_id":76561198131971992,"connected_time":1400000000000,"state":"active","ping":33},{"user_id":222,"name":"·πΩ‚ßâ cookie","steam_id":76561197998884823,"connected_time":248000000000,"state":"active","ping":64},{"user_id":227,"name":"uniwu - BUFF THE SPEED","steam_id":76561198864421290,"connected_time":31000000000,"state":"active","ping":52},{"user_id":202,"name":"Ikalpo","steam_id":76561198044686915,"connected_time":1245000000000,"state":"active","ping":107},{"user_id":220,"name":"The Muffin Man","steam_id":76561199088286427,"connected_time":338000000000,"state":"active","ping":92},{"user_id":208,"name":"Barracuda","steam_id":76561198013022083,"connected_time":1036000000000,"state":"active","ping":58},{"user_id":199,"name":"astron","steam_id":76561198058546328,"connected_time":1338000000000,"state":"active","ping":68},{"user_id":201,"name":"spooky","steam_id":76561198122964663,"connected_time":1268000000000,"state":"active","ping":67},{"user_id":228,"name":"beepper","steam_id":76561198925734405,"connected_time":28000000000,"state":"active","ping":160},{"user_id":229,"name":"Drac0c4t","steam_id":76561199073871583,"connected_time":18000000000,"state":"active","ping":50},{"user_id":216,"name":"watchfull","steam_id":76561198433266742,"connected_time":546000000000,"state":"active","ping":92}]},{"server_id":402,"name":"Uncletopia | Chicago | 3 | All Maps","name_short":"chi-3","host":"chi-1.us.uncletopia.com","port":27035,"enabled":true,"region":"us-central","cc":"us","latitude":41.881832,"longitude":-87.62318,"reserved":0,"last_update":"0001-01-01T00:00:00Z","name_a2s":"Uncletopia | Chicago | 3 | All Maps","protocol":17,"map":"pl_badwater","folder":"tf","game":"Team Fortress","app_id":440,"player_count":24,"max_players":24,"Bots":0,"server_type":"Dedicated","server_os":"Linux","password":true,"vac":true,"version":"7742253","steam_id":85568392924515191,"keywords":["nocrits","nodmgspread","payload","uncletopia"],"game_id":440,"stv_port":27036,"stv_name":"Uncletopia | Chicago | 3 | All Maps | STV","players":[{"user_id":366,"name":"Regi","steam_id":76561198271508598,"connected_time":29000000000,"state":"active","ping":47},{"user_id":174,"name":"[slug]","steam_id":76561197989592178,"connected_time":14944000000000,"state":"active","ping":60},{"user_id":359,"name":"Festive Turnip","steam_id":76561198215801344,"connected_time":442000000000,"state":"active","ping":58},{"user_id":352,"name":"Gustavo Fring","steam_id":76561198132807405,"connected_time":1168000000000,"state":"active","ping":81},{"user_id":340,"name":"Bread Baker","steam_id":76561198185335103,"connected_time":1661000000000,"state":"active","ping":55},{"user_id":355,"name":"rap music","steam_id":76561198054260599,"connected_time":849000000000,"state":"active","ping":76},{"user_id":365,"name":"Pakidude","steam_id":76561198142093134,"connected_time":83000000000,"state":"active","ping":62},{"user_id":361,"name":"Super Noob","steam_id":76561199179611350,"connected_time":375000000000,"state":"active","ping":48},{"user_id":311,"name":"Protoshake","steam_id":76561198840276176,"connected_time":3506000000000,"state":"active","ping":77},{"user_id":362,"name":"AdorableMew","steam_id":76561198186706405,"connected_time":361000000000,"state":"active","ping":69},{"user_id":267,"name":"laggy mcstab","steam_id":76561198106379962,"connected_time":7258000000000,"state":"active","ping":115},{"user_id":354,"name":"McMahonism","steam_id":76561198066138208,"connected_time":1111000000000,"state":"active","ping":58},{"user_id":251,"name":"Jyggalag","steam_id":76561198014672516,"connected_time":8367000000000,"state":"active","ping":60},{"user_id":357,"name":"NUt","steam_id":76561198031007966,"connected_time":708000000000,"state":"active","ping":50},{"user_id":356,"name":"Waffle Wannabe","steam_id":76561198064510650,"connected_time":759000000000,"state":"active","ping":62},{"user_id":296,"name":"Diesel","steam_id":76561198448815852,"connected_time":4845000000000,"state":"active","ping":86},{"user_id":345,"name":"Jill the Owl","steam_id":76561197999210583,"connected_time":1593000000000,"state":"active","ping":65},{"user_id":326,"name":"Snake Handler","steam_id":76561198027198306,"connected_time":2416000000000,"state":"active","ping":55},{"user_id":363,"name":"Kobathor","steam_id":76561198142615469,"connected_time":122000000000,"state":"active","ping":67},{"user_id":323,"name":"Burf","steam_id":76561198019341161,"connected_time":2630000000000,"state":"active","ping":54},{"user_id":336,"name":"GuyGoom","steam_id":76561198254522178,"connected_time":1849000000000,"state":"active","ping":51},{"user_id":364,"name":"WastefulTrash","steam_id":76561198119003597,"connected_time":107000000000,"state":"active","ping":65},{"user_id":351,"name":"RyInc","steam_id":76561198874261643,"connected_time":1247000000000,"state":"active","ping":45},{"user_id":314,"name":"Yukon Cornelius","steam_id":76561198261512781,"connected_time":2923000000000,"state":"active","ping":105}]},{"server_id":403,"name":"Uncletopia | Chicago | 4 | All Maps","name_short":"chi-4","host":"chi-1.us.uncletopia.com","port":27045,"enabled":true,"region":"us-central","cc":"us","latitude":41.881832,"longitude":-87.62318,"reserved":0,"last_update":"0001-01-01T00:00:00Z","name_a2s":"Uncletopia | Chicago | 4 | All Maps","protocol":17,"map":"pl_upward","folder":"tf","game":"Team Fortress","app_id":440,"player_count":24,"max_players":24,"Bots":0,"server_type":"Dedicated","server_os":"Linux","password":true,"vac":true,"version":"7742253","steam_id":85568392924515193,"keywords":["nocrits","nodmgspread","payload","uncletopia"],"game_id":440,"stv_port":27046,"stv_name":"Uncletopia | Chicago | 4 | All Maps | STV","players":[{"user_id":267,"name":"Unwavering Flavor","steam_id":76561198053306065,"connected_time":1938000000000,"state":"active","ping":67},{"user_id":288,"name":"SomeCozyKid","steam_id":76561198086113234,"connected_time":621000000000,"state":"active","ping":65},{"user_id":291,"name":"mammoth!?","steam_id":76561198066881911,"connected_time":532000000000,"state":"active","ping":75},{"user_id":287,"name":"TwizzlerNips","steam_id":76561198082853513,"connected_time":628000000000,"state":"active","ping":80},{"user_id":260,"name":"Harold","steam_id":76561198057317770,"connected_time":2868000000000,"state":"active","ping":87},{"user_id":298,"name":"Buckytr","steam_id":76561198096335025,"connected_time":181000000000,"state":"active","ping":80},{"user_id":239,"name":"carrion goat she/it","steam_id":76561198262064871,"connected_time":4072000000000,"state":"active","ping":66},{"user_id":235,"name":"Furry Saul Goodman","steam_id":76561198069580305,"connected_time":4832000000000,"state":"active","ping":47},{"user_id":297,"name":"Uncle","steam_id":76561197988647705,"connected_time":259000000000,"state":"active","ping":62},{"user_id":274,"name":"Gibus Man","steam_id":76561198257241062,"connected_time":1216000000000,"state":"active","ping":95},{"user_id":217,"name":"DAS SCHNITZELSTIEN","steam_id":76561198051137159,"connected_time":6442000000000,"state":"active","ping":95},{"user_id":292,"name":"Lmnop","steam_id":76561198038458838,"connected_time":488000000000,"state":"active","ping":48},{"user_id":293,"name":"Rushing Problem","steam_id":76561198090745574,"connected_time":430000000000,"state":"active","ping":117},{"user_id":280,"name":"THICCBEEF GRANDPA","steam_id":76561197993550572,"connected_time":812000000000,"state":"active","ping":67},{"user_id":252,"name":"Gravee","steam_id":76561197999283582,"connected_time":3386000000000,"state":"active","ping":48},{"user_id":299,"name":"Btuck","steam_id":76561198882440687,"connected_time":155000000000,"state":"active","ping":95},{"user_id":281,"name":"His Almighty Kank","steam_id":76561199091285953,"connected_time":812000000000,"state":"active","ping":63},{"user_id":302,"name":"Jazz","steam_id":76561198281069210,"connected_time":64000000000,"state":"active","ping":73},{"user_id":265,"name":"Ginger Powder","steam_id":76561198082650449,"connected_time":2609000000000,"state":"active","ping":56},{"user_id":240,"name":"jootloops","steam_id":76561198155447794,"connected_time":4065000000000,"state":"active","ping":68},{"user_id":295,"name":"J. Lightning","steam_id":76561198147148998,"connected_time":379000000000,"state":"active","ping":75},{"user_id":303,"name":"Diaper full of urine","steam_id":76561199366077042,"connected_time":59000000000,"state":"active","ping":92},{"user_id":263,"name":"suns","steam_id":76561198079583278,"connected_time":2686000000000,"state":"active","ping":45},{"user_id":272,"name":"Blue Collar","steam_id":76561198354781722,"connected_time":1912000000000,"state":"active","ping":90}]},{"server_id":36,"name":"Uncletopia | Chicago | 5 | All Maps","name_short":"chi-5","host":"chi-2.us.uncletopia.com","port":27015,"enabled":true,"region":"us-central","cc":"us","latitude":41.881832,"longitude":-87.62318,"reserved":0,"last_update":"0001-01-01T00:00:00Z","name_a2s":"Uncletopia | Chicago | 5 | All Maps","protocol":17,"map":"pl_pier","folder":"tf","game":"Team Fortress","app_id":440,"player_count":16,"max_players":24,"Bots":0,"server_type":"Dedicated","server_os":"Linux","password":true,"vac":true,"version":"7742253","steam_id":85568392924866362,"keywords":["nocrits","nodmgspread","payload","uncletopia"],"game_id":440,"stv_port":27016,"stv_name":"Uncletopia | Chicago | 5 | All Maps | STV","players":[{"user_id":142,"name":"Dad","steam_id":76561198142932841,"connected_time":5000000000,"state":"spawning","ping":84},{"user_id":52,"name":"A Successful Businessman","steam_id":76561198031611806,"connected_time":8029000000000,"state":"active","ping":62},{"user_id":56,"name":"griff928","steam_id":76561198149614679,"connected_time":7702000000000,"state":"active","ping":68},{"user_id":109,"name":"Crimmas","steam_id":76561198129326627,"connected_time":3478000000000,"state":"active","ping":66},{"user_id":141,"name":"Takumi Fujiwara","steam_id":76561198146281101,"connected_time":171000000000,"state":"active","ping":67},{"user_id":132,"name":"Glungloid","steam_id":76561198272961376,"connected_time":1783000000000,"state":"active","ping":78},{"user_id":136,"name":"Drilly22","steam_id":76561198068838338,"connected_time":1342000000000,"state":"active","ping":85},{"user_id":100,"name":"deadly_gamer #!ganger!","steam_id":76561198311446636,"connected_time":4558000000000,"state":"active","ping":57},{"user_id":139,"name":"Dark Prince","steam_id":76561198020851324,"connected_time":1098000000000,"state":"active","ping":76},{"user_id":130,"name":"Meowth from Team Rocket","steam_id":76561198144049265,"connected_time":2401000000000,"state":"active","ping":54},{"user_id":137,"name":"Level 1 Crook","steam_id":76561198441098132,"connected_time":1314000000000,"state":"active","ping":48},{"user_id":102,"name":"LazyGuy","steam_id":76561198968058652,"connected_time":4537000000000,"state":"active","ping":92},{"user_id":125,"name":"MrPrysm","steam_id":76561198096310603,"connected_time":2605000000000,"state":"active","ping":47},{"user_id":140,"name":"St4pps","steam_id":76561198449842958,"connected_time":777000000000,"state":"active","ping":59},{"user_id":138,"name":"Psychosis","steam_id":76561198078659070,"connected_time":1291000000000,"state":"active","ping":80},{"user_id":133,"name":"Frontier Psychiatrist","steam_id":76561198038689088,"connected_time":1513000000000,"state":"active","ping":82}]},{"server_id":37,"name":"Uncletopia | Chicago | 6 | All Maps","name_short":"chi-6","host":"chi-2.us.uncletopia.com","port":27025,"enabled":true,"region":"us-central","cc":"us","latitude":41.881832,"longitude":-87.62318,"reserved":0,"last_update":"0001-01-01T00:00:00Z","name_a2s":"Uncletopia | Chicago | 6 | All Maps","protocol":17,"map":"pl_pier","folder":"tf","game":"Team Fortress","app_id":440,"player_count":14,"max_players":24,"Bots":0,"server_type":"Dedicated","server_os":"Linux","password":true,"vac":true,"version":"7742253","steam_id":85568392924866363,"keywords":["nocrits","nodmgspread","payload","uncletopia"],"game_id":440,"stv_port":27026,"stv_name":"Uncletopia | Chicago | 6 | All Maps | STV","players":[{"user_id":63,"name":"dudeguypersonmanhombre","steam_id":76561198052016845,"connected_time":9000000000,"state":"spawning","ping":300},{"user_id":42,"name":"That Dude","steam_id":76561198980486227,"connected_time":986000000000,"state":"spawning","ping":116},{"user_id":39,"name":"Electro Penguin","steam_id":76561199050197562,"connected_time":1551000000000,"state":"spawning","ping":65},{"user_id":41,"name":"Josh Diddily","steam_id":76561198286957487,"connected_time":1392000000000,"state":"spawning","ping":107},{"user_id":44,"name":"Prodious","steam_id":76561198063250819,"connected_time":908000000000,"state":"spawning","ping":61},{"user_id":48,"name":"TrIcKiNgX3","steam_id":76561198243231748,"connected_time":555000000000,"state":"spawning","ping":106},{"user_id":49,"name":"monke (real)","steam_id":76561198426878556,"connected_time":554000000000,"state":"spawning","ping":67},{"user_id":54,"name":"cacos","steam_id":76561199130242847,"connected_time":316000000000,"state":"connecting","ping":155},{"user_id":52,"name":"Stressmelo","steam_id":76561199204445185,"connected_time":475000000000,"state":"spawning","ping":53},{"user_id":55,"name":"Mr.Pan","steam_id":76561198069030613,"connected_time":245000000000,"state":"spawning","ping":83},{"user_id":56,"name":"hydrochloric acid drinker","steam_id":76561198077272494,"connected_time":185000000000,"state":"spawning","ping":49},{"user_id":58,"name":"Michaelpc1","steam_id":76561198088365519,"connected_time":141000000000,"state":"spawning","ping":91},{"user_id":60,"name":"RoseTheVamer","steam_id":76561198096846203,"connected_time":129000000000,"state":"spawning","ping":70},{"user_id":62,"name":"walterfishing_17","steam_id":76561198976904099,"connected_time":88000000000,"state":"spawning","ping":64}]},{"server_id":38,"name":"Uncletopia | Chicago | 7 | Stopwatch Beta","name_short":"chi-7","host":"chi-2.us.uncletopia.com","port":27035,"enabled":true,"region":"us-central","cc":"us","latitude":41.881832,"longitude":-87.62318,"reserved":0,"last_update":"0001-01-01T00:00:00Z","name_a2s":"Uncletopia | Chicago | 7 | Stopwatch Beta","protocol":17,"map":"workshop/koth_bagel_rc5.ugc2514036946","folder":"tf","game":"Team Fortress","app_id":440,"player_count":0,"max_players":24,"Bots":0,"server_type":"Dedicated","server_os":"Linux","password":true,"vac":true,"version":"7742253","steam_id":85568392924866364,"keywords":["cp","nocrits","nodmgspread","uncletopia"],"game_id":440,"stv_port":27036,"stv_name":"Uncletopia | Chicago | 7 | Stopwatch Beta | STV","players":null},{"server_id":39,"name":"Uncletopia | Chicago | 8 | Community","name_short":"chi-8","host":"chi-2.us.uncletopia.com","port":27045,"enabled":true,"region":"us-central","cc":"us","latitude":41.881832,"longitude":-87.62318,"reserved":0,"last_update":"0001-01-01T00:00:00Z","name_a2s":"Uncletopia | Chicago | 8 | Community","protocol":17,"map":"workshop/koth_bagel_rc5.ugc2514036946","folder":"tf","game":"Team Fortress","app_id":440,"player_count":0,"max_players":24,"Bots":0,"server_type":"Dedicated","server_os":"Linux","password":true,"vac":true,"version":"7742253","steam_id":85568392924866365,"keywords":["cp","nocrits","nodmgspread","uncletopia"],"game_id":440,"stv_port":27046,"stv_name":"Uncletopia | Chicago | 8 | Community | STV","players":null},{"server_id":8,"name":"Uncletopia | Dallas | 1 | All Maps","name_short":"dal-1","host":"dal-1.us.uncletopia.com","port":27015,"enabled":true,"region":"us-central","cc":"us","latitude":32.779167,"longitude":-96.80889,"reserved":0,"last_update":"0001-01-01T00:00:00Z","name_a2s":"Uncletopia | Dallas | 1 | All Maps","protocol":17,"map":"pl_badwater","folder":"tf","game":"Team Fortress","app_id":440,"player_count":24,"max_players":24,"Bots":0,"server_type":"Dedicated","server_os":"Linux","password":true,"vac":true,"version":"7742253","steam_id":85568392924469986,"keywords":["nocrits","nodmgspread","payload","uncletopia"],"game_id":440,"stv_port":27016,"stv_name":"Uncletopia | Dallas | 1 | All Maps | STV","players":[{"user_id":469,"name":"HeroOfTime","steam_id":76561199096218001,"connected_time":948000000000,"state":"active","ping":83},{"user_id":454,"name":"Frost","steam_id":76561198272014381,"connected_time":2122000000000,"state":"active","ping":71},{"user_id":477,"name":"flange","steam_id":76561198040182692,"connected_time":518000000000,"state":"active","ping":147},{"user_id":478,"name":"SmokeyGalaxy","steam_id":76561198118780516,"connected_time":286000000000,"state":"active","ping":60},{"user_id":474,"name":"tlm","steam_id":76561198178457461,"connected_time":757000000000,"state":"active","ping":45},{"user_id":476,"name":"Gromble","steam_id":76561198148876897,"connected_time":678000000000,"state":"active","ping":93},{"user_id":462,"name":"Squatter1","steam_id":76561198078987734,"connected_time":1479000000000,"state":"active","ping":80},{"user_id":472,"name":"pt","steam_id":76561198143023330,"connected_time":781000000000,"state":"active","ping":76},{"user_id":450,"name":"Al the killa","steam_id":76561199050174626,"connected_time":2432000000000,"state":"active","ping":76},{"user_id":470,"name":"DragoDuck","steam_id":76561198385685683,"connected_time":822000000000,"state":"active","ping":76},{"user_id":423,"name":"halp","steam_id":76561199215821942,"connected_time":4153000000000,"state":"active","ping":47},{"user_id":464,"name":"god approaches","steam_id":76561198081617990,"connected_time":1244000000000,"state":"active","ping":92},{"user_id":418,"name":"Zen Skye","steam_id":76561198114452552,"connected_time":4556000000000,"state":"active","ping":83},{"user_id":468,"name":"InvaderAlex","steam_id":76561198039232451,"connected_time":1059000000000,"state":"active","ping":51},{"user_id":473,"name":"Joji - Tick Tock","steam_id":76561198418414338,"connected_time":762000000000,"state":"active","ping":79},{"user_id":467,"name":"Gengoron","steam_id":76561197994829919,"connected_time":1088000000000,"state":"active","ping":108},{"user_id":479,"name":"Pinetree w/ apples.","steam_id":76561198105411709,"connected_time":242000000000,"state":"active","ping":100},{"user_id":457,"name":"El Camino","steam_id":76561197992848313,"connected_time":2082000000000,"state":"active","ping":86},{"user_id":446,"name":"Goretron","steam_id":76561198001320198,"connected_time":2895000000000,"state":"active","ping":128},{"user_id":480,"name":"LASAD","steam_id":76561198035410427,"connected_time":159000000000,"state":"active","ping":87},{"user_id":447,"name":"crucifix","steam_id":76561198077902438,"connected_time":2734000000000,"state":"active","ping":75},{"user_id":463,"name":"autumn","steam_id":76561198036901822,"connected_time":1479000000000,"state":"active","ping":47},{"user_id":453,"name":"FoamyPirate.h","steam_id":76561197970312151,"connected_time":2177000000000,"state":"active","ping":76},{"user_id":437,"name":"Burning Monk","steam_id":76561198040700875,"connected_time":3253000000000,"state":"active","ping":51}]},{"server_id":108,"name":"Uncletopia | Dallas | 2 | All Maps","name_short":"dal-2","host":"dal-1.us.uncletopia.com","port":27025,"enabled":true,"region":"us-central","cc":"us","latitude":32.779167,"longitude":-96.80889,"reserved":0,"last_update":"0001-01-01T00:00:00Z","name_a2s":"Uncletopia | Dallas | 2 | All Maps","protocol":17,"map":"pl_badwater","folder":"tf","game":"Team Fortress","app_id":440,"player_count":24,"max_players":24,"Bots":0,"server_type":"Dedicated","server_os":"Linux","password":true,"vac":true,"version":"7742253","steam_id":85568392924469988,"keywords":["nocrits","nodmgspread","payload","uncletopia"],"game_id":440,"stv_port":27026,"stv_name":"Uncletopia | Dallas | 2 | All Maps | STV","players":[{"user_id":157,"name":"[UNFAIR] H1gh0nSt34m","steam_id":76561198839068126,"connected_time":861000000000,"state":"active","ping":51},{"user_id":139,"name":"Nae Nae no Whip","steam_id":76561198138365728,"connected_time":2245000000000,"state":"active","ping":45},{"user_id":121,"name":"‚ùÜ Spearmint ‚ùÜ","steam_id":76561198040974097,"connected_time":3879000000000,"state":"active","ping":52},{"user_id":162,"name":"Fishstall","steam_id":76561198038126034,"connected_time":170000000000,"state":"active","ping":58},{"user_id":147,"name":"33","steam_id":76561198894676484,"connected_time":1674000000000,"state":"active","ping":75},{"user_id":154,"name":"mineblast99","steam_id":76561199065648954,"connected_time":918000000000,"state":"active","ping":86},{"user_id":150,"name":"Schwagz","steam_id":76561198038330649,"connected_time":1208000000000,"state":"active","ping":63},{"user_id":136,"name":"Mani","steam_id":76561198139428711,"connected_time":2512000000000,"state":"active","ping":43},{"user_id":128,"name":"ccat","steam_id":76561198281773224,"connected_time":3471000000000,"state":"active","ping":83},{"user_id":138,"name":"auby","steam_id":76561198088024854,"connected_time":2308000000000,"state":"active","ping":59},{"user_id":148,"name":"potato pat","steam_id":76561198025489194,"connected_time":1527000000000,"state":"active","ping":53},{"user_id":145,"name":"Female Gamer","steam_id":76561199366482682,"connected_time":2040000000000,"state":"active","ping":105},{"user_id":158,"name":"TurtleThePugs","steam_id":76561198962814802,"connected_time":860000000000,"state":"active","ping":65},{"user_id":137,"name":"voyager","steam_id":76561198169747517,"connected_time":2457000000000,"state":"active","ping":90},{"user_id":144,"name":"Sari","steam_id":76561198189483978,"connected_time":2073000000000,"state":"active","ping":66},{"user_id":159,"name":"Starlie","steam_id":76561198102100102,"connected_time":441000000000,"state":"active","ping":146},{"user_id":93,"name":"big goku","steam_id":76561198206864612,"connected_time":5885000000000,"state":"active","ping":88},{"user_id":130,"name":"hoOmIN","steam_id":76561198334947079,"connected_time":3213000000000,"state":"active","ping":72},{"user_id":77,"name":"adapt","steam_id":76561198156181017,"connected_time":6922000000000,"state":"active","ping":88},{"user_id":132,"name":"Oshawott82","steam_id":76561198122783743,"connected_time":2722000000000,"state":"active","ping":69},{"user_id":160,"name":"spot (paradise edition)","steam_id":76561198151135298,"connected_time":190000000000,"state":"active","ping":61},{"user_id":131,"name":"a bucket of chicken","steam_id":76561198023710042,"connected_time":2770000000000,"state":"active","ping":56},{"user_id":135,"name":"Sdehv2","steam_id":76561198067719497,"connected_time":2568000000000,"state":"active","ping":42},{"user_id":161,"name":"plutonium isotope","steam_id":76561198319442494,"connected_time":190000000000,"state":"active","ping":85}]},{"server_id":5,"name":"Uncletopia | Frankfurt | 1 | All Maps","name_short":"frk-1","host":"frk-1.de.uncletopia.com","port":27015,"enabled":true,"region":"eu","cc":"de","latitude":50.110924,"longitude":8.682127,"reserved":0,"last_update":"0001-01-01T00:00:00Z","name_a2s":"Uncletopia | Frankfurt | 1 | All Maps","protocol":17,"map":"cp_snakewater_final1","folder":"tf","game":"Team Fortress","app_id":440,"player_count":0,"max_players":24,"Bots":0,"server_type":"Dedicated","server_os":"Linux","password":true,"vac":true,"version":"7742253","steam_id":85568392924469989,"keywords":["cp","nocrits","nodmgspread","uncletopia"],"game_id":440,"stv_port":27016,"stv_name":"Uncletopia | Frankfurt | 1 | All Maps | STV","players":null},{"server_id":110,"name":"Uncletopia | Frankfurt | 2 | All Maps","name_short":"frk-2","host":"frk-1.de.uncletopia.com","port":27025,"enabled":true,"region":"eu","cc":"de","latitude":50.110924,"longitude":8.682127,"reserved":0,"last_update":"0001-01-01T00:00:00Z","name_a2s":"Uncletopia | Frankfurt | 2 | All Maps","protocol":17,"map":"ctf_turbine","folder":"tf","game":"Team Fortress","app_id":440,"player_count":23,"max_players":24,"Bots":0,"server_type":"Dedicated","server_os":"Linux","password":true,"vac":true,"version":"7742253","steam_id":85568392924469990,"keywords":["ctf","nocrits","nodmgspread","uncletopia"],"game_id":440,"stv_port":27026,"stv_name":"Uncletopia | Frankfurt | 2 | All Maps | STV","players":[{"user_id":555,"name":"Creative","steam_id":76561198835034247,"connected_time":1698000000000,"state":"active","ping":83},{"user_id":577,"name":"Grey","steam_id":76561198073954578,"connected_time":741000000000,"state":"active","ping":84},{"user_id":584,"name":"Dr. Mario","steam_id":76561199125182282,"connected_time":158000000000,"state":"active","ping":51},{"user_id":578,"name":"Volcyy","steam_id":76561198063979124,"connected_time":729000000000,"state":"active","ping":31},{"user_id":587,"name":"historicalpoultry","steam_id":76561198148422688,"connected_time":76000000000,"state":"active","ping":41},{"user_id":586,"name":"Teddy K","steam_id":76561198361429984,"connected_time":118000000000,"state":"active","ping":75},{"user_id":541,"name":"chachiply","steam_id":76561198316355509,"connected_time":2456000000000,"state":"active","ping":75},{"user_id":580,"name":"kogned","steam_id":76561198089285145,"connected_time":539000000000,"state":"active","ping":95},{"user_id":498,"name":"gagalak","steam_id":76561198089979108,"connected_time":5406000000000,"state":"active","ping":90},{"user_id":588,"name":"QUASO","steam_id":76561198295305088,"connected_time":23000000000,"state":"active","ping":52},{"user_id":528,"name":"ÍßÅ‡ºíXenon‡ºíÍßÇ","steam_id":76561198120502313,"connected_time":3009000000000,"state":"active","ping":73},{"user_id":589,"name":"NayrMcDrd","steam_id":76561199013184576,"connected_time":21000000000,"state":"active","ping":78},{"user_id":564,"name":"SpeddyMeddy","steam_id":76561197999693825,"connected_time":1637000000000,"state":"active","ping":51},{"user_id":590,"name":"lodi","steam_id":76561198363762492,"connected_time":14000000000,"state":"spawning","ping":179},{"user_id":591,"name":"ivanmixo","steam_id":76561198160213989,"connected_time":13000000000,"state":"spawning","ping":925},{"user_id":571,"name":"Senator Armstrong","steam_id":76561198984346408,"connected_time":1252000000000,"state":"active","ping":74},{"user_id":576,"name":"Vollys","steam_id":76561198018077773,"connected_time":838000000000,"state":"active","ping":51},{"user_id":575,"name":"BluuAzuul","steam_id":76561198970182028,"connected_time":979000000000,"state":"active","ping":75},{"user_id":492,"name":"Drunk gaming","steam_id":76561198356521260,"connected_time":5789000000000,"state":"active","ping":80},{"user_id":540,"name":"DaveCallDrop","steam_id":76561198080394716,"connected_time":2546000000000,"state":"active","ping":72},{"user_id":519,"name":"Spaenny","steam_id":76561198035850165,"connected_time":3760000000000,"state":"active","ping":45},{"user_id":531,"name":"Jyghc","steam_id":76561198405980575,"connected_time":2937000000000,"state":"active","ping":74},{"user_id":566,"name":"Hleno","steam_id":76561198060442619,"connected_time":1605000000000,"state":"active","ping":51}]},{"server_id":308,"name":"Uncletopia | Frankfurt | 3 | All Maps","name_short":"frk-3","host":"frk-1.de.uncletopia.com","port":27035,"enabled":true,"region":"eu","cc":"de","latitude":50.110924,"longitude":8.682127,"reserved":0,"last_update":"0001-01-01T00:00:00Z","name_a2s":"Uncletopia | Frankfurt | 3 | All Maps","protocol":17,"map":"koth_cascade","folder":"tf","game":"Team Fortress","app_id":440,"player_count":1,"max_players":24,"Bots":0,"server_type":"Dedicated","server_os":"Linux","password":true,"vac":true,"version":"7742253","steam_id":85568392924504274,"keywords":["cp","nocrits","nodmgspread","uncletopia"],"game_id":440,"stv_port":27036,"stv_name":"Uncletopia | Frankfurt | 3 | All Maps | STV","players":[{"user_id":27,"name":"Padd","steam_id":76561198345331768,"connected_time":225000000000,"state":"active","ping":111}]},{"server_id":309,"name":"Uncletopia | Frankfurt | 4 | All Maps","name_short":"frk-4","host":"frk-1.de.uncletopia.com","port":27045,"enabled":true,"region":"eu","cc":"de","latitude":50.110924,"longitude":8.682127,"reserved":0,"last_update":"0001-01-01T00:00:00Z","name_a2s":"Uncletopia | Frankfurt | 4 | All Maps","protocol":17,"map":"pl_borneo","folder":"tf","game":"Team Fortress","app_id":440,"player_count":24,"max_players":24,"Bots":0,"server_type":"Dedicated","server_os":"Linux","password":true,"vac":true,"version":"7742253","steam_id":85568392924504275,"keywords":["nocrits","nodmgspread","payload","uncletopia"],"game_id":440,"stv_port":27046,"stv_name":"Uncletopia | Frankfurt | 4 | All Maps | STV","players":[{"user_id":444,"name":"Owl","steam_id":76561198248266580,"connected_time":3478000000000,"state":"active","ping":65},{"user_id":495,"name":"MisterDanny8","steam_id":76561198048847182,"connected_time":526000000000,"state":"active","ping":169},{"user_id":493,"name":"Anzu","steam_id":76561198043953503,"connected_time":596000000000,"state":"active","ping":60},{"user_id":479,"name":"very long and hard pomson","steam_id":76561199067986782,"connected_time":834000000000,"state":"active","ping":75},{"user_id":475,"name":"bad 2 za bona","steam_id":76561199065919134,"connected_time":844000000000,"state":"active","ping":56},{"user_id":455,"name":"Johnny","steam_id":76561198880265246,"connected_time":1971000000000,"state":"active","ping":77},{"user_id":463,"name":"DHD - Obismal","steam_id":76561198000356530,"connected_time":1557000000000,"state":"active","ping":71},{"user_id":500,"name":"Mor'du","steam_id":76561198274105878,"connected_time":173000000000,"state":"active","ping":78},{"user_id":499,"name":"joona","steam_id":76561198156305446,"connected_time":280000000000,"state":"active","ping":110},{"user_id":441,"name":"dddd","steam_id":76561198120894372,"connected_time":3721000000000,"state":"active","ping":107},{"user_id":497,"name":"Schnappi Krokodil","steam_id":76561199046892970,"connected_time":338000000000,"state":"active","ping":63},{"user_id":494,"name":"B1RD","steam_id":76561198161322527,"connected_time":530000000000,"state":"active","ping":46},{"user_id":416,"name":"Welder","steam_id":76561198355300561,"connected_time":5976000000000,"state":"active","ping":72},{"user_id":472,"name":"R8N - Obismal","steam_id":76561198007482714,"connected_time":858000000000,"state":"active","ping":74},{"user_id":464,"name":"mohemmedmokhter2005","steam_id":76561199197650506,"connected_time":1539000000000,"state":"active","ping":112},{"user_id":465,"name":"YeetusFeetus","steam_id":76561199043598948,"connected_time":1527000000000,"state":"active","ping":112},{"user_id":478,"name":"Arnold Schwarzenegger","steam_id":76561198871991529,"connected_time":836000000000,"state":"active","ping":65},{"user_id":498,"name":"Caruzon - Obismal","steam_id":76561198036211170,"connected_time":317000000000,"state":"active","ping":75},{"user_id":452,"name":"ulas.tufekci","steam_id":76561199127043539,"connected_time":2551000000000,"state":"active","ping":100},{"user_id":467,"name":"skeleton_archer_1","steam_id":76561198407636430,"connected_time":1409000000000,"state":"active","ping":94},{"user_id":436,"name":"Videogamer","steam_id":76561198106012909,"connected_time":4001000000000,"state":"active","ping":65},{"user_id":481,"name":"csnipery","steam_id":76561199435280050,"connected_time":799000000000,"state":"active","ping":59},{"user_id":457,"name":"doggoeatswindex21","steam_id":76561199065303184,"connected_time":1765000000000,"state":"active","ping":143},{"user_id":492,"name":"the candy dealer :)","steam_id":76561199223214344,"connected_time":620000000000,"state":"active","ping":83}]},{"server_id":310,"name":"Uncletopia | Frankfurt | 5 | All Maps","name_short":"frk-5","host":"frk-1.de.uncletopia.com","port":27055,"enabled":true,"region":"eu","cc":"de","latitude":50.110924,"longitude":8.682127,"reserved":0,"last_update":"0001-01-01T00:00:00Z","name_a2s":"Uncletopia | Frankfurt | 5 | All Maps","protocol":17,"map":"cp_steel","folder":"tf","game":"Team Fortress","app_id":440,"player_count":24,"max_players":24,"Bots":0,"server_type":"Dedicated","server_os":"Linux","password":true,"vac":true,"version":"7742253","steam_id":85568392924504277,"keywords":["cp","nocrits","nodmgspread","uncletopia"],"game_id":440,"stv_port":27056,"stv_name":"Uncletopia | Frankfurt | 5 | All Maps | STV","players":[{"user_id":683,"name":"Julez","steam_id":76561198045505082,"connected_time":1602000000000,"state":"active","ping":75},{"user_id":706,"name":"brickjoar","steam_id":76561198119492657,"connected_time":6000000000,"state":"spawning","ping":58},{"user_id":695,"name":"Liza–Ødl–ß","steam_id":76561198176750238,"connected_time":992000000000,"state":"active","ping":69},{"user_id":662,"name":"Harpenden, Harpenden, Harpenden","steam_id":76561198118138546,"connected_time":3146000000000,"state":"active","ping":56},{"user_id":698,"name":"KiT","steam_id":76561198043770371,"connected_time":881000000000,"state":"active","ping":75},{"user_id":686,"name":"freemantel30","steam_id":76561198065669800,"connected_time":1576000000000,"state":"active","ping":54},{"user_id":689,"name":"Deckard","steam_id":76561198004704647,"connected_time":1509000000000,"state":"active","ping":78},{"user_id":684,"name":"Lazulura","steam_id":76561198103569919,"connected_time":1590000000000,"state":"active","ping":89},{"user_id":699,"name":"BLOOD MELTER","steam_id":76561198817182860,"connected_time":857000000000,"state":"active","ping":73},{"user_id":676,"name":"Venstiko","steam_id":76561199130318818,"connected_time":2405000000000,"state":"active","ping":155},{"user_id":694,"name":"rwota","steam_id":76561198385769722,"connected_time":1137000000000,"state":"active","ping":93},{"user_id":700,"name":"MGA","steam_id":76561198006762849,"connected_time":817000000000,"state":"active","ping":52},{"user_id":704,"name":"Accident","steam_id":76561198115160396,"connected_time":293000000000,"state":"active","ping":56},{"user_id":691,"name":"nightlovely","steam_id":76561198145055526,"connected_time":1436000000000,"state":"active","ping":114},{"user_id":696,"name":"xcxxxcxcxcccxxx","steam_id":76561198250755698,"connected_time":978000000000,"state":"active","ping":95},{"user_id":623,"name":"FluiDCobRa‚Ñ¢","steam_id":76561198142461723,"connected_time":5402000000000,"state":"active","ping":95},{"user_id":678,"name":"Seppo Supermies","steam_id":76561199275012023,"connected_time":2146000000000,"state":"active","ping":114},{"user_id":628,"name":"Goblin (level-5)","steam_id":76561198058211873,"connected_time":5308000000000,"state":"active","ping":48},{"user_id":685,"name":"Efeca","steam_id":76561198018923829,"connected_time":1582000000000,"state":"active","ping":66},{"user_id":591,"name":"Carry Krypl","steam_id":76561198136938121,"connected_time":7723000000000,"state":"active","ping":50},{"user_id":680,"name":"simn","steam_id":76561198159182269,"connected_time":1994000000000,"state":"active","ping":53},{"user_id":661,"name":"Rezkey","steam_id":76561198206079048,"connected_time":3372000000000,"state":"active","ping":60},{"user_id":705,"name":"P.I.G","steam_id":76561198255623584,"connected_time":30000000000,"state":"active","ping":85},{"user_id":667,"name":"Dolphin2011","steam_id":76561197997323419,"connected_time":2882000000000,"state":"active","ping":90}]},{"server_id":311,"name":"Uncletopia | Frankfurt | 6 | All Maps","name_short":"frk-6","host":"frk-1.de.uncletopia.com","port":27065,"enabled":true,"region":"eu","cc":"de","latitude":50.110924,"longitude":8.682127,"reserved":0,"last_update":"0001-01-01T00:00:00Z","name_a2s":"Uncletopia | Frankfurt | 6 | All Maps","protocol":17,"map":"pl_frontier_final","folder":"tf","game":"Team Fortress","app_id":440,"player_count":24,"max_players":24,"Bots":0,"server_type":"Dedicated","server_os":"Linux","password":true,"vac":true,"version":"7742253","steam_id":85568392924504278,"keywords":["nocrits","nodmgspread","payload","uncletopia"],"game_id":440,"stv_port":27066,"stv_name":"Uncletopia | Frankfurt | 6 | All Maps | STV","players":[{"user_id":438,"name":"ZRD83[FR]","steam_id":76561198411341922,"connected_time":788000000000,"state":"active","ping":63},{"user_id":439,"name":"üå≠ Arentrir KING.LBJ.6","steam_id":76561198334126785,"connected_time":103000000000,"state":"active","ping":74},{"user_id":406,"name":"PokiMann","steam_id":76561198189055357,"connected_time":2822000000000,"state":"active","ping":65},{"user_id":407,"name":"im feeling deezy","steam_id":76561198088125671,"connected_time":2820000000000,"state":"active","ping":73},{"user_id":409,"name":"RikyBiky","steam_id":76561198261545177,"connected_time":2486000000000,"state":"active","ping":76},{"user_id":410,"name":"Log","steam_id":76561198439616085,"connected_time":2440000000000,"state":"active","ping":70},{"user_id":433,"name":"–î—è–¥—è –ì–µ–π–º–µ—Ä","steam_id":76561198053440057,"connected_time":1043000000000,"state":"active","ping":87},{"user_id":428,"name":"stAce","steam_id":76561198115041415,"connected_time":1220000000000,"state":"active","ping":60},{"user_id":434,"name":"Jondro","steam_id":76561198044168268,"connected_time":1042000000000,"state":"active","ping":95},{"user_id":430,"name":"Daddy Donovan","steam_id":76561198140938904,"connected_time":1074000000000,"state":"active","ping":82},{"user_id":435,"name":"T.A.G.","steam_id":76561198086638189,"connected_time":881000000000,"state":"active","ping":74},{"user_id":427,"name":"I was good before.","steam_id":76561198187045217,"connected_time":1222000000000,"state":"active","ping":69},{"user_id":436,"name":"Tusho","steam_id":76561198115447383,"connected_time":870000000000,"state":"active","ping":77},{"user_id":385,"name":"i heal gay people","steam_id":76561198032167311,"connected_time":4486000000000,"state":"active","ping":65},{"user_id":343,"name":"Penis Contortionist","steam_id":76561198073663784,"connected_time":7158000000000,"state":"active","ping":51},{"user_id":386,"name":"the stealer of signs and weapon","steam_id":76561199233664005,"connected_time":4455000000000,"state":"active","ping":82},{"user_id":426,"name":"Spinejuice","steam_id":76561197991832997,"connected_time":1613000000000,"state":"active","ping":61},{"user_id":350,"name":"bobek","steam_id":76561198092312720,"connected_time":6899000000000,"state":"active","ping":56},{"user_id":429,"name":"annoying garry","steam_id":76561198019078145,"connected_time":1098000000000,"state":"active","ping":76},{"user_id":437,"name":"Eeshie","steam_id":76561198054816169,"connected_time":821000000000,"state":"active","ping":77},{"user_id":419,"name":"Vinhal Keller","steam_id":76561198145589528,"connected_time":2184000000000,"state":"active","ping":52},{"user_id":402,"name":"fishska","steam_id":76561198051166015,"connected_time":3507000000000,"state":"active","ping":73},{"user_id":431,"name":"century","steam_id":76561198091656119,"connected_time":1070000000000,"state":"active","ping":58},{"user_id":352,"name":"–∏–≤–∞–Ω","steam_id":76561198072730591,"connected_time":6814000000000,"state":"active","ping":76}]},{"server_id":23,"name":"Uncletopia | Frankfurt | 7 | Stopwatch Beta","name_short":"frk-7","host":"frk-1.de.uncletopia.com","port":27075,"enabled":true,"region":"eu","cc":"de","latitude":50.110924,"longitude":8.682127,"reserved":0,"last_update":"0001-01-01T00:00:00Z","name_a2s":"Uncletopia | Frankfurt | 7 | Stopwatch Beta","protocol":17,"map":"workshop/pl_summercoast_rc8e.ugc1761528829","folder":"tf","game":"Team Fortress","app_id":440,"player_count":0,"max_players":24,"Bots":0,"server_type":"Dedicated","server_os":"Linux","password":true,"vac":true,"version":"7742253","steam_id":85568392924742827,"keywords":["nocrits","nodmgspread","payload","uncletopia"],"game_id":440,"stv_port":27076,"stv_name":"Uncletopia | Frankfurt | 7 | Stopwatch Beta | STV","players":null},{"server_id":24,"name":"Uncletopia | Frankfurt | 8 | Community","name_short":"frk-8","host":"frk-1.de.uncletopia.com","port":27085,"enabled":true,"region":"eu","cc":"de","latitude":50.110924,"longitude":8.682127,"reserved":0,"last_update":"0001-01-01T00:00:00Z","name_a2s":"Uncletopia | Frankfurt | 8 | Community","protocol":17,"map":"workshop/koth_synthetic_rc6a.ugc1549817316","folder":"tf","game":"Team Fortress","app_id":440,"player_count":0,"max_players":24,"Bots":0,"server_type":"Dedicated","server_os":"Linux","password":true,"vac":true,"version":"7742253","steam_id":85568392924742828,"keywords":["cp","nocrits","nodmgspread","uncletopia"],"game_id":440,"stv_port":27086,"stv_name":"Uncletopia | Frankfurt | 8 | Community | STV","players":null},{"server_id":202,"name":"Uncletopia | Hong Kong | 1 | All Maps","name_short":"hgk-1","host":"hgk-1.hk.uncletopia.com","port":27015,"enabled":true,"region":"asia","cc":"hk","latitude":22.302711,"longitude":114.177216,"reserved":0,"last_update":"0001-01-01T00:00:00Z","name_a2s":"Uncletopia | Hong Kong | 1 | All Maps","protocol":17,"map":"pl_badwater","folder":"tf","game":"Team Fortress","app_id":440,"player_count":0,"max_players":24,"Bots":0,"server_type":"Dedicated","server_os":"Linux","password":true,"vac":true,"version":"7742253","steam_id":85568392924494504,"keywords":["nocrits","nodmgspread","payload","uncletopia"],"game_id":440,"stv_port":27016,"stv_name":"Uncletopia | Hong Kong | 1 | All Maps | STV","players":null},{"server_id":1,"name":"Uncletopia | Los Angeles | 1 | All Maps","name_short":"lax-1","host":"lax-1.us.uncletopia.com","port":27015,"enabled":true,"region":"us-west","cc":"us","latitude":33.94279,"longitude":-118.41004,"reserved":0,"last_update":"0001-01-01T00:00:00Z","name_a2s":"Uncletopia | Los Angeles | 1 | All Maps","protocol":17,"map":"cp_mountainlab","folder":"tf","game":"Team Fortress","app_id":440,"player_count":0,"max_players":24,"Bots":0,"server_type":"Dedicated","server_os":"Linux","password":true,"vac":true,"version":"7742253","steam_id":85568392924469991,"keywords":["cp","nocrits","nodmgspread","uncletopia"],"game_id":440,"stv_port":27016,"stv_name":"Uncletopia | Los Angeles | 1 | All Maps | STV","players":null},{"server_id":112,"name":"Uncletopia | Los Angeles | 2 | All Maps","name_short":"lax-2","host":"lax-1.us.uncletopia.com","port":27025,"enabled":true,"region":"us-west","cc":"us","latitude":33.94279,"longitude":-118.41004,"reserved":0,"last_update":"0001-01-01T00:00:00Z","name_a2s":"Uncletopia | Los Angeles | 2 | All Maps","protocol":17,"map":"koth_lakeside_final","folder":"tf","game":"Team Fortress","app_id":440,"player_count":0,"max_players":24,"Bots":0,"server_type":"Dedicated","server_os":"Linux","password":true,"vac":true,"version":"7742253","steam_id":85568392924469992,"keywords":["cp","nocrits","nodmgspread","uncletopia"],"game_id":440,"stv_port":27026,"stv_name":"Uncletopia | Los Angeles | 2 | All Maps | STV","players":null},{"server_id":324,"name":"Uncletopia | Los Angeles | 3 | All Maps","name_short":"lax-3","host":"lax-1.us.uncletopia.com","port":27035,"enabled":true,"region":"us-west","cc":"us","latitude":33.94279,"longitude":-118.41004,"reserved":0,"last_update":"0001-01-01T00:00:00Z","name_a2s":"Uncletopia | Los Angeles | 3 | All Maps","protocol":17,"map":"pl_badwater","folder":"tf","game":"Team Fortress","app_id":440,"player_count":2,"max_players":24,"Bots":0,"server_type":"Dedicated","server_os":"Linux","password":true,"vac":true,"version":"7742253","steam_id":85568392924510198,"keywords":["nocrits","nodmgspread","payload","uncletopia"],"game_id":440,"stv_port":27036,"stv_name":"Uncletopia | Los Angeles | 3 | All Maps | STV","players":[{"user_id":9,"name":"Cat Pog","steam_id":76561198304243946,"connected_time":272000000000,"state":"active","ping":48},{"user_id":10,"name":"PandaWithHat2313","steam_id":76561199116285411,"connected_time":45000000000,"state":"active","ping":56}]},{"server_id":25,"name":"Uncletopia | Los Angeles | 4 | Stopwatch Beta","name_short":"lax-4","host":"lax-1.us.uncletopia.com","port":27045,"enabled":true,"region":"us-west","cc":"us","latitude":33.94279,"longitude":-118.41004,"reserved":0,"last_update":"0001-01-01T00:00:00Z","name_a2s":"Uncletopia | Los Angeles | 4 | Stopwatch Beta","protocol":17,"map":"cp_granary","folder":"tf","game":"Team Fortress","app_id":440,"player_count":0,"max_players":24,"Bots":0,"server_type":"Dedicated","server_os":"Linux","password":true,"vac":true,"version":"7742253","steam_id":85568392924510199,"keywords":["cp","nocrits","nodmgspread","uncletopia"],"game_id":440,"stv_port":27046,"stv_name":"Uncletopia | Los Angeles | 4 | Stopwatch Beta | STV","players":null},{"server_id":11,"name":"Uncletopia | London | 1 | All Maps","name_short":"lon-1","host":"lon-1.uk.uncletopia.com","port":27015,"enabled":true,"region":"eu","cc":"gb","latitude":51.509865,"longitude":-0.118092,"reserved":0,"last_update":"0001-01-01T00:00:00Z","name_a2s":"Uncletopia | London | 1 | All Maps","protocol":17,"map":"koth_lakeside_final","folder":"tf","game":"Team Fortress","app_id":440,"player_count":24,"max_players":24,"Bots":0,"server_type":"Dedicated","server_os":"Linux","password":true,"vac":true,"version":"7742253","steam_id":85568392924367362,"keywords":["cp","nocrits","nodmgspread","uncletopia"],"game_id":440,"stv_port":27016,"stv_name":"Uncletopia | London | 1 | All Maps | STV","players":[{"user_id":550,"name":"most sane mentalist","steam_id":76561198310095220,"connected_time":1504000000000,"state":"active","ping":30},{"user_id":555,"name":"Fred","steam_id":76561198107137362,"connected_time":935000000000,"state":"active","ping":47},{"user_id":529,"name":"sniffin out trouble","steam_id":76561198259668029,"connected_time":3962000000000,"state":"active","ping":47},{"user_id":542,"name":"DropShot","steam_id":76561198042476724,"connected_time":1717000000000,"state":"active","ping":93},{"user_id":534,"name":"Tasukeru","steam_id":76561198011909704,"connected_time":3907000000000,"state":"active","ping":48},{"user_id":543,"name":"MarioThePlumber","steam_id":76561198314229530,"connected_time":1715000000000,"state":"active","ping":80},{"user_id":565,"name":"C1nnamon_cookie","steam_id":76561199155374388,"connected_time":44000000000,"state":"active","ping":75},{"user_id":554,"name":"Grim the lemon('s brother)","steam_id":76561199083433988,"connected_time":974000000000,"state":"active","ping":49},{"user_id":498,"name":"nudjura","steam_id":76561198281986139,"connected_time":7298000000000,"state":"active","ping":46},{"user_id":524,"name":"SOPHIIEE","steam_id":76561198443798981,"connected_time":5381000000000,"state":"active","ping":51},{"user_id":518,"name":"Hermitcrack","steam_id":76561198149216441,"connected_time":5821000000000,"state":"active","ping":75},{"user_id":545,"name":"RaptorParkowsky","steam_id":76561198110823696,"connected_time":1697000000000,"state":"active","ping":88},{"user_id":562,"name":"Simbax","steam_id":76561198012920375,"connected_time":510000000000,"state":"active","ping":82},{"user_id":475,"name":"Emxx52","steam_id":76561198059374194,"connected_time":8964000000000,"state":"active","ping":78},{"user_id":566,"name":"Joe Many Liberals","steam_id":76561198334042273,"connected_time":42000000000,"state":"active","ping":81},{"user_id":564,"name":"Fat Pigeon","steam_id":76561198817940142,"connected_time":93000000000,"state":"active","ping":45},{"user_id":537,"name":"chrissy","steam_id":76561198096547662,"connected_time":3828000000000,"state":"active","ping":54},{"user_id":504,"name":"teddy","steam_id":76561198007436837,"connected_time":7167000000000,"state":"active","ping":43},{"user_id":548,"name":"–æ–Ω–∞ —Å–∫–æ—Ä–æ –∑–∞–±—É–¥–µ\ufffd","steam_id":76561199042470246,"connected_time":1640000000000,"state":"active","ping":64},{"user_id":553,"name":"ShawnDawn2","steam_id":76561198165013522,"connected_time":1015000000000,"state":"active","ping":32},{"user_id":531,"name":"trite","steam_id":76561197983765323,"connected_time":3936000000000,"state":"active","ping":48},{"user_id":539,"name":"Nexosert","steam_id":76561198941142018,"connected_time":2991000000000,"state":"active","ping":64},{"user_id":557,"name":"ciliorkun18","steam_id":76561198228942500,"connected_time":909000000000,"state":"active","ping":94},{"user_id":560,"name":"‚ô•‡∂ûlily‡∂û‚ô•","steam_id":76561198049840460,"connected_time":683000000000,"state":"active","ping":54}]},{"server_id":114,"name":"Uncletopia | London | 2 | All Maps","name_short":"lon-2","host":"lon-1.uk.uncletopia.com","port":27025,"enabled":true,"region":"eu","cc":"gb","latitude":51.509865,"longitude":-0.118092,"reserved":0,"last_update":"0001-01-01T00:00:00Z","name_a2s":"Uncletopia | London | 2 | All Maps","protocol":17,"map":"cp_altitude","folder":"tf","game":"Team Fortress","app_id":440,"player_count":24,"max_players":24,"Bots":0,"server_type":"Dedicated","server_os":"Linux","password":true,"vac":true,"version":"7742253","steam_id":85568392924470941,"keywords":["cp","nocrits","nodmgspread","uncletopia"],"game_id":440,"stv_port":27026,"stv_name":"Uncletopia | London | 2 | All Maps | STV","players":[{"user_id":794,"name":"Miganu9603","steam_id":76561198313438245,"connected_time":1516000000000,"state":"active","ping":185},{"user_id":801,"name":"Teknology","steam_id":76561198310161744,"connected_time":561000000000,"state":"active","ping":66},{"user_id":789,"name":"Yony","steam_id":76561199070569941,"connected_time":1775000000000,"state":"active","ping":60},{"user_id":798,"name":"Exe_Red","steam_id":76561198154952759,"connected_time":767000000000,"state":"active","ping":90},{"user_id":809,"name":"Catsanddogs123","steam_id":76561198030868386,"connected_time":326000000000,"state":"active","ping":119},{"user_id":766,"name":"Paul Moment","steam_id":76561197977122134,"connected_time":3171000000000,"state":"active","ping":63},{"user_id":775,"name":"Cabbch","steam_id":76561198045955679,"connected_time":2377000000000,"state":"active","ping":45},{"user_id":786,"name":"Rarky","steam_id":76561198054398642,"connected_time":2013000000000,"state":"active","ping":60},{"user_id":792,"name":"sumweeb","steam_id":76561198311624395,"connected_time":1598000000000,"state":"active","ping":37},{"user_id":765,"name":"Yangus","steam_id":76561198147796010,"connected_time":3221000000000,"state":"active","ping":55},{"user_id":758,"name":"makarov","steam_id":76561198363892870,"connected_time":3711000000000,"state":"active","ping":76},{"user_id":764,"name":"MomoInTheBox","steam_id":76561197994150695,"connected_time":3338000000000,"state":"active","ping":80},{"user_id":806,"name":"alma","steam_id":76561198857712172,"connected_time":486000000000,"state":"active","ping":60},{"user_id":763,"name":"Vershal Smershal","steam_id":76561198116223995,"connected_time":3391000000000,"state":"active","ping":58},{"user_id":699,"name":"Noodle","steam_id":76561197997208006,"connected_time":7271000000000,"state":"active","ping":66},{"user_id":751,"name":"fingernail diet","steam_id":76561198088201976,"connected_time":4119000000000,"state":"active","ping":38},{"user_id":796,"name":"Zhong Xina","steam_id":76561198228064312,"connected_time":1178000000000,"state":"active","ping":75},{"user_id":804,"name":"Mannequin","steam_id":76561198128833974,"connected_time":547000000000,"state":"active","ping":53},{"user_id":807,"name":"SausageRoll","steam_id":76561197994072622,"connected_time":477000000000,"state":"active","ping":48},{"user_id":733,"name":"paradise punch lemonade","steam_id":76561198058012525,"connected_time":5947000000000,"state":"active","ping":88},{"user_id":797,"name":"Imnotreal_fake","steam_id":76561199190401938,"connected_time":1026000000000,"state":"active","ping":81},{"user_id":795,"name":"Bajas","steam_id":76561198179339326,"connected_time":1198000000000,"state":"active","ping":90},{"user_id":784,"name":"agent youppii","steam_id":76561198055264447,"connected_time":2116000000000,"state":"active","ping":54},{"user_id":805,"name":"Withered Individual","steam_id":76561199348845694,"connected_time":547000000000,"state":"active","ping":60}]},{"server_id":320,"name":"Uncletopia | London | 3 | All Maps","name_short":"lon-3","host":"lon-1.uk.uncletopia.com","port":27035,"enabled":true,"region":"eu","cc":"gb","latitude":51.509865,"longitude":-0.118092,"reserved":0,"last_update":"0001-01-01T00:00:00Z","name_a2s":"Uncletopia | London | 3 | All Maps","protocol":17,"map":"pl_barnblitz","folder":"tf","game":"Team Fortress","app_id":440,"player_count":24,"max_players":24,"Bots":0,"server_type":"Dedicated","server_os":"Linux","password":true,"vac":true,"version":"7742253","steam_id":85568392924510192,"keywords":["nocrits","nodmgspread","payload","uncletopia"],"game_id":440,"stv_port":27036,"stv_name":"Uncletopia | London | 3 | All Maps | STV","players":[{"user_id":542,"name":"Windle","steam_id":76561198040978490,"connected_time":555000000000,"state":"active","ping":52},{"user_id":544,"name":"LOLNUT","steam_id":76561198045713218,"connected_time":439000000000,"state":"active","ping":72},{"user_id":519,"name":"deez nuts","steam_id":76561198170609049,"connected_time":2504000000000,"state":"active","ping":97},{"user_id":516,"name":"jun","steam_id":76561198055283295,"connected_time":2959000000000,"state":"active","ping":59},{"user_id":530,"name":"Nex","steam_id":76561199223747483,"connected_time":1760000000000,"state":"active","ping":55},{"user_id":551,"name":"hawkblob","steam_id":76561198803720565,"connected_time":112000000000,"state":"active","ping":61},{"user_id":485,"name":"anna","steam_id":76561197994492154,"connected_time":5059000000000,"state":"active","ping":84},{"user_id":546,"name":"B4R10N","steam_id":76561198047167954,"connected_time":345000000000,"state":"active","ping":35},{"user_id":439,"name":"rat performance","steam_id":76561198065854668,"connected_time":7847000000000,"state":"active","ping":44},{"user_id":550,"name":"New Years Paper","steam_id":76561199037749675,"connected_time":117000000000,"state":"active","ping":26},{"user_id":549,"name":"FLYING DWARF","steam_id":76561199048614286,"connected_time":129000000000,"state":"active","ping":194},{"user_id":505,"name":"Jofiah/TTV","steam_id":76561197977233962,"connected_time":3698000000000,"state":"active","ping":40},{"user_id":554,"name":"Dr Ludwig","steam_id":76561198426522902,"connected_time":82000000000,"state":"active","ping":53},{"user_id":348,"name":"Lyra","steam_id":76561198043601838,"connected_time":15198000000000,"state":"active","ping":66},{"user_id":555,"name":"Homicidal Tendencies","steam_id":76561198828681043,"connected_time":74000000000,"state":"active","ping":43},{"user_id":553,"name":"PWizard","steam_id":76561198026458489,"connected_time":103000000000,"state":"active","ping":72},{"user_id":347,"name":"my m*rge","steam_id":76561198106049954,"connected_time":15294000000000,"state":"active","ping":72},{"user_id":506,"name":"jingleboob","steam_id":76561198097507847,"connected_time":3680000000000,"state":"active","ping":78},{"user_id":481,"name":"Merc","steam_id":76561198044864067,"connected_time":5111000000000,"state":"active","ping":73},{"user_id":539,"name":"b9njmn","steam_id":76561198068481592,"connected_time":750000000000,"state":"active","ping":83},{"user_id":508,"name":"Jingleboob's Elf","steam_id":76561198067204908,"connected_time":3666000000000,"state":"active","ping":60},{"user_id":523,"name":"Mr. Soapy Bubbles","steam_id":76561198347336086,"connected_time":2027000000000,"state":"active","ping":46},{"user_id":556,"name":"Decadence","steam_id":76561198206829379,"connected_time":56000000000,"state":"active","ping":81},{"user_id":541,"name":"---","steam_id":76561198027463207,"connected_time":593000000000,"state":"active","ping":51}]},{"server_id":321,"name":"Uncletopia | London | 4 | All Maps","name_short":"lon-4","host":"lon-1.uk.uncletopia.com","port":27045,"enabled":true,"region":"eu","cc":"gb","latitude":51.509865,"longitude":-0.118092,"reserved":0,"last_update":"0001-01-01T00:00:00Z","name_a2s":"Uncletopia | London | 4 | All Maps","protocol":17,"map":"koth_highpass","folder":"tf","game":"Team Fortress","app_id":440,"player_count":0,"max_players":24,"Bots":0,"server_type":"Dedicated","server_os":"Linux","password":true,"vac":true,"version":"7742253","steam_id":85568392924510193,"keywords":["cp","nocrits","nodmgspread","uncletopia"],"game_id":440,"stv_port":27046,"stv_name":"Uncletopia | London | 4 | All Maps | STV","players":null},{"server_id":21,"name":"Uncletopia | London | 5 | All Maps","name_short":"lon-5","host":"lon-1.uk.uncletopia.com","port":27055,"enabled":true,"region":"eu","cc":"gb","latitude":51.509865,"longitude":-0.118092,"reserved":0,"last_update":"0001-01-01T00:00:00Z","name_a2s":"Uncletopia | London | 5 | All Maps","protocol":17,"map":"pl_pier","folder":"tf","game":"Team Fortress","app_id":440,"player_count":24,"max_players":24,"Bots":0,"server_type":"Dedicated","server_os":"Linux","password":true,"vac":true,"version":"7742253","steam_id":85568392924742829,"keywords":["nocrits","nodmgspread","payload","uncletopia"],"game_id":440,"stv_port":27056,"stv_name":"Uncletopia | London | 5 | All Maps | STV","players":[{"user_id":441,"name":"wd-39","steam_id":76561198023211417,"connected_time":48000000000,"state":"active","ping":47},{"user_id":388,"name":"–î–µ–Ω–∏—Å –ë–∞–∑—É–∫–∞","steam_id":76561198835849082,"connected_time":2863000000000,"state":"active","ping":88},{"user_id":425,"name":"900lbs of spanish mackerel","steam_id":76561198188642265,"connected_time":1029000000000,"state":"active","ping":46},{"user_id":434,"name":"Pinroe","steam_id":76561198968160899,"connected_time":217000000000,"state":"active","ping":62},{"user_id":365,"name":"Albert Einstein","steam_id":76561198351190006,"connected_time":4211000000000,"state":"active","ping":98},{"user_id":426,"name":"Kroto","steam_id":76561198056233760,"connected_time":1018000000000,"state":"active","ping":60},{"user_id":440,"name":"EchoRunner","steam_id":76561198076649110,"connected_time":79000000000,"state":"active","ping":77},{"user_id":407,"name":"gamer man","steam_id":76561198436817109,"connected_time":1954000000000,"state":"active","ping":57},{"user_id":373,"name":"[PW]aloxuhik","steam_id":76561197997042174,"connected_time":3361000000000,"state":"active","ping":66},{"user_id":374,"name":"Jackob","steam_id":76561198060457850,"connected_time":3355000000000,"state":"active","ping":83},{"user_id":437,"name":"·óúÀ∞·óú","steam_id":76561198148074472,"connected_time":177000000000,"state":"active","ping":54},{"user_id":435,"name":"Spyke","steam_id":76561198042419361,"connected_time":200000000000,"state":"active","ping":62},{"user_id":436,"name":"FishNachoz","steam_id":76561198026519426,"connected_time":183000000000,"state":"active","ping":46},{"user_id":432,"name":"foo","steam_id":76561198042000263,"connected_time":251000000000,"state":"active","ping":67},{"user_id":391,"name":"Hkitchen","steam_id":76561198194779526,"connected_time":2660000000000,"state":"active","ping":43},{"user_id":385,"name":"Borat","steam_id":76561198122226417,"connected_time":3134000000000,"state":"active","ping":37},{"user_id":438,"name":"Derf Stein","steam_id":76561198084088151,"connected_time":172000000000,"state":"active","ping":84},{"user_id":439,"name":"raz","steam_id":76561198147277460,"connected_time":170000000000,"state":"active","ping":62},{"user_id":409,"name":"Yaire","steam_id":76561198017343510,"connected_time":1884000000000,"state":"active","ping":50},{"user_id":423,"name":"all snipers are edgy cowards","steam_id":76561198060200599,"connected_time":1205000000000,"state":"active","ping":107},{"user_id":430,"name":"Medieval Doktor","steam_id":76561198075373362,"connected_time":323000000000,"state":"active","ping":37},{"user_id":428,"name":"wolfgang","steam_id":76561199111818670,"connected_time":800000000000,"state":"active","ping":97},{"user_id":406,"name":"Acecle","steam_id":76561198050068303,"connected_time":2159000000000,"state":"active","ping":43},{"user_id":401,"name":"telecaster cowboy","steam_id":76561198030155915,"connected_time":2304000000000,"state":"active","ping":56}]},{"server_id":22,"name":"Uncletopia | London | 6 | All Maps","name_short":"lon-6","host":"lon-1.uk.uncletopia.com","port":27065,"enabled":true,"region":"eu","cc":"gb","latitude":51.509865,"longitude":-0.118092,"reserved":0,"last_update":"0001-01-01T00:00:00Z","name_a2s":"Uncletopia | London | 6 | All Maps","protocol":17,"map":"koth_highpass","folder":"tf","game":"Team Fortress","app_id":440,"player_count":0,"max_players":24,"Bots":0,"server_type":"Dedicated","server_os":"Linux","password":true,"vac":true,"version":"7742253","steam_id":85568392924742830,"keywords":["cp","nocrits","nodmgspread","uncletopia"],"game_id":440,"stv_port":27066,"stv_name":"Uncletopia | London | 6 | All Maps | STV","players":null},{"server_id":40,"name":"Uncletopia | London | 7 | No Payload","name_short":"lon-7","host":"lon-1.uk.uncletopia.com","port":27075,"enabled":true,"region":"eu","cc":"gb","latitude":51.509865,"longitude":-0.118092,"reserved":0,"last_update":"0001-01-01T00:00:00Z","name_a2s":"Uncletopia | London | 7 | No Payload","protocol":17,"map":"koth_viaduct","folder":"tf","game":"Team Fortress","app_id":440,"player_count":0,"max_players":24,"Bots":0,"server_type":"Dedicated","server_os":"Linux","password":true,"vac":true,"version":"7742253","steam_id":85568392924964314,"keywords":["cp","nocrits","nodmgspread","uncletopia"],"game_id":440,"stv_port":27076,"stv_name":"Uncletopia | London | 7 | No Payload | STV","players":null},{"server_id":41,"name":"Uncletopia | London | 8 | Community","name_short":"lon-8","host":"lon-1.uk.uncletopia.com","port":27085,"enabled":true,"region":"eu","cc":"gb","latitude":51.509865,"longitude":-0.118092,"reserved":0,"last_update":"0001-01-01T00:00:00Z","name_a2s":"Uncletopia | London | 8 | Community","protocol":17,"map":"workshop/koth_ashville_final.ugc2130459942","folder":"tf","game":"Team Fortress","app_id":440,"player_count":0,"max_players":24,"Bots":0,"server_type":"Dedicated","server_os":"Linux","password":true,"vac":true,"version":"7742253","steam_id":85568392924964315,"keywords":["cp","nocrits","nodmgspread","uncletopia"],"game_id":440,"stv_port":27086,"stv_name":"Uncletopia | London | 8 | Community | STV","players":null},{"server_id":300,"name":"Uncletopia | Montr√©al | 1 | All Maps","name_short":"mtl-1","host":"mtl-1.ca.uncletopia.com","port":27015,"enabled":true,"region":"us-east","cc":"ca","latitude":45.50889,"longitude":-73.56167,"reserved":0,"last_update":"0001-01-01T00:00:00Z","name_a2s":"Uncletopia | Montr√©al | 1 | All Maps","protocol":17,"map":"pl_swiftwater_final1","folder":"tf","game":"Team Fortress","app_id":440,"player_count":3,"max_players":24,"Bots":0,"server_type":"Dedicated","server_os":"Linux","password":true,"vac":true,"version":"7742253","steam_id":85568392924500087,"keywords":["nocrits","nodmgspread","payload","uncletopia"],"game_id":440,"stv_port":27016,"stv_name":"Uncletopia | Montr√©al | 1 | All Maps | STV","players":[{"user_id":7,"name":"\u003cInsertGenericNameHere\u003e","steam_id":76561198388244476,"connected_time":819000000000,"state":"active","ping":84},{"user_id":8,"name":"dantheman14cool","steam_id":76561199035815342,"connected_time":788000000000,"state":"active","ping":86},{"user_id":9,"name":"DJRoyce","steam_id":76561198803111831,"connected_time":734000000000,"state":"active","ping":65}]},{"server_id":301,"name":"Uncletopia | Montr√©al | 2 | All Maps","name_short":"mtl-2","host":"mtl-1.ca.uncletopia.com","port":27025,"enabled":true,"region":"us-east","cc":"ca","latitude":45.50889,"longitude":-73.56167,"reserved":0,"last_update":"0001-01-01T00:00:00Z","name_a2s":"Uncletopia | Montr√©al | 2 | All Maps","protocol":17,"map":"koth_highpass","folder":"tf","game":"Team Fortress","app_id":440,"player_count":0,"max_players":24,"Bots":0,"server_type":"Dedicated","server_os":"Linux","password":true,"vac":true,"version":"7742253","steam_id":85568392924500088,"keywords":["cp","nocrits","nodmgspread","uncletopia"],"game_id":440,"stv_port":27026,"stv_name":"Uncletopia | Montr√©al | 2 | All Maps | STV","players":null},{"server_id":302,"name":"Uncletopia | Montr√©al | 3 | All Maps","name_short":"mtl-3","host":"mtl-1.ca.uncletopia.com","port":27035,"enabled":true,"region":"us-east","cc":"ca","latitude":45.50889,"longitude":-73.56167,"reserved":0,"last_update":"0001-01-01T00:00:00Z","name_a2s":"Uncletopia | Montr√©al | 3 | All Maps","protocol":17,"map":"cp_snakewater_final1","folder":"tf","game":"Team Fortress","app_id":440,"player_count":0,"max_players":24,"Bots":0,"server_type":"Dedicated","server_os":"Linux","password":true,"vac":true,"version":"7742253","steam_id":85568392924500089,"keywords":["cp","nocrits","nodmgspread","uncletopia"],"game_id":440,"stv_port":27036,"stv_name":"Uncletopia | Montr√©al | 3 | All Maps | STV","players":null},{"server_id":303,"name":"Uncletopia | Montr√©al | 4 | No Payload","name_short":"mtl-4","host":"mtl-1.ca.uncletopia.com","port":27045,"enabled":true,"region":"us-east","cc":"ca","latitude":45.50889,"longitude":-73.56167,"reserved":0,"last_update":"0001-01-01T00:00:00Z","name_a2s":"Uncletopia | Montr√©al | 4 | No Payload","protocol":17,"map":"cp_process_final","folder":"tf","game":"Team Fortress","app_id":440,"player_count":0,"max_players":24,"Bots":0,"server_type":"Dedicated","server_os":"Linux","password":true,"vac":true,"version":"7742253","steam_id":85568392924500090,"keywords":["cp","nocrits","nodmgspread","uncletopia"],"game_id":440,"stv_port":27046,"stv_name":"Uncletopia | Montr√©al | 4 | No Payload | STV","players":null},{"server_id":13,"name":"Uncletopia | New York City | 1 | All Maps","name_short":"nyc-1","host":"nyc-1.us.uncletopia.com","port":27015,"enabled":true,"region":"us-east","cc":"us","latitude":40.73061,"longitude":-73.93524,"reserved":0,"last_update":"0001-01-01T00:00:00Z","name_a2s":"Uncletopia | New York City | 1 | All Maps","protocol":17,"map":"pl_badwater","folder":"tf","game":"Team Fortress","app_id":440,"player_count":24,"max_players":24,"Bots":0,"server_type":"Dedicated","server_os":"Linux","password":true,"vac":true,"version":"7742253","steam_id":85568392924469993,"keywords":["nocrits","nodmgspread","payload","uncletopia"],"game_id":440,"stv_port":27016,"stv_name":"Uncletopia | New York City | 1 | All Maps | STV","players":[{"user_id":235,"name":"Griffin.","steam_id":76561197994750414,"connected_time":277000000000,"state":"active","ping":119},{"user_id":153,"name":"Fat Man","steam_id":76561198118957055,"connected_time":6439000000000,"state":"active","ping":41},{"user_id":221,"name":"John Eldenring","steam_id":76561198082038794,"connected_time":1092000000000,"state":"active","ping":74},{"user_id":214,"name":"lwyr","steam_id":76561198007982579,"connected_time":1609000000000,"state":"active","ping":45},{"user_id":216,"name":"Chase from Paw Patrol‚Ñ¢","steam_id":76561198145283389,"connected_time":1331000000000,"state":"active","ping":50},{"user_id":236,"name":"keeran","steam_id":76561198204333617,"connected_time":255000000000,"state":"active","ping":51},{"user_id":224,"name":"srv","steam_id":76561198026589960,"connected_time":884000000000,"state":"active","ping":74},{"user_id":231,"name":"Heartgold","steam_id":76561199062592062,"connected_time":471000000000,"state":"active","ping":76},{"user_id":237,"name":"KatyAnna","steam_id":76561197992684543,"connected_time":144000000000,"state":"active","ping":51},{"user_id":238,"name":"PzVIIIMaus","steam_id":76561198346559365,"connected_time":131000000000,"state":"active","ping":62},{"user_id":232,"name":"Buff Banner activist","steam_id":76561199215017657,"connected_time":398000000000,"state":"active","ping":94},{"user_id":226,"name":"-‚ë®- Moon Rabbit","steam_id":76561197995815558,"connected_time":864000000000,"state":"active","ping":70},{"user_id":233,"name":"The Hoagie Hero","steam_id":76561198057569298,"connected_time":351000000000,"state":"active","ping":66},{"user_id":163,"name":"Shiba","steam_id":76561198076604234,"connected_time":5903000000000,"state":"active","ping":60},{"user_id":171,"name":"Nebula","steam_id":76561199035756710,"connected_time":4899000000000,"state":"active","ping":80},{"user_id":177,"name":"Nerdygamer1","steam_id":76561198032130615,"connected_time":4565000000000,"state":"active","ping":45},{"user_id":239,"name":"Merconium","steam_id":76561197960551851,"connected_time":62000000000,"state":"active","ping":45},{"user_id":234,"name":"Huntskiiii","steam_id":76561198138723795,"connected_time":337000000000,"state":"active","ping":47},{"user_id":199,"name":"Apple...","steam_id":76561198072746515,"connected_time":2694000000000,"state":"active","ping":55},{"user_id":209,"name":"Karma","steam_id":76561198030565234,"connected_time":2017000000000,"state":"active","ping":39},{"user_id":192,"name":"Nihplod_","steam_id":76561199010320094,"connected_time":3793000000000,"state":"active","ping":51},{"user_id":219,"name":"Calyope","steam_id":76561198399154394,"connected_time":1153000000000,"state":"active","ping":160},{"user_id":240,"name":"Cash MoneyBlue","steam_id":76561198934825927,"connected_time":55000000000,"state":"active","ping":78},{"user_id":203,"name":"scemo","steam_id":76561198057536994,"connected_time":2337000000000,"state":"active","ping":64}]},{"server_id":14,"name":"Uncletopia | New York City | 2 | All Maps","name_short":"nyc-2","host":"nyc-1.us.uncletopia.com","port":27025,"enabled":true,"region":"us-east","cc":"us","latitude":40.73061,"longitude":-73.93524,"reserved":0,"last_update":"0001-01-01T00:00:00Z","name_a2s":"Uncletopia | New York City | 2 | All Maps","protocol":17,"map":"pl_pier","folder":"tf","game":"Team Fortress","app_id":440,"player_count":24,"max_players":24,"Bots":0,"server_type":"Dedicated","server_os":"Linux","password":true,"vac":true,"version":"7742253","steam_id":85568392924469994,"keywords":["nocrits","nodmgspread","payload","uncletopia"],"game_id":440,"stv_port":27026,"stv_name":"Uncletopia | New York City | 2 | All Maps | STV","players":[{"user_id":98,"name":"-InternalDeath-","steam_id":76561198866009351,"connected_time":243000000000,"state":"active","ping":53},{"user_id":104,"name":"TATARA","steam_id":76561199098759517,"connected_time":154000000000,"state":"active","ping":131},{"user_id":107,"name":"joegoob","steam_id":76561198208906529,"connected_time":37000000000,"state":"active","ping":55},{"user_id":100,"name":"nhorning1","steam_id":76561198159417118,"connected_time":230000000000,"state":"active","ping":79},{"user_id":99,"name":"brn","steam_id":76561198118211523,"connected_time":243000000000,"state":"active","ping":44},{"user_id":95,"name":"Dracoza_","steam_id":76561199177611911,"connected_time":492000000000,"state":"active","ping":59},{"user_id":101,"name":"Militant Pacifist","steam_id":76561198290691432,"connected_time":223000000000,"state":"active","ping":121},{"user_id":64,"name":"LukeBeMe","steam_id":76561198872468968,"connected_time":2142000000000,"state":"active","ping":84},{"user_id":39,"name":"Wattchit","steam_id":76561197999410233,"connected_time":2896000000000,"state":"active","ping":78},{"user_id":88,"name":"futmaus","steam_id":76561199063130278,"connected_time":920000000000,"state":"active","ping":112},{"user_id":41,"name":"Samuel Adams Miller Lite","steam_id":76561198112188509,"connected_time":2852000000000,"state":"active","ping":68},{"user_id":94,"name":"Goon Event #3349 (5hrs 22mins)","steam_id":76561198062410522,"connected_time":632000000000,"state":"active","ping":37},{"user_id":43,"name":"CBTgaeming","steam_id":76561199089290128,"connected_time":2817000000000,"state":"active","ping":135},{"user_id":44,"name":"Mist3rSucc","steam_id":76561198124059020,"connected_time":2817000000000,"state":"active","ping":98},{"user_id":74,"name":"snail","steam_id":76561198312155722,"connected_time":1681000000000,"state":"active","ping":151},{"user_id":96,"name":"ImFr0sty","steam_id":76561199441249487,"connected_time":347000000000,"state":"active","ping":76},{"user_id":92,"name":"Heterosexual Heavy","steam_id":76561198053832401,"connected_time":764000000000,"state":"active","ping":126},{"user_id":84,"name":"Kevin the Minion","steam_id":76561198052380794,"connected_time":1473000000000,"state":"active","ping":69},{"user_id":85,"name":"Brahan","steam_id":76561198024629210,"connected_time":1232000000000,"state":"active","ping":109},{"user_id":102,"name":"cremeoner","steam_id":76561198372332251,"connected_time":211000000000,"state":"active","ping":37},{"user_id":91,"name":"butter churner","steam_id":76561198161824724,"connected_time":872000000000,"state":"active","ping":65},{"user_id":103,"name":"cr0wbar","steam_id":76561198303433746,"connected_time":202000000000,"state":"active","ping":130},{"user_id":106,"name":"Stimm","steam_id":76561198119033986,"connected_time":65000000000,"state":"active","ping":46},{"user_id":81,"name":"Sugapuff123","steam_id":76561198275380349,"connected_time":1640000000000,"state":"active","ping":81}]},{"server_id":15,"name":"Uncletopia | New York City | 3 | Stopwatch Beta","name_short":"nyc-3","host":"nyc-1.us.uncletopia.com","port":27035,"enabled":true,"region":"us-east","cc":"us","latitude":40.73061,"longitude":-73.93524,"reserved":0,"last_update":"0001-01-01T00:00:00Z","name_a2s":"Uncletopia | New York City | 3 | Stopwatch Beta","protocol":17,"map":"pl_pier","folder":"tf","game":"Team Fortress","app_id":440,"player_count":0,"max_players":24,"Bots":0,"server_type":"Dedicated","server_os":"Linux","password":true,"vac":true,"version":"7742253","steam_id":85568392924742820,"keywords":["nocrits","nodmgspread","payload","uncletopia"],"game_id":440,"stv_port":27036,"stv_name":"Uncletopia | New York City | 3 | Stopwatch Beta | STV","players":null},{"server_id":16,"name":"Uncletopia | New York City | 4 | Community","name_short":"nyc-4","host":"nyc-1.us.uncletopia.com","port":27045,"enabled":true,"region":"us-east","cc":"us","latitude":40.73061,"longitude":-73.93524,"reserved":0,"last_update":"0001-01-01T00:00:00Z","name_a2s":"Uncletopia | New York City | 4 | Community","protocol":17,"map":"workshop/pl_eruption_b9a.ugc2807898013","folder":"tf","game":"Team Fortress","app_id":440,"player_count":12,"max_players":24,"Bots":0,"server_type":"Dedicated","server_os":"Linux","password":true,"vac":true,"version":"7742253","steam_id":85568392924742821,"keywords":["nocrits","nodmgspread","payload","uncletopia"],"game_id":440,"stv_port":27046,"stv_name":"Uncletopia | New York City | 4 | Community | STV","players":[{"user_id":45,"name":"Nightfall","steam_id":76561198169718867,"connected_time":775000000000,"state":"active","ping":111},{"user_id":40,"name":"Siliker","steam_id":76561198190117023,"connected_time":1226000000000,"state":"active","ping":80},{"user_id":22,"name":"ProbablyCyan (tf2 nerd)","steam_id":76561198430871842,"connected_time":2138000000000,"state":"active","ping":53},{"user_id":46,"name":"Nasu","steam_id":76561198168735322,"connected_time":699000000000,"state":"active","ping":45},{"user_id":47,"name":"Wife Enjoyer","steam_id":76561198044109761,"connected_time":559000000000,"state":"active","ping":83},{"user_id":48,"name":"SpectyYT","steam_id":76561198301264312,"connected_time":254000000000,"state":"active","ping":77},{"user_id":49,"name":"ShyGuy","steam_id":76561198844156660,"connected_time":235000000000,"state":"active","ping":57},{"user_id":32,"name":"engineer is engi here","steam_id":76561198307309264,"connected_time":1709000000000,"state":"active","ping":42},{"user_id":50,"name":"Puro","steam_id":76561199011382049,"connected_time":233000000000,"state":"active","ping":94},{"user_id":44,"name":"Havok","steam_id":76561198063455003,"connected_time":911000000000,"state":"active","ping":43},{"user_id":33,"name":"Bart simpson","steam_id":76561198380666998,"connected_time":1637000000000,"state":"active","ping":99},{"user_id":42,"name":"oX_Animal_Xo","steam_id":76561198083027488,"connected_time":1211000000000,"state":"active","ping":86}]},{"server_id":142,"name":"Uncletopia | S√£o Paulo | 1 | All Maps","name_short":"sao-1","host":"sao-1.br.uncletopia.com","port":27015,"enabled":true,"region":"sa","cc":"br","latitude":-23.533773,"longitude":-46.62529,"reserved":0,"last_update":"0001-01-01T00:00:00Z","name_a2s":"Uncletopia | S√£o Paulo | 1 | All Maps","protocol":17,"map":"pl_borneo","folder":"tf","game":"Team Fortress","app_id":440,"player_count":4,"max_players":24,"Bots":0,"server_type":"Dedicated","server_os":"Linux","password":true,"vac":true,"version":"7742253","steam_id":85568392924469996,"keywords":["nocrits","nodmgspread","payload","uncletopia"],"game_id":440,"stv_port":27016,"stv_name":"Uncletopia | S√£o Paulo | 1 | All Maps | STV","players":[{"user_id":77,"name":"Calculadora","steam_id":76561199065685369,"connected_time":1963000000000,"state":"active","ping":48},{"user_id":79,"name":"DOUTOR SEXO!!!","steam_id":76561198333580626,"connected_time":1474000000000,"state":"active","ping":66},{"user_id":80,"name":"Pudding","steam_id":76561198426734034,"connected_time":1157000000000,"state":"active","ping":80},{"user_id":81,"name":"Gup","steam_id":76561198965538287,"connected_time":907000000000,"state":"active","ping":50}]},{"server_id":143,"name":"Uncletopia | S√£o Paulo | 2 | All Maps","name_short":"sao-2","host":"sao-2.br.uncletopia.com","port":27015,"enabled":true,"region":"sa","cc":"br","latitude":-23.533773,"longitude":-46.62529,"reserved":0,"last_update":"0001-01-01T00:00:00Z","name_a2s":"Uncletopia | S√£o Paulo | 2 | All Maps","protocol":17,"map":"koth_harvest_final","folder":"tf","game":"Team Fortress","app_id":440,"player_count":0,"max_players":24,"Bots":0,"server_type":"Dedicated","server_os":"Linux","password":true,"vac":true,"version":"7742253","steam_id":85568392924485349,"keywords":["cp","nocrits","nodmgspread","uncletopia"],"game_id":440,"stv_port":27016,"stv_name":"Uncletopia | S√£o Paulo | 2 | All Maps | STV","players":null},{"server_id":7,"name":"Uncletopia | Seattle | 1 | All Maps","name_short":"sea-1","host":"sea-1.us.uncletopia.com","port":27015,"enabled":true,"region":"us-west","cc":"us","latitude":47.608013,"longitude":-122.33517,"reserved":0,"last_update":"0001-01-01T00:00:00Z","name_a2s":"Uncletopia | Seattle | 1 | All Maps","protocol":17,"map":"pl_borneo","folder":"tf","game":"Team Fortress","app_id":440,"player_count":24,"max_players":24,"Bots":0,"server_type":"Dedicated","server_os":"Linux","password":true,"vac":true,"version":"7742253","steam_id":85568392924469997,"keywords":["nocrits","nodmgspread","payload","uncletopia"],"game_id":440,"stv_port":27016,"stv_name":"Uncletopia | Seattle | 1 | All Maps | STV","players":[{"user_id":75,"name":"dust","steam_id":76561198045218909,"connected_time":1990000000000,"state":"active","ping":41},{"user_id":83,"name":"Arbiter Soul","steam_id":76561198067798973,"connected_time":1182000000000,"state":"active","ping":89},{"user_id":84,"name":"Crazy Cane","steam_id":76561198993941174,"connected_time":1180000000000,"state":"active","ping":122},{"user_id":85,"name":"Jadus","steam_id":76561199091462938,"connected_time":1133000000000,"state":"active","ping":91},{"user_id":81,"name":"Jade","steam_id":76561198151596927,"connected_time":1720000000000,"state":"active","ping":111},{"user_id":25,"name":"hunky dory","steam_id":76561198030422254,"connected_time":4683000000000,"state":"active","ping":109},{"user_id":92,"name":"Frank","steam_id":76561198126681511,"connected_time":807000000000,"state":"active","ping":84},{"user_id":95,"name":"RubyTheLesbean","steam_id":76561198046130536,"connected_time":769000000000,"state":"active","ping":127},{"user_id":78,"name":"Tom H.A.N.X","steam_id":76561198061064737,"connected_time":1921000000000,"state":"active","ping":49},{"user_id":93,"name":"[chef] iron","steam_id":76561197970888616,"connected_time":803000000000,"state":"active","ping":75},{"user_id":74,"name":"jacix3 [gay wolfgirl]{she/it}","steam_id":76561198205004165,"connected_time":2016000000000,"state":"active","ping":58},{"user_id":63,"name":"trackpad gaming | f2p","steam_id":76561198840414371,"connected_time":3272000000000,"state":"active","ping":177},{"user_id":107,"name":"Arsonist Goose","steam_id":76561198147441830,"connected_time":116000000000,"state":"active","ping":76},{"user_id":94,"name":"twitch.tv/EmiTV","steam_id":76561198041201321,"connected_time":778000000000,"state":"active","ping":145},{"user_id":97,"name":"Chicken Blow Job","steam_id":76561198086185071,"connected_time":751000000000,"state":"active","ping":99},{"user_id":98,"name":"Grim Soul Harbinger","steam_id":76561199224198950,"connected_time":751000000000,"state":"active","ping":111},{"user_id":108,"name":"BigGoose","steam_id":76561198833281392,"connected_time":14000000000,"state":"active","ping":99},{"user_id":106,"name":"Agent","steam_id":76561199389584938,"connected_time":138000000000,"state":"active","ping":38},{"user_id":100,"name":"EduardoLopez2005","steam_id":76561198188481309,"connected_time":720000000000,"state":"active","ping":71},{"user_id":80,"name":"hatless peasant","steam_id":76561198065377667,"connected_time":1863000000000,"state":"active","ping":106},{"user_id":88,"name":"jackhillard83","steam_id":76561199057098390,"connected_time":1004000000000,"state":"active","ping":112},{"user_id":48,"name":"ggggggggggggggggggggglo","steam_id":76561199163004572,"connected_time":3604000000000,"state":"active","ping":71},{"user_id":102,"name":"poey","steam_id":76561198865346767,"connected_time":668000000000,"state":"active","ping":95},{"user_id":104,"name":"Mignyanne :3","steam_id":76561198048754056,"connected_time":394000000000,"state":"active","ping":70}]},{"server_id":119,"name":"Uncletopia | Seattle | 2 | All Maps","name_short":"sea-2","host":"sea-1.us.uncletopia.com","port":27025,"enabled":true,"region":"us-west","cc":"us","latitude":47.608013,"longitude":-122.33517,"reserved":0,"last_update":"0001-01-01T00:00:00Z","name_a2s":"Uncletopia | Seattle | 2 | All Maps","protocol":17,"map":"pl_badwater","folder":"tf","game":"Team Fortress","app_id":440,"player_count":23,"max_players":24,"Bots":0,"server_type":"Dedicated","server_os":"Linux","password":true,"vac":true,"version":"7742253","steam_id":85568392924469998,"keywords":["nocrits","nodmgspread","payload","uncletopia"],"game_id":440,"stv_port":27026,"stv_name":"Uncletopia | Seattle | 2 | All Maps | STV","players":[{"user_id":255,"name":"Dali","steam_id":76561198077593486,"connected_time":4794000000000,"state":"active","ping":77},{"user_id":352,"name":"ZeifStrad","steam_id":76561198127587566,"connected_time":894000000000,"state":"active","ping":107},{"user_id":358,"name":"Willis The Whale","steam_id":76561198240046452,"connected_time":333000000000,"state":"active","ping":81},{"user_id":333,"name":"dearender","steam_id":76561199427644498,"connected_time":1931000000000,"state":"active","ping":59},{"user_id":304,"name":"bashingbeans","steam_id":76561198296107421,"connected_time":2661000000000,"state":"active","ping":107},{"user_id":340,"name":"Master Of Whales","steam_id":76561198349104889,"connected_time":1515000000000,"state":"active","ping":79},{"user_id":303,"name":"damp","steam_id":76561198281690779,"connected_time":2719000000000,"state":"active","ping":109},{"user_id":316,"name":"Evanb","steam_id":76561198042057792,"connected_time":2482000000000,"state":"active","ping":44},{"user_id":306,"name":"Jack\u0026Coke","steam_id":76561198045199164,"connected_time":2614000000000,"state":"active","ping":48},{"user_id":344,"name":"ArchmageF","steam_id":76561197992246851,"connected_time":1236000000000,"state":"active","ping":52},{"user_id":363,"name":"Amateur Glaswegian","steam_id":76561198030851956,"connected_time":100000000000,"state":"active","ping":47},{"user_id":364,"name":"Vladikr1","steam_id":76561198401495362,"connected_time":65000000000,"state":"active","ping":108},{"user_id":323,"name":"Knock on the sky and listen","steam_id":76561198077597130,"connected_time":2308000000000,"state":"active","ping":68},{"user_id":362,"name":"--_Cook_--","steam_id":76561198080855748,"connected_time":126000000000,"state":"active","ping":127},{"user_id":350,"name":"chompmastr","steam_id":76561199121805899,"connected_time":1053000000000,"state":"active","ping":51},{"user_id":334,"name":"A 7/10","steam_id":76561198075814864,"connected_time":1925000000000,"state":"active","ping":141},{"user_id":312,"name":"\\m/ Cyfun","steam_id":76561197960882221,"connected_time":2548000000000,"state":"active","ping":93},{"user_id":356,"name":"penguinlord30","steam_id":76561198437116566,"connected_time":649000000000,"state":"active","ping":56},{"user_id":208,"name":"MonteJT","steam_id":76561198055409360,"connected_time":7810000000000,"state":"active","ping":70},{"user_id":357,"name":"Video game victim","steam_id":76561198308017082,"connected_time":639000000000,"state":"active","ping":60},{"user_id":360,"name":"Chrisscar","steam_id":76561198086298130,"connected_time":318000000000,"state":"active","ping":78},{"user_id":361,"name":"Dimple","steam_id":76561198980324190,"connected_time":290000000000,"state":"active","ping":49},{"user_id":354,"name":"Kramer","steam_id":76561197972528737,"connected_time":859000000000,"state":"active","ping":49}]},{"server_id":406,"name":"Uncletopia | Seattle | 3 | Stopwatch Beta","name_short":"sea-3","host":"sea-1.us.uncletopia.com","port":27035,"enabled":true,"region":"us-west","cc":"us","latitude":47.608013,"longitude":-122.33517,"reserved":0,"last_update":"0001-01-01T00:00:00Z","name_a2s":"Uncletopia | Seattle | 3 | Stopwatch Beta","protocol":17,"map":"koth_highpass","folder":"tf","game":"Team Fortress","app_id":440,"player_count":0,"max_players":24,"Bots":0,"server_type":"Dedicated","server_os":"Linux","password":true,"vac":true,"version":"7742253","steam_id":85568392924515217,"keywords":["cp","nocrits","nodmgspread","uncletopia"],"game_id":440,"stv_port":27036,"stv_name":"Uncletopia | Seattle | 3 | Stopwatch Beta | STV","players":null},{"server_id":17,"name":"Uncletopia | San Francisco | 1 | All Maps","name_short":"sfo-1","host":"sfo-1.us.uncletopia.com","port":27015,"enabled":true,"region":"us-west","cc":"us","latitude":37.77397,"longitude":-122.4313,"reserved":0,"last_update":"0001-01-01T00:00:00Z","name_a2s":"Uncletopia | San Francisco | 1 | All Maps","protocol":17,"map":"cp_snakewater_final1","folder":"tf","game":"Team Fortress","app_id":440,"player_count":6,"max_players":24,"Bots":0,"server_type":"Dedicated","server_os":"Linux","password":true,"vac":true,"version":"7742253","steam_id":85568392924469999,"keywords":["cp","nocrits","nodmgspread","uncletopia"],"game_id":440,"stv_port":27016,"stv_name":"Uncletopia | San Francisco | 1 | All Maps | STV","players":[{"user_id":8,"name":"Kdoubldizz","steam_id":76561199074741602,"connected_time":2441000000000,"state":"active","ping":68},{"user_id":9,"name":"BDMango","steam_id":76561199323225729,"connected_time":2427000000000,"state":"active","ping":68},{"user_id":12,"name":"Klopo","steam_id":76561198871108633,"connected_time":984000000000,"state":"active","ping":36},{"user_id":11,"name":"ApplesMate","steam_id":76561198832763278,"connected_time":1265000000000,"state":"active","ping":60},{"user_id":13,"name":"Private","steam_id":76561199416393045,"connected_time":716000000000,"state":"active","ping":42},{"user_id":16,"name":"Redbows22","steam_id":76561199452479390,"connected_time":23000000000,"state":"active","ping":108}]},{"server_id":18,"name":"Uncletopia | San Francisco | 2 | All Maps","name_short":"sfo-2","host":"sfo-1.us.uncletopia.com","port":27025,"enabled":true,"region":"us-west","cc":"us","latitude":37.77397,"longitude":-122.4313,"reserved":0,"last_update":"0001-01-01T00:00:00Z","name_a2s":"Uncletopia | San Francisco | 2 | All Maps","protocol":17,"map":"pl_frontier_final","folder":"tf","game":"Team Fortress","app_id":440,"player_count":0,"max_players":24,"Bots":0,"server_type":"Dedicated","server_os":"Linux","password":true,"vac":true,"version":"7742253","steam_id":85568392924470000,"keywords":["nocrits","nodmgspread","payload","uncletopia"],"game_id":440,"stv_port":27026,"stv_name":"Uncletopia | San Francisco | 2 | All Maps | STV","players":null},{"server_id":19,"name":"Uncletopia | San Francisco | 3 | Stopwatch Beta","name_short":"sfo-3","host":"sfo-1.us.uncletopia.com","port":27035,"enabled":true,"region":"us-west","cc":"us","latitude":37.77397,"longitude":-122.4313,"reserved":0,"last_update":"0001-01-01T00:00:00Z","name_a2s":"Uncletopia | San Francisco | 3 | Stopwatch Beta","protocol":17,"map":"workshop/koth_clearcut_b15.ugc2107050255","folder":"tf","game":"Team Fortress","app_id":440,"player_count":0,"max_players":24,"Bots":0,"server_type":"Dedicated","server_os":"Linux","password":true,"vac":true,"version":"7742253","steam_id":85568392924742824,"keywords":["cp","nocrits","nodmgspread","uncletopia"],"game_id":440,"stv_port":27036,"stv_name":"Uncletopia | San Francisco | 3 | Stopwatch Beta | STV","players":null},{"server_id":20,"name":"Uncletopia | San Francisco | 4 | Community","name_short":"sfo-4","host":"sfo-1.us.uncletopia.com","port":27045,"enabled":true,"region":"us-west","cc":"us","latitude":37.77397,"longitude":-122.4313,"reserved":0,"last_update":"0001-01-01T00:00:00Z","name_a2s":"Uncletopia | San Francisco | 4 | Community","protocol":17,"map":"cp_dustbowl","folder":"tf","game":"Team Fortress","app_id":440,"player_count":0,"max_players":24,"Bots":0,"server_type":"Dedicated","server_os":"Linux","password":true,"vac":true,"version":"7742253","steam_id":85568392924742826,"keywords":["cp","nocrits","nodmgspread","uncletopia"],"game_id":440,"stv_port":27046,"stv_name":"Uncletopia | San Francisco | 4 | Community | STV","players":null},{"server_id":141,"name":"Uncletopia | Sydney | 1 | All Maps","name_short":"syd-1","host":"syd-1.au.uncletopia.com","port":27015,"enabled":true,"region":"au","cc":"au","latitude":-33.865143,"longitude":151.2099,"reserved":0,"last_update":"0001-01-01T00:00:00Z","name_a2s":"Uncletopia | Sydney | 1 | All Maps","protocol":17,"map":"pl_snowycoast","folder":"tf","game":"Team Fortress","app_id":440,"player_count":0,"max_players":24,"Bots":0,"server_type":"Dedicated","server_os":"Linux","password":true,"vac":true,"version":"7742253","steam_id":85568392924470001,"keywords":["nocrits","nodmgspread","payload","uncletopia"],"game_id":440,"stv_port":27016,"stv_name":"Uncletopia | Sydney | 1 | All Maps | STV","players":null},{"server_id":123,"name":"Uncletopia | Sydney | 2 | All Maps","name_short":"syd-2","host":"syd-1.au.uncletopia.com","port":27025,"enabled":true,"region":"au","cc":"au","latitude":-33.865143,"longitude":151.2099,"reserved":0,"last_update":"0001-01-01T00:00:00Z","name_a2s":"Uncletopia | Sydney | 2 | All Maps","protocol":17,"map":"cp_sunshine","folder":"tf","game":"Team Fortress","app_id":440,"player_count":0,"max_players":24,"Bots":0,"server_type":"Dedicated","server_os":"Linux","password":true,"vac":true,"version":"7742253","steam_id":85568392924470002,"keywords":["cp","nocrits","nodmgspread","uncletopia"],"game_id":440,"stv_port":27026,"stv_name":"Uncletopia | Sydney | 2 | All Maps | STV","players":null},{"server_id":395,"name":"Uncletopia | Sydney | 3 | All Maps","name_short":"syd-3","host":"syd-1.au.uncletopia.com","port":27035,"enabled":true,"region":"au","cc":"au","latitude":-33.865143,"longitude":151.2099,"reserved":0,"last_update":"0001-01-01T00:00:00Z","name_a2s":"Uncletopia | Sydney | 3 | All Maps","protocol":17,"map":"koth_viaduct","folder":"tf","game":"Team Fortress","app_id":440,"player_count":0,"max_players":24,"Bots":0,"server_type":"Dedicated","server_os":"Linux","password":true,"vac":true,"version":"7742253","steam_id":85568392925194467,"keywords":["cp","nocrits","nodmgspread","uncletopia"],"game_id":440,"stv_port":27036,"stv_name":"Uncletopia | Sydney | 3 | All Maps | STV","players":null},{"server_id":396,"name":"Uncletopia | Sydney | 4 | All Maps","name_short":"syd-4","host":"syd-1.au.uncletopia.com","port":27045,"enabled":true,"region":"au","cc":"au","latitude":-33.865143,"longitude":151.2099,"reserved":0,"last_update":"0001-01-01T00:00:00Z","name_a2s":"Uncletopia | Sydney | 4 | All Maps","protocol":17,"map":"pl_frontier_final","folder":"tf","game":"Team Fortress","app_id":440,"player_count":0,"max_players":24,"Bots":0,"server_type":"Dedicated","server_os":"Linux","password":true,"vac":true,"version":"7742253","steam_id":85568392925397958,"keywords":["nocrits","nodmgspread","payload","uncletopia"],"game_id":440,"stv_port":27046,"stv_name":"Uncletopia | Sydney | 4 | All Maps | STV","players":null},{"server_id":58,"name":"Uncletopia | Sydney | 5 | Stopwatch Beta","name_short":"syd-5","host":"syd-1.au.uncletopia.com","port":27055,"enabled":true,"region":"au","cc":"au","latitude":-33.865143,"longitude":151.2099,"reserved":0,"last_update":"0001-01-01T00:00:00Z","name_a2s":"Uncletopia | Sydney | 5 | Stopwatch Beta","protocol":17,"map":"koth_highpass","folder":"tf","game":"Team Fortress","app_id":440,"player_count":0,"max_players":24,"Bots":0,"server_type":"Dedicated","server_os":"Linux","password":true,"vac":true,"version":"7742253","steam_id":85568392925397959,"keywords":["cp","nocrits","nodmgspread","uncletopia"],"game_id":440,"stv_port":27056,"stv_name":"Uncletopia | Sydney | 5 | Stopwatch Beta | STV","players":null},{"server_id":59,"name":"Uncletopia | Sydney | 6 | Community","name_short":"syd-6","host":"syd-1.au.uncletopia.com","port":27065,"enabled":true,"region":"au","cc":"au","latitude":-33.865143,"longitude":151.2099,"reserved":0,"last_update":"0001-01-01T00:00:00Z","name_a2s":"Uncletopia | Sydney | 6 | Community","protocol":17,"map":"workshop/cp_villa_b19.ugc2113052569","folder":"tf","game":"Team Fortress","app_id":440,"player_count":0,"max_players":24,"Bots":0,"server_type":"Dedicated","server_os":"Linux","password":true,"vac":true,"version":"7742253","steam_id":85568392925397960,"keywords":["cp","nocrits","nodmgspread","uncletopia"],"game_id":440,"stv_port":27066,"stv_name":"Uncletopia | Sydney | 6 | Community | STV","players":null},{"server_id":49,"name":"Uncletopia | Warsaw | 1 | All Maps","name_short":"waw-1","host":"waw-1.pl.uncletopia.com","port":27015,"enabled":true,"region":"eu","cc":"pl","latitude":52.2297,"longitude":21.017532,"reserved":0,"last_update":"0001-01-01T00:00:00Z","name_a2s":"","protocol":0,"map":"","folder":"","game":"","app_id":0,"player_count":0,"max_players":0,"Bots":0,"server_type":"","server_os":"","password":false,"vac":false,"version":"","steam_id":0,"keywords":null,"game_id":0,"stv_port":0,"stv_name":"","players":null},{"server_id":50,"name":"Uncletopia | Warsaw | 2 | All Maps","name_short":"waw-2","host":"waw-1.pl.uncletopia.com","port":27025,"enabled":true,"region":"eu","cc":"pl","latitude":52.2297,"longitude":21.017532,"reserved":0,"last_update":"0001-01-01T00:00:00Z","name_a2s":"Uncletopia | Warsaw | 2 | All Maps","protocol":17,"map":"cp_altitude","folder":"tf","game":"Team Fortress","app_id":440,"player_count":4,"max_players":24,"Bots":0,"server_type":"Dedicated","server_os":"Linux","password":true,"vac":true,"version":"7742253","steam_id":85568392925397851,"keywords":["cp","nocrits","nodmgspread","uncletopia"],"game_id":440,"stv_port":27026,"stv_name":"Uncletopia | Warsaw | 2 | All Maps | STV","players":[{"user_id":24,"name":"Zgred","steam_id":76561199090354995,"connected_time":852000000000,"state":"active","ping":83},{"user_id":25,"name":"Widmo","steam_id":76561198863827325,"connected_time":783000000000,"state":"active","ping":75},{"user_id":30,"name":"marsel","steam_id":76561198116168271,"connected_time":217000000000,"state":"active","ping":95},{"user_id":31,"name":"Pi0neer","steam_id":76561198873156806,"connected_time":19000000000,"state":"active","ping":95}]},{"server_id":51,"name":"Uncletopia | Warsaw | 3 | All Maps","name_short":"waw-3","host":"waw-1.pl.uncletopia.com","port":27035,"enabled":true,"region":"eu","cc":"pl","latitude":52.2297,"longitude":21.017532,"reserved":0,"last_update":"0001-01-01T00:00:00Z","name_a2s":"Uncletopia | Warsaw | 3 | All Maps","protocol":17,"map":"koth_cascade","folder":"tf","game":"Team Fortress","app_id":440,"player_count":0,"max_players":24,"Bots":0,"server_type":"Dedicated","server_os":"Linux","password":true,"vac":true,"version":"7742253","steam_id":85568392925397852,"keywords":["cp","nocrits","nodmgspread","uncletopia"],"game_id":440,"stv_port":27036,"stv_name":"Uncletopia | Warsaw | 3 | All Maps | STV","players":null},{"server_id":52,"name":"Uncletopia | Warsaw | 4 | All Maps","name_short":"waw-4","host":"waw-1.pl.uncletopia.com","port":27045,"enabled":true,"region":"eu","cc":"pl","latitude":52.2297,"longitude":21.017532,"reserved":0,"last_update":"0001-01-01T00:00:00Z","name_a2s":"Uncletopia | Warsaw | 4 | All Maps","protocol":17,"map":"koth_highpass","folder":"tf","game":"Team Fortress","app_id":440,"player_count":0,"max_players":24,"Bots":0,"server_type":"Dedicated","server_os":"Linux","password":true,"vac":true,"version":"7742253","steam_id":85568392925397853,"keywords":["cp","nocrits","nodmgspread","uncletopia"],"game_id":440,"stv_port":27046,"stv_name":"Uncletopia | Warsaw | 4 | All Maps | STV","players":null},{"server_id":53,"name":"Uncletopia | Warsaw | 5 | Stopwatch Beta","name_short":"waw-5","host":"waw-1.pl.uncletopia.com","port":27055,"enabled":true,"region":"eu","cc":"pl","latitude":52.2297,"longitude":21.017532,"reserved":0,"last_update":"0001-01-01T00:00:00Z","name_a2s":"Uncletopia | Warsaw | 5 | Stopwatch Beta","protocol":17,"map":"pl_swiftwater_final1","folder":"tf","game":"Team Fortress","app_id":440,"player_count":0,"max_players":24,"Bots":0,"server_type":"Dedicated","server_os":"Linux","password":true,"vac":true,"version":"7742253","steam_id":85568392925397854,"keywords":["nocrits","nodmgspread","payload","uncletopia"],"game_id":440,"stv_port":27056,"stv_name":"Uncletopia | Warsaw | 5 | Stopwatch Beta | STV","players":null},{"server_id":54,"name":"Uncletopia | Warsaw | 6 | Community","name_short":"waw-6","host":"waw-1.pl.uncletopia.com","port":27065,"enabled":true,"region":"eu","cc":"pl","latitude":52.2297,"longitude":21.017532,"reserved":0,"last_update":"0001-01-01T00:00:00Z","name_a2s":"Uncletopia | Warsaw | 6 | Community","protocol":17,"map":"workshop/koth_slaughter_rc1.ugc1712845210","folder":"tf","game":"Team Fortress","app_id":440,"player_count":0,"max_players":24,"Bots":0,"server_type":"Dedicated","server_os":"Linux","password":true,"vac":true,"version":"7742253","steam_id":85568392925397856,"keywords":["cp","nocrits","nodmgspread","uncletopia"],"game_id":440,"stv_port":27066,"stv_name":"Uncletopia | Warsaw | 6 | Community | STV","players":null}]}