{"status":true,"message":"","result":[{"server_id":9,"name":"Uncletopia | Atlanta | 1 | All Maps","name_short":"atl-1","host":"atl-1.us.uncletopia.com","port":27015,"enabled":true,"region":"us-east","cc":"us","latitude":33.753746,"longitude":-84.38633,"reserved":0,"last_update":"0001-01-01T00:00:00Z","name_a2s":"Uncletopia | Atlanta | 1 | All Maps","protocol":17,"map":"pl_barnblitz","folder":"tf","game":"Team Fortress","app_id":440,"player_count":24,"max_players":24,"Bots":0,"server_type":"Dedicated","server_os":"Linux","password":true,"vac":true,"version":"7882260","steam_id":85568392924469982,"keywords":["nocrits","nodmgspread","payload","uncletopia"],"game_id":440,"stv_port":27016,"stv_name":"Uncletopia | Atlanta | 1 | All Maps | STV","players":[{"user_id":80,"name":"Calestine","steam_id":76561197975925227,"connected_time":1599000000000,"state":"active","ping":69},{"user_id":67,"name":"jih","steam_id":76561198043499010,"connected_time":2396000000000,"state":"active","ping":69},{"user_id":87,"name":"RabbitWIthAScimitar","steam_id":76561199153273216,"connected_time":686000000000,"state":"active","ping":166},{"user_id":68,"name":"anonpain","steam_id":76561198081317092,"connected_time":2371000000000,"state":"active","ping":71},{"user_id":23,"name":"tasty","steam_id":76561198083839061,"connected_time":4201000000000,"state":"active","ping":66},{"user_id":71,"name":"HarryjusttHarry","steam_id":76561198982810452,"connected_time":2220000000000,"state":"active","ping":71},{"user_id":20,"name":"GaiBerd","steam_id":76561198177100634,"connected_time":5067000000000,"state":"active","ping":58},{"user_id":57,"name":"Pango","steam_id":76561198069811545,"connected_time":2848000000000,"state":"active","ping":46},{"user_id":88,"name":"Corpse-Bunny Simp","steam_id":76561198047230631,"connected_time":661000000000,"state":"active","ping":53},{"user_id":60,"name":"Burnt","steam_id":76561198430058031,"connected_time":2754000000000,"state":"active","ping":70},{"user_id":34,"name":"William Wallace","steam_id":76561199343316814,"connected_time":3679000000000,"state":"active","ping":66},{"user_id":72,"name":"kuso","steam_id":76561198060424207,"connected_time":2182000000000,"state":"active","ping":147},{"user_id":89,"name":"Amish Supremacist","steam_id":76561198396181197,"connected_time":631000000000,"state":"active","ping":62},{"user_id":84,"name":"ATL1 | on my hunting trip","steam_id":76561198315341646,"connected_time":1371000000000,"state":"active","ping":70},{"user_id":61,"name":"Waffle Wannabe","steam_id":76561198064510650,"connected_time":2584000000000,"state":"active","ping":55},{"user_id":66,"name":"lil hog","steam_id":76561199230929836,"connected_time":2421000000000,"state":"active","ping":76},{"user_id":52,"name":"nagwagi","steam_id":76561199067925855,"connected_time":3233000000000,"state":"active","ping":77},{"user_id":73,"name":"Rornir","steam_id":76561198081829615,"connected_time":2021000000000,"state":"active","ping":57},{"user_id":75,"name":"BIG HOG","steam_id":76561198079923652,"connected_time":1934000000000,"state":"active","ping":63},{"user_id":82,"name":"mayhem","steam_id":76561199246637881,"connected_time":1584000000000,"state":"active","ping":52},{"user_id":85,"name":"ma0re","steam_id":76561199231971506,"connected_time":844000000000,"state":"active","ping":65},{"user_id":83,"name":"DuckMann","steam_id":76561198197058638,"connected_time":1577000000000,"state":"active","ping":51},{"user_id":54,"name":"VixianUwU","steam_id":76561198948815060,"connected_time":3123000000000,"state":"active","ping":83},{"user_id":94,"name":"NickKnack","steam_id":76561198074935892,"connected_time":435000000000,"state":"active","ping":129}]},{"server_id":104,"name":"Uncletopia | Atlanta | 2 | All Maps","name_short":"atl-2","host":"atl-1.us.uncletopia.com","port":27025,"enabled":true,"region":"us-east","cc":"us","latitude":33.753746,"longitude":-84.38633,"reserved":0,"last_update":"0001-01-01T00:00:00Z","name_a2s":"Uncletopia | Atlanta | 2 | All Maps","protocol":17,"map":"pl_frontier_final","folder":"tf","game":"Team Fortress","app_id":440,"player_count":0,"max_players":24,"Bots":0,"server_type":"Dedicated","server_os":"Linux","password":true,"vac":true,"version":"7882260","steam_id":85568392924469983,"keywords":["nocrits","nodmgspread","payload","uncletopia"],"game_id":440,"stv_port":27026,"stv_name":"Uncletopia | Atlanta | 2 | All Maps | STV","players":null},{"server_id":400,"name":"Uncletopia | Atlanta | 3 | Community","name_short":"atl-3","host":"atl-1.us.uncletopia.com","port":27035,"enabled":true,"region":"us-east","cc":"us","latitude":33.753746,"longitude":-84.38633,"reserved":0,"last_update":"0001-01-01T00:00:00Z","name_a2s":"Uncletopia | Atlanta | 3 | Community","protocol":17,"map":"workshop/pl_vigil_rc9.ugc1266210012","folder":"tf","game":"Team Fortress","app_id":440,"player_count":0,"max_players":24,"Bots":0,"server_type":"Dedicated","server_os":"Linux","password":true,"vac":true,"version":"7882260","steam_id":85568392924515187,"keywords":["nocrits","nodmgspread","payload","uncletopia"],"game_id":440,"stv_port":27036,"stv_name":"Uncletopia | Atlanta | 3 | Community | STV","players":null},{"server_id":401,"name":"Uncletopia | Atlanta | 4 | No Payload","name_short":"atl-4","host":"atl-1.us.uncletopia.com","port":27045,"enabled":true,"region":"us-east","cc":"us","latitude":33.753746,"longitude":-84.38633,"reserved":0,"last_update":"0001-01-01T00:00:00Z","name_a2s":"","protocol":0,"map":"","folder":"","game":"","app_id":0,"player_count":0,"max_players":0,"Bots":0,"server_type":"","server_os":"","password":false,"vac":false,"version":"","steam_id":0,"keywords":null,"game_id":0,"stv_port":0,"stv_name":"","players":null},{"server_id":2,"name":"Uncletopia | Chicago | 1 | All Maps","name_short":"chi-1","host":"chi-1.us.uncletopia.com","port":27015,"enabled":true,"region":"us-central","cc":"us","latitude":41.881832,"longitude":-87.62318,"reserved":0,"last_update":"0001-01-01T00:00:00Z","name_a2s":"Uncletopia | Chicago | 1 | All Maps","protocol":17,"map":"cp_dustbowl","folder":"tf","game":"Team Fortress","app_id":440,"player_count":23,"max_players":24,"Bots":0,"server_type":"Dedicated","server_os":"Linux","password":true,"vac":true,"version":"7882260","steam_id":85568392924469984,"keywords":["cp","nocrits","nodmgspread","uncletopia"],"game_id":440,"stv_port":27016,"stv_name":"Uncletopia | Chicago | 1 | All Maps | STV","players":[{"user_id":231,"name":"Notsocreative","steam_id":76561198236372202,"connected_time":2139000000000,"state":"active","ping":75},{"user_id":254,"name":"robotman5","steam_id":76561197996783330,"connected_time":447000000000,"state":"active","ping":78},{"user_id":181,"name":"MellowBoy-2354","steam_id":76561199080630632,"connected_time":5104000000000,"state":"active","ping":88},{"user_id":257,"name":"Yam Jazzy Jim","steam_id":76561198000788950,"connected_time":363000000000,"state":"active","ping":60},{"user_id":232,"name":"Maverick","steam_id":76561198322829814,"connected_time":1949000000000,"state":"active","ping":79},{"user_id":258,"name":"Wu Wei","steam_id":76561198128249535,"connected_time":350000000000,"state":"active","ping":100},{"user_id":233,"name":"enty","steam_id":76561199076171301,"connected_time":1881000000000,"state":"active","ping":68},{"user_id":234,"name":"Joobathan","steam_id":76561198077576449,"connected_time":1867000000000,"state":"active","ping":104},{"user_id":259,"name":"McSmitten","steam_id":76561198022358379,"connected_time":342000000000,"state":"active","ping":67},{"user_id":212,"name":"Rya‚ò∫","steam_id":76561198370128860,"connected_time":3558000000000,"state":"active","ping":71},{"user_id":246,"name":"Jess","steam_id":76561199232581058,"connected_time":709000000000,"state":"active","ping":69},{"user_id":225,"name":"Dabicus Vile","steam_id":76561198272413758,"connected_time":2726000000000,"state":"active","ping":63},{"user_id":171,"name":"vv","steam_id":76561198134813102,"connected_time":5760000000000,"state":"active","ping":58},{"user_id":198,"name":"Dr.BiohunterPHD","steam_id":76561198047023365,"connected_time":4398000000000,"state":"active","ping":98},{"user_id":195,"name":"Lucerne‚òÖFlower","steam_id":76561198264105406,"connected_time":4791000000000,"state":"active","ping":160},{"user_id":249,"name":"Chaos","steam_id":76561199068325065,"connected_time":611000000000,"state":"active","ping":100},{"user_id":251,"name":"put my hand in the cash registe","steam_id":76561198062991744,"connected_time":520000000000,"state":"active","ping":65},{"user_id":252,"name":"Skiddy","steam_id":76561198125942665,"connected_time":506000000000,"state":"active","ping":75},{"user_id":262,"name":"stratty\u003c3","steam_id":76561198926926961,"connected_time":301000000000,"state":"active","ping":77},{"user_id":263,"name":"B·µ¢g B‚Çí‚Çõ‚Çõ","steam_id":76561198090271815,"connected_time":301000000000,"state":"active","ping":124},{"user_id":265,"name":"AlphaShire","steam_id":76561198170856046,"connected_time":107000000000,"state":"active","ping":77},{"user_id":247,"name":"Fraudulent Tuna","steam_id":76561197972268728,"connected_time":707000000000,"state":"active","ping":68},{"user_id":250,"name":"the silly","steam_id":76561198850632709,"connected_time":596000000000,"state":"active","ping":83}]},{"server_id":106,"name":"Uncletopia | Chicago | 2 | All Maps","name_short":"chi-2","host":"chi-1.us.uncletopia.com","port":27025,"enabled":true,"region":"us-central","cc":"us","latitude":41.881832,"longitude":-87.62318,"reserved":0,"last_update":"0001-01-01T00:00:00Z","name_a2s":"Uncletopia | Chicago | 2 | All Maps","protocol":17,"map":"pl_borneo","folder":"tf","game":"Team Fortress","app_id":440,"player_count":23,"max_players":24,"Bots":0,"server_type":"Dedicated","server_os":"Linux","password":true,"vac":true,"version":"7882260","steam_id":85568392924469985,"keywords":["nocrits","nodmgspread","payload","uncletopia"],"game_id":440,"stv_port":27026,"stv_name":"Uncletopia | Chicago | 2 | All Maps | STV","players":[{"user_id":174,"name":"Pengen","steam_id":76561198141339200,"connected_time":12000000000,"state":"active","ping":66},{"user_id":172,"name":"Combatspok","steam_id":76561197971598115,"connected_time":218000000000,"state":"active","ping":58},{"user_id":166,"name":"bingabooga","steam_id":76561198101057741,"connected_time":948000000000,"state":"active","ping":75},{"user_id":82,"name":"Totally not CIA","steam_id":76561198237827742,"connected_time":6454000000000,"state":"active","ping":63},{"user_id":96,"name":"Chiki","steam_id":76561198063590320,"connected_time":5131000000000,"state":"active","ping":63},{"user_id":132,"name":"Weerk","steam_id":76561199209543551,"connected_time":2742000000000,"state":"active","ping":83},{"user_id":149,"name":"tulpa","steam_id":76561198013253513,"connected_time":1401000000000,"state":"active","ping":72},{"user_id":169,"name":"Fobby #Savetf2","steam_id":76561198047681469,"connected_time":405000000000,"state":"active","ping":77},{"user_id":161,"name":"Trusty","steam_id":76561198035444237,"connected_time":1131000000000,"state":"active","ping":72},{"user_id":173,"name":"Nen","steam_id":76561198893347370,"connected_time":197000000000,"state":"active","ping":111},{"user_id":157,"name":"Benpai","steam_id":76561198129143866,"connected_time":1188000000000,"state":"active","ping":100},{"user_id":143,"name":"soltuno","steam_id":76561198074430565,"connected_time":1867000000000,"state":"active","ping":120},{"user_id":170,"name":"mineblast99","steam_id":76561199065648954,"connected_time":376000000000,"state":"active","ping":75},{"user_id":158,"name":"Dras","steam_id":76561198044579334,"connected_time":1162000000000,"state":"active","ping":80},{"user_id":134,"name":"Forehead","steam_id":76561198124151399,"connected_time":2698000000000,"state":"active","ping":67},{"user_id":135,"name":"Caoticaos","steam_id":76561198114800227,"connected_time":2695000000000,"state":"active","ping":136},{"user_id":165,"name":"Dazzleberry","steam_id":76561198030369150,"connected_time":1011000000000,"state":"active","ping":62},{"user_id":160,"name":"mae","steam_id":76561199263128928,"connected_time":1141000000000,"state":"active","ping":100},{"user_id":154,"name":"SpongedSocks","steam_id":76561198374009086,"connected_time":1227000000000,"state":"active","ping":71},{"user_id":162,"name":"FruitsBasket2004","steam_id":76561199483951635,"connected_time":1120000000000,"state":"active","ping":99},{"user_id":167,"name":"blobb","steam_id":76561198950448488,"connected_time":928000000000,"state":"active","ping":54},{"user_id":112,"name":"chaffy","steam_id":76561198021754567,"connected_time":4450000000000,"state":"active","ping":54},{"user_id":33,"name":"Alecto","steam_id":76561198042476864,"connected_time":10884000000000,"state":"active","ping":45}]},{"server_id":402,"name":"Uncletopia | Chicago | 3 | All Maps","name_short":"chi-3","host":"chi-1.us.uncletopia.com","port":27035,"enabled":true,"region":"us-central","cc":"us","latitude":41.881832,"longitude":-87.62318,"reserved":0,"last_update":"0001-01-01T00:00:00Z","name_a2s":"Uncletopia | Chicago | 3 | All Maps","protocol":17,"map":"cp_gorge","folder":"tf","game":"Team Fortress","app_id":440,"player_count":24,"max_players":24,"Bots":0,"server_type":"Dedicated","server_os":"Linux","password":true,"vac":true,"version":"7882260","steam_id":85568392924515191,"keywords":["cp","nocrits","nodmgspread","uncletopia"],"game_id":440,"stv_port":27036,"stv_name":"Uncletopia | Chicago | 3 | All Maps | STV","players":[{"user_id":258,"name":"Smuckers Jelly","steam_id":76561198066114874,"connected_time":1043000000000,"state":"active","ping":106},{"user_id":247,"name":"GameboyAdvancedSPMobileHotspot","steam_id":76561198413739460,"connected_time":1661000000000,"state":"active","ping":110},{"user_id":245,"name":"All 24 Pok√©mon movies at once","steam_id":76561198164738311,"connected_time":1709000000000,"state":"active","ping":66},{"user_id":264,"name":"Fartmaster2009","steam_id":76561199108357812,"connected_time":761000000000,"state":"active","ping":68},{"user_id":261,"name":"Duckywinner","steam_id":76561198254828139,"connected_time":878000000000,"state":"active","ping":96},{"user_id":221,"name":"bajahero2","steam_id":76561198800900582,"connected_time":3985000000000,"state":"active","ping":87},{"user_id":227,"name":"Salty","steam_id":76561198019195732,"connected_time":3391000000000,"state":"active","ping":74},{"user_id":207,"name":"luki*","steam_id":76561198356797796,"connected_time":4471000000000,"state":"active","ping":170},{"user_id":268,"name":"Spinal_Spit","steam_id":76561198010204565,"connected_time":351000000000,"state":"active","ping":64},{"user_id":163,"name":"Praise Hero","steam_id":76561198071362210,"connected_time":7753000000000,"state":"active","ping":81},{"user_id":242,"name":"[GL] Lord Stolas","steam_id":76561199228319575,"connected_time":2459000000000,"state":"active","ping":95},{"user_id":237,"name":"Simply-Vincenzo","steam_id":76561198044580842,"connected_time":2643000000000,"state":"active","ping":131},{"user_id":211,"name":"Zixzs","steam_id":76561198055504126,"connected_time":4328000000000,"state":"active","ping":64},{"user_id":246,"name":"Ockulus","steam_id":76561199069638460,"connected_time":1709000000000,"state":"active","ping":103},{"user_id":259,"name":"Lylith!!!","steam_id":76561198386687546,"connected_time":998000000000,"state":"active","ping":74},{"user_id":267,"name":"Paquisnail","steam_id":76561198115076715,"connected_time":495000000000,"state":"active","ping":57},{"user_id":255,"name":"Chypp","steam_id":76561198134090388,"connected_time":1385000000000,"state":"active","ping":60},{"user_id":252,"name":"I AM Malik","steam_id":76561198322021485,"connected_time":1569000000000,"state":"active","ping":63},{"user_id":244,"name":"Try Gardening","steam_id":76561198120311340,"connected_time":1939000000000,"state":"active","ping":48},{"user_id":270,"name":"WatchWill","steam_id":76561198157237945,"connected_time":93000000000,"state":"active","ping":66},{"user_id":265,"name":"Peter Popoff","steam_id":76561198027171160,"connected_time":615000000000,"state":"active","ping":32},{"user_id":263,"name":"maS","steam_id":76561198033846407,"connected_time":862000000000,"state":"active","ping":57},{"user_id":266,"name":"pumpernickelpeter47","steam_id":76561198202016334,"connected_time":536000000000,"state":"active","ping":68},{"user_id":269,"name":"keffers","steam_id":76561198202338796,"connected_time":189000000000,"state":"active","ping":75}]},{"server_id":403,"name":"Uncletopia | Chicago | 4 | All Maps","name_short":"chi-4","host":"chi-1.us.uncletopia.com","port":27045,"enabled":true,"region":"us-central","cc":"us","latitude":41.881832,"longitude":-87.62318,"reserved":0,"last_update":"0001-01-01T00:00:00Z","name_a2s":"Uncletopia | Chicago | 4 | All Maps","protocol":17,"map":"cp_dustbowl","folder":"tf","game":"Team Fortress","app_id":440,"player_count":0,"max_players":24,"Bots":0,"server_type":"Dedicated","server_os":"Linux","password":true,"vac":true,"version":"7882260","steam_id":85568392924515193,"keywords":["cp","nocrits","nodmgspread","uncletopia"],"game_id":440,"stv_port":27046,"stv_name":"Uncletopia | Chicago | 4 | All Maps | STV","players":null},{"server_id":36,"name":"Uncletopia | Chicago | 5 | All Maps","name_short":"chi-5","host":"chi-2.us.uncletopia.com","port":27015,"enabled":true,"region":"us-central","cc":"us","latitude":41.881832,"longitude":-87.62318,"reserved":0,"last_update":"0001-01-01T00:00:00Z","name_a2s":"Uncletopia | Chicago | 5 | All Maps","protocol":17,"map":"cp_dustbowl","folder":"tf","game":"Team Fortress","app_id":440,"player_count":0,"max_players":24,"Bots":0,"server_type":"Dedicated","server_os":"Linux","password":true,"vac":true,"version":"7882260","steam_id":85568392924866362,"keywords":["cp","nocrits","nodmgspread","uncletopia"],"game_id":440,"stv_port":27016,"stv_name":"Uncletopia | Chicago | 5 | All Maps | STV","players":null},{"server_id":37,"name":"Uncletopia | Chicago | 6 | All Maps","name_short":"chi-6","host":"chi-2.us.uncletopia.com","port":27025,"enabled":true,"region":"us-central","cc":"us","latitude":41.881832,"longitude":-87.62318,"reserved":0,"last_update":"0001-01-01T00:00:00Z","name_a2s":"Uncletopia | Chicago | 6 | All Maps","protocol":17,"map":"cp_gorge","folder":"tf","game":"Team Fortress","app_id":440,"player_count":24,"max_players":24,"Bots":0,"server_type":"Dedicated","server_os":"Linux","password":true,"vac":true,"version":"7882260","steam_id":85568392924866363,"keywords":["cp","nocrits","nodmgspread","uncletopia"],"game_id":440,"stv_port":27026,"stv_name":"Uncletopia | Chicago | 6 | All Maps | STV","players":[{"user_id":339,"name":"bape","steam_id":76561198253731826,"connected_time":245000000000,"state":"active","ping":52},{"user_id":334,"name":"thisisSteve","steam_id":76561198420882318,"connected_time":489000000000,"state":"active","ping":94},{"user_id":326,"name":"catrinaisahuman","steam_id":76561198281355729,"connected_time":721000000000,"state":"active","ping":63},{"user_id":327,"name":"Meat Mans Meat","steam_id":76561198062149455,"connected_time":674000000000,"state":"active","ping":60},{"user_id":305,"name":"katryna","steam_id":76561198023440304,"connected_time":1941000000000,"state":"active","ping":49},{"user_id":340,"name":"motherfucker 2.0","steam_id":76561198141189209,"connected_time":203000000000,"state":"active","ping":62},{"user_id":301,"name":"LIFE","steam_id":76561198027146328,"connected_time":1993000000000,"state":"active","ping":38},{"user_id":300,"name":"Soju","steam_id":76561198044130442,"connected_time":2034000000000,"state":"active","ping":77},{"user_id":343,"name":"Kxzem","steam_id":76561198344185674,"connected_time":39000000000,"state":"active","ping":75},{"user_id":292,"name":"twizted","steam_id":76561197960407274,"connected_time":3333000000000,"state":"active","ping":71},{"user_id":342,"name":"Sparky","steam_id":76561198114574421,"connected_time":83000000000,"state":"active","ping":116},{"user_id":328,"name":"Hevi","steam_id":76561199071067695,"connected_time":618000000000,"state":"active","ping":64},{"user_id":320,"name":"Lichcraft","steam_id":76561199111930820,"connected_time":1284000000000,"state":"active","ping":84},{"user_id":336,"name":"Elite_Friendly","steam_id":76561198819972127,"connected_time":343000000000,"state":"active","ping":90},{"user_id":331,"name":"knight","steam_id":76561199467779621,"connected_time":592000000000,"state":"active","ping":157},{"user_id":314,"name":"‚ô• kiss me ‚ô•","steam_id":76561198014557455,"connected_time":1572000000000,"state":"active","ping":60},{"user_id":304,"name":"Mighty","steam_id":76561198080590248,"connected_time":1945000000000,"state":"active","ping":53},{"user_id":315,"name":"CyberZayne","steam_id":76561198002351356,"connected_time":1563000000000,"state":"active","ping":119},{"user_id":338,"name":"AllThatJazz","steam_id":76561198296914213,"connected_time":275000000000,"state":"active","ping":68},{"user_id":341,"name":"Mediocre Medic","steam_id":76561198006569710,"connected_time":172000000000,"state":"active","ping":84},{"user_id":332,"name":"Se√±or Marrano","steam_id":76561198083952982,"connected_time":578000000000,"state":"active","ping":107},{"user_id":321,"name":"ktlynma","steam_id":76561199136466083,"connected_time":1260000000000,"state":"active","ping":87},{"user_id":333,"name":"mastercoms","steam_id":76561198046110893,"connected_time":567000000000,"state":"active","ping":57},{"user_id":322,"name":"ricebox","steam_id":76561197998059533,"connected_time":1249000000000,"state":"active","ping":61}]},{"server_id":38,"name":"Uncletopia | Chicago | 7 | Stopwatch Beta","name_short":"chi-7","host":"chi-2.us.uncletopia.com","port":27035,"enabled":true,"region":"us-central","cc":"us","latitude":41.881832,"longitude":-87.62318,"reserved":0,"last_update":"0001-01-01T00:00:00Z","name_a2s":"Uncletopia | Chicago | 7 | Stopwatch Beta","protocol":17,"map":"koth_lakeside_final","folder":"tf","game":"Team Fortress","app_id":440,"player_count":22,"max_players":24,"Bots":0,"server_type":"Dedicated","server_os":"Linux","password":true,"vac":true,"version":"7882260","steam_id":85568392924866364,"keywords":["cp","nocrits","nodmgspread","uncletopia"],"game_id":440,"stv_port":27036,"stv_name":"Uncletopia | Chicago | 7 | Stopwatch Beta | STV","players":[{"user_id":24,"name":"Fireborou","steam_id":76561198329636258,"connected_time":2459000000000,"state":"active","ping":86},{"user_id":41,"name":"n8thegr83008","steam_id":76561198214814260,"connected_time":1601000000000,"state":"active","ping":71},{"user_id":8,"name":"pizza patrol","steam_id":76561199238923581,"connected_time":4284000000000,"state":"active","ping":125},{"user_id":9,"name":"Hope","steam_id":76561199201900779,"connected_time":3176000000000,"state":"active","ping":77},{"user_id":20,"name":"Cherry Bomb!","steam_id":76561198017947020,"connected_time":2544000000000,"state":"active","ping":66},{"user_id":48,"name":"Rocky","steam_id":76561198048158539,"connected_time":840000000000,"state":"active","ping":75},{"user_id":55,"name":"Some random dude","steam_id":76561199477705792,"connected_time":584000000000,"state":"active","ping":115},{"user_id":14,"name":"The Chicken Hunter","steam_id":76561198015240136,"connected_time":3082000000000,"state":"active","ping":76},{"user_id":58,"name":"sunny","steam_id":76561198069380992,"connected_time":41000000000,"state":"active","ping":79},{"user_id":22,"name":"eclipseDemise","steam_id":76561198317900751,"connected_time":2490000000000,"state":"active","ping":70},{"user_id":23,"name":"Kasodani Kyouko","steam_id":76561198023178589,"connected_time":2474000000000,"state":"active","ping":87},{"user_id":56,"name":"Macro","steam_id":76561199442846226,"connected_time":315000000000,"state":"active","ping":77},{"user_id":30,"name":"eryn üó∫","steam_id":76561198004433070,"connected_time":2092000000000,"state":"active","ping":80},{"user_id":35,"name":"Evandale","steam_id":76561198136175924,"connected_time":1984000000000,"state":"active","ping":70},{"user_id":44,"name":"Nikostallvic","steam_id":76561198070369714,"connected_time":1169000000000,"state":"active","ping":72},{"user_id":53,"name":"The Janitor","steam_id":76561198370152780,"connected_time":703000000000,"state":"active","ping":64},{"user_id":39,"name":"bencw2020","steam_id":76561199444758049,"connected_time":1627000000000,"state":"active","ping":108},{"user_id":40,"name":"Sea raider","steam_id":76561198123982355,"connected_time":1617000000000,"state":"active","ping":110},{"user_id":42,"name":"evilstuntman","steam_id":76561198056911537,"connected_time":1582000000000,"state":"active","ping":53},{"user_id":47,"name":"ClericsRose","steam_id":76561198011013806,"connected_time":1015000000000,"state":"active","ping":114},{"user_id":45,"name":"Mecha","steam_id":76561198014927379,"connected_time":1063000000000,"state":"active","ping":71},{"user_id":46,"name":"ballistickill64","steam_id":76561199163875433,"connected_time":1062000000000,"state":"active","ping":92}]},{"server_id":39,"name":"Uncletopia | Chicago | 8 | Community","name_short":"chi-8","host":"chi-2.us.uncletopia.com","port":27045,"enabled":true,"region":"us-central","cc":"us","latitude":41.881832,"longitude":-87.62318,"reserved":0,"last_update":"0001-01-01T00:00:00Z","name_a2s":"Uncletopia | Chicago | 8 | Community","protocol":17,"map":"workshop/pl_fifthcurve_rc1.ugc648227046","folder":"tf","game":"Team Fortress","app_id":440,"player_count":0,"max_players":24,"Bots":0,"server_type":"Dedicated","server_os":"Linux","password":true,"vac":true,"version":"7882260","steam_id":85568392924866365,"keywords":["nocrits","nodmgspread","payload","uncletopia"],"game_id":440,"stv_port":27046,"stv_name":"Uncletopia | Chicago | 8 | Community | STV","players":null},{"server_id":8,"name":"Uncletopia | Dallas | 1 | All Maps","name_short":"dal-1","host":"dal-1.us.uncletopia.com","port":27015,"enabled":true,"region":"us-central","cc":"us","latitude":32.779167,"longitude":-96.80889,"reserved":0,"last_update":"0001-01-01T00:00:00Z","name_a2s":"Uncletopia | Dallas | 1 | All Maps","protocol":17,"map":"pl_swiftwater_final1","folder":"tf","game":"Team Fortress","app_id":440,"player_count":24,"max_players":24,"Bots":0,"server_type":"Dedicated","server_os":"Linux","password":true,"vac":true,"version":"7882260","steam_id":85568392924469986,"keywords":["nocrits","nodmgspread","payload","uncletopia"],"game_id":440,"stv_port":27016,"stv_name":"Uncletopia | Dallas | 1 | All Maps | STV","players":[{"user_id":77,"name":"Voodo133","steam_id":76561198042670351,"connected_time":4554000000000,"state":"active","ping":101},{"user_id":103,"name":"captainspatklz","steam_id":76561198432167270,"connected_time":2346000000000,"state":"active","ping":78},{"user_id":147,"name":"Zune","steam_id":76561198119382708,"connected_time":447000000000,"state":"active","ping":188},{"user_id":136,"name":"gabaghoulio","steam_id":76561198013650292,"connected_time":690000000000,"state":"active","ping":106},{"user_id":137,"name":"DrStarBucksCoffee","steam_id":76561198037372470,"connected_time":666000000000,"state":"active","ping":61},{"user_id":129,"name":"Mr.Pwesident","steam_id":76561198058114703,"connected_time":1339000000000,"state":"active","ping":82},{"user_id":152,"name":"Snoopy","steam_id":76561198273735974,"connected_time":139000000000,"state":"active","ping":82},{"user_id":151,"name":"Paloma Tetona","steam_id":76561199480945801,"connected_time":163000000000,"state":"active","ping":173},{"user_id":133,"name":"Gob","steam_id":76561199182212668,"connected_time":1171000000000,"state":"active","ping":73},{"user_id":144,"name":"The Black Ghost of Chip Skylark","steam_id":76561199486430601,"connected_time":562000000000,"state":"active","ping":66},{"user_id":108,"name":"Mediocre Gaming","steam_id":76561199230467980,"connected_time":2184000000000,"state":"active","ping":89},{"user_id":153,"name":"Lolxdloldx","steam_id":76561198136887125,"connected_time":128000000000,"state":"active","ping":98},{"user_id":128,"name":"Lucky","steam_id":76561198418262145,"connected_time":1528000000000,"state":"active","ping":132},{"user_id":135,"name":"gun spy training arc","steam_id":76561198400058665,"connected_time":1002000000000,"state":"active","ping":89},{"user_id":131,"name":"richarven","steam_id":76561198189429665,"connected_time":1260000000000,"state":"active","ping":74},{"user_id":134,"name":"Crim the Masta Fraga","steam_id":76561198010381425,"connected_time":1111000000000,"state":"active","ping":79},{"user_id":121,"name":"aiming with drawing tablet","steam_id":76561198397662124,"connected_time":1928000000000,"state":"active","ping":67},{"user_id":113,"name":"Sariff","steam_id":76561198136446352,"connected_time":2062000000000,"state":"active","ping":75},{"user_id":116,"name":"minecraft","steam_id":76561198104345201,"connected_time":2018000000000,"state":"active","ping":71},{"user_id":140,"name":"gromit","steam_id":76561198037746805,"connected_time":651000000000,"state":"active","ping":95},{"user_id":141,"name":"tydogzilla","steam_id":76561198054254518,"connected_time":649000000000,"state":"active","ping":147},{"user_id":142,"name":"Penguinodle","steam_id":76561199082347306,"connected_time":630000000000,"state":"active","ping":45},{"user_id":150,"name":"hforce11","steam_id":76561198087647130,"connected_time":212000000000,"state":"active","ping":61},{"user_id":127,"name":"Shalom","steam_id":76561198410005222,"connected_time":1762000000000,"state":"active","ping":63}]},{"server_id":108,"name":"Uncletopia | Dallas | 2 | All Maps","name_short":"dal-2","host":"dal-1.us.uncletopia.com","port":27025,"enabled":true,"region":"us-central","cc":"us","latitude":32.779167,"longitude":-96.80889,"reserved":0,"last_update":"0001-01-01T00:00:00Z","name_a2s":"Uncletopia | Dallas | 2 | All Maps","protocol":17,"map":"cp_powerhouse","folder":"tf","game":"Team Fortress","app_id":440,"player_count":23,"max_players":24,"Bots":0,"server_type":"Dedicated","server_os":"Linux","password":true,"vac":true,"version":"7882260","steam_id":85568392924469988,"keywords":["cp","nocrits","nodmgspread","uncletopia"],"game_id":440,"stv_port":27026,"stv_name":"Uncletopia | Dallas | 2 | All Maps | STV","players":[{"user_id":184,"name":"Lavender","steam_id":76561198142770666,"connected_time":2439000000000,"state":"active","ping":68},{"user_id":197,"name":"DivineBanana","steam_id":76561198026529731,"connected_time":1541000000000,"state":"active","ping":86},{"user_id":183,"name":"fungus flinger 37","steam_id":76561198119689085,"connected_time":2480000000000,"state":"active","ping":73},{"user_id":185,"name":"AnonymouzR011","steam_id":76561198262685906,"connected_time":2435000000000,"state":"active","ping":82},{"user_id":198,"name":"barker","steam_id":76561198128319767,"connected_time":1527000000000,"state":"active","ping":145},{"user_id":199,"name":"mantra","steam_id":76561198023496266,"connected_time":1514000000000,"state":"active","ping":44},{"user_id":145,"name":"Jonah Gaming","steam_id":76561198040969743,"connected_time":5430000000000,"state":"active","ping":73},{"user_id":166,"name":"Rin \"Hindwing\" Redtail","steam_id":76561199074865638,"connected_time":4219000000000,"state":"active","ping":45},{"user_id":207,"name":"Stick","steam_id":76561198001509374,"connected_time":620000000000,"state":"active","ping":46},{"user_id":206,"name":"AshMouse","steam_id":76561198151145819,"connected_time":1049000000000,"state":"active","ping":86},{"user_id":160,"name":"Bad Rollout","steam_id":76561197971948876,"connected_time":4525000000000,"state":"active","ping":91},{"user_id":200,"name":"Jim the Fish","steam_id":76561199135784419,"connected_time":1455000000000,"state":"active","ping":114},{"user_id":133,"name":"Verily","steam_id":76561198200558318,"connected_time":6425000000000,"state":"active","ping":86},{"user_id":189,"name":"Carnamate","steam_id":76561198138077990,"connected_time":2298000000000,"state":"active","ping":56},{"user_id":174,"name":"kingjeffry2012@hotmail.com","steam_id":76561198314104415,"connected_time":3032000000000,"state":"active","ping":82},{"user_id":204,"name":"Pyromaniac","steam_id":76561198101042701,"connected_time":1257000000000,"state":"active","ping":46},{"user_id":203,"name":"kid squid","steam_id":76561198167016289,"connected_time":1319000000000,"state":"active","ping":83},{"user_id":194,"name":"zeredis","steam_id":76561198076596689,"connected_time":1956000000000,"state":"active","ping":85},{"user_id":205,"name":"sad tool","steam_id":76561198052431073,"connected_time":1240000000000,"state":"active","ping":45},{"user_id":112,"name":"oh the treachery","steam_id":76561198127851014,"connected_time":8924000000000,"state":"active","ping":47},{"user_id":196,"name":"Wick","steam_id":76561198090764386,"connected_time":1581000000000,"state":"active","ping":89},{"user_id":192,"name":"Eeb","steam_id":76561198120935174,"connected_time":2154000000000,"state":"active","ping":101},{"user_id":179,"name":"Doomagedden","steam_id":76561198272589475,"connected_time":2787000000000,"state":"active","ping":58}]},{"server_id":5,"name":"Uncletopia | Frankfurt | 1 | All Maps","name_short":"frk-1","host":"frk-1.de.uncletopia.com","port":27015,"enabled":true,"region":"eu","cc":"de","latitude":50.110924,"longitude":8.682127,"reserved":0,"last_update":"0001-01-01T00:00:00Z","name_a2s":"Uncletopia | Frankfurt | 1 | All Maps","protocol":17,"map":"cp_dustbowl","folder":"tf","game":"Team Fortress","app_id":440,"player_count":21,"max_players":24,"Bots":0,"server_type":"Dedicated","server_os":"Linux","password":true,"vac":true,"version":"7882260","steam_id":85568392924469989,"keywords":["cp","nocrits","nodmgspread","uncletopia"],"game_id":440,"stv_port":27016,"stv_name":"Uncletopia | Frankfurt | 1 | All Maps | STV","players":[{"user_id":450,"name":"Caliban","steam_id":76561197999696839,"connected_time":3621000000000,"state":"active","ping":113},{"user_id":496,"name":"YOU ARE SHITTING YOUR SELF","steam_id":76561198371719058,"connected_time":77000000000,"state":"active","ping":60},{"user_id":447,"name":"Monkey Engineer","steam_id":76561198057707263,"connected_time":3681000000000,"state":"active","ping":71},{"user_id":490,"name":"ArikMor","steam_id":76561199124472513,"connected_time":376000000000,"state":"active","ping":573},{"user_id":492,"name":"noble","steam_id":76561197987688539,"connected_time":236000000000,"state":"active","ping":89},{"user_id":481,"name":"Fallen Dog","steam_id":76561198851387188,"connected_time":838000000000,"state":"active","ping":71},{"user_id":452,"name":"DariBro","steam_id":76561198155444173,"connected_time":3098000000000,"state":"active","ping":67},{"user_id":473,"name":"Chlorine","steam_id":76561198995993972,"connected_time":1291000000000,"state":"active","ping":69},{"user_id":420,"name":"Veile","steam_id":76561199007201531,"connected_time":4690000000000,"state":"active","ping":90},{"user_id":482,"name":"European_Fox","steam_id":76561198053691182,"connected_time":820000000000,"state":"active","ping":79},{"user_id":440,"name":"Razorback from Team Fortress 2","steam_id":76561199214163032,"connected_time":4196000000000,"state":"active","ping":87},{"user_id":445,"name":"Hivel","steam_id":76561198151390773,"connected_time":3984000000000,"state":"active","ping":92},{"user_id":465,"name":"Heisenburger","steam_id":76561199009677881,"connected_time":1910000000000,"state":"active","ping":85},{"user_id":483,"name":"Ganasti","steam_id":76561198382925185,"connected_time":816000000000,"state":"active","ping":91},{"user_id":486,"name":"h4cked by floyd...","steam_id":76561198382823452,"connected_time":649000000000,"state":"active","ping":106},{"user_id":480,"name":"WaveFlux","steam_id":76561198267604726,"connected_time":916000000000,"state":"active","ping":55},{"user_id":475,"name":"MaximusTheFish","steam_id":76561199025652089,"connected_time":1184000000000,"state":"active","ping":68},{"user_id":484,"name":"Zedespook","steam_id":76561198265479349,"connected_time":815000000000,"state":"active","ping":56},{"user_id":468,"name":"Shadow The Hedgehog","steam_id":76561198323622980,"connected_time":1831000000000,"state":"active","ping":89},{"user_id":469,"name":"thia","steam_id":76561198186366599,"connected_time":1792000000000,"state":"active","ping":115},{"user_id":488,"name":"SPIRIT SIMP","steam_id":76561198993372539,"connected_time":490000000000,"state":"active","ping":69}]},{"server_id":110,"name":"Uncletopia | Frankfurt | 2 | All Maps","name_short":"frk-2","host":"frk-1.de.uncletopia.com","port":27025,"enabled":true,"region":"eu","cc":"de","latitude":50.110924,"longitude":8.682127,"reserved":0,"last_update":"0001-01-01T00:00:00Z","name_a2s":"Uncletopia | Frankfurt | 2 | All Maps","protocol":17,"map":"cp_steel","folder":"tf","game":"Team Fortress","app_id":440,"player_count":24,"max_players":24,"Bots":0,"server_type":"Dedicated","server_os":"Linux","password":true,"vac":true,"version":"7882260","steam_id":85568392924469990,"keywords":["cp","nocrits","nodmgspread","uncletopia"],"game_id":440,"stv_port":27026,"stv_name":"Uncletopia | Frankfurt | 2 | All Maps | STV","players":[{"user_id":203,"name":"Shino247","steam_id":76561199243968485,"connected_time":416000000000,"state":"active","ping":70},{"user_id":160,"name":"Egor Pomidor","steam_id":76561199175688390,"connected_time":2953000000000,"state":"active","ping":74},{"user_id":88,"name":"Doctor Rudy G. Numpad","steam_id":76561198440881106,"connected_time":6349000000000,"state":"active","ping":77},{"user_id":206,"name":"Potato","steam_id":76561198115604238,"connected_time":382000000000,"state":"active","ping":51},{"user_id":207,"name":"cajo1918","steam_id":76561199475862195,"connected_time":268000000000,"state":"active","ping":174},{"user_id":186,"name":"Dog ?","steam_id":76561198347020945,"connected_time":1016000000000,"state":"active","ping":82},{"user_id":156,"name":"BlinkedUp","steam_id":76561198249985618,"connected_time":3398000000000,"state":"active","ping":66},{"user_id":165,"name":"KatTheCookiCat","steam_id":76561199054643392,"connected_time":2098000000000,"state":"active","ping":50},{"user_id":202,"name":"JayKey","steam_id":76561198008847925,"connected_time":466000000000,"state":"active","ping":57},{"user_id":197,"name":"lyra","steam_id":76561198043601838,"connected_time":577000000000,"state":"active","ping":61},{"user_id":198,"name":"boppy","steam_id":76561199222546982,"connected_time":553000000000,"state":"active","ping":62},{"user_id":199,"name":"Viisaus","steam_id":76561198316533099,"connected_time":540000000000,"state":"active","ping":58},{"user_id":200,"name":"Ace","steam_id":76561198979117577,"connected_time":538000000000,"state":"active","ping":65},{"user_id":171,"name":"Dolcelatte","steam_id":76561198038501770,"connected_time":2017000000000,"state":"active","ping":60},{"user_id":182,"name":"Adolf Dripler","steam_id":76561199049502102,"connected_time":1479000000000,"state":"active","ping":82},{"user_id":201,"name":"Osman0","steam_id":76561198851527212,"connected_time":507000000000,"state":"active","ping":60},{"user_id":187,"name":"Turk Scout","steam_id":76561198975267711,"connected_time":915000000000,"state":"active","ping":100},{"user_id":209,"name":"Hildreth","steam_id":76561197995254867,"connected_time":137000000000,"state":"active","ping":60},{"user_id":204,"name":"IVAN","steam_id":76561199013333685,"connected_time":411000000000,"state":"active","ping":86},{"user_id":183,"name":"prophets","steam_id":76561198111134021,"connected_time":1467000000000,"state":"active","ping":108},{"user_id":143,"name":"meatsoupcube","steam_id":76561198276802249,"connected_time":4126000000000,"state":"active","ping":105},{"user_id":192,"name":"Max","steam_id":76561198080956366,"connected_time":706000000000,"state":"active","ping":86},{"user_id":205,"name":"Nobaddy","steam_id":76561198037871007,"connected_time":400000000000,"state":"active","ping":80},{"user_id":211,"name":"supercharger832","steam_id":76561198871408515,"connected_time":29000000000,"state":"spawning","ping":61}]},{"server_id":308,"name":"Uncletopia | Frankfurt | 3 | All Maps","name_short":"frk-3","host":"frk-1.de.uncletopia.com","port":27035,"enabled":true,"region":"eu","cc":"de","latitude":50.110924,"longitude":8.682127,"reserved":0,"last_update":"0001-01-01T00:00:00Z","name_a2s":"Uncletopia | Frankfurt | 3 | All Maps","protocol":17,"map":"pl_badwater","folder":"tf","game":"Team Fortress","app_id":440,"player_count":0,"max_players":24,"Bots":0,"server_type":"Dedicated","server_os":"Linux","password":true,"vac":true,"version":"7882260","steam_id":85568392924504274,"keywords":["nocrits","nodmgspread","payload","uncletopia"],"game_id":440,"stv_port":27036,"stv_name":"Uncletopia | Frankfurt | 3 | All Maps | STV","players":null},{"server_id":309,"name":"Uncletopia | Frankfurt | 4 | All Maps","name_short":"frk-4","host":"frk-1.de.uncletopia.com","port":27045,"enabled":true,"region":"eu","cc":"de","latitude":50.110924,"longitude":8.682127,"reserved":0,"last_update":"0001-01-01T00:00:00Z","name_a2s":"Uncletopia | Frankfurt | 4 | All Maps","protocol":17,"map":"pl_swiftwater_final1","folder":"tf","game":"Team Fortress","app_id":440,"player_count":0,"max_players":24,"Bots":0,"server_type":"Dedicated","server_os":"Linux","password":true,"vac":true,"version":"7882260","steam_id":85568392924504275,"keywords":["nocrits","nodmgspread","payload","uncletopia"],"game_id":440,"stv_port":27046,"stv_name":"Uncletopia | Frankfurt | 4 | All Maps | STV","players":null},{"server_id":310,"name":"Uncletopia | Frankfurt | 5 | All Maps","name_short":"frk-5","host":"frk-1.de.uncletopia.com","port":27055,"enabled":true,"region":"eu","cc":"de","latitude":50.110924,"longitude":8.682127,"reserved":0,"last_update":"0001-01-01T00:00:00Z","name_a2s":"Uncletopia | Frankfurt | 5 | All Maps","protocol":17,"map":"pl_barnblitz","folder":"tf","game":"Team Fortress","app_id":440,"player_count":24,"max_players":24,"Bots":0,"server_type":"Dedicated","server_os":"Linux","password":true,"vac":true,"version":"7882260","steam_id":85568392924504277,"keywords":["nocrits","nodmgspread","payload","uncletopia"],"game_id":440,"stv_port":27056,"stv_name":"Uncletopia | Frankfurt | 5 | All Maps | STV","players":[{"user_id":277,"name":"Watermelon","steam_id":76561198078349914,"connected_time":3763000000000,"state":"active","ping":62},{"user_id":288,"name":"callum1h3","steam_id":76561198106811440,"connected_time":3128000000000,"state":"active","ping":57},{"user_id":317,"name":"Felwo3","steam_id":76561199217352978,"connected_time":601000000000,"state":"active","ping":103},{"user_id":300,"name":"greasy breads","steam_id":76561198012508076,"connected_time":2018000000000,"state":"active","ping":136},{"user_id":320,"name":"Mac Zasca","steam_id":76561198115345512,"connected_time":396000000000,"state":"active","ping":81},{"user_id":287,"name":"MpJens","steam_id":76561198000347669,"connected_time":3199000000000,"state":"active","ping":46},{"user_id":299,"name":"Joe","steam_id":76561198145639903,"connected_time":2252000000000,"state":"active","ping":97},{"user_id":261,"name":"Gaxkang","steam_id":76561198125768571,"connected_time":5276000000000,"state":"active","ping":68},{"user_id":308,"name":"Raulca25","steam_id":76561199068256964,"connected_time":1299000000000,"state":"active","ping":84},{"user_id":307,"name":"Shovelhalfrusty","steam_id":76561198346447513,"connected_time":1542000000000,"state":"active","ping":71},{"user_id":286,"name":"tf2 enjoyer","steam_id":76561199106689292,"connected_time":3232000000000,"state":"active","ping":169},{"user_id":295,"name":"fredu","steam_id":76561198107605938,"connected_time":2771000000000,"state":"active","ping":87},{"user_id":314,"name":"slifer the executive producer","steam_id":76561198322087870,"connected_time":1020000000000,"state":"active","ping":114},{"user_id":322,"name":"Sneaky","steam_id":76561198069417496,"connected_time":88000000000,"state":"active","ping":100},{"user_id":263,"name":"NO end to POOTIS","steam_id":76561198144879361,"connected_time":5207000000000,"state":"active","ping":132},{"user_id":316,"name":"Hat Lover","steam_id":76561198312283433,"connected_time":678000000000,"state":"active","ping":84},{"user_id":321,"name":"Akkie.","steam_id":76561198017619091,"connected_time":119000000000,"state":"active","ping":66},{"user_id":257,"name":"MILKY","steam_id":76561199261620682,"connected_time":5406000000000,"state":"active","ping":84},{"user_id":297,"name":"USBug999","steam_id":76561199174677820,"connected_time":2738000000000,"state":"active","ping":124},{"user_id":301,"name":"Ë™∞„Åã„ÅåË¶ã„Å¶„ÅÑ„Çã","steam_id":76561198834913692,"connected_time":1954000000000,"state":"active","ping":66},{"user_id":312,"name":"Well, off to hang myself","steam_id":76561198053374944,"connected_time":1107000000000,"state":"active","ping":73},{"user_id":230,"name":"waluigi","steam_id":76561198215809251,"connected_time":7709000000000,"state":"active","ping":54},{"user_id":315,"name":"Kaule goede gamer (leugen)","steam_id":76561198051685232,"connected_time":862000000000,"state":"active","ping":53},{"user_id":270,"name":"Evix","steam_id":76561198418450671,"connected_time":4598000000000,"state":"active","ping":76}]},{"server_id":311,"name":"Uncletopia | Frankfurt | 6 | All Maps","name_short":"frk-6","host":"frk-1.de.uncletopia.com","port":27065,"enabled":true,"region":"eu","cc":"de","latitude":50.110924,"longitude":8.682127,"reserved":0,"last_update":"0001-01-01T00:00:00Z","name_a2s":"Uncletopia | Frankfurt | 6 | All Maps","protocol":17,"map":"pl_pier","folder":"tf","game":"Team Fortress","app_id":440,"player_count":24,"max_players":24,"Bots":0,"server_type":"Dedicated","server_os":"Linux","password":true,"vac":true,"version":"7882260","steam_id":85568392924504278,"keywords":["nocrits","nodmgspread","payload","uncletopia"],"game_id":440,"stv_port":27066,"stv_name":"Uncletopia | Frankfurt | 6 | All Maps | STV","players":[{"user_id":335,"name":"[P-roc] Lovely","steam_id":76561198074361075,"connected_time":1735000000000,"state":"active","ping":60},{"user_id":332,"name":"SaltyCupcakes","steam_id":76561198256386417,"connected_time":1861000000000,"state":"active","ping":59},{"user_id":359,"name":"Crimson","steam_id":76561198154413600,"connected_time":557000000000,"state":"active","ping":70},{"user_id":351,"name":"voco","steam_id":76561198179250642,"connected_time":1473000000000,"state":"active","ping":106},{"user_id":236,"name":"prot√´in","steam_id":76561197998423616,"connected_time":8948000000000,"state":"active","ping":75},{"user_id":330,"name":"[P-roc] Cmm Bert","steam_id":76561198016658674,"connected_time":1918000000000,"state":"active","ping":75},{"user_id":360,"name":"Dragonfly","steam_id":76561198154350231,"connected_time":556000000000,"state":"active","ping":72},{"user_id":344,"name":"TECbias","steam_id":76561198109808372,"connected_time":1589000000000,"state":"active","ping":65},{"user_id":354,"name":"paracetamol","steam_id":76561198320336543,"connected_time":1215000000000,"state":"active","ping":97},{"user_id":361,"name":"Solymr ibn Wali Barad","steam_id":76561198044008976,"connected_time":553000000000,"state":"active","ping":71},{"user_id":365,"name":"Average meme enjoyer","steam_id":76561199087566663,"connected_time":139000000000,"state":"active","ping":86},{"user_id":358,"name":"Miton","steam_id":76561197970323209,"connected_time":668000000000,"state":"active","ping":82},{"user_id":339,"name":"Ecin","steam_id":76561198816655769,"connected_time":1716000000000,"state":"active","ping":54},{"user_id":349,"name":"qwertyrealschru_lll","steam_id":76561199120083473,"connected_time":1518000000000,"state":"active","ping":77},{"user_id":340,"name":"dusty","steam_id":76561199011977567,"connected_time":1700000000000,"state":"active","ping":56},{"user_id":366,"name":"earl","steam_id":76561198235739036,"connected_time":108000000000,"state":"active","ping":71},{"user_id":352,"name":"twitch.tv/ofikoMazush1","steam_id":76561198149515082,"connected_time":1275000000000,"state":"active","ping":71},{"user_id":284,"name":"cotroD","steam_id":76561198130063938,"connected_time":5285000000000,"state":"active","ping":107},{"user_id":364,"name":"MalatodiMenta","steam_id":76561198070370194,"connected_time":435000000000,"state":"active","ping":61},{"user_id":362,"name":"jt7","steam_id":76561198073655162,"connected_time":551000000000,"state":"active","ping":66},{"user_id":357,"name":"dogot","steam_id":76561198880890519,"connected_time":812000000000,"state":"active","ping":75},{"user_id":367,"name":"derfie","steam_id":76561198062797578,"connected_time":40000000000,"state":"active","ping":71},{"user_id":356,"name":"Oriuke","steam_id":76561197992166123,"connected_time":911000000000,"state":"active","ping":60},{"user_id":325,"name":"Bullet magnet (FIN)","steam_id":76561197975715220,"connected_time":2353000000000,"state":"active","ping":76}]},{"server_id":23,"name":"Uncletopia | Frankfurt | 7 | Stopwatch Beta","name_short":"frk-7","host":"frk-1.de.uncletopia.com","port":27075,"enabled":true,"region":"eu","cc":"de","latitude":50.110924,"longitude":8.682127,"reserved":0,"last_update":"0001-01-01T00:00:00Z","name_a2s":"Uncletopia | Frankfurt | 7 | Stopwatch Beta","protocol":17,"map":"workshop/koth_bagel_rc6.ugc2514036946","folder":"tf","game":"Team Fortress","app_id":440,"player_count":0,"max_players":24,"Bots":0,"server_type":"Dedicated","server_os":"Linux","password":true,"vac":true,"version":"7882260","steam_id":85568392924742827,"keywords":["cp","nocrits","nodmgspread","uncletopia"],"game_id":440,"stv_port":27076,"stv_name":"Uncletopia | Frankfurt | 7 | Stopwatch Beta | STV","players":null},{"server_id":24,"name":"Uncletopia | Frankfurt | 8 | Community","name_short":"frk-8","host":"frk-1.de.uncletopia.com","port":27085,"enabled":true,"region":"eu","cc":"de","latitude":50.110924,"longitude":8.682127,"reserved":0,"last_update":"0001-01-01T00:00:00Z","name_a2s":"Uncletopia | Frankfurt | 8 | Community","protocol":17,"map":"workshop/cp_kalinka_rc6a.ugc1272700588","folder":"tf","game":"Team Fortress","app_id":440,"player_count":0,"max_players":24,"Bots":0,"server_type":"Dedicated","server_os":"Linux","password":true,"vac":true,"version":"7882260","steam_id":85568392924742828,"keywords":["cp","nocrits","nodmgspread","uncletopia"],"game_id":440,"stv_port":27086,"stv_name":"Uncletopia | Frankfurt | 8 | Community | STV","players":null},{"server_id":202,"name":"Uncletopia | Hong Kong | 1 | All Maps","name_short":"hgk-1","host":"hgk-1.hk.uncletopia.com","port":27015,"enabled":true,"region":"asia","cc":"hk","latitude":22.302711,"longitude":114.177216,"reserved":0,"last_update":"0001-01-01T00:00:00Z","name_a2s":"Uncletopia | Hong Kong | 1 | All Maps","protocol":17,"map":"pl_borneo","folder":"tf","game":"Team Fortress","app_id":440,"player_count":0,"max_players":24,"Bots":0,"server_type":"Dedicated","server_os":"Linux","password":true,"vac":true,"version":"7882260","steam_id":85568392924494504,"keywords":["nocrits","nodmgspread","payload","uncletopia"],"game_id":440,"stv_port":27016,"stv_name":"Uncletopia | Hong Kong | 1 | All Maps | STV","players":null},{"server_id":1,"name":"Uncletopia | Los Angeles | 1 | All Maps","name_short":"lax-1","host":"lax-1.us.uncletopia.com","port":27015,"enabled":true,"region":"us-west","cc":"us","latitude":33.94279,"longitude":-118.41004,"reserved":0,"last_update":"0001-01-01T00:00:00Z","name_a2s":"Uncletopia | Los Angeles | 1 | All Maps","protocol":17,"map":"pl_barnblitz","folder":"tf","game":"Team Fortress","app_id":440,"player_count":0,"max_players":24,"Bots":0,"server_type":"Dedicated","server_os":"Linux","password":true,"vac":true,"version":"7882260","steam_id":85568392924469991,"keywords":["nocrits","nodmgspread","payload","uncletopia"],"game_id":440,"stv_port":27016,"stv_name":"Uncletopia | Los Angeles | 1 | All Maps | STV","players":null},{"server_id":112,"name":"Uncletopia | Los Angeles | 2 | All Maps","name_short":"lax-2","host":"lax-1.us.uncletopia.com","port":27025,"enabled":true,"region":"us-west","cc":"us","latitude":33.94279,"longitude":-118.41004,"reserved":0,"last_update":"0001-01-01T00:00:00Z","name_a2s":"Uncletopia | Los Angeles | 2 | All Maps","protocol":17,"map":"pl_snowycoast","folder":"tf","game":"Team Fortress","app_id":440,"player_count":0,"max_players":24,"Bots":0,"server_type":"Dedicated","server_os":"Linux","password":true,"vac":true,"version":"7882260","steam_id":85568392924469992,"keywords":["nocrits","nodmgspread","payload","uncletopia"],"game_id":440,"stv_port":27026,"stv_name":"Uncletopia | Los Angeles | 2 | All Maps | STV","players":null},{"server_id":324,"name":"Uncletopia | Los Angeles | 3 | All Maps","name_short":"lax-3","host":"lax-1.us.uncletopia.com","port":27035,"enabled":true,"region":"us-west","cc":"us","latitude":33.94279,"longitude":-118.41004,"reserved":0,"last_update":"0001-01-01T00:00:00Z","name_a2s":"Uncletopia | Los Angeles | 3 | All Maps","protocol":17,"map":"pl_upward","folder":"tf","game":"Team Fortress","app_id":440,"player_count":0,"max_players":24,"Bots":0,"server_type":"Dedicated","server_os":"Linux","password":true,"vac":true,"version":"7882260","steam_id":85568392924510198,"keywords":["nocrits","nodmgspread","payload","uncletopia"],"game_id":440,"stv_port":27036,"stv_name":"Uncletopia | Los Angeles | 3 | All Maps | STV","players":null},{"server_id":25,"name":"Uncletopia | Los Angeles | 4 | Stopwatch Beta","name_short":"lax-4","host":"lax-1.us.uncletopia.com","port":27045,"enabled":true,"region":"us-west","cc":"us","latitude":33.94279,"longitude":-118.41004,"reserved":0,"last_update":"0001-01-01T00:00:00Z","name_a2s":"Uncletopia | Los Angeles | 4 | Stopwatch Beta","protocol":17,"map":"koth_viaduct","folder":"tf","game":"Team Fortress","app_id":440,"player_count":0,"max_players":24,"Bots":0,"server_type":"Dedicated","server_os":"Linux","password":true,"vac":true,"version":"7882260","steam_id":85568392924510199,"keywords":["cp","nocrits","nodmgspread","uncletopia"],"game_id":440,"stv_port":27046,"stv_name":"Uncletopia | Los Angeles | 4 | Stopwatch Beta | STV","players":null},{"server_id":11,"name":"Uncletopia | London | 1 | All Maps","name_short":"lon-1","host":"lon-1.uk.uncletopia.com","port":27015,"enabled":true,"region":"eu","cc":"gb","latitude":51.509865,"longitude":-0.118092,"reserved":0,"last_update":"0001-01-01T00:00:00Z","name_a2s":"Uncletopia | London | 1 | All Maps","protocol":17,"map":"pl_badwater","folder":"tf","game":"Team Fortress","app_id":440,"player_count":24,"max_players":24,"Bots":0,"server_type":"Dedicated","server_os":"Linux","password":true,"vac":true,"version":"7882260","steam_id":85568392924367362,"keywords":["nocrits","nodmgspread","payload","uncletopia"],"game_id":440,"stv_port":27016,"stv_name":"Uncletopia | London | 1 | All Maps | STV","players":[{"user_id":625,"name":"hud_saytext_time 0","steam_id":76561198010327228,"connected_time":1152000000000,"state":"active","ping":67},{"user_id":642,"name":"Wilderhammer","steam_id":76561198132133702,"connected_time":451000000000,"state":"active","ping":58},{"user_id":640,"name":"shooer!","steam_id":76561198110531281,"connected_time":518000000000,"state":"active","ping":70},{"user_id":624,"name":"soup disliker","steam_id":76561198101451654,"connected_time":1569000000000,"state":"active","ping":46},{"user_id":514,"name":"Mika","steam_id":76561199183780280,"connected_time":6713000000000,"state":"active","ping":107},{"user_id":590,"name":"Show me your gun","steam_id":76561198368339225,"connected_time":4617000000000,"state":"active","ping":131},{"user_id":629,"name":"Max Power","steam_id":76561198019269089,"connected_time":808000000000,"state":"active","ping":56},{"user_id":595,"name":"xanguish‚ù§","steam_id":76561198086442571,"connected_time":4272000000000,"state":"active","ping":45},{"user_id":630,"name":"KHEY","steam_id":76561198035380064,"connected_time":799000000000,"state":"active","ping":59},{"user_id":643,"name":"DLS 29","steam_id":76561198966669474,"connected_time":335000000000,"state":"active","ping":71},{"user_id":641,"name":"Rooce","steam_id":76561199061011421,"connected_time":477000000000,"state":"active","ping":72},{"user_id":620,"name":"Mr Lemon","steam_id":76561198054685254,"connected_time":2209000000000,"state":"active","ping":63},{"user_id":480,"name":"Snake-chan","steam_id":76561199044755854,"connected_time":9688000000000,"state":"active","ping":75},{"user_id":638,"name":"laza's boy","steam_id":76561199074095198,"connected_time":611000000000,"state":"active","ping":112},{"user_id":632,"name":"Armo PRO90","steam_id":76561198138789964,"connected_time":794000000000,"state":"active","ping":63},{"user_id":639,"name":"Raivop","steam_id":76561197980854307,"connected_time":570000000000,"state":"active","ping":94},{"user_id":594,"name":"Ted Kaczynski","steam_id":76561198064795519,"connected_time":4436000000000,"state":"active","ping":59},{"user_id":614,"name":"quick","steam_id":76561198158981187,"connected_time":2576000000000,"state":"active","ping":86},{"user_id":627,"name":"Freyja","steam_id":76561198207412177,"connected_time":981000000000,"state":"active","ping":160},{"user_id":617,"name":"Zlyron","steam_id":76561198951447833,"connected_time":2536000000000,"state":"active","ping":95},{"user_id":621,"name":"Alexandre","steam_id":76561198121784446,"connected_time":2181000000000,"state":"active","ping":37},{"user_id":537,"name":"Jiipeeze","steam_id":76561198316154333,"connected_time":5858000000000,"state":"active","ping":86},{"user_id":635,"name":"KillFatih","steam_id":76561198289729882,"connected_time":737000000000,"state":"active","ping":89},{"user_id":623,"name":"MoistMomMauler","steam_id":76561198069359049,"connected_time":1727000000000,"state":"active","ping":76}]},{"server_id":114,"name":"Uncletopia | London | 2 | All Maps","name_short":"lon-2","host":"lon-1.uk.uncletopia.com","port":27025,"enabled":true,"region":"eu","cc":"gb","latitude":51.509865,"longitude":-0.118092,"reserved":0,"last_update":"0001-01-01T00:00:00Z","name_a2s":"Uncletopia | London | 2 | All Maps","protocol":17,"map":"pl_frontier_final","folder":"tf","game":"Team Fortress","app_id":440,"player_count":20,"max_players":24,"Bots":0,"server_type":"Dedicated","server_os":"Linux","password":true,"vac":true,"version":"7882260","steam_id":85568392924470941,"keywords":["nocrits","nodmgspread","payload","uncletopia"],"game_id":440,"stv_port":27026,"stv_name":"Uncletopia | London | 2 | All Maps | STV","players":[{"user_id":208,"name":"FJADL","steam_id":76561198237008214,"connected_time":232000000000,"state":"active","ping":60},{"user_id":191,"name":"generic alias","steam_id":76561198271607226,"connected_time":1450000000000,"state":"active","ping":80},{"user_id":47,"name":"john fortress","steam_id":76561198013237629,"connected_time":12090000000000,"state":"active","ping":96},{"user_id":158,"name":"chugger beef","steam_id":76561198372130358,"connected_time":3122000000000,"state":"active","ping":46},{"user_id":206,"name":"Carrot (woman)","steam_id":76561198139404261,"connected_time":347000000000,"state":"active","ping":40},{"user_id":189,"name":"DocTwoEight","steam_id":76561198153488940,"connected_time":1552000000000,"state":"active","ping":73},{"user_id":205,"name":"Mario","steam_id":76561198062171002,"connected_time":396000000000,"state":"active","ping":35},{"user_id":212,"name":"Fofenho","steam_id":76561198436817109,"connected_time":75000000000,"state":"active","ping":55},{"user_id":209,"name":"ROX","steam_id":76561198272289320,"connected_time":156000000000,"state":"active","ping":68},{"user_id":210,"name":"Lana Ev√∏l √Öttog","steam_id":76561198066287297,"connected_time":124000000000,"state":"active","ping":45},{"user_id":37,"name":"Houlles","steam_id":76561198095277383,"connected_time":12591000000000,"state":"active","ping":46},{"user_id":211,"name":"sook","steam_id":76561198199117446,"connected_time":123000000000,"state":"active","ping":49},{"user_id":214,"name":"QR code 78","steam_id":76561198073749509,"connected_time":65000000000,"state":"active","ping":69},{"user_id":207,"name":".moe","steam_id":76561198153974095,"connected_time":286000000000,"state":"active","ping":38},{"user_id":202,"name":"Kylute","steam_id":76561198447504417,"connected_time":819000000000,"state":"active","ping":45},{"user_id":107,"name":"bigwish | bmod.tf","steam_id":76561197997859723,"connected_time":7042000000000,"state":"active","ping":83},{"user_id":192,"name":"Mr_Pulse_","steam_id":76561198095001602,"connected_time":1366000000000,"state":"active","ping":106},{"user_id":193,"name":"Rapop101","steam_id":76561198125796030,"connected_time":1340000000000,"state":"active","ping":96},{"user_id":204,"name":"i think his mate saw me","steam_id":76561198188642265,"connected_time":752000000000,"state":"active","ping":59},{"user_id":38,"name":"LSKi","steam_id":76561198215470228,"connected_time":12446000000000,"state":"active","ping":59}]},{"server_id":320,"name":"Uncletopia | London | 3 | All Maps","name_short":"lon-3","host":"lon-1.uk.uncletopia.com","port":27035,"enabled":true,"region":"eu","cc":"gb","latitude":51.509865,"longitude":-0.118092,"reserved":0,"last_update":"0001-01-01T00:00:00Z","name_a2s":"Uncletopia | London | 3 | All Maps","protocol":17,"map":"pl_borneo","folder":"tf","game":"Team Fortress","app_id":440,"player_count":0,"max_players":24,"Bots":0,"server_type":"Dedicated","server_os":"Linux","password":true,"vac":true,"version":"7882260","steam_id":85568392924510192,"keywords":["nocrits","nodmgspread","payload","uncletopia"],"game_id":440,"stv_port":27036,"stv_name":"Uncletopia | London | 3 | All Maps | STV","players":null},{"server_id":321,"name":"Uncletopia | London | 4 | All Maps","name_short":"lon-4","host":"lon-1.uk.uncletopia.com","port":27045,"enabled":true,"region":"eu","cc":"gb","latitude":51.509865,"longitude":-0.118092,"reserved":0,"last_update":"0001-01-01T00:00:00Z","name_a2s":"Uncletopia | London | 4 | All Maps","protocol":17,"map":"pl_upward","folder":"tf","game":"Team Fortress","app_id":440,"player_count":24,"max_players":24,"Bots":0,"server_type":"Dedicated","server_os":"Linux","password":true,"vac":true,"version":"7882260","steam_id":85568392924510193,"keywords":["nocrits","nodmgspread","payload","uncletopia"],"game_id":440,"stv_port":27046,"stv_name":"Uncletopia | London | 4 | All Maps | STV","players":[{"user_id":59,"name":"No | S | uS","steam_id":76561199195727551,"connected_time":2886000000000,"state":"active","ping":53},{"user_id":21,"name":"Ixsus\u003c3","steam_id":76561198094756869,"connected_time":4916000000000,"state":"active","ping":61},{"user_id":103,"name":"Jabussy","steam_id":76561198111148719,"connected_time":438000000000,"state":"active","ping":72},{"user_id":105,"name":"Tanner Jarring","steam_id":76561198172024365,"connected_time":326000000000,"state":"active","ping":138},{"user_id":91,"name":"KillerQueen (he/they/she)","steam_id":76561199019399725,"connected_time":1417000000000,"state":"active","ping":66},{"user_id":85,"name":"Koli","steam_id":76561197992428783,"connected_time":1871000000000,"state":"active","ping":60},{"user_id":37,"name":"LOBZIK","steam_id":76561198114830120,"connected_time":3270000000000,"state":"active","ping":84},{"user_id":102,"name":"Mayor Wank from Wanker Town","steam_id":76561197998253588,"connected_time":522000000000,"state":"active","ping":60},{"user_id":106,"name":"___________________","steam_id":76561198184881255,"connected_time":277000000000,"state":"active","ping":73},{"user_id":109,"name":"Elix","steam_id":76561199072306920,"connected_time":129000000000,"state":"active","ping":108},{"user_id":92,"name":"Pacanaz","steam_id":76561198011514552,"connected_time":1050000000000,"state":"active","ping":84},{"user_id":44,"name":"Kaputo :3","steam_id":76561198062559523,"connected_time":3072000000000,"state":"active","ping":86},{"user_id":72,"name":"JaneDoe","steam_id":76561198067081506,"connected_time":2338000000000,"state":"active","ping":83},{"user_id":81,"name":"Seeker","steam_id":76561198873052772,"connected_time":2115000000000,"state":"active","ping":75},{"user_id":47,"name":"FATTY","steam_id":76561198087962709,"connected_time":3056000000000,"state":"active","ping":78},{"user_id":78,"name":"Krefa12","steam_id":76561198268375393,"connected_time":2145000000000,"state":"active","ping":102},{"user_id":66,"name":"smk","steam_id":76561198068027379,"connected_time":2727000000000,"state":"active","ping":82},{"user_id":96,"name":"AwterSix","steam_id":76561198042561678,"connected_time":908000000000,"state":"active","ping":66},{"user_id":65,"name":"irritable vowel syndrome","steam_id":76561198117033273,"connected_time":2748000000000,"state":"active","ping":55},{"user_id":93,"name":"Moonkey","steam_id":76561199013741389,"connected_time":1045000000000,"state":"active","ping":107},{"user_id":110,"name":"dafydd","steam_id":76561198052200325,"connected_time":95000000000,"state":"active","ping":89},{"user_id":86,"name":"WolfmanCZ","steam_id":76561199157141414,"connected_time":1844000000000,"state":"active","ping":76},{"user_id":107,"name":"PaciFiik‚Ñ¢","steam_id":76561198113368993,"connected_time":272000000000,"state":"active","ping":126},{"user_id":108,"name":"Edgar","steam_id":76561198065255259,"connected_time":206000000000,"state":"active","ping":60}]},{"server_id":21,"name":"Uncletopia | London | 5 | All Maps","name_short":"lon-5","host":"lon-1.uk.uncletopia.com","port":27055,"enabled":true,"region":"eu","cc":"gb","latitude":51.509865,"longitude":-0.118092,"reserved":0,"last_update":"0001-01-01T00:00:00Z","name_a2s":"Uncletopia | London | 5 | All Maps","protocol":17,"map":"pl_barnblitz","folder":"tf","game":"Team Fortress","app_id":440,"player_count":23,"max_players":24,"Bots":0,"server_type":"Dedicated","server_os":"Linux","password":true,"vac":true,"version":"7882260","steam_id":85568392924742829,"keywords":["nocrits","nodmgspread","payload","uncletopia"],"game_id":440,"stv_port":27056,"stv_name":"Uncletopia | London | 5 | All Maps | STV","players":[{"user_id":416,"name":"Haggabah,WhoPliesTheUmbralPath","steam_id":76561198846984399,"connected_time":1147000000000,"state":"active","ping":86},{"user_id":417,"name":"curious femboy","steam_id":76561199199388221,"connected_time":1136000000000,"state":"active","ping":59},{"user_id":422,"name":"on1on (thinly sliced)","steam_id":76561197995304137,"connected_time":1094000000000,"state":"active","ping":71},{"user_id":436,"name":"Sylvanas","steam_id":76561198154904165,"connected_time":113000000000,"state":"active","ping":113},{"user_id":419,"name":"Soaya","steam_id":76561199101510855,"connected_time":1119000000000,"state":"active","ping":45},{"user_id":392,"name":"peso enjoyer","steam_id":76561198798177799,"connected_time":2658000000000,"state":"active","ping":77},{"user_id":410,"name":"zircon226","steam_id":76561198332529555,"connected_time":1363000000000,"state":"active","ping":98},{"user_id":390,"name":"bad farter","steam_id":76561198261853441,"connected_time":2714000000000,"state":"active","ping":74},{"user_id":383,"name":"Tutiwit","steam_id":76561198254481528,"connected_time":3160000000000,"state":"active","ping":45},{"user_id":413,"name":"BING CHILLING","steam_id":76561198065438030,"connected_time":1234000000000,"state":"active","ping":120},{"user_id":430,"name":"mi cara cuando","steam_id":76561199387584010,"connected_time":825000000000,"state":"active","ping":108},{"user_id":387,"name":"Amoru","steam_id":76561198798161817,"connected_time":2972000000000,"state":"active","ping":90},{"user_id":437,"name":"Sneezy Anus","steam_id":76561198044081333,"connected_time":101000000000,"state":"active","ping":77},{"user_id":435,"name":"Dr.Sees [F2P]","steam_id":76561199219233587,"connected_time":169000000000,"state":"active","ping":75},{"user_id":411,"name":"sex positive","steam_id":76561198089028365,"connected_time":1349000000000,"state":"active","ping":73},{"user_id":426,"name":"Mitrev","steam_id":76561198157124880,"connected_time":984000000000,"state":"active","ping":75},{"user_id":421,"name":"wasto-/-‚Ñ¢","steam_id":76561198102888038,"connected_time":1111000000000,"state":"active","ping":59},{"user_id":432,"name":"mizer","steam_id":76561198160716156,"connected_time":758000000000,"state":"active","ping":87},{"user_id":414,"name":"ran is running","steam_id":76561199443185667,"connected_time":1215000000000,"state":"active","ping":132},{"user_id":388,"name":"the least schizo med main","steam_id":76561198048530109,"connected_time":2968000000000,"state":"active","ping":88},{"user_id":433,"name":"Ltblu","steam_id":76561198047329607,"connected_time":621000000000,"state":"active","ping":95},{"user_id":438,"name":"IJN Amagi","steam_id":76561198090874324,"connected_time":101000000000,"state":"active","ping":103},{"user_id":429,"name":"piss man (real)","steam_id":76561198839843428,"connected_time":875000000000,"state":"active","ping":115}]},{"server_id":22,"name":"Uncletopia | London | 6 | All Maps","name_short":"lon-6","host":"lon-1.uk.uncletopia.com","port":27065,"enabled":true,"region":"eu","cc":"gb","latitude":51.509865,"longitude":-0.118092,"reserved":0,"last_update":"0001-01-01T00:00:00Z","name_a2s":"Uncletopia | London | 6 | All Maps","protocol":17,"map":"pl_barnblitz","folder":"tf","game":"Team Fortress","app_id":440,"player_count":24,"max_players":24,"Bots":0,"server_type":"Dedicated","server_os":"Linux","password":true,"vac":true,"version":"7882260","steam_id":85568392924742830,"keywords":["nocrits","nodmgspread","payload","uncletopia"],"game_id":440,"stv_port":27066,"stv_name":"Uncletopia | London | 6 | All Maps | STV","players":[{"user_id":238,"name":"axalotly-gaming","steam_id":76561199131971501,"connected_time":436000000000,"state":"active","ping":97},{"user_id":229,"name":"real ass baller","steam_id":76561198965751486,"connected_time":1174000000000,"state":"active","ping":56},{"user_id":239,"name":"Tomfool","steam_id":76561197993256481,"connected_time":412000000000,"state":"active","ping":85},{"user_id":244,"name":"hello hi","steam_id":76561198148074472,"connected_time":254000000000,"state":"active","ping":47},{"user_id":177,"name":"Inov","steam_id":76561198207364644,"connected_time":4986000000000,"state":"active","ping":75},{"user_id":230,"name":"After8","steam_id":76561198090750865,"connected_time":1134000000000,"state":"active","ping":74},{"user_id":242,"name":"Genuine","steam_id":76561197966295765,"connected_time":312000000000,"state":"active","ping":54},{"user_id":253,"name":"76531198198177417","steam_id":76561198086304421,"connected_time":56000000000,"state":"active","ping":79},{"user_id":254,"name":"Nukleuz","steam_id":76561198203381744,"connected_time":22000000000,"state":"spawning","ping":34},{"user_id":166,"name":"Laske","steam_id":76561198370905474,"connected_time":5999000000000,"state":"active","ping":74},{"user_id":249,"name":"piping hot","steam_id":76561198011692496,"connected_time":167000000000,"state":"active","ping":71},{"user_id":224,"name":"John Noob","steam_id":76561197999170026,"connected_time":1752000000000,"state":"active","ping":84},{"user_id":245,"name":"MrBigStu234","steam_id":76561198211599767,"connected_time":252000000000,"state":"active","ping":68},{"user_id":246,"name":"Vexu","steam_id":76561198113145846,"connected_time":251000000000,"state":"active","ping":91},{"user_id":241,"name":"CouT1nho","steam_id":76561198203926376,"connected_time":356000000000,"state":"active","ping":42},{"user_id":134,"name":"It's time","steam_id":76561198061197114,"connected_time":7942000000000,"state":"active","ping":79},{"user_id":153,"name":"Fish 'n' Chips","steam_id":76561198033476886,"connected_time":6397000000000,"state":"active","ping":45},{"user_id":236,"name":"Commit Persona 3","steam_id":76561198060503243,"connected_time":642000000000,"state":"active","ping":44},{"user_id":243,"name":"Mr. Mundy","steam_id":76561198132008918,"connected_time":304000000000,"state":"active","ping":77},{"user_id":251,"name":"NotChloe","steam_id":76561198080658092,"connected_time":129000000000,"state":"active","ping":56},{"user_id":250,"name":"1 toke 4 mars bars","steam_id":76561198056460000,"connected_time":148000000000,"state":"active","ping":50},{"user_id":192,"name":"Zizman","steam_id":76561198446562910,"connected_time":3946000000000,"state":"active","ping":151},{"user_id":252,"name":"Hexagon","steam_id":76561198151205758,"connected_time":129000000000,"state":"active","ping":59},{"user_id":255,"name":"Stroz","steam_id":76561198146444213,"connected_time":16000000000,"state":"spawning","ping":74}]},{"server_id":40,"name":"Uncletopia | London | 7 | No Payload","name_short":"lon-7","host":"lon-1.uk.uncletopia.com","port":27075,"enabled":true,"region":"eu","cc":"gb","latitude":51.509865,"longitude":-0.118092,"reserved":0,"last_update":"0001-01-01T00:00:00Z","name_a2s":"Uncletopia | London | 7 | No Payload","protocol":17,"map":"cp_process_final","folder":"tf","game":"Team Fortress","app_id":440,"player_count":20,"max_players":24,"Bots":0,"server_type":"Dedicated","server_os":"Linux","password":true,"vac":true,"version":"7882260","steam_id":85568392924964314,"keywords":["cp","nocrits","nodmgspread","uncletopia"],"game_id":440,"stv_port":27076,"stv_name":"Uncletopia | London | 7 | No Payload | STV","players":[{"user_id":146,"name":"elsuedi","steam_id":76561198074722832,"connected_time":2756000000000,"state":"active","ping":60},{"user_id":93,"name":"ArtaKir","steam_id":76561198291746440,"connected_time":5938000000000,"state":"active","ping":86},{"user_id":105,"name":"Top 5 Goblin sightings (real)","steam_id":76561198082502910,"connected_time":5360000000000,"state":"active","ping":58},{"user_id":181,"name":"HealthPack Guard","steam_id":76561199378924674,"connected_time":257000000000,"state":"active","ping":163},{"user_id":168,"name":"cof","steam_id":76561199128417805,"connected_time":1063000000000,"state":"active","ping":50},{"user_id":160,"name":"‚òûLaZe‚òú","steam_id":76561198202191400,"connected_time":1468000000000,"state":"active","ping":47},{"user_id":161,"name":"juicy","steam_id":76561198127264835,"connected_time":1421000000000,"state":"active","ping":44},{"user_id":182,"name":"lorus","steam_id":76561199079479217,"connected_time":247000000000,"state":"active","ping":110},{"user_id":188,"name":"static","steam_id":76561198836825741,"connected_time":21000000000,"state":"active","ping":38},{"user_id":189,"name":"Michael","steam_id":76561198003146906,"connected_time":16000000000,"state":"active","ping":45},{"user_id":171,"name":"Perci","steam_id":76561198097789669,"connected_time":790000000000,"state":"active","ping":59},{"user_id":145,"name":"Fat Pigeon","steam_id":76561198817940142,"connected_time":2986000000000,"state":"active","ping":46},{"user_id":173,"name":"Akkras","steam_id":76561198046004148,"connected_time":697000000000,"state":"active","ping":90},{"user_id":149,"name":"reformed i swear","steam_id":76561198152392309,"connected_time":2525000000000,"state":"active","ping":47},{"user_id":186,"name":"mud","steam_id":76561198141497461,"connected_time":49000000000,"state":"connecting","ping":77},{"user_id":174,"name":"Holofightz Nene","steam_id":76561198226788392,"connected_time":665000000000,"state":"active","ping":55},{"user_id":133,"name":"Sorcha The Wise","steam_id":76561198063220459,"connected_time":3680000000000,"state":"active","ping":55},{"user_id":187,"name":"dum","steam_id":76561198053386482,"connected_time":43000000000,"state":"active","ping":143},{"user_id":179,"name":"snorrbrod","steam_id":76561198142389396,"connected_time":347000000000,"state":"active","ping":71},{"user_id":75,"name":"Nyhde","steam_id":76561198012771416,"connected_time":6910000000000,"state":"active","ping":120}]},{"server_id":41,"name":"Uncletopia | London | 8 | Community","name_short":"lon-8","host":"lon-1.uk.uncletopia.com","port":27085,"enabled":true,"region":"eu","cc":"gb","latitude":51.509865,"longitude":-0.118092,"reserved":0,"last_update":"0001-01-01T00:00:00Z","name_a2s":"Uncletopia | London | 8 | Community","protocol":17,"map":"workshop/koth_product_final.ugc454272353","folder":"tf","game":"Team Fortress","app_id":440,"player_count":0,"max_players":24,"Bots":0,"server_type":"Dedicated","server_os":"Linux","password":true,"vac":true,"version":"7882260","steam_id":85568392924964315,"keywords":["cp","nocrits","nodmgspread","uncletopia"],"game_id":440,"stv_port":27086,"stv_name":"Uncletopia | London | 8 | Community | STV","players":null},{"server_id":300,"name":"Uncletopia | Montr√©al | 1 | All Maps","name_short":"mtl-1","host":"mtl-1.ca.uncletopia.com","port":27015,"enabled":true,"region":"us-east","cc":"ca","latitude":45.50889,"longitude":-73.56167,"reserved":0,"last_update":"0001-01-01T00:00:00Z","name_a2s":"Uncletopia | Montr√©al | 1 | All Maps","protocol":17,"map":"koth_viaduct","folder":"tf","game":"Team Fortress","app_id":440,"player_count":0,"max_players":24,"Bots":0,"server_type":"Dedicated","server_os":"Linux","password":true,"vac":true,"version":"7882260","steam_id":85568392924500087,"keywords":["cp","nocrits","nodmgspread","uncletopia"],"game_id":440,"stv_port":27016,"stv_name":"Uncletopia | Montr√©al | 1 | All Maps | STV","players":null},{"server_id":301,"name":"Uncletopia | Montr√©al | 2 | All Maps","name_short":"mtl-2","host":"mtl-1.ca.uncletopia.com","port":27025,"enabled":true,"region":"us-east","cc":"ca","latitude":45.50889,"longitude":-73.56167,"reserved":0,"last_update":"0001-01-01T00:00:00Z","name_a2s":"Uncletopia | Montr√©al | 2 | All Maps","protocol":17,"map":"pl_snowycoast","folder":"tf","game":"Team Fortress","app_id":440,"player_count":0,"max_players":24,"Bots":0,"server_type":"Dedicated","server_os":"Linux","password":true,"vac":true,"version":"7882260","steam_id":85568392924500088,"keywords":["nocrits","nodmgspread","payload","uncletopia"],"game_id":440,"stv_port":27026,"stv_name":"Uncletopia | Montr√©al | 2 | All Maps | STV","players":null},{"server_id":302,"name":"Uncletopia | Montr√©al | 3 | All Maps","name_short":"mtl-3","host":"mtl-1.ca.uncletopia.com","port":27035,"enabled":true,"region":"us-east","cc":"ca","latitude":45.50889,"longitude":-73.56167,"reserved":0,"last_update":"0001-01-01T00:00:00Z","name_a2s":"Uncletopia | Montr√©al | 3 | All Maps","protocol":17,"map":"koth_highpass","folder":"tf","game":"Team Fortress","app_id":440,"player_count":0,"max_players":24,"Bots":0,"server_type":"Dedicated","server_os":"Linux","password":true,"vac":true,"version":"7882260","steam_id":85568392924500089,"keywords":["cp","nocrits","nodmgspread","uncletopia"],"game_id":440,"stv_port":27036,"stv_name":"Uncletopia | Montr√©al | 3 | All Maps | STV","players":null},{"server_id":303,"name":"Uncletopia | Montr√©al | 4 | No Payload","name_short":"mtl-4","host":"mtl-1.ca.uncletopia.com","port":27045,"enabled":true,"region":"us-east","cc":"ca","latitude":45.50889,"longitude":-73.56167,"reserved":0,"last_update":"0001-01-01T00:00:00Z","name_a2s":"Uncletopia | Montr√©al | 4 | No Payload","protocol":17,"map":"koth_highpass","folder":"tf","game":"Team Fortress","app_id":440,"player_count":0,"max_players":24,"Bots":0,"server_type":"Dedicated","server_os":"Linux","password":true,"vac":true,"version":"7882260","steam_id":85568392924500090,"keywords":["cp","nocrits","nodmgspread","uncletopia"],"game_id":440,"stv_port":27046,"stv_name":"Uncletopia | Montr√©al | 4 | No Payload | STV","players":null},{"server_id":13,"name":"Uncletopia | New York City | 1 | All Maps","name_short":"nyc-1","host":"nyc-1.us.uncletopia.com","port":27015,"enabled":true,"region":"us-east","cc":"us","latitude":40.73061,"longitude":-73.93524,"reserved":0,"last_update":"0001-01-01T00:00:00Z","name_a2s":"Uncletopia | New York City | 1 | All Maps","protocol":17,"map":"cp_standin_final","folder":"tf","game":"Team Fortress","app_id":440,"player_count":0,"max_players":24,"Bots":0,"server_type":"Dedicated","server_os":"Linux","password":true,"vac":true,"version":"7882260","steam_id":85568392924469993,"keywords":["cp","nocrits","nodmgspread","uncletopia"],"game_id":440,"stv_port":27016,"stv_name":"Uncletopia | New York City | 1 | All Maps | STV","players":null},{"server_id":14,"name":"Uncletopia | New York City | 2 | All Maps","name_short":"nyc-2","host":"nyc-1.us.uncletopia.com","port":27025,"enabled":true,"region":"us-east","cc":"us","latitude":40.73061,"longitude":-73.93524,"reserved":0,"last_update":"0001-01-01T00:00:00Z","name_a2s":"Uncletopia | New York City | 2 | All Maps","protocol":17,"map":"pl_borneo","folder":"tf","game":"Team Fortress","app_id":440,"player_count":0,"max_players":24,"Bots":0,"server_type":"Dedicated","server_os":"Linux","password":true,"vac":true,"version":"7882260","steam_id":85568392924469994,"keywords":["nocrits","nodmgspread","payload","uncletopia"],"game_id":440,"stv_port":27026,"stv_name":"Uncletopia | New York City | 2 | All Maps | STV","players":null},{"server_id":15,"name":"Uncletopia | New York City | 3 | Stopwatch Beta","name_short":"nyc-3","host":"nyc-1.us.uncletopia.com","port":27035,"enabled":true,"region":"us-east","cc":"us","latitude":40.73061,"longitude":-73.93524,"reserved":0,"last_update":"0001-01-01T00:00:00Z","name_a2s":"Uncletopia | New York City | 3 | Stopwatch Beta","protocol":17,"map":"pl_borneo","folder":"tf","game":"Team Fortress","app_id":440,"player_count":0,"max_players":24,"Bots":0,"server_type":"Dedicated","server_os":"Linux","password":true,"vac":true,"version":"7882260","steam_id":85568392924742820,"keywords":["nocrits","nodmgspread","payload","uncletopia"],"game_id":440,"stv_port":27036,"stv_name":"Uncletopia | New York City | 3 | Stopwatch Beta | STV","players":null},{"server_id":16,"name":"Uncletopia | New York City | 4 | Community","name_short":"nyc-4","host":"nyc-1.us.uncletopia.com","port":27045,"enabled":true,"region":"us-east","cc":"us","latitude":40.73061,"longitude":-73.93524,"reserved":0,"last_update":"0001-01-01T00:00:00Z","name_a2s":"Uncletopia | New York City | 4 | Community","protocol":17,"map":"workshop/cp_villa_b19.ugc2113052569","folder":"tf","game":"Team Fortress","app_id":440,"player_count":0,"max_players":24,"Bots":0,"server_type":"Dedicated","server_os":"Linux","password":true,"vac":true,"version":"7882260","steam_id":85568392924742821,"keywords":["cp","nocrits","nodmgspread","uncletopia"],"game_id":440,"stv_port":27046,"stv_name":"Uncletopia | New York City | 4 | Community | STV","players":null},{"server_id":142,"name":"Uncletopia | S√£o Paulo | 1 | All Maps","name_short":"sao-1","host":"sao-1.br.uncletopia.com","port":27015,"enabled":true,"region":"sa","cc":"br","latitude":-23.533773,"longitude":-46.62529,"reserved":0,"last_update":"0001-01-01T00:00:00Z","name_a2s":"Uncletopia | S√£o Paulo | 1 | All Maps","protocol":17,"map":"pl_upward","folder":"tf","game":"Team Fortress","app_id":440,"player_count":0,"max_players":24,"Bots":0,"server_type":"Dedicated","server_os":"Linux","password":true,"vac":true,"version":"7882260","steam_id":85568392924469996,"keywords":["nocrits","nodmgspread","payload","uncletopia"],"game_id":440,"stv_port":27016,"stv_name":"Uncletopia | S√£o Paulo | 1 | All Maps | STV","players":null},{"server_id":143,"name":"Uncletopia | S√£o Paulo | 2 | All Maps","name_short":"sao-2","host":"sao-2.br.uncletopia.com","port":27015,"enabled":true,"region":"sa","cc":"br","latitude":-23.533773,"longitude":-46.62529,"reserved":0,"last_update":"0001-01-01T00:00:00Z","name_a2s":"Uncletopia | S√£o Paulo | 2 | All Maps","protocol":17,"map":"pl_borneo","folder":"tf","game":"Team Fortress","app_id":440,"player_count":0,"max_players":24,"Bots":0,"server_type":"Dedicated","server_os":"Linux","password":true,"vac":true,"version":"7882260","steam_id":85568392924485349,"keywords":["nocrits","nodmgspread","payload","uncletopia"],"game_id":440,"stv_port":27016,"stv_name":"Uncletopia | S√£o Paulo | 2 | All Maps | STV","players":null},{"server_id":7,"name":"Uncletopia | Seattle | 1 | All Maps","name_short":"sea-1","host":"sea-1.us.uncletopia.com","port":27015,"enabled":true,"region":"us-west","cc":"us","latitude":47.608013,"longitude":-122.33517,"reserved":0,"last_update":"0001-01-01T00:00:00Z","name_a2s":"Uncletopia | Seattle | 1 | All Maps","protocol":17,"map":"pl_snowycoast","folder":"tf","game":"Team Fortress","app_id":440,"player_count":24,"max_players":24,"Bots":0,"server_type":"Dedicated","server_os":"Linux","password":true,"vac":true,"version":"7882260","steam_id":85568392924469997,"keywords":["nocrits","nodmgspread","payload","uncletopia"],"game_id":440,"stv_port":27016,"stv_name":"Uncletopia | Seattle | 1 | All Maps | STV","players":[{"user_id":107,"name":"Spruce","steam_id":76561198081684676,"connected_time":1977000000000,"state":"active","ping":68},{"user_id":114,"name":"thisisnotaustin","steam_id":76561198074463510,"connected_time":1523000000000,"state":"active","ping":105},{"user_id":113,"name":"8th class gamer","steam_id":76561198243695590,"connected_time":1529000000000,"state":"active","ping":53},{"user_id":58,"name":"Tyler\u0026Fingers","steam_id":76561198085154485,"connected_time":5817000000000,"state":"active","ping":137},{"user_id":116,"name":"Rorver","steam_id":76561198114030795,"connected_time":1400000000000,"state":"active","ping":52},{"user_id":120,"name":"Not a Gamer","steam_id":76561198032114539,"connected_time":1200000000000,"state":"active","ping":75},{"user_id":117,"name":"I push fat women off bicycles","steam_id":76561198251043990,"connected_time":1389000000000,"state":"active","ping":58},{"user_id":134,"name":"Dan0","steam_id":76561198445693195,"connected_time":48000000000,"state":"active","ping":121},{"user_id":106,"name":"Nibotshooter","steam_id":76561199284825579,"connected_time":2016000000000,"state":"active","ping":85},{"user_id":124,"name":"Robin Suarez","steam_id":76561198014698593,"connected_time":892000000000,"state":"active","ping":55},{"user_id":123,"name":"Mikey Decoy","steam_id":76561198070496601,"connected_time":1092000000000,"state":"active","ping":55},{"user_id":96,"name":"sobadorci","steam_id":76561198208627555,"connected_time":3065000000000,"state":"active","ping":85},{"user_id":104,"name":"Keamy","steam_id":76561199471434875,"connected_time":2372000000000,"state":"active","ping":42},{"user_id":129,"name":"H-keyLF","steam_id":76561198376014891,"connected_time":352000000000,"state":"active","ping":64},{"user_id":71,"name":"Cookie Dough","steam_id":76561198975607081,"connected_time":5111000000000,"state":"active","ping":105},{"user_id":132,"name":"Kzjytsugn","steam_id":76561198130241974,"connected_time":148000000000,"state":"active","ping":43},{"user_id":103,"name":"ray (the based god)","steam_id":76561198311984941,"connected_time":2510000000000,"state":"active","ping":93},{"user_id":127,"name":"lethal poison","steam_id":76561199001918194,"connected_time":413000000000,"state":"active","ping":88},{"user_id":130,"name":"Quiznos","steam_id":76561198062437559,"connected_time":349000000000,"state":"active","ping":141},{"user_id":100,"name":"„Åµ„Çè„Åµ„ÇèÊØõÂ∏É","steam_id":76561198088403016,"connected_time":2994000000000,"state":"active","ping":157},{"user_id":83,"name":"Mr. Computer","steam_id":76561198136878831,"connected_time":4614000000000,"state":"active","ping":68},{"user_id":119,"name":"Avem","steam_id":76561198058763710,"connected_time":1337000000000,"state":"active","ping":75},{"user_id":84,"name":"Biden Blast","steam_id":76561198366729030,"connected_time":4606000000000,"state":"active","ping":76},{"user_id":133,"name":"RozzyMox","steam_id":76561198869319785,"connected_time":62000000000,"state":"active","ping":91}]},{"server_id":119,"name":"Uncletopia | Seattle | 2 | All Maps","name_short":"sea-2","host":"sea-1.us.uncletopia.com","port":27025,"enabled":true,"region":"us-west","cc":"us","latitude":47.608013,"longitude":-122.33517,"reserved":0,"last_update":"0001-01-01T00:00:00Z","name_a2s":"Uncletopia | Seattle | 2 | All Maps","protocol":17,"map":"pl_upward","folder":"tf","game":"Team Fortress","app_id":440,"player_count":0,"max_players":24,"Bots":0,"server_type":"Dedicated","server_os":"Linux","password":true,"vac":true,"version":"7882260","steam_id":85568392924469998,"keywords":["nocrits","nodmgspread","payload","uncletopia"],"game_id":440,"stv_port":27026,"stv_name":"Uncletopia | Seattle | 2 | All Maps | STV","players":null},{"server_id":406,"name":"Uncletopia | Seattle | 3 | Stopwatch Beta","name_short":"sea-3","host":"sea-1.us.uncletopia.com","port":27035,"enabled":true,"region":"us-west","cc":"us","latitude":47.608013,"longitude":-122.33517,"reserved":0,"last_update":"0001-01-01T00:00:00Z","name_a2s":"Uncletopia | Seattle | 3 | Stopwatch Beta","protocol":17,"map":"koth_viaduct","folder":"tf","game":"Team Fortress","app_id":440,"player_count":0,"max_players":24,"Bots":0,"server_type":"Dedicated","server_os":"Linux","password":true,"vac":true,"version":"7882260","steam_id":85568392924515217,"keywords":["cp","nocrits","nodmgspread","uncletopia"],"game_id":440,"stv_port":27036,"stv_name":"Uncletopia | Seattle | 3 | Stopwatch Beta | STV","players":null},{"server_id":17,"name":"Uncletopia | San Francisco | 1 | All Maps","name_short":"sfo-1","host":"sfo-1.us.uncletopia.com","port":27015,"enabled":true,"region":"us-west","cc":"us","latitude":37.77397,"longitude":-122.4313,"reserved":0,"last_update":"0001-01-01T00:00:00Z","name_a2s":"Uncletopia | San Francisco | 1 | All Maps","protocol":17,"map":"pl_snowycoast","folder":"tf","game":"Team Fortress","app_id":440,"player_count":0,"max_players":24,"Bots":0,"server_type":"Dedicated","server_os":"Linux","password":true,"vac":true,"version":"7882260","steam_id":85568392924469999,"keywords":["nocrits","nodmgspread","payload","uncletopia"],"game_id":440,"stv_port":27016,"stv_name":"Uncletopia | San Francisco | 1 | All Maps | STV","players":null},{"server_id":18,"name":"Uncletopia | San Francisco | 2 | All Maps","name_short":"sfo-2","host":"sfo-1.us.uncletopia.com","port":27025,"enabled":true,"region":"us-west","cc":"us","latitude":37.77397,"longitude":-122.4313,"reserved":0,"last_update":"0001-01-01T00:00:00Z","name_a2s":"Uncletopia | San Francisco | 2 | All Maps","protocol":17,"map":"pl_frontier_final","folder":"tf","game":"Team Fortress","app_id":440,"player_count":0,"max_players":24,"Bots":0,"server_type":"Dedicated","server_os":"Linux","password":true,"vac":true,"version":"7882260","steam_id":85568392924470000,"keywords":["nocrits","nodmgspread","payload","uncletopia"],"game_id":440,"stv_port":27026,"stv_name":"Uncletopia | San Francisco | 2 | All Maps | STV","players":null},{"server_id":19,"name":"Uncletopia | San Francisco | 3 | Stopwatch Beta","name_short":"sfo-3","host":"sfo-1.us.uncletopia.com","port":27035,"enabled":true,"region":"us-west","cc":"us","latitude":37.77397,"longitude":-122.4313,"reserved":0,"last_update":"0001-01-01T00:00:00Z","name_a2s":"Uncletopia | San Francisco | 3 | Stopwatch Beta","protocol":17,"map":"pl_snowycoast","folder":"tf","game":"Team Fortress","app_id":440,"player_count":0,"max_players":24,"Bots":0,"server_type":"Dedicated","server_os":"Linux","password":true,"vac":true,"version":"7882260","steam_id":85568392924742824,"keywords":["nocrits","nodmgspread","payload","uncletopia"],"game_id":440,"stv_port":27036,"stv_name":"Uncletopia | San Francisco | 3 | Stopwatch Beta | STV","players":null},{"server_id":20,"name":"Uncletopia | San Francisco | 4 | Community","name_short":"sfo-4","host":"sfo-1.us.uncletopia.com","port":27045,"enabled":true,"region":"us-west","cc":"us","latitude":37.77397,"longitude":-122.4313,"reserved":0,"last_update":"0001-01-01T00:00:00Z","name_a2s":"Uncletopia | San Francisco | 4 | Community","protocol":17,"map":"pl_swiftwater_final1","folder":"tf","game":"Team Fortress","app_id":440,"player_count":0,"max_players":24,"Bots":0,"server_type":"Dedicated","server_os":"Linux","password":true,"vac":true,"version":"7882260","steam_id":85568392924742826,"keywords":["nocrits","nodmgspread","payload","uncletopia"],"game_id":440,"stv_port":27046,"stv_name":"Uncletopia | San Francisco | 4 | Community | STV","players":null},{"server_id":141,"name":"Uncletopia | Sydney | 1 | All Maps","name_short":"syd-1","host":"syd-1.au.uncletopia.com","port":27015,"enabled":true,"region":"au","cc":"au","latitude":-33.865143,"longitude":151.2099,"reserved":0,"last_update":"0001-01-01T00:00:00Z","name_a2s":"Uncletopia | Sydney | 1 | All Maps","protocol":17,"map":"koth_highpass","folder":"tf","game":"Team Fortress","app_id":440,"player_count":0,"max_players":24,"Bots":0,"server_type":"Dedicated","server_os":"Linux","password":true,"vac":true,"version":"7882260","steam_id":85568392924470001,"keywords":["cp","nocrits","nodmgspread","uncletopia"],"game_id":440,"stv_port":27016,"stv_name":"Uncletopia | Sydney | 1 | All Maps | STV","players":null},{"server_id":123,"name":"Uncletopia | Sydney | 2 | All Maps","name_short":"syd-2","host":"syd-1.au.uncletopia.com","port":27025,"enabled":true,"region":"au","cc":"au","latitude":-33.865143,"longitude":151.2099,"reserved":0,"last_update":"0001-01-01T00:00:00Z","name_a2s":"Uncletopia | Sydney | 2 | All Maps","protocol":17,"map":"koth_lakeside_final","folder":"tf","game":"Team Fortress","app_id":440,"player_count":0,"max_players":24,"Bots":0,"server_type":"Dedicated","server_os":"Linux","password":true,"vac":true,"version":"7882260","steam_id":85568392924470002,"keywords":["cp","nocrits","nodmgspread","uncletopia"],"game_id":440,"stv_port":27026,"stv_name":"Uncletopia | Sydney | 2 | All Maps | STV","players":null},{"server_id":395,"name":"Uncletopia | Sydney | 3 | All Maps","name_short":"syd-3","host":"syd-1.au.uncletopia.com","port":27035,"enabled":true,"region":"au","cc":"au","latitude":-33.865143,"longitude":151.2099,"reserved":0,"last_update":"0001-01-01T00:00:00Z","name_a2s":"Uncletopia | Sydney | 3 | All Maps","protocol":17,"map":"cp_sunshine","folder":"tf","game":"Team Fortress","app_id":440,"player_count":0,"max_players":24,"Bots":0,"server_type":"Dedicated","server_os":"Linux","password":true,"vac":true,"version":"7882260","steam_id":85568392925194467,"keywords":["cp","nocrits","nodmgspread","uncletopia"],"game_id":440,"stv_port":27036,"stv_name":"Uncletopia | Sydney | 3 | All Maps | STV","players":null},{"server_id":396,"name":"Uncletopia | Sydney | 4 | All Maps","name_short":"syd-4","host":"syd-1.au.uncletopia.com","port":27045,"enabled":true,"region":"au","cc":"au","latitude":-33.865143,"longitude":151.2099,"reserved":0,"last_update":"0001-01-01T00:00:00Z","name_a2s":"Uncletopia | Sydney | 4 | All Maps","protocol":17,"map":"pl_badwater","folder":"tf","game":"Team Fortress","app_id":440,"player_count":0,"max_players":24,"Bots":0,"server_type":"Dedicated","server_os":"Linux","password":true,"vac":true,"version":"7882260","steam_id":85568392925397958,"keywords":["nocrits","nodmgspread","payload","uncletopia"],"game_id":440,"stv_port":27046,"stv_name":"Uncletopia | Sydney | 4 | All Maps | STV","players":null},{"server_id":58,"name":"Uncletopia | Sydney | 5 | Stopwatch Beta","name_short":"syd-5","host":"syd-1.au.uncletopia.com","port":27055,"enabled":true,"region":"au","cc":"au","latitude":-33.865143,"longitude":151.2099,"reserved":0,"last_update":"0001-01-01T00:00:00Z","name_a2s":"Uncletopia | Sydney | 5 | Stopwatch Beta","protocol":17,"map":"koth_viaduct","folder":"tf","game":"Team Fortress","app_id":440,"player_count":0,"max_players":24,"Bots":0,"server_type":"Dedicated","server_os":"Linux","password":true,"vac":true,"version":"7882260","steam_id":85568392925397959,"keywords":["cp","nocrits","nodmgspread","uncletopia"],"game_id":440,"stv_port":27056,"stv_name":"Uncletopia | Sydney | 5 | Stopwatch Beta | STV","players":null},{"server_id":59,"name":"Uncletopia | Sydney | 6 | Community","name_short":"syd-6","host":"syd-1.au.uncletopia.com","port":27065,"enabled":true,"region":"au","cc":"au","latitude":-33.865143,"longitude":151.2099,"reserved":0,"last_update":"0001-01-01T00:00:00Z","name_a2s":"Uncletopia | Sydney | 6 | Community","protocol":17,"map":"workshop/koth_ramjam_rc1.ugc459778887","folder":"tf","game":"Team Fortress","app_id":440,"player_count":0,"max_players":24,"Bots":0,"server_type":"Dedicated","server_os":"Linux","password":true,"vac":true,"version":"7882260","steam_id":85568392925397960,"keywords":["cp","nocrits","nodmgspread","uncletopia"],"game_id":440,"stv_port":27066,"stv_name":"Uncletopia | Sydney | 6 | Community | STV","players":null},{"server_id":49,"name":"Uncletopia | Warsaw | 1 | All Maps","name_short":"waw-1","host":"waw-1.pl.uncletopia.com","port":27015,"enabled":true,"region":"eu","cc":"pl","latitude":52.2297,"longitude":21.017532,"reserved":0,"last_update":"0001-01-01T00:00:00Z","name_a2s":"","protocol":0,"map":"","folder":"","game":"","app_id":0,"player_count":0,"max_players":0,"Bots":0,"server_type":"","server_os":"","password":false,"vac":false,"version":"","steam_id":0,"keywords":null,"game_id":0,"stv_port":0,"stv_name":"","players":null},{"server_id":50,"name":"Uncletopia | Warsaw | 2 | All Maps","name_short":"waw-2","host":"waw-1.pl.uncletopia.com","port":27025,"enabled":true,"region":"eu","cc":"pl","latitude":52.2297,"longitude":21.017532,"reserved":0,"last_update":"0001-01-01T00:00:00Z","name_a2s":"Uncletopia | Warsaw | 2 | All Maps","protocol":17,"map":"koth_lakeside_final","folder":"tf","game":"Team Fortress","app_id":440,"player_count":0,"max_players":24,"Bots":0,"server_type":"Dedicated","server_os":"Linux","password":true,"vac":true,"version":"7882260","steam_id":85568392925397851,"keywords":["cp","nocrits","nodmgspread","uncletopia"],"game_id":440,"stv_port":27026,"stv_name":"Uncletopia | Warsaw | 2 | All Maps | STV","players":null},{"server_id":51,"name":"Uncletopia | Warsaw | 3 | All Maps","name_short":"waw-3","host":"waw-1.pl.uncletopia.com","port":27035,"enabled":true,"region":"eu","cc":"pl","latitude":52.2297,"longitude":21.017532,"reserved":0,"last_update":"0001-01-01T00:00:00Z","name_a2s":"Uncletopia | Warsaw | 3 | All Maps","protocol":17,"map":"koth_lakeside_final","folder":"tf","game":"Team Fortress","app_id":440,"player_count":0,"max_players":24,"Bots":0,"server_type":"Dedicated","server_os":"Linux","password":true,"vac":true,"version":"7882260","steam_id":85568392925397852,"keywords":["cp","nocrits","nodmgspread","uncletopia"],"game_id":440,"stv_port":27036,"stv_name":"Uncletopia | Warsaw | 3 | All Maps | STV","players":null},{"server_id":52,"name":"Uncletopia | Warsaw | 4 | All Maps","name_short":"waw-4","host":"waw-1.pl.uncletopia.com","port":27045,"enabled":true,"region":"eu","cc":"pl","latitude":52.2297,"longitude":21.017532,"reserved":0,"last_update":"0001-01-01T00:00:00Z","name_a2s":"Uncletopia | Warsaw | 4 | All Maps","protocol":17,"map":"koth_cascade","folder":"tf","game":"Team Fortress","app_id":440,"player_count":0,"max_players":24,"Bots":0,"server_type":"Dedicated","server_os":"Linux","password":true,"vac":true,"version":"7882260","steam_id":85568392925397853,"keywords":["cp","nocrits","nodmgspread","uncletopia"],"game_id":440,"stv_port":27046,"stv_name":"Uncletopia | Warsaw | 4 | All Maps | STV","players":null},{"server_id":53,"name":"Uncletopia | Warsaw | 5 | Stopwatch Beta","name_short":"waw-5","host":"waw-1.pl.uncletopia.com","port":27055,"enabled":true,"region":"eu","cc":"pl","latitude":52.2297,"longitude":21.017532,"reserved":0,"last_update":"0001-01-01T00:00:00Z","name_a2s":"Uncletopia | Warsaw | 5 | Stopwatch Beta","protocol":17,"map":"cp_sunshine","folder":"tf","game":"Team Fortress","app_id":440,"player_count":0,"max_players":24,"Bots":0,"server_type":"Dedicated","server_os":"Linux","password":true,"vac":true,"version":"7882260","steam_id":85568392925397854,"keywords":["cp","nocrits","nodmgspread","uncletopia"],"game_id":440,"stv_port":27056,"stv_name":"Uncletopia | Warsaw | 5 | Stopwatch Beta | STV","players":null},{"server_id":54,"name":"Uncletopia | Warsaw | 6 | Community","name_short":"waw-6","host":"waw-1.pl.uncletopia.com","port":27065,"enabled":true,"region":"eu","cc":"pl","latitude":52.2297,"longitude":21.017532,"reserved":0,"last_update":"0001-01-01T00:00:00Z","name_a2s":"Uncletopia | Warsaw | 6 | Community","protocol":17,"map":"workshop/koth_ashville_final.ugc2130459942","folder":"tf","game":"Team Fortress","app_id":440,"player_count":0,"max_players":24,"Bots":0,"server_type":"Dedicated","server_os":"Linux","password":true,"vac":true,"version":"7882260","steam_id":85568392925397856,"keywords":["cp","nocrits","nodmgspread","uncletopia"],"game_id":440,"stv_port":27066,"stv_name":"Uncletopia | Warsaw | 6 | Community | STV","players":null}]}