{"status":true,"message":"","result":[{"server_id":9,"name":"Uncletopia | Atlanta | 1 | All Maps","name_short":"atl-1","host":"atl-1.us.uncletopia.com","port":27015,"enabled":true,"region":"us-east","cc":"us","latitude":33.753746,"longitude":-84.38633,"reserved":0,"last_update":"0001-01-01T00:00:00Z","name_a2s":"Uncletopia | Atlanta | 1 | All Maps","protocol":17,"map":"pl_barnblitz","folder":"tf","game":"Team Fortress","app_id":440,"player_count":24,"max_players":24,"Bots":0,"server_type":"Dedicated","server_os":"Linux","password":true,"vac":true,"version":"7961495","steam_id":85568392924469982,"keywords":["nocrits","nodmgspread","payload","uncletopia"],"game_id":440,"stv_port":27016,"stv_name":"Uncletopia | Atlanta | 1 | All Maps | STV","players":[{"user_id":710,"name":"The_Stomach_Stone_Surgeon","steam_id":76561198044643725,"connected_time":1450000000000,"state":"active","ping":41},{"user_id":697,"name":"Shadoe","steam_id":76561198218577281,"connected_time":2763000000000,"state":"active","ping":67},{"user_id":717,"name":"Kalimba Chozo","steam_id":76561198061847043,"connected_time":592000000000,"state":"active","ping":82},{"user_id":702,"name":"BIG HOG","steam_id":76561198079923652,"connected_time":2509000000000,"state":"active","ping":63},{"user_id":689,"name":"Passionate Map Researcher","steam_id":76561199490508357,"connected_time":4292000000000,"state":"active","ping":91},{"user_id":718,"name":"Clamps","steam_id":76561197993540982,"connected_time":589000000000,"state":"active","ping":59},{"user_id":711,"name":"NotoriousThicc","steam_id":76561198244650474,"connected_time":1395000000000,"state":"active","ping":112},{"user_id":640,"name":"Bag","steam_id":76561198012395490,"connected_time":6923000000000,"state":"active","ping":59},{"user_id":709,"name":"neeko gaming","steam_id":76561198180174734,"connected_time":1576000000000,"state":"active","ping":75},{"user_id":701,"name":"trayer","steam_id":76561198050729672,"connected_time":2620000000000,"state":"active","ping":71},{"user_id":684,"name":"Joan The Kisaragi Cat","steam_id":76561199370650064,"connected_time":4327000000000,"state":"active","ping":88},{"user_id":700,"name":"A Turtle","steam_id":76561198060194520,"connected_time":2641000000000,"state":"active","ping":135},{"user_id":691,"name":"Shmoopy","steam_id":76561198030459152,"connected_time":3711000000000,"state":"active","ping":61},{"user_id":567,"name":"marguerite","steam_id":76561198170873495,"connected_time":13270000000000,"state":"active","ping":56},{"user_id":703,"name":"SHADOW","steam_id":76561198207768148,"connected_time":2492000000000,"state":"active","ping":110},{"user_id":715,"name":"Crayfry","steam_id":76561198146525237,"connected_time":966000000000,"state":"active","ping":74},{"user_id":695,"name":"lu","steam_id":76561198080731872,"connected_time":2816000000000,"state":"active","ping":75},{"user_id":713,"name":"-BRH- Tangled up in Bluegrass","steam_id":76561197987181139,"connected_time":1373000000000,"state":"active","ping":70},{"user_id":692,"name":"SAGE(सगे*)","steam_id":76561198811114074,"connected_time":3594000000000,"state":"active","ping":82},{"user_id":721,"name":"DanielGarka","steam_id":76561198302972656,"connected_time":400000000000,"state":"active","ping":167},{"user_id":722,"name":"shaq$","steam_id":76561198045246504,"connected_time":328000000000,"state":"active","ping":77},{"user_id":720,"name":"Uncle Dale","steam_id":76561199144302768,"connected_time":456000000000,"state":"active","ping":66},{"user_id":714,"name":"ਹੁੱਡ ਕਾਉਬੌਏ","steam_id":76561198021308963,"connected_time":1351000000000,"state":"active","ping":88},{"user_id":649,"name":"lil hog","steam_id":76561199230929836,"connected_time":6255000000000,"state":"active","ping":85}]},{"server_id":104,"name":"Uncletopia | Atlanta | 2 | All Maps","name_short":"atl-2","host":"atl-1.us.uncletopia.com","port":27025,"enabled":true,"region":"us-east","cc":"us","latitude":33.753746,"longitude":-84.38633,"reserved":0,"last_update":"0001-01-01T00:00:00Z","name_a2s":"Uncletopia | Atlanta | 2 | All Maps","protocol":17,"map":"pl_frontier_final","folder":"tf","game":"Team Fortress","app_id":440,"player_count":24,"max_players":24,"Bots":0,"server_type":"Dedicated","server_os":"Linux","password":true,"vac":true,"version":"7961495","steam_id":85568392924469983,"keywords":["nocrits","nodmgspread","payload","uncletopia"],"game_id":440,"stv_port":27026,"stv_name":"Uncletopia | Atlanta | 2 | All Maps | STV","players":[{"user_id":717,"name":"Kzjytsugn","steam_id":76561198130241974,"connected_time":1445000000000,"state":"active","ping":104},{"user_id":723,"name":"Amoogie_Baloogie","steam_id":76561198335887809,"connected_time":853000000000,"state":"active","ping":101},{"user_id":706,"name":"astrobob911","steam_id":76561199099110654,"connected_time":2077000000000,"state":"active","ping":94},{"user_id":684,"name":"fawn","steam_id":76561198043684960,"connected_time":3126000000000,"state":"active","ping":68},{"user_id":583,"name":"ArcticTone","steam_id":76561199163932146,"connected_time":11565000000000,"state":"active","ping":56},{"user_id":552,"name":"Lee?","steam_id":76561199060892634,"connected_time":14343000000000,"state":"active","ping":63},{"user_id":601,"name":"Mana_Kaktus","steam_id":76561198110468307,"connected_time":9639000000000,"state":"active","ping":73},{"user_id":657,"name":"guy","steam_id":76561198163306561,"connected_time":4502000000000,"state":"active","ping":60},{"user_id":587,"name":"Crescent","steam_id":76561198095124633,"connected_time":11495000000000,"state":"active","ping":73},{"user_id":719,"name":"Pie™","steam_id":76561198158312625,"connected_time":1291000000000,"state":"active","ping":103},{"user_id":664,"name":"Spyce","steam_id":76561199034270259,"connected_time":3956000000000,"state":"active","ping":63},{"user_id":696,"name":"C∅RVUS","steam_id":76561198100640019,"connected_time":2698000000000,"state":"active","ping":130},{"user_id":711,"name":"JakePackage","steam_id":76561198033973438,"connected_time":1701000000000,"state":"active","ping":71},{"user_id":700,"name":"Space Captainface","steam_id":76561197995103493,"connected_time":2441000000000,"state":"active","ping":80},{"user_id":726,"name":"Gay Cake","steam_id":76561198004388831,"connected_time":388000000000,"state":"active","ping":84},{"user_id":709,"name":"Captain Zyrin","steam_id":76561197983121824,"connected_time":1765000000000,"state":"active","ping":80},{"user_id":725,"name":"Holiday Fartcruise","steam_id":76561198043851584,"connected_time":464000000000,"state":"active","ping":133},{"user_id":681,"name":"crunchy obama","steam_id":76561198044485217,"connected_time":3300000000000,"state":"active","ping":113},{"user_id":718,"name":"EvilPi99let","steam_id":76561197987243470,"connected_time":1410000000000,"state":"active","ping":70},{"user_id":720,"name":"El Gato Paranoico","steam_id":76561198116567116,"connected_time":1234000000000,"state":"active","ping":82},{"user_id":713,"name":"prod.poncho","steam_id":76561199060612892,"connected_time":1669000000000,"state":"active","ping":56},{"user_id":715,"name":"rf","steam_id":76561198195359229,"connected_time":1617000000000,"state":"active","ping":105},{"user_id":701,"name":"Entar","steam_id":76561197968661166,"connected_time":2418000000000,"state":"active","ping":82},{"user_id":722,"name":"An Entire Team of Medics","steam_id":76561198012723247,"connected_time":1081000000000,"state":"active","ping":67}]},{"server_id":400,"name":"Uncletopia | Atlanta | 3 | Stopwatch","name_short":"atl-3","host":"atl-1.us.uncletopia.com","port":27035,"enabled":true,"region":"us-east","cc":"us","latitude":33.753746,"longitude":-84.38633,"reserved":0,"last_update":"0001-01-01T00:00:00Z","name_a2s":"Uncletopia | Atlanta | 3 | Stopwatch","protocol":17,"map":"koth_highpass","folder":"tf","game":"Team Fortress","app_id":440,"player_count":0,"max_players":24,"Bots":0,"server_type":"Dedicated","server_os":"Linux","password":true,"vac":true,"version":"7961495","steam_id":85568392924515187,"keywords":["cp","nocrits","nodmgspread","uncletopia"],"game_id":440,"stv_port":27036,"stv_name":"Uncletopia | Atlanta | 3 | Stopwatch | STV","players":null},{"server_id":401,"name":"Uncletopia | Atlanta | 4 | Community","name_short":"atl-4","host":"atl-1.us.uncletopia.com","port":27045,"enabled":true,"region":"us-east","cc":"us","latitude":33.753746,"longitude":-84.38633,"reserved":0,"last_update":"0001-01-01T00:00:00Z","name_a2s":"Uncletopia | Atlanta | 4 | Community","protocol":17,"map":"workshop/koth_trenchfoot_ab1.ugc731436616","folder":"tf","game":"Team Fortress","app_id":440,"player_count":0,"max_players":24,"Bots":0,"server_type":"Dedicated","server_os":"Linux","password":true,"vac":true,"version":"7961495","steam_id":85568392924515188,"keywords":["cp","nocrits","nodmgspread","uncletopia"],"game_id":440,"stv_port":27046,"stv_name":"Uncletopia | Atlanta | 4 | Community | STV","players":null},{"server_id":2,"name":"Uncletopia | Chicago | 1 | All Maps","name_short":"chi-1","host":"chi-1.us.uncletopia.com","port":27015,"enabled":true,"region":"us-central","cc":"us","latitude":41.881832,"longitude":-87.62318,"reserved":0,"last_update":"0001-01-01T00:00:00Z","name_a2s":"Uncletopia | Chicago | 1 | All Maps","protocol":17,"map":"pl_snowycoast","folder":"tf","game":"Team Fortress","app_id":440,"player_count":24,"max_players":24,"Bots":0,"server_type":"Dedicated","server_os":"Linux","password":true,"vac":true,"version":"7961495","steam_id":85568392924469984,"keywords":["nocrits","nodmgspread","payload","uncletopia"],"game_id":440,"stv_port":27016,"stv_name":"Uncletopia | Chicago | 1 | All Maps | STV","players":[{"user_id":863,"name":"DevoutPage14990","steam_id":76561198831347354,"connected_time":2384000000000,"state":"active","ping":83},{"user_id":848,"name":"BANDIDO","steam_id":76561199509676031,"connected_time":3005000000000,"state":"active","ping":60},{"user_id":826,"name":"Your Local Queer Librarian","steam_id":76561198013077080,"connected_time":5707000000000,"state":"active","ping":53},{"user_id":868,"name":"may i please have a water","steam_id":76561198119536224,"connected_time":1297000000000,"state":"active","ping":76},{"user_id":869,"name":"SpecialForce19","steam_id":76561198120974644,"connected_time":1281000000000,"state":"active","ping":79},{"user_id":866,"name":"Saucy Boy","steam_id":76561198178332031,"connected_time":1343000000000,"state":"active","ping":73},{"user_id":806,"name":"PickleHater13","steam_id":76561198259380127,"connected_time":7861000000000,"state":"active","ping":52},{"user_id":871,"name":"No aim :(","steam_id":76561198298310744,"connected_time":1258000000000,"state":"active","ping":62},{"user_id":847,"name":"Aristotle Voulton","steam_id":76561198100174923,"connected_time":3174000000000,"state":"active","ping":99},{"user_id":828,"name":"Big Business","steam_id":76561198353366625,"connected_time":5278000000000,"state":"active","ping":87},{"user_id":849,"name":"LVL","steam_id":76561198334403617,"connected_time":3004000000000,"state":"active","ping":56},{"user_id":795,"name":"SPIRE_FAN","steam_id":76561198001486573,"connected_time":10102000000000,"state":"active","ping":65},{"user_id":859,"name":"tk","steam_id":76561198090506450,"connected_time":2843000000000,"state":"active","ping":90},{"user_id":851,"name":"roachie","steam_id":76561198136642793,"connected_time":2999000000000,"state":"active","ping":71},{"user_id":852,"name":"FELON #COMEGETME","steam_id":76561198144766439,"connected_time":2992000000000,"state":"active","ping":45},{"user_id":870,"name":"MoomyBoomy","steam_id":76561198150787961,"connected_time":1274000000000,"state":"active","ping":76},{"user_id":872,"name":"IM GONNA ROLL UR BALLS","steam_id":76561198173296047,"connected_time":1207000000000,"state":"active","ping":108},{"user_id":877,"name":"game cube manual","steam_id":76561199128872873,"connected_time":848000000000,"state":"active","ping":65},{"user_id":879,"name":"Alecto","steam_id":76561198042476864,"connected_time":724000000000,"state":"active","ping":45},{"user_id":874,"name":"Pinkie Pie","steam_id":76561198957996236,"connected_time":1118000000000,"state":"active","ping":55},{"user_id":876,"name":"Sarbanes-Oxley","steam_id":76561197975898479,"connected_time":1061000000000,"state":"active","ping":78},{"user_id":856,"name":"Ghost \"With the Most\" Toastee","steam_id":76561198085410969,"connected_time":2964000000000,"state":"active","ping":48},{"user_id":857,"name":"chicano.sorcerer.94","steam_id":76561198154449875,"connected_time":2959000000000,"state":"active","ping":113},{"user_id":878,"name":"TÖZI","steam_id":76561198045268695,"connected_time":848000000000,"state":"active","ping":97}]},{"server_id":106,"name":"Uncletopia | Chicago | 2 | All Maps","name_short":"chi-2","host":"chi-1.us.uncletopia.com","port":27025,"enabled":true,"region":"us-central","cc":"us","latitude":41.881832,"longitude":-87.62318,"reserved":0,"last_update":"0001-01-01T00:00:00Z","name_a2s":"Uncletopia | Chicago | 2 | All Maps","protocol":17,"map":"ctf_2fort","folder":"tf","game":"Team Fortress","app_id":440,"player_count":20,"max_players":24,"Bots":0,"server_type":"Dedicated","server_os":"Linux","password":true,"vac":true,"version":"7961495","steam_id":85568392924469985,"keywords":["ctf","nocrits","nodmgspread","uncletopia"],"game_id":440,"stv_port":27026,"stv_name":"Uncletopia | Chicago | 2 | All Maps | STV","players":[{"user_id":711,"name":"supamajikunicorn","steam_id":76561198152596322,"connected_time":193000000000,"state":"active","ping":82},{"user_id":685,"name":"The Assistant Regional Manager","steam_id":76561199221484936,"connected_time":1771000000000,"state":"active","ping":107},{"user_id":716,"name":"ryqset","steam_id":76561198349299874,"connected_time":15000000000,"state":"active","ping":81},{"user_id":714,"name":"Nomad","steam_id":76561198124092005,"connected_time":144000000000,"state":"active","ping":70},{"user_id":683,"name":"The Alex","steam_id":76561198044016385,"connected_time":1893000000000,"state":"active","ping":73},{"user_id":695,"name":"PizzaThot","steam_id":76561198278237289,"connected_time":1242000000000,"state":"active","ping":72},{"user_id":687,"name":"kai","steam_id":76561198258789116,"connected_time":1365000000000,"state":"active","ping":48},{"user_id":673,"name":"Bloodborne","steam_id":76561198072541436,"connected_time":2659000000000,"state":"active","ping":45},{"user_id":674,"name":"barf drinker","steam_id":76561199144640325,"connected_time":2645000000000,"state":"active","ping":64},{"user_id":688,"name":"Dojodank","steam_id":76561198088894863,"connected_time":1349000000000,"state":"active","ping":68},{"user_id":689,"name":"nick","steam_id":76561198280418742,"connected_time":1348000000000,"state":"active","ping":67},{"user_id":690,"name":"anddrond","steam_id":76561198170112453,"connected_time":1335000000000,"state":"active","ping":60},{"user_id":691,"name":"be nice im new","steam_id":76561199227557263,"connected_time":1316000000000,"state":"active","ping":81},{"user_id":704,"name":"Jerry Kool-Aid","steam_id":76561198030281560,"connected_time":1061000000000,"state":"active","ping":54},{"user_id":665,"name":"BoopBerry","steam_id":76561198871571711,"connected_time":3730000000000,"state":"active","ping":66},{"user_id":693,"name":"Nefarious Fentsmokaa Rudebwoy","steam_id":76561198160572249,"connected_time":1275000000000,"state":"active","ping":87},{"user_id":698,"name":"smef","steam_id":76561198321385895,"connected_time":1220000000000,"state":"active","ping":57},{"user_id":710,"name":"Lagster","steam_id":76561198941816254,"connected_time":460000000000,"state":"active","ping":71},{"user_id":701,"name":"Vava","steam_id":76561199061877557,"connected_time":1191000000000,"state":"active","ping":65},{"user_id":702,"name":"Persona404","steam_id":76561198109635077,"connected_time":1187000000000,"state":"active","ping":79}]},{"server_id":402,"name":"Uncletopia | Chicago | 3 | All Maps","name_short":"chi-3","host":"chi-1.us.uncletopia.com","port":27035,"enabled":true,"region":"us-central","cc":"us","latitude":41.881832,"longitude":-87.62318,"reserved":0,"last_update":"0001-01-01T00:00:00Z","name_a2s":"Uncletopia | Chicago | 3 | All Maps","protocol":17,"map":"pl_snowycoast","folder":"tf","game":"Team Fortress","app_id":440,"player_count":23,"max_players":24,"Bots":0,"server_type":"Dedicated","server_os":"Linux","password":true,"vac":true,"version":"7961495","steam_id":85568392924515191,"keywords":["nocrits","nodmgspread","payload","uncletopia"],"game_id":440,"stv_port":27036,"stv_name":"Uncletopia | Chicago | 3 | All Maps | STV","players":[{"user_id":562,"name":"TheSnipersHat","steam_id":76561198057684066,"connected_time":105000000000,"state":"active","ping":50},{"user_id":457,"name":"Wockicity","steam_id":76561198067176829,"connected_time":8140000000000,"state":"active","ping":109},{"user_id":544,"name":"Sam","steam_id":76561198012364798,"connected_time":2220000000000,"state":"active","ping":49},{"user_id":554,"name":"iNTEGRATED MATHMATICS BOOK 1","steam_id":76561199192565219,"connected_time":667000000000,"state":"active","ping":119},{"user_id":506,"name":"twix","steam_id":76561198040912048,"connected_time":5108000000000,"state":"active","ping":45},{"user_id":557,"name":"Cabbage","steam_id":76561198405573530,"connected_time":628000000000,"state":"active","ping":67},{"user_id":520,"name":"The Ancient Tome Scryer","steam_id":76561198811958825,"connected_time":4411000000000,"state":"active","ping":61},{"user_id":547,"name":"mak","steam_id":76561198071535971,"connected_time":2017000000000,"state":"active","ping":104},{"user_id":551,"name":"the pizza he-man","steam_id":76561199166474769,"connected_time":1089000000000,"state":"active","ping":114},{"user_id":528,"name":"Sneed ฅ^•ﻌ•^ฅ","steam_id":76561198161165713,"connected_time":3234000000000,"state":"active","ping":73},{"user_id":545,"name":"mopsyNYAA","steam_id":76561199044347663,"connected_time":2032000000000,"state":"active","ping":41},{"user_id":512,"name":"The Great Bearer of Wealth","steam_id":76561198352687317,"connected_time":4535000000000,"state":"active","ping":82},{"user_id":546,"name":"Large Man","steam_id":76561198880396651,"connected_time":2026000000000,"state":"active","ping":82},{"user_id":493,"name":"shitass | troutsupply.net","steam_id":76561198210572481,"connected_time":6671000000000,"state":"active","ping":89},{"user_id":539,"name":"M4xW3LL","steam_id":76561198828562719,"connected_time":2682000000000,"state":"active","ping":60},{"user_id":558,"name":"YohjiYamamotoSasukeUchihaHyoma","steam_id":76561198150382695,"connected_time":620000000000,"state":"active","ping":76},{"user_id":560,"name":"Cliff Uppercut","steam_id":76561197999439391,"connected_time":588000000000,"state":"active","ping":77},{"user_id":540,"name":"cow","steam_id":76561198117331762,"connected_time":2378000000000,"state":"active","ping":45},{"user_id":561,"name":"HIDDEN HIPPO the hippo","steam_id":76561198071628457,"connected_time":424000000000,"state":"active","ping":47},{"user_id":564,"name":"Duck","steam_id":76561198076077244,"connected_time":63000000000,"state":"spawning","ping":248},{"user_id":526,"name":"The Sultan of Shmeat","steam_id":76561198072500352,"connected_time":3512000000000,"state":"active","ping":83},{"user_id":541,"name":"dabsol","steam_id":76561198272096751,"connected_time":2351000000000,"state":"active","ping":55},{"user_id":566,"name":"firulais #IHATETHOMAS","steam_id":76561198860460013,"connected_time":37000000000,"state":"active","ping":105}]},{"server_id":403,"name":"Uncletopia | Chicago | 4 | All Maps","name_short":"chi-4","host":"chi-1.us.uncletopia.com","port":27045,"enabled":true,"region":"us-central","cc":"us","latitude":41.881832,"longitude":-87.62318,"reserved":0,"last_update":"0001-01-01T00:00:00Z","name_a2s":"Uncletopia | Chicago | 4 | All Maps","protocol":17,"map":"cp_foundry","folder":"tf","game":"Team Fortress","app_id":440,"player_count":24,"max_players":24,"Bots":0,"server_type":"Dedicated","server_os":"Linux","password":true,"vac":true,"version":"7961495","steam_id":85568392924515193,"keywords":["cp","nocrits","nodmgspread","uncletopia"],"game_id":440,"stv_port":27046,"stv_name":"Uncletopia | Chicago | 4 | All Maps | STV","players":[{"user_id":767,"name":"Spy Kart 2","steam_id":76561199486212244,"connected_time":85000000000,"state":"active","ping":77},{"user_id":763,"name":"Sallah Goodmuslim","steam_id":76561198209153291,"connected_time":833000000000,"state":"active","ping":90},{"user_id":762,"name":"Joe, Banana","steam_id":76561198077551754,"connected_time":1098000000000,"state":"active","ping":71},{"user_id":737,"name":"NarDuu","steam_id":76561198081707619,"connected_time":2968000000000,"state":"active","ping":90},{"user_id":705,"name":"Menachem","steam_id":76561198041226420,"connected_time":5370000000000,"state":"active","ping":48},{"user_id":744,"name":"Jibanyanlnewells69","steam_id":76561198337420431,"connected_time":2725000000000,"state":"active","ping":65},{"user_id":739,"name":"big scary fish","steam_id":76561198073269122,"connected_time":2912000000000,"state":"active","ping":75},{"user_id":768,"name":"Looge","steam_id":76561198155483586,"connected_time":39000000000,"state":"active","ping":53},{"user_id":769,"name":"HyperGalvanized","steam_id":76561198029262451,"connected_time":24000000000,"state":"active","ping":79},{"user_id":735,"name":"Queen Frau the Round","steam_id":76561197999942134,"connected_time":3045000000000,"state":"active","ping":45},{"user_id":758,"name":"Jelqing Table","steam_id":76561198051373750,"connected_time":1497000000000,"state":"active","ping":74},{"user_id":765,"name":"taco bell jizz balls","steam_id":76561199041179985,"connected_time":174000000000,"state":"active","ping":105},{"user_id":646,"name":"rude boi","steam_id":76561198006783260,"connected_time":8147000000000,"state":"active","ping":75},{"user_id":743,"name":"motherfucker 2.0","steam_id":76561198141189209,"connected_time":2843000000000,"state":"active","ping":65},{"user_id":647,"name":"kaputon","steam_id":76561198146299782,"connected_time":8091000000000,"state":"active","ping":65},{"user_id":745,"name":"Just some clown","steam_id":76561198998953018,"connected_time":2722000000000,"state":"active","ping":101},{"user_id":756,"name":"fadeaway backshots","steam_id":76561198086878595,"connected_time":1518000000000,"state":"active","ping":105},{"user_id":755,"name":"ReDiculous22","steam_id":76561198038391383,"connected_time":1555000000000,"state":"active","ping":67},{"user_id":746,"name":"CheeZeyRat","steam_id":76561199473394284,"connected_time":2715000000000,"state":"active","ping":80},{"user_id":754,"name":"squash","steam_id":76561198150281353,"connected_time":2216000000000,"state":"active","ping":102},{"user_id":747,"name":"Saphyra","steam_id":76561198110951985,"connected_time":2667000000000,"state":"active","ping":80},{"user_id":750,"name":"Le Meilleur","steam_id":76561198054581325,"connected_time":2459000000000,"state":"active","ping":67},{"user_id":632,"name":"Shrebbie","steam_id":76561198875230824,"connected_time":10021000000000,"state":"active","ping":62},{"user_id":760,"name":"rorywashere /ᐠ - ˕ -マ Ⳋ","steam_id":76561198065825165,"connected_time":1456000000000,"state":"active","ping":114}]},{"server_id":36,"name":"Uncletopia | Chicago | 5 | All Maps","name_short":"chi-5","host":"chi-2.us.uncletopia.com","port":27015,"enabled":true,"region":"us-central","cc":"us","latitude":41.881832,"longitude":-87.62318,"reserved":0,"last_update":"0001-01-01T00:00:00Z","name_a2s":"Uncletopia | Chicago | 5 | All Maps","protocol":17,"map":"cp_dustbowl","folder":"tf","game":"Team Fortress","app_id":440,"player_count":9,"max_players":24,"Bots":0,"server_type":"Dedicated","server_os":"Linux","password":true,"vac":true,"version":"7961495","steam_id":85568392924866362,"keywords":["cp","nocrits","nodmgspread","uncletopia"],"game_id":440,"stv_port":27016,"stv_name":"Uncletopia | Chicago | 5 | All Maps | STV","players":[{"user_id":695,"name":"Slime Çiftçisi","steam_id":76561199071317611,"connected_time":365000000000,"state":"active","ping":186},{"user_id":696,"name":"Mifune","steam_id":76561198838596371,"connected_time":334000000000,"state":"active","ping":57},{"user_id":692,"name":"whirlybird","steam_id":76561198353887173,"connected_time":789000000000,"state":"active","ping":53},{"user_id":693,"name":"DinkyDoink","steam_id":76561198240026004,"connected_time":784000000000,"state":"active","ping":51},{"user_id":697,"name":"aciddragon","steam_id":76561198151211107,"connected_time":253000000000,"state":"active","ping":94},{"user_id":698,"name":"NickySlicky","steam_id":76561199108650500,"connected_time":242000000000,"state":"active","ping":88},{"user_id":699,"name":"TheRatman","steam_id":76561197975916410,"connected_time":236000000000,"state":"active","ping":66},{"user_id":700,"name":"Dom","steam_id":76561198156431338,"connected_time":233000000000,"state":"active","ping":65},{"user_id":701,"name":"Zero Hiro™","steam_id":76561198075423872,"connected_time":231000000000,"state":"active","ping":61}]},{"server_id":37,"name":"Uncletopia | Chicago | 6 | All Maps","name_short":"chi-6","host":"chi-2.us.uncletopia.com","port":27025,"enabled":true,"region":"us-central","cc":"us","latitude":41.881832,"longitude":-87.62318,"reserved":0,"last_update":"0001-01-01T00:00:00Z","name_a2s":"Uncletopia | Chicago | 6 | All Maps","protocol":17,"map":"pl_pier","folder":"tf","game":"Team Fortress","app_id":440,"player_count":24,"max_players":24,"Bots":0,"server_type":"Dedicated","server_os":"Linux","password":true,"vac":true,"version":"7961495","steam_id":85568392924866363,"keywords":["nocrits","nodmgspread","payload","uncletopia"],"game_id":440,"stv_port":27026,"stv_name":"Uncletopia | Chicago | 6 | All Maps | STV","players":[{"user_id":281,"name":"don tomas","steam_id":76561199050423086,"connected_time":6963000000000,"state":"active","ping":120},{"user_id":344,"name":"Kola ✧","steam_id":76561198049995341,"connected_time":1269000000000,"state":"active","ping":49},{"user_id":341,"name":"Unlicensed Fed","steam_id":76561198166040449,"connected_time":1451000000000,"state":"active","ping":86},{"user_id":352,"name":"The strongest ⑨ ball","steam_id":76561198126760743,"connected_time":378000000000,"state":"active","ping":74},{"user_id":312,"name":"Major Coom","steam_id":76561198038371512,"connected_time":3439000000000,"state":"active","ping":81},{"user_id":342,"name":"iiamiizzyy","steam_id":76561198355030751,"connected_time":1427000000000,"state":"active","ping":89},{"user_id":313,"name":"bitchtiddes","steam_id":76561199008352469,"connected_time":3353000000000,"state":"active","ping":75},{"user_id":293,"name":"DiscoTraveler","steam_id":76561199240168088,"connected_time":5792000000000,"state":"active","ping":87},{"user_id":339,"name":"TF2 Loafy","steam_id":76561198033378852,"connected_time":1498000000000,"state":"active","ping":101},{"user_id":314,"name":"Bat","steam_id":76561198278728161,"connected_time":3338000000000,"state":"active","ping":60},{"user_id":327,"name":"frank","steam_id":76561198137777483,"connected_time":2789000000000,"state":"active","ping":74},{"user_id":285,"name":"devorameeltrozo","steam_id":76561199153217772,"connected_time":6510000000000,"state":"active","ping":121},{"user_id":349,"name":"HeyItsMeBrendan","steam_id":76561198352330891,"connected_time":1135000000000,"state":"active","ping":145},{"user_id":353,"name":"Uwu Micster","steam_id":76561198843890616,"connected_time":374000000000,"state":"active","ping":88},{"user_id":316,"name":"Boomerang_Monkey","steam_id":76561198849970999,"connected_time":3299000000000,"state":"active","ping":63},{"user_id":351,"name":"Fredorando","steam_id":76561198242546842,"connected_time":972000000000,"state":"active","ping":71},{"user_id":345,"name":"SirKnightOwl","steam_id":76561199065885597,"connected_time":1249000000000,"state":"active","ping":123},{"user_id":355,"name":"Blueseer","steam_id":76561198060326533,"connected_time":256000000000,"state":"active","ping":68},{"user_id":332,"name":"Pollen Buying Skins \u0026 Backpacks","steam_id":76561198061779536,"connected_time":2559000000000,"state":"active","ping":76},{"user_id":333,"name":"ChampionOfSheets","steam_id":76561198297380028,"connected_time":2525000000000,"state":"active","ping":82},{"user_id":356,"name":"slep.py","steam_id":76561197988287144,"connected_time":213000000000,"state":"active","ping":58},{"user_id":357,"name":"Sweater-Fan","steam_id":76561199389567214,"connected_time":186000000000,"state":"active","ping":69},{"user_id":358,"name":"dzcreeper","steam_id":76561198072250723,"connected_time":161000000000,"state":"active","ping":89},{"user_id":354,"name":"Grandad","steam_id":76561198931285831,"connected_time":342000000000,"state":"active","ping":82}]},{"server_id":38,"name":"Uncletopia | Chicago | 7 | Stopwatch","name_short":"chi-7","host":"chi-2.us.uncletopia.com","port":27035,"enabled":true,"region":"us-central","cc":"us","latitude":41.881832,"longitude":-87.62318,"reserved":0,"last_update":"0001-01-01T00:00:00Z","name_a2s":"Uncletopia | Chicago | 7 | Stopwatch","protocol":17,"map":"koth_highpass","folder":"tf","game":"Team Fortress","app_id":440,"player_count":2,"max_players":24,"Bots":0,"server_type":"Dedicated","server_os":"Linux","password":true,"vac":true,"version":"7961495","steam_id":85568392924866364,"keywords":["cp","nocrits","nodmgspread","uncletopia"],"game_id":440,"stv_port":27036,"stv_name":"Uncletopia | Chicago | 7 | Stopwatch | STV","players":[{"user_id":32,"name":"CreateADebate","steam_id":76561198115760035,"connected_time":8453000000000,"state":"active","ping":59},{"user_id":68,"name":"gonzalez2014","steam_id":76561199422766504,"connected_time":6133000000000,"state":"active","ping":90}]},{"server_id":39,"name":"Uncletopia | Chicago | 8 | Community","name_short":"chi-8","host":"chi-2.us.uncletopia.com","port":27045,"enabled":true,"region":"us-central","cc":"us","latitude":41.881832,"longitude":-87.62318,"reserved":0,"last_update":"0001-01-01T00:00:00Z","name_a2s":"Uncletopia | Chicago | 8 | Community","protocol":17,"map":"workshop/koth_slaughter_rc1.ugc1712845210","folder":"tf","game":"Team Fortress","app_id":440,"player_count":0,"max_players":24,"Bots":0,"server_type":"Dedicated","server_os":"Linux","password":true,"vac":true,"version":"7961495","steam_id":85568392924866365,"keywords":["cp","nocrits","nodmgspread","uncletopia"],"game_id":440,"stv_port":27046,"stv_name":"Uncletopia | Chicago | 8 | Community | STV","players":null},{"server_id":8,"name":"Uncletopia | Dallas | 1 | All Maps","name_short":"dal-1","host":"dal-1.us.uncletopia.com","port":27015,"enabled":true,"region":"us-central","cc":"us","latitude":32.779167,"longitude":-96.80889,"reserved":0,"last_update":"0001-01-01T00:00:00Z","name_a2s":"Uncletopia | Dallas | 1 | All Maps","protocol":17,"map":"koth_highpass","folder":"tf","game":"Team Fortress","app_id":440,"player_count":24,"max_players":24,"Bots":0,"server_type":"Dedicated","server_os":"Linux","password":true,"vac":true,"version":"7961495","steam_id":85568392924469986,"keywords":["cp","nocrits","nodmgspread","uncletopia"],"game_id":440,"stv_port":27016,"stv_name":"Uncletopia | Dallas | 1 | All Maps | STV","players":[{"user_id":594,"name":"Wooden E","steam_id":76561198020308956,"connected_time":7954000000000,"state":"active","ping":62},{"user_id":639,"name":"Pvt. Dimitri Petrenko","steam_id":76561198078040091,"connected_time":3491000000000,"state":"active","ping":56},{"user_id":571,"name":"ATLS1 | Strange Festive","steam_id":76561198050385093,"connected_time":10814000000000,"state":"active","ping":89},{"user_id":651,"name":"♥Hakaii♥","steam_id":76561197989633581,"connected_time":1229000000000,"state":"active","ping":75},{"user_id":661,"name":"minecraft","steam_id":76561198104345201,"connected_time":184000000000,"state":"active","ping":86},{"user_id":656,"name":"sludgebot","steam_id":76561198083789250,"connected_time":662000000000,"state":"active","ping":65},{"user_id":660,"name":"T12a55","steam_id":76561199228993903,"connected_time":337000000000,"state":"active","ping":178},{"user_id":653,"name":"Foreskin Muncher","steam_id":76561199031241776,"connected_time":824000000000,"state":"active","ping":50},{"user_id":657,"name":"Shortround","steam_id":76561197999943914,"connected_time":444000000000,"state":"active","ping":82},{"user_id":662,"name":"Muselk, but mexican","steam_id":76561199289676387,"connected_time":151000000000,"state":"active","ping":66},{"user_id":637,"name":"Rat Cycle","steam_id":76561198113364714,"connected_time":4183000000000,"state":"active","ping":78},{"user_id":654,"name":"Tony","steam_id":76561198169799653,"connected_time":814000000000,"state":"active","ping":61},{"user_id":633,"name":"daemon","steam_id":76561198001541433,"connected_time":4261000000000,"state":"active","ping":81},{"user_id":587,"name":"Andrew's Taint","steam_id":76561198131400543,"connected_time":8695000000000,"state":"active","ping":73},{"user_id":624,"name":"Glühbirne","steam_id":76561198189278869,"connected_time":4919000000000,"state":"active","ping":80},{"user_id":590,"name":"talented","steam_id":76561198800259660,"connected_time":8415000000000,"state":"active","ping":69},{"user_id":659,"name":"Moon And Star","steam_id":76561198084449092,"connected_time":366000000000,"state":"active","ping":101},{"user_id":649,"name":"CongitionCram","steam_id":76561198824203909,"connected_time":2358000000000,"state":"active","ping":82},{"user_id":652,"name":"Srg-Waffle","steam_id":76561198204555116,"connected_time":877000000000,"state":"active","ping":86},{"user_id":650,"name":"SyncDog","steam_id":76561198004683687,"connected_time":1408000000000,"state":"active","ping":63},{"user_id":646,"name":"AzuriousAlex","steam_id":76561198158026405,"connected_time":2568000000000,"state":"active","ping":76},{"user_id":647,"name":"antediluvian death angel","steam_id":76561199001918194,"connected_time":2558000000000,"state":"active","ping":94},{"user_id":648,"name":"Imrgrim","steam_id":76561198135866481,"connected_time":2557000000000,"state":"active","ping":70},{"user_id":576,"name":"lover is my jean billie not","steam_id":76561198054070811,"connected_time":9822000000000,"state":"active","ping":77}]},{"server_id":108,"name":"Uncletopia | Dallas | 2 | All Maps","name_short":"dal-2","host":"dal-1.us.uncletopia.com","port":27025,"enabled":true,"region":"us-central","cc":"us","latitude":32.779167,"longitude":-96.80889,"reserved":0,"last_update":"0001-01-01T00:00:00Z","name_a2s":"Uncletopia | Dallas | 2 | All Maps","protocol":17,"map":"cp_process_final","folder":"tf","game":"Team Fortress","app_id":440,"player_count":21,"max_players":24,"Bots":0,"server_type":"Dedicated","server_os":"Linux","password":true,"vac":true,"version":"7961495","steam_id":85568392924469988,"keywords":["cp","nocrits","nodmgspread","uncletopia"],"game_id":440,"stv_port":27026,"stv_name":"Uncletopia | Dallas | 2 | All Maps | STV","players":[{"user_id":786,"name":"Isovaleraldehyde","steam_id":76561198116389072,"connected_time":30000000000,"state":"active","ping":110},{"user_id":780,"name":"Nice \u003e:]","steam_id":76561198297163650,"connected_time":146000000000,"state":"active","ping":47},{"user_id":732,"name":"stuffedidiot","steam_id":76561199181513019,"connected_time":3842000000000,"state":"active","ping":111},{"user_id":781,"name":"PurpOwl","steam_id":76561198979416718,"connected_time":127000000000,"state":"active","ping":83},{"user_id":668,"name":"Junowo","steam_id":76561199136179696,"connected_time":7660000000000,"state":"active","ping":68},{"user_id":783,"name":"cq","steam_id":76561198029337542,"connected_time":114000000000,"state":"active","ping":61},{"user_id":758,"name":"DeckofDragons","steam_id":76561198057398213,"connected_time":2235000000000,"state":"active","ping":70},{"user_id":784,"name":"ballmuncher29","steam_id":76561199122915452,"connected_time":97000000000,"state":"active","ping":100},{"user_id":775,"name":"5oc","steam_id":76561199196300397,"connected_time":267000000000,"state":"active","ping":84},{"user_id":761,"name":"eatmysteel","steam_id":76561198976437527,"connected_time":2057000000000,"state":"active","ping":76},{"user_id":757,"name":"Jerry","steam_id":76561199257383826,"connected_time":2257000000000,"state":"active","ping":62},{"user_id":785,"name":"Fake21","steam_id":76561198282065071,"connected_time":67000000000,"state":"active","ping":49},{"user_id":743,"name":"Bond","steam_id":76561198089262776,"connected_time":3408000000000,"state":"active","ping":49},{"user_id":777,"name":"nori_420","steam_id":76561199117134203,"connected_time":207000000000,"state":"active","ping":82},{"user_id":764,"name":"anonEDM","steam_id":76561197976560316,"connected_time":1788000000000,"state":"active","ping":95},{"user_id":745,"name":"Username","steam_id":76561198198918781,"connected_time":3233000000000,"state":"active","ping":106},{"user_id":730,"name":"transfem atsuko kagari","steam_id":76561198217402847,"connected_time":3947000000000,"state":"active","ping":96},{"user_id":778,"name":"Noire","steam_id":76561198149370109,"connected_time":202000000000,"state":"active","ping":116},{"user_id":768,"name":"Rat Smacker","steam_id":76561198043629646,"connected_time":343000000000,"state":"active","ping":63},{"user_id":752,"name":"i got a new old mouse","steam_id":76561198421913648,"connected_time":2777000000000,"state":"active","ping":115},{"user_id":769,"name":"IveBeenVexed","steam_id":76561198399300049,"connected_time":338000000000,"state":"active","ping":60}]},{"server_id":404,"name":"Uncletopia | Dallas | 3 | All Maps","name_short":"dal-3","host":"dal-1.us.uncletopia.com","port":27035,"enabled":true,"region":"us-central","cc":"us","latitude":32.779167,"longitude":-96.80889,"reserved":0,"last_update":"0001-01-01T00:00:00Z","name_a2s":"Uncletopia | Dallas | 3 | All Maps","protocol":17,"map":"pl_frontier_final","folder":"tf","game":"Team Fortress","app_id":440,"player_count":24,"max_players":24,"Bots":0,"server_type":"Dedicated","server_os":"Linux","password":true,"vac":true,"version":"7961495","steam_id":85568392924515219,"keywords":["nocrits","nodmgspread","payload","uncletopia"],"game_id":440,"stv_port":27036,"stv_name":"Uncletopia | Dallas | 3 | All Maps | STV","players":[{"user_id":738,"name":"hungry kibten","steam_id":76561198184099558,"connected_time":5652000000000,"state":"active","ping":93},{"user_id":768,"name":"McDonald","steam_id":76561199028533497,"connected_time":4392000000000,"state":"active","ping":72},{"user_id":824,"name":"Adolf The Toast Jesus™","steam_id":76561198024553767,"connected_time":139000000000,"state":"active","ping":74},{"user_id":807,"name":"John Jameson","steam_id":76561198065238093,"connected_time":1806000000000,"state":"active","ping":57},{"user_id":828,"name":"Wipes-Pee-Hole","steam_id":76561198144420129,"connected_time":19000000000,"state":"active","ping":100},{"user_id":822,"name":"Soft copper wings","steam_id":76561198092317849,"connected_time":170000000000,"state":"active","ping":73},{"user_id":749,"name":"Dongus","steam_id":76561197979056451,"connected_time":5176000000000,"state":"active","ping":104},{"user_id":795,"name":"❤ Ashleyyy ❤","steam_id":76561198056428303,"connected_time":2727000000000,"state":"active","ping":76},{"user_id":757,"name":"Mythical Lag","steam_id":76561198347031281,"connected_time":4719000000000,"state":"active","ping":49},{"user_id":823,"name":"Miss Chey","steam_id":76561198092417318,"connected_time":152000000000,"state":"active","ping":93},{"user_id":808,"name":"ZungusCrungus","steam_id":76561198043385971,"connected_time":1799000000000,"state":"active","ping":80},{"user_id":825,"name":"Cottoneyes","steam_id":76561197994730627,"connected_time":135000000000,"state":"active","ping":73},{"user_id":605,"name":"self sufficient kitten ♥","steam_id":76561197960592612,"connected_time":11945000000000,"state":"active","ping":90},{"user_id":826,"name":"wugmup","steam_id":76561199096287734,"connected_time":132000000000,"state":"active","ping":91},{"user_id":819,"name":"wetto","steam_id":76561198224811504,"connected_time":373000000000,"state":"active","ping":59},{"user_id":827,"name":"TheGreatDoodles","steam_id":76561198019200706,"connected_time":117000000000,"state":"active","ping":54},{"user_id":813,"name":"Seaport Hime","steam_id":76561198055914224,"connected_time":1541000000000,"state":"active","ping":81},{"user_id":810,"name":"StudioMania (#SAVETF2)","steam_id":76561198211315795,"connected_time":1737000000000,"state":"active","ping":83},{"user_id":801,"name":"krebex","steam_id":76561198004660630,"connected_time":2227000000000,"state":"active","ping":57},{"user_id":816,"name":"Fostrel","steam_id":76561198152160601,"connected_time":1224000000000,"state":"active","ping":49},{"user_id":773,"name":"Whompert","steam_id":76561198042939624,"connected_time":4161000000000,"state":"active","ping":97},{"user_id":703,"name":"paws :3","steam_id":76561199371694361,"connected_time":7863000000000,"state":"active","ping":81},{"user_id":829,"name":"Watt Dafuq","steam_id":76561198194402925,"connected_time":9000000000,"state":"spawning","ping":78},{"user_id":781,"name":"LaChancla","steam_id":76561198971528917,"connected_time":3277000000000,"state":"active","ping":58}]},{"server_id":405,"name":"Uncletopia | Dallas | 4 | Community","name_short":"dal-4","host":"dal-1.us.uncletopia.com","port":27045,"enabled":true,"region":"us-central","cc":"us","latitude":32.779167,"longitude":-96.80889,"reserved":0,"last_update":"0001-01-01T00:00:00Z","name_a2s":"Uncletopia | Dallas | 4 | Community","protocol":17,"map":"workshop/cp_hazyfort_rc6.ugc1365963729","folder":"tf","game":"Team Fortress","app_id":440,"player_count":0,"max_players":24,"Bots":0,"server_type":"Dedicated","server_os":"Linux","password":true,"vac":true,"version":"7961495","steam_id":85568392924515220,"keywords":["cp","nocrits","nodmgspread","uncletopia"],"game_id":440,"stv_port":27046,"stv_name":"Uncletopia | Dallas | 4 | Community | STV","players":null},{"server_id":5,"name":"Uncletopia | Frankfurt | 1 | All Maps","name_short":"frk-1","host":"frk-1.de.uncletopia.com","port":27015,"enabled":true,"region":"eu","cc":"de","latitude":50.110924,"longitude":8.682127,"reserved":0,"last_update":"0001-01-01T00:00:00Z","name_a2s":"Uncletopia | Frankfurt | 1 | All Maps","protocol":17,"map":"koth_highpass","folder":"tf","game":"Team Fortress","app_id":440,"player_count":0,"max_players":24,"Bots":0,"server_type":"Dedicated","server_os":"Linux","password":true,"vac":true,"version":"7961495","steam_id":85568392924469989,"keywords":["cp","nocrits","nodmgspread","uncletopia"],"game_id":440,"stv_port":27016,"stv_name":"Uncletopia | Frankfurt | 1 | All Maps | STV","players":null},{"server_id":110,"name":"Uncletopia | Frankfurt | 2 | All Maps","name_short":"frk-2","host":"frk-1.de.uncletopia.com","port":27025,"enabled":true,"region":"eu","cc":"de","latitude":50.110924,"longitude":8.682127,"reserved":0,"last_update":"0001-01-01T00:00:00Z","name_a2s":"Uncletopia | Frankfurt | 2 | All Maps","protocol":17,"map":"cp_coldfront","folder":"tf","game":"Team Fortress","app_id":440,"player_count":0,"max_players":24,"Bots":0,"server_type":"Dedicated","server_os":"Linux","password":true,"vac":true,"version":"7961495","steam_id":85568392924469990,"keywords":["cp","nocrits","nodmgspread","uncletopia"],"game_id":440,"stv_port":27026,"stv_name":"Uncletopia | Frankfurt | 2 | All Maps | STV","players":null},{"server_id":308,"name":"Uncletopia | Frankfurt | 3 | All Maps","name_short":"frk-3","host":"frk-1.de.uncletopia.com","port":27035,"enabled":true,"region":"eu","cc":"de","latitude":50.110924,"longitude":8.682127,"reserved":0,"last_update":"0001-01-01T00:00:00Z","name_a2s":"Uncletopia | Frankfurt | 3 | All Maps","protocol":17,"map":"plr_pipeline","folder":"tf","game":"Team Fortress","app_id":440,"player_count":0,"max_players":24,"Bots":0,"server_type":"Dedicated","server_os":"Linux","password":true,"vac":true,"version":"7961495","steam_id":85568392924504274,"keywords":["nocrits","nodmgspread","payload","uncletopia"],"game_id":440,"stv_port":27036,"stv_name":"Uncletopia | Frankfurt | 3 | All Maps | STV","players":null},{"server_id":309,"name":"Uncletopia | Frankfurt | 4 | All Maps","name_short":"frk-4","host":"frk-1.de.uncletopia.com","port":27045,"enabled":true,"region":"eu","cc":"de","latitude":50.110924,"longitude":8.682127,"reserved":0,"last_update":"0001-01-01T00:00:00Z","name_a2s":"Uncletopia | Frankfurt | 4 | All Maps","protocol":17,"map":"koth_lakeside_final","folder":"tf","game":"Team Fortress","app_id":440,"player_count":0,"max_players":24,"Bots":0,"server_type":"Dedicated","server_os":"Linux","password":true,"vac":true,"version":"7961495","steam_id":85568392924504275,"keywords":["cp","nocrits","nodmgspread","uncletopia"],"game_id":440,"stv_port":27046,"stv_name":"Uncletopia | Frankfurt | 4 | All Maps | STV","players":null},{"server_id":310,"name":"Uncletopia | Frankfurt | 5 | All Maps","name_short":"frk-5","host":"frk-1.de.uncletopia.com","port":27055,"enabled":true,"region":"eu","cc":"de","latitude":50.110924,"longitude":8.682127,"reserved":0,"last_update":"0001-01-01T00:00:00Z","name_a2s":"Uncletopia | Frankfurt | 5 | All Maps","protocol":17,"map":"cp_gorge","folder":"tf","game":"Team Fortress","app_id":440,"player_count":0,"max_players":24,"Bots":0,"server_type":"Dedicated","server_os":"Linux","password":true,"vac":true,"version":"7961495","steam_id":85568392924504277,"keywords":["cp","nocrits","nodmgspread","uncletopia"],"game_id":440,"stv_port":27056,"stv_name":"Uncletopia | Frankfurt | 5 | All Maps | STV","players":null},{"server_id":311,"name":"Uncletopia | Frankfurt | 6 | All Maps","name_short":"frk-6","host":"frk-1.de.uncletopia.com","port":27065,"enabled":true,"region":"eu","cc":"de","latitude":50.110924,"longitude":8.682127,"reserved":0,"last_update":"0001-01-01T00:00:00Z","name_a2s":"Uncletopia | Frankfurt | 6 | All Maps","protocol":17,"map":"cp_steel","folder":"tf","game":"Team Fortress","app_id":440,"player_count":0,"max_players":24,"Bots":0,"server_type":"Dedicated","server_os":"Linux","password":true,"vac":true,"version":"7961495","steam_id":85568392924504278,"keywords":["cp","nocrits","nodmgspread","uncletopia"],"game_id":440,"stv_port":27066,"stv_name":"Uncletopia | Frankfurt | 6 | All Maps | STV","players":null},{"server_id":23,"name":"Uncletopia | Frankfurt | 7 | Stopwatch","name_short":"frk-7","host":"frk-1.de.uncletopia.com","port":27075,"enabled":true,"region":"eu","cc":"de","latitude":50.110924,"longitude":8.682127,"reserved":0,"last_update":"0001-01-01T00:00:00Z","name_a2s":"Uncletopia | Frankfurt | 7 | Stopwatch","protocol":17,"map":"koth_highpass","folder":"tf","game":"Team Fortress","app_id":440,"player_count":0,"max_players":24,"Bots":0,"server_type":"Dedicated","server_os":"Linux","password":true,"vac":true,"version":"7961495","steam_id":85568392924742827,"keywords":["cp","nocrits","nodmgspread","uncletopia"],"game_id":440,"stv_port":27076,"stv_name":"Uncletopia | Frankfurt | 7 | Stopwatch | STV","players":null},{"server_id":24,"name":"Uncletopia | Frankfurt | 8 | Community","name_short":"frk-8","host":"frk-1.de.uncletopia.com","port":27085,"enabled":true,"region":"eu","cc":"de","latitude":50.110924,"longitude":8.682127,"reserved":0,"last_update":"0001-01-01T00:00:00Z","name_a2s":"Uncletopia | Frankfurt | 8 | Community","protocol":17,"map":"workshop/pl_stallberg_rc3.ugc1849111469","folder":"tf","game":"Team Fortress","app_id":440,"player_count":0,"max_players":24,"Bots":0,"server_type":"Dedicated","server_os":"Linux","password":true,"vac":true,"version":"7961495","steam_id":85568392924742828,"keywords":["nocrits","nodmgspread","payload","uncletopia"],"game_id":440,"stv_port":27086,"stv_name":"Uncletopia | Frankfurt | 8 | Community | STV","players":null},{"server_id":202,"name":"Uncletopia | Hong Kong | 1 | All Maps","name_short":"hgk-1","host":"hgk-1.hk.uncletopia.com","port":27015,"enabled":true,"region":"asia","cc":"hk","latitude":22.302711,"longitude":114.177216,"reserved":0,"last_update":"0001-01-01T00:00:00Z","name_a2s":"Uncletopia | Hong Kong | 1 | All Maps","protocol":17,"map":"cp_altitude","folder":"tf","game":"Team Fortress","app_id":440,"player_count":24,"max_players":24,"Bots":0,"server_type":"Dedicated","server_os":"Linux","password":true,"vac":true,"version":"7961495","steam_id":85568392924494504,"keywords":["cp","nocrits","nodmgspread","uncletopia"],"game_id":440,"stv_port":27016,"stv_name":"Uncletopia | Hong Kong | 1 | All Maps | STV","players":[{"user_id":19,"name":"Corbezy","steam_id":76561197993398349,"connected_time":12138000000000,"state":"active","ping":90},{"user_id":128,"name":"noceof","steam_id":76561198043656816,"connected_time":3637000000000,"state":"active","ping":99},{"user_id":150,"name":"BURN PYGMALION!!!","steam_id":76561198074339034,"connected_time":1100000000000,"state":"active","ping":73},{"user_id":155,"name":"MANCO FETT","steam_id":76561198107128889,"connected_time":1074000000000,"state":"active","ping":104},{"user_id":118,"name":"ArcticDolphin","steam_id":76561198203626319,"connected_time":4496000000000,"state":"active","ping":128},{"user_id":130,"name":"Aim and Ignite","steam_id":76561198097721707,"connected_time":3357000000000,"state":"active","ping":48},{"user_id":59,"name":"14","steam_id":76561198113401862,"connected_time":8377000000000,"state":"active","ping":84},{"user_id":162,"name":"好油喔peko","steam_id":76561198326354576,"connected_time":491000000000,"state":"active","ping":99},{"user_id":132,"name":"UR MOTHERRR... IS A N**GERRR","steam_id":76561198797699056,"connected_time":3306000000000,"state":"active","ping":91},{"user_id":117,"name":"Pillboi","steam_id":76561198011172886,"connected_time":4526000000000,"state":"active","ping":44},{"user_id":142,"name":".-.. .- .. -.","steam_id":76561198337154745,"connected_time":2511000000000,"state":"active","ping":103},{"user_id":149,"name":"rock_005 enthusiast","steam_id":76561199015521820,"connected_time":1999000000000,"state":"active","ping":92},{"user_id":141,"name":"Ratboi7Street","steam_id":76561199222913157,"connected_time":2540000000000,"state":"active","ping":62},{"user_id":106,"name":"yveth","steam_id":76561198320532821,"connected_time":5211000000000,"state":"active","ping":74},{"user_id":156,"name":"Flores","steam_id":76561198018409368,"connected_time":1041000000000,"state":"active","ping":47},{"user_id":157,"name":"Bocchi gaming","steam_id":76561199063009828,"connected_time":1019000000000,"state":"active","ping":75},{"user_id":75,"name":"Sover blw.tf","steam_id":76561198136347837,"connected_time":7445000000000,"state":"active","ping":83},{"user_id":144,"name":"red_dyedegg","steam_id":76561199468346618,"connected_time":2351000000000,"state":"active","ping":59},{"user_id":159,"name":"SleepWalker","steam_id":76561199496718115,"connected_time":954000000000,"state":"active","ping":83},{"user_id":158,"name":"Minos Prime Reaction","steam_id":76561199475974790,"connected_time":998000000000,"state":"active","ping":75},{"user_id":160,"name":"PanDorA","steam_id":76561198864942478,"connected_time":644000000000,"state":"active","ping":106},{"user_id":146,"name":"RockGaming2008","steam_id":76561198872566128,"connected_time":2242000000000,"state":"active","ping":93},{"user_id":152,"name":"In(e)","steam_id":76561198362097007,"connected_time":1082000000000,"state":"active","ping":56},{"user_id":154,"name":"Ivy","steam_id":76561198400698408,"connected_time":1081000000000,"state":"active","ping":105}]},{"server_id":1,"name":"Uncletopia | Los Angeles | 1 | All Maps","name_short":"lax-1","host":"lax-1.us.uncletopia.com","port":27015,"enabled":true,"region":"us-west","cc":"us","latitude":33.94279,"longitude":-118.41004,"reserved":0,"last_update":"0001-01-01T00:00:00Z","name_a2s":"Uncletopia | Los Angeles | 1 | All Maps","protocol":17,"map":"cp_mountainlab","folder":"tf","game":"Team Fortress","app_id":440,"player_count":24,"max_players":24,"Bots":0,"server_type":"Dedicated","server_os":"Linux","password":true,"vac":true,"version":"7961495","steam_id":85568392924469991,"keywords":["cp","nocrits","nodmgspread","uncletopia"],"game_id":440,"stv_port":27016,"stv_name":"Uncletopia | Los Angeles | 1 | All Maps | STV","players":[{"user_id":397,"name":"Chalupa Jones","steam_id":76561198335855588,"connected_time":1507000000000,"state":"active","ping":46},{"user_id":402,"name":"SOMBRERO","steam_id":76561198356300711,"connected_time":910000000000,"state":"active","ping":53},{"user_id":391,"name":"HAT-WEARING™ Maggot Gamer Cat","steam_id":76561197973992705,"connected_time":1881000000000,"state":"active","ping":60},{"user_id":399,"name":"EightySix","steam_id":76561198186678831,"connected_time":1318000000000,"state":"active","ping":59},{"user_id":367,"name":"Lard","steam_id":76561198290315229,"connected_time":4031000000000,"state":"active","ping":56},{"user_id":401,"name":"Attrition","steam_id":76561197969881916,"connected_time":925000000000,"state":"active","ping":81},{"user_id":403,"name":"Prepared my body in various way","steam_id":76561198127395608,"connected_time":794000000000,"state":"active","ping":61},{"user_id":404,"name":"slosh","steam_id":76561198060546760,"connected_time":765000000000,"state":"active","ping":161},{"user_id":374,"name":"Leterq8","steam_id":76561198331432556,"connected_time":3658000000000,"state":"active","ping":67},{"user_id":398,"name":"PrinterLights","steam_id":76561198145909722,"connected_time":1364000000000,"state":"active","ping":43},{"user_id":385,"name":"drank baby","steam_id":76561199483723843,"connected_time":2661000000000,"state":"active","ping":61},{"user_id":405,"name":"Jimbo","steam_id":76561198136560547,"connected_time":751000000000,"state":"active","ping":67},{"user_id":406,"name":"baunter","steam_id":76561198024311871,"connected_time":743000000000,"state":"active","ping":44},{"user_id":362,"name":"himbomccree","steam_id":76561198373330850,"connected_time":4758000000000,"state":"active","ping":44},{"user_id":388,"name":"Lambchop","steam_id":76561198043900363,"connected_time":2577000000000,"state":"active","ping":74},{"user_id":318,"name":"FI LO","steam_id":76561198976530881,"connected_time":8116000000000,"state":"active","ping":37},{"user_id":409,"name":"WeAreTheSpirits","steam_id":76561198191555728,"connected_time":625000000000,"state":"active","ping":58},{"user_id":389,"name":"purple hatsune miku","steam_id":76561198108844158,"connected_time":2569000000000,"state":"active","ping":59},{"user_id":396,"name":"Saber","steam_id":76561199030547855,"connected_time":1556000000000,"state":"active","ping":54},{"user_id":370,"name":"CometDrg0n_(he/him)","steam_id":76561198175713051,"connected_time":3766000000000,"state":"active","ping":64},{"user_id":408,"name":"Mortal Man","steam_id":76561198007499380,"connected_time":720000000000,"state":"active","ping":85},{"user_id":371,"name":"Squiggle","steam_id":76561198257197535,"connected_time":3738000000000,"state":"active","ping":54},{"user_id":390,"name":"Leo x.x","steam_id":76561198309760791,"connected_time":2502000000000,"state":"active","ping":228},{"user_id":413,"name":"cringy","steam_id":76561198323000455,"connected_time":106000000000,"state":"active","ping":48}]},{"server_id":112,"name":"Uncletopia | Los Angeles | 2 | All Maps","name_short":"lax-2","host":"lax-1.us.uncletopia.com","port":27025,"enabled":true,"region":"us-west","cc":"us","latitude":33.94279,"longitude":-118.41004,"reserved":0,"last_update":"0001-01-01T00:00:00Z","name_a2s":"Uncletopia | Los Angeles | 2 | All Maps","protocol":17,"map":"pl_frontier_final","folder":"tf","game":"Team Fortress","app_id":440,"player_count":24,"max_players":24,"Bots":0,"server_type":"Dedicated","server_os":"Linux","password":true,"vac":true,"version":"7961495","steam_id":85568392924469992,"keywords":["nocrits","nodmgspread","payload","uncletopia"],"game_id":440,"stv_port":27026,"stv_name":"Uncletopia | Los Angeles | 2 | All Maps | STV","players":[{"user_id":161,"name":"Pork Belly","steam_id":76561198053003142,"connected_time":2743000000000,"state":"active","ping":52},{"user_id":201,"name":"b","steam_id":76561198156336213,"connected_time":17000000000,"state":"active","ping":60},{"user_id":148,"name":"weed lesbian","steam_id":76561198042263805,"connected_time":3818000000000,"state":"active","ping":79},{"user_id":195,"name":"MORE BOUNCE TO THE OUNCE","steam_id":76561198243399336,"connected_time":484000000000,"state":"active","ping":72},{"user_id":196,"name":"Zeke","steam_id":76561198389722871,"connected_time":483000000000,"state":"active","ping":53},{"user_id":192,"name":"An00bis","steam_id":76561198044084508,"connected_time":695000000000,"state":"active","ping":59},{"user_id":187,"name":"life","steam_id":76561198227112556,"connected_time":1541000000000,"state":"active","ping":59},{"user_id":193,"name":"i cant aim","steam_id":76561198065873462,"connected_time":536000000000,"state":"active","ping":44},{"user_id":188,"name":"FezRequiem","steam_id":76561198070066667,"connected_time":1518000000000,"state":"active","ping":51},{"user_id":185,"name":"Crustacean Daddy","steam_id":76561198993807061,"connected_time":1658000000000,"state":"active","ping":45},{"user_id":186,"name":"Seanvich","steam_id":76561198065805500,"connected_time":1645000000000,"state":"active","ping":107},{"user_id":194,"name":"i am clinically insane","steam_id":76561199013323529,"connected_time":497000000000,"state":"active","ping":77},{"user_id":175,"name":"Reed the Flame Shadow","steam_id":76561198348354629,"connected_time":2048000000000,"state":"active","ping":49},{"user_id":156,"name":"Whisper!","steam_id":76561198119609795,"connected_time":2965000000000,"state":"active","ping":48},{"user_id":197,"name":"juice drainer","steam_id":76561198361999761,"connected_time":464000000000,"state":"active","ping":48},{"user_id":157,"name":"Eden","steam_id":76561198081284664,"connected_time":2954000000000,"state":"active","ping":58},{"user_id":165,"name":"June","steam_id":76561198141803658,"connected_time":2462000000000,"state":"active","ping":45},{"user_id":183,"name":"wunderbrad","steam_id":76561198069445905,"connected_time":1852000000000,"state":"active","ping":101},{"user_id":177,"name":"chimplicity","steam_id":76561198012097062,"connected_time":2013000000000,"state":"active","ping":69},{"user_id":170,"name":"lordstinkdemon666","steam_id":76561198073914311,"connected_time":2134000000000,"state":"active","ping":46},{"user_id":167,"name":"cjetson","steam_id":76561198074482272,"connected_time":2450000000000,"state":"active","ping":61},{"user_id":198,"name":"ZensGoldenNuts","steam_id":76561199086234004,"connected_time":453000000000,"state":"active","ping":57},{"user_id":200,"name":"Klitz Penischmidt(DRUNK)","steam_id":76561198050582941,"connected_time":416000000000,"state":"active","ping":117},{"user_id":159,"name":"bocchi the fool","steam_id":76561198259650356,"connected_time":2890000000000,"state":"active","ping":73}]},{"server_id":324,"name":"Uncletopia | Los Angeles | 3 | All Maps","name_short":"lax-3","host":"lax-1.us.uncletopia.com","port":27035,"enabled":true,"region":"us-west","cc":"us","latitude":33.94279,"longitude":-118.41004,"reserved":0,"last_update":"0001-01-01T00:00:00Z","name_a2s":"Uncletopia | Los Angeles | 3 | All Maps","protocol":17,"map":"koth_lakeside_final","folder":"tf","game":"Team Fortress","app_id":440,"player_count":3,"max_players":24,"Bots":0,"server_type":"Dedicated","server_os":"Linux","password":true,"vac":true,"version":"7961495","steam_id":85568392924510198,"keywords":["cp","nocrits","nodmgspread","uncletopia"],"game_id":440,"stv_port":27036,"stv_name":"Uncletopia | Los Angeles | 3 | All Maps | STV","players":[{"user_id":39,"name":"Mix56374","steam_id":76561199093717909,"connected_time":130000000000,"state":"active","ping":50},{"user_id":40,"name":"Kubuhh","steam_id":76561198444914835,"connected_time":82000000000,"state":"active","ping":39},{"user_id":41,"name":"Threads","steam_id":76561198846310064,"connected_time":53000000000,"state":"active","ping":40}]},{"server_id":25,"name":"Uncletopia | Los Angeles | 4 | Stopwatch","name_short":"lax-4","host":"lax-1.us.uncletopia.com","port":27045,"enabled":true,"region":"us-west","cc":"us","latitude":33.94279,"longitude":-118.41004,"reserved":0,"last_update":"0001-01-01T00:00:00Z","name_a2s":"Uncletopia | Los Angeles | 4 | Stopwatch","protocol":17,"map":"cp_metalworks","folder":"tf","game":"Team Fortress","app_id":440,"player_count":0,"max_players":24,"Bots":0,"server_type":"Dedicated","server_os":"Linux","password":true,"vac":true,"version":"7961495","steam_id":85568392924510199,"keywords":["cp","nocrits","nodmgspread","uncletopia"],"game_id":440,"stv_port":27046,"stv_name":"Uncletopia | Los Angeles | 4 | Stopwatch | STV","players":null},{"server_id":11,"name":"Uncletopia | London | 1 | All Maps","name_short":"lon-1","host":"lon-1.uk.uncletopia.com","port":27015,"enabled":true,"region":"eu","cc":"gb","latitude":51.509865,"longitude":-0.118092,"reserved":0,"last_update":"0001-01-01T00:00:00Z","name_a2s":"Uncletopia | London | 1 | All Maps","protocol":17,"map":"cp_gorge","folder":"tf","game":"Team Fortress","app_id":440,"player_count":6,"max_players":24,"Bots":0,"server_type":"Dedicated","server_os":"Linux","password":true,"vac":true,"version":"7961495","steam_id":85568392924367362,"keywords":["cp","nocrits","nodmgspread","uncletopia"],"game_id":440,"stv_port":27016,"stv_name":"Uncletopia | London | 1 | All Maps | STV","players":[{"user_id":3,"name":"AnimeGirl(real)","steam_id":76561199062433944,"connected_time":2534000000000,"state":"active","ping":129},{"user_id":4,"name":"P","steam_id":76561198399390201,"connected_time":2506000000000,"state":"active","ping":93},{"user_id":10,"name":"cirrem","steam_id":76561198265192382,"connected_time":846000000000,"state":"active","ping":72},{"user_id":6,"name":"Amin","steam_id":76561199212272501,"connected_time":2256000000000,"state":"active","ping":154},{"user_id":7,"name":"im come from my dad's balls","steam_id":76561199065090344,"connected_time":1877000000000,"state":"active","ping":151},{"user_id":9,"name":"pulsar","steam_id":76561198842123868,"connected_time":1303000000000,"state":"active","ping":98}]},{"server_id":114,"name":"Uncletopia | London | 2 | All Maps","name_short":"lon-2","host":"lon-1.uk.uncletopia.com","port":27025,"enabled":true,"region":"eu","cc":"gb","latitude":51.509865,"longitude":-0.118092,"reserved":0,"last_update":"0001-01-01T00:00:00Z","name_a2s":"Uncletopia | London | 2 | All Maps","protocol":17,"map":"cp_mountainlab","folder":"tf","game":"Team Fortress","app_id":440,"player_count":0,"max_players":24,"Bots":0,"server_type":"Dedicated","server_os":"Linux","password":true,"vac":true,"version":"7961495","steam_id":85568392924470941,"keywords":["cp","nocrits","nodmgspread","uncletopia"],"game_id":440,"stv_port":27026,"stv_name":"Uncletopia | London | 2 | All Maps | STV","players":null},{"server_id":320,"name":"Uncletopia | London | 3 | All Maps","name_short":"lon-3","host":"lon-1.uk.uncletopia.com","port":27035,"enabled":true,"region":"eu","cc":"gb","latitude":51.509865,"longitude":-0.118092,"reserved":0,"last_update":"0001-01-01T00:00:00Z","name_a2s":"Uncletopia | London | 3 | All Maps","protocol":17,"map":"cp_mountainlab","folder":"tf","game":"Team Fortress","app_id":440,"player_count":0,"max_players":24,"Bots":0,"server_type":"Dedicated","server_os":"Linux","password":true,"vac":true,"version":"7961495","steam_id":85568392924510192,"keywords":["cp","nocrits","nodmgspread","uncletopia"],"game_id":440,"stv_port":27036,"stv_name":"Uncletopia | London | 3 | All Maps | STV","players":null},{"server_id":321,"name":"Uncletopia | London | 4 | All Maps","name_short":"lon-4","host":"lon-1.uk.uncletopia.com","port":27045,"enabled":true,"region":"eu","cc":"gb","latitude":51.509865,"longitude":-0.118092,"reserved":0,"last_update":"0001-01-01T00:00:00Z","name_a2s":"Uncletopia | London | 4 | All Maps","protocol":17,"map":"pl_badwater","folder":"tf","game":"Team Fortress","app_id":440,"player_count":0,"max_players":24,"Bots":0,"server_type":"Dedicated","server_os":"Linux","password":true,"vac":true,"version":"7961495","steam_id":85568392924510193,"keywords":["nocrits","nodmgspread","payload","uncletopia"],"game_id":440,"stv_port":27046,"stv_name":"Uncletopia | London | 4 | All Maps | STV","players":null},{"server_id":21,"name":"Uncletopia | London | 5 | All Maps","name_short":"lon-5","host":"lon-1.uk.uncletopia.com","port":27055,"enabled":true,"region":"eu","cc":"gb","latitude":51.509865,"longitude":-0.118092,"reserved":0,"last_update":"0001-01-01T00:00:00Z","name_a2s":"Uncletopia | London | 5 | All Maps","protocol":17,"map":"koth_suijin","folder":"tf","game":"Team Fortress","app_id":440,"player_count":0,"max_players":24,"Bots":0,"server_type":"Dedicated","server_os":"Linux","password":true,"vac":true,"version":"7961495","steam_id":85568392924742829,"keywords":["cp","nocrits","nodmgspread","uncletopia"],"game_id":440,"stv_port":27056,"stv_name":"Uncletopia | London | 5 | All Maps | STV","players":null},{"server_id":22,"name":"Uncletopia | London | 6 | All Maps","name_short":"lon-6","host":"lon-1.uk.uncletopia.com","port":27065,"enabled":true,"region":"eu","cc":"gb","latitude":51.509865,"longitude":-0.118092,"reserved":0,"last_update":"0001-01-01T00:00:00Z","name_a2s":"Uncletopia | London | 6 | All Maps","protocol":17,"map":"pl_frontier_final","folder":"tf","game":"Team Fortress","app_id":440,"player_count":0,"max_players":24,"Bots":0,"server_type":"Dedicated","server_os":"Linux","password":true,"vac":true,"version":"7961495","steam_id":85568392924742830,"keywords":["nocrits","nodmgspread","payload","uncletopia"],"game_id":440,"stv_port":27066,"stv_name":"Uncletopia | London | 6 | All Maps | STV","players":null},{"server_id":40,"name":"Uncletopia | London | 7 | Stopwatch","name_short":"lon-7","host":"lon-1.uk.uncletopia.com","port":27075,"enabled":true,"region":"eu","cc":"gb","latitude":51.509865,"longitude":-0.118092,"reserved":0,"last_update":"0001-01-01T00:00:00Z","name_a2s":"Uncletopia | London | 7 | Stopwatch","protocol":17,"map":"pl_swiftwater_final1","folder":"tf","game":"Team Fortress","app_id":440,"player_count":0,"max_players":24,"Bots":0,"server_type":"Dedicated","server_os":"Linux","password":true,"vac":true,"version":"7961495","steam_id":85568392924964314,"keywords":["nocrits","nodmgspread","payload","uncletopia"],"game_id":440,"stv_port":27076,"stv_name":"Uncletopia | London | 7 | Stopwatch | STV","players":null},{"server_id":41,"name":"Uncletopia | London | 8 | Community","name_short":"lon-8","host":"lon-1.uk.uncletopia.com","port":27085,"enabled":true,"region":"eu","cc":"gb","latitude":51.509865,"longitude":-0.118092,"reserved":0,"last_update":"0001-01-01T00:00:00Z","name_a2s":"Uncletopia | London | 8 | Community","protocol":17,"map":"workshop/cp_propaganda_b18.ugc1603743849","folder":"tf","game":"Team Fortress","app_id":440,"player_count":0,"max_players":24,"Bots":0,"server_type":"Dedicated","server_os":"Linux","password":true,"vac":true,"version":"7961495","steam_id":85568392924964315,"keywords":["cp","nocrits","nodmgspread","uncletopia"],"game_id":440,"stv_port":27086,"stv_name":"Uncletopia | London | 8 | Community | STV","players":null},{"server_id":300,"name":"Uncletopia | Montréal | 1 | One Thousand Uncles","name_short":"mtl-1","host":"mtl-1.ca.uncletopia.com","port":27015,"enabled":true,"region":"us-east","cc":"ca","latitude":45.50889,"longitude":-73.56167,"reserved":0,"last_update":"0001-01-01T00:00:00Z","name_a2s":"Uncletopia | Montréal | 1 | One Thousand Uncles","protocol":17,"map":"pl_thundermountain","folder":"tf","game":"Team Fortress","app_id":440,"player_count":26,"max_players":32,"Bots":20,"server_type":"Dedicated","server_os":"Linux","password":true,"vac":true,"version":"7961495","steam_id":85568392924500087,"keywords":["alltalk","bots","danepve","increased_maxplayers","norespawntime","payload","uncletopia"],"game_id":440,"stv_port":0,"stv_name":"","players":[{"user_id":417,"name":"Kiervce","steam_id":76561199175427371,"connected_time":3110000000000,"state":"active","ping":59},{"user_id":450,"name":"Lucas096br","steam_id":76561198350760997,"connected_time":492000000000,"state":"active","ping":216},{"user_id":452,"name":"mrthugpug1732","steam_id":76561198881200768,"connected_time":114000000000,"state":"active","ping":128},{"user_id":427,"name":"Why not Zoidberg?","steam_id":76561197982207556,"connected_time":2231000000000,"state":"active","ping":72},{"user_id":381,"name":"Flappus","steam_id":76561198857949632,"connected_time":6170000000000,"state":"active","ping":65},{"user_id":428,"name":"Crebb 2184","steam_id":76561198323163973,"connected_time":1349000000000,"state":"active","ping":126}]},{"server_id":301,"name":"Uncletopia | Montréal | 2 | One Thousand Uncles","name_short":"mtl-2","host":"mtl-1.ca.uncletopia.com","port":27025,"enabled":true,"region":"us-east","cc":"ca","latitude":45.50889,"longitude":-73.56167,"reserved":0,"last_update":"0001-01-01T00:00:00Z","name_a2s":"Uncletopia | Montréal | 2 | One Thousand Uncles","protocol":17,"map":"cp_dustbowl","folder":"tf","game":"Team Fortress","app_id":440,"player_count":0,"max_players":32,"Bots":0,"server_type":"Dedicated","server_os":"Linux","password":true,"vac":true,"version":"7961495","steam_id":85568392924500088,"keywords":["alltalk","cp","danepve","increased_maxplayers","norespawntime","uncletopia"],"game_id":440,"stv_port":0,"stv_name":"","players":null},{"server_id":302,"name":"Uncletopia | Montréal | 3 | One Thousand Uncles","name_short":"mtl-3","host":"mtl-1.ca.uncletopia.com","port":27035,"enabled":true,"region":"us-east","cc":"ca","latitude":45.50889,"longitude":-73.56167,"reserved":0,"last_update":"0001-01-01T00:00:00Z","name_a2s":"Uncletopia | Montréal | 3 | One Thousand Uncles","protocol":17,"map":"pl_thundermountain","folder":"tf","game":"Team Fortress","app_id":440,"player_count":0,"max_players":32,"Bots":0,"server_type":"Dedicated","server_os":"Linux","password":true,"vac":true,"version":"7961495","steam_id":85568392924500089,"keywords":["alltalk","danepve","increased_maxplayers","norespawntime","payload","uncletopia"],"game_id":440,"stv_port":0,"stv_name":"","players":null},{"server_id":13,"name":"Uncletopia | New York City | 1 | All Maps","name_short":"nyc-1","host":"nyc-1.us.uncletopia.com","port":27015,"enabled":true,"region":"us-east","cc":"us","latitude":40.73061,"longitude":-73.93524,"reserved":0,"last_update":"0001-01-01T00:00:00Z","name_a2s":"Uncletopia | New York City | 1 | All Maps","protocol":17,"map":"pl_badwater","folder":"tf","game":"Team Fortress","app_id":440,"player_count":23,"max_players":24,"Bots":0,"server_type":"Dedicated","server_os":"Linux","password":true,"vac":true,"version":"7961495","steam_id":85568392924469993,"keywords":["nocrits","nodmgspread","payload","uncletopia"],"game_id":440,"stv_port":27016,"stv_name":"Uncletopia | New York City | 1 | All Maps | STV","players":[{"user_id":809,"name":"What's he building in there","steam_id":76561198271907916,"connected_time":818000000000,"state":"active","ping":73},{"user_id":814,"name":"Feathers! 🞧","steam_id":76561198812663884,"connected_time":662000000000,"state":"active","ping":104},{"user_id":771,"name":"Femboy Dracula","steam_id":76561198090606686,"connected_time":4829000000000,"state":"active","ping":55},{"user_id":806,"name":"The Great Eagle Scourge of 1822","steam_id":76561198325086209,"connected_time":1188000000000,"state":"active","ping":123},{"user_id":808,"name":"Colossal Falafel","steam_id":76561198108086245,"connected_time":924000000000,"state":"active","ping":56},{"user_id":781,"name":"HungryPenguin","steam_id":76561198039803880,"connected_time":3760000000000,"state":"active","ping":54},{"user_id":815,"name":"Mexican Batman","steam_id":76561198121641399,"connected_time":660000000000,"state":"active","ping":72},{"user_id":706,"name":"googa","steam_id":76561198133130452,"connected_time":12145000000000,"state":"active","ping":43},{"user_id":811,"name":"Capitán Äxis-Flores Kuroki","steam_id":76561198353865006,"connected_time":752000000000,"state":"active","ping":78},{"user_id":813,"name":"777","steam_id":76561198277163301,"connected_time":699000000000,"state":"active","ping":80},{"user_id":764,"name":"Magstriker","steam_id":76561198085761854,"connected_time":5976000000000,"state":"active","ping":68},{"user_id":762,"name":"SpaceSanctum","steam_id":76561198805242305,"connected_time":6116000000000,"state":"active","ping":44},{"user_id":817,"name":"wattzupgaming","steam_id":76561198217662063,"connected_time":462000000000,"state":"active","ping":89},{"user_id":812,"name":"wx1598471","steam_id":76561197962607364,"connected_time":715000000000,"state":"active","ping":64},{"user_id":800,"name":"Alejandro","steam_id":76561197970051493,"connected_time":2189000000000,"state":"active","ping":129},{"user_id":726,"name":"DAYMARES","steam_id":76561198051903982,"connected_time":10371000000000,"state":"active","ping":51},{"user_id":793,"name":"Lemon Soda","steam_id":76561198140208761,"connected_time":2859000000000,"state":"active","ping":52},{"user_id":816,"name":"Rambly Dambly","steam_id":76561198844496567,"connected_time":638000000000,"state":"active","ping":33},{"user_id":745,"name":"Bunni","steam_id":76561198065169997,"connected_time":7842000000000,"state":"active","ping":77},{"user_id":804,"name":"Number 9","steam_id":76561197973935947,"connected_time":1608000000000,"state":"active","ping":60},{"user_id":805,"name":"Snoopist","steam_id":76561198144023761,"connected_time":1607000000000,"state":"active","ping":57},{"user_id":777,"name":"non professional nouns.","steam_id":76561198294013916,"connected_time":4669000000000,"state":"active","ping":45},{"user_id":821,"name":"EmpyreanGoat662","steam_id":76561198919407411,"connected_time":84000000000,"state":"active","ping":121}]},{"server_id":14,"name":"Uncletopia | New York City | 2 | All Maps","name_short":"nyc-2","host":"nyc-1.us.uncletopia.com","port":27025,"enabled":true,"region":"us-east","cc":"us","latitude":40.73061,"longitude":-73.93524,"reserved":0,"last_update":"0001-01-01T00:00:00Z","name_a2s":"Uncletopia | New York City | 2 | All Maps","protocol":17,"map":"koth_viaduct","folder":"tf","game":"Team Fortress","app_id":440,"player_count":0,"max_players":24,"Bots":0,"server_type":"Dedicated","server_os":"Linux","password":true,"vac":true,"version":"7961495","steam_id":85568392924469994,"keywords":["cp","nocrits","nodmgspread","uncletopia"],"game_id":440,"stv_port":27026,"stv_name":"Uncletopia | New York City | 2 | All Maps | STV","players":null},{"server_id":15,"name":"Uncletopia | New York City | 3 | Stopwatch","name_short":"nyc-3","host":"nyc-1.us.uncletopia.com","port":27035,"enabled":true,"region":"us-east","cc":"us","latitude":40.73061,"longitude":-73.93524,"reserved":0,"last_update":"0001-01-01T00:00:00Z","name_a2s":"Uncletopia | New York City | 3 | Stopwatch","protocol":17,"map":"workshop/pl_badwater_pro_v12.ugc2142942074","folder":"tf","game":"Team Fortress","app_id":440,"player_count":0,"max_players":24,"Bots":0,"server_type":"Dedicated","server_os":"Linux","password":true,"vac":true,"version":"7961495","steam_id":85568392924742820,"keywords":["nocrits","nodmgspread","payload","uncletopia"],"game_id":440,"stv_port":27036,"stv_name":"Uncletopia | New York City | 3 | Stopwatch | STV","players":null},{"server_id":16,"name":"Uncletopia | New York City | 4 | Community","name_short":"nyc-4","host":"nyc-1.us.uncletopia.com","port":27045,"enabled":true,"region":"us-east","cc":"us","latitude":40.73061,"longitude":-73.93524,"reserved":0,"last_update":"0001-01-01T00:00:00Z","name_a2s":"Uncletopia | New York City | 4 | Community","protocol":17,"map":"workshop/cp_bruhstbowl_b6.ugc2878604990","folder":"tf","game":"Team Fortress","app_id":440,"player_count":0,"max_players":24,"Bots":0,"server_type":"Dedicated","server_os":"Linux","password":true,"vac":true,"version":"7961495","steam_id":85568392924742821,"keywords":["cp","nocrits","nodmgspread","uncletopia"],"game_id":440,"stv_port":27046,"stv_name":"Uncletopia | New York City | 4 | Community | STV","players":null},{"server_id":142,"name":"Uncletopia | São Paulo | 1 | All Maps","name_short":"sao-1","host":"sao-1.br.uncletopia.com","port":27015,"enabled":true,"region":"sa","cc":"br","latitude":-23.533773,"longitude":-46.62529,"reserved":0,"last_update":"0001-01-01T00:00:00Z","name_a2s":"Uncletopia | São Paulo | 1 | All Maps","protocol":17,"map":"cp_gorge","folder":"tf","game":"Team Fortress","app_id":440,"player_count":0,"max_players":24,"Bots":0,"server_type":"Dedicated","server_os":"Linux","password":true,"vac":true,"version":"7961495","steam_id":85568392924469996,"keywords":["cp","nocrits","nodmgspread","uncletopia"],"game_id":440,"stv_port":27016,"stv_name":"Uncletopia | São Paulo | 1 | All Maps | STV","players":null},{"server_id":143,"name":"Uncletopia | São Paulo | 2 | Community","name_short":"sao-2","host":"sao-2.br.uncletopia.com","port":27015,"enabled":true,"region":"sa","cc":"br","latitude":-23.533773,"longitude":-46.62529,"reserved":0,"last_update":"0001-01-01T00:00:00Z","name_a2s":"Uncletopia | São Paulo | 2 | Community","protocol":17,"map":"workshop/koth_product_final.ugc454272353","folder":"tf","game":"Team Fortress","app_id":440,"player_count":0,"max_players":24,"Bots":0,"server_type":"Dedicated","server_os":"Linux","password":true,"vac":true,"version":"7961495","steam_id":85568392924485349,"keywords":["cp","nocrits","nodmgspread","uncletopia"],"game_id":440,"stv_port":27016,"stv_name":"Uncletopia | São Paulo | 2 | Community | STV","players":null},{"server_id":7,"name":"Uncletopia | Seattle | 1 | All Maps","name_short":"sea-1","host":"sea-1.us.uncletopia.com","port":27015,"enabled":true,"region":"us-west","cc":"us","latitude":47.608013,"longitude":-122.33517,"reserved":0,"last_update":"0001-01-01T00:00:00Z","name_a2s":"Uncletopia | Seattle | 1 | All Maps","protocol":17,"map":"pl_snowycoast","folder":"tf","game":"Team Fortress","app_id":440,"player_count":25,"max_players":24,"Bots":0,"server_type":"Dedicated","server_os":"Linux","password":true,"vac":true,"version":"7961495","steam_id":85568392924469997,"keywords":["nocrits","nodmgspread","payload","uncletopia"],"game_id":440,"stv_port":27016,"stv_name":"Uncletopia | Seattle | 1 | All Maps | STV","players":[{"user_id":798,"name":"imasheep","steam_id":76561198210322871,"connected_time":1349000000000,"state":"active","ping":88},{"user_id":753,"name":"ghor","steam_id":76561197994547132,"connected_time":4230000000000,"state":"active","ping":34},{"user_id":749,"name":"AveragePhil","steam_id":76561199139836802,"connected_time":4457000000000,"state":"active","ping":53},{"user_id":820,"name":"CJDGuy","steam_id":76561198213009545,"connected_time":676000000000,"state":"active","ping":98},{"user_id":846,"name":"[Industrial] A_HUMBLEBUMBLED","steam_id":76561198064771878,"connected_time":9000000000,"state":"spawning","ping":37},{"user_id":815,"name":"madmuffin","steam_id":76561199235773615,"connected_time":711000000000,"state":"active","ping":116},{"user_id":807,"name":"Vibrantword3732","steam_id":76561198916638641,"connected_time":1072000000000,"state":"active","ping":57},{"user_id":833,"name":"My_Movie.mp4","steam_id":76561198047002366,"connected_time":376000000000,"state":"active","ping":50},{"user_id":800,"name":"Haydob13","steam_id":76561198110378191,"connected_time":1315000000000,"state":"active","ping":61},{"user_id":767,"name":"SmeagolDaRegal","steam_id":76561198095029807,"connected_time":3075000000000,"state":"active","ping":79},{"user_id":786,"name":"hazel","steam_id":76561198037292232,"connected_time":2217000000000,"state":"active","ping":128},{"user_id":816,"name":"仙女头子于谦","steam_id":76561199031075505,"connected_time":693000000000,"state":"active","ping":160},{"user_id":768,"name":"ThePrinceApollo","steam_id":76561198974111032,"connected_time":3062000000000,"state":"active","ping":86},{"user_id":769,"name":"PippinRope","steam_id":76561198196670873,"connected_time":3062000000000,"state":"active","ping":96},{"user_id":823,"name":"ecco2k ifn.gg","steam_id":76561198119150842,"connected_time":638000000000,"state":"active","ping":63},{"user_id":771,"name":"mothsprings","steam_id":76561198928604937,"connected_time":3051000000000,"state":"active","ping":150},{"user_id":829,"name":"4 life","steam_id":76561198175961598,"connected_time":497000000000,"state":"active","ping":101},{"user_id":781,"name":"Grill Skills","steam_id":76561198053575147,"connected_time":2871000000000,"state":"active","ping":49},{"user_id":774,"name":"goth witch","steam_id":76561198069605283,"connected_time":2963000000000,"state":"active","ping":82},{"user_id":775,"name":"Women don't exist","steam_id":76561198836316052,"connected_time":2958000000000,"state":"active","ping":85},{"user_id":803,"name":"Brathic","steam_id":76561198966232163,"connected_time":1176000000000,"state":"active","ping":88},{"user_id":805,"name":"blinkerton city","steam_id":76561198054270410,"connected_time":1159000000000,"state":"active","ping":57},{"user_id":780,"name":"Sir Lump","steam_id":76561198119879254,"connected_time":2907000000000,"state":"active","ping":64},{"user_id":796,"name":"Cheezbeargur","steam_id":76561198164702899,"connected_time":1442000000000,"state":"active","ping":69},{"user_id":826,"name":"Petrivus","steam_id":76561198202152453,"connected_time":537000000000,"state":"active","ping":47}]},{"server_id":119,"name":"Uncletopia | Seattle | 2 | All Maps","name_short":"sea-2","host":"sea-1.us.uncletopia.com","port":27025,"enabled":true,"region":"us-west","cc":"us","latitude":47.608013,"longitude":-122.33517,"reserved":0,"last_update":"0001-01-01T00:00:00Z","name_a2s":"Uncletopia | Seattle | 2 | All Maps","protocol":17,"map":"pl_upward","folder":"tf","game":"Team Fortress","app_id":440,"player_count":24,"max_players":24,"Bots":0,"server_type":"Dedicated","server_os":"Linux","password":true,"vac":true,"version":"7961495","steam_id":85568392924469998,"keywords":["nocrits","nodmgspread","payload","uncletopia"],"game_id":440,"stv_port":27026,"stv_name":"Uncletopia | Seattle | 2 | All Maps | STV","players":[{"user_id":556,"name":"TheHumanTaco119","steam_id":76561198996107520,"connected_time":3111000000000,"state":"active","ping":86},{"user_id":345,"name":"\u003c blank \u003e","steam_id":76561198097188001,"connected_time":18343000000000,"state":"active","ping":42},{"user_id":570,"name":"Caramel_Chalice","steam_id":76561198307609692,"connected_time":2475000000000,"state":"active","ping":54},{"user_id":595,"name":"smeasly","steam_id":76561198028718812,"connected_time":589000000000,"state":"active","ping":44},{"user_id":548,"name":"Lily Thorn","steam_id":76561198305488625,"connected_time":3982000000000,"state":"active","ping":61},{"user_id":593,"name":"devn | trade.tf","steam_id":76561199202420894,"connected_time":913000000000,"state":"active","ping":42},{"user_id":577,"name":"Kdash","steam_id":76561198043829155,"connected_time":2088000000000,"state":"active","ping":97},{"user_id":585,"name":"ThatEmoEmu","steam_id":76561198272304706,"connected_time":1677000000000,"state":"active","ping":76},{"user_id":557,"name":"Glint_","steam_id":76561199084430003,"connected_time":3105000000000,"state":"active","ping":91},{"user_id":592,"name":"Optimore","steam_id":76561198047662990,"connected_time":1313000000000,"state":"active","ping":77},{"user_id":597,"name":"vibes","steam_id":76561198050561115,"connected_time":39000000000,"state":"active","ping":75},{"user_id":559,"name":"Waylavon","steam_id":76561198383701590,"connected_time":2986000000000,"state":"active","ping":51},{"user_id":571,"name":"Violet K.","steam_id":76561198062963842,"connected_time":2455000000000,"state":"active","ping":78},{"user_id":578,"name":"CabezaGrande","steam_id":76561197972555502,"connected_time":2059000000000,"state":"active","ping":103},{"user_id":582,"name":"Kronk","steam_id":76561198267956028,"connected_time":1924000000000,"state":"active","ping":54},{"user_id":591,"name":"Strikerbolt","steam_id":76561199095622897,"connected_time":1415000000000,"state":"active","ping":79},{"user_id":579,"name":"Invictus","steam_id":76561198079517075,"connected_time":2057000000000,"state":"active","ping":123},{"user_id":587,"name":"Hydroxianchaos","steam_id":76561198043786828,"connected_time":1619000000000,"state":"active","ping":109},{"user_id":581,"name":"Antzen","steam_id":76561198041343470,"connected_time":2042000000000,"state":"active","ping":71},{"user_id":590,"name":"American Dad Funny Moments #32","steam_id":76561198254874328,"connected_time":1476000000000,"state":"active","ping":55},{"user_id":530,"name":"Clagger","steam_id":76561198066701092,"connected_time":5258000000000,"state":"active","ping":43},{"user_id":596,"name":"GregGaming098","steam_id":76561198882415360,"connected_time":282000000000,"state":"active","ping":52},{"user_id":554,"name":"killswitch","steam_id":76561198213385439,"connected_time":3267000000000,"state":"active","ping":72},{"user_id":594,"name":"Dogg wader","steam_id":76561199090314340,"connected_time":873000000000,"state":"active","ping":91}]},{"server_id":406,"name":"Uncletopia | Seattle | 3 | Stopwatch","name_short":"sea-3","host":"sea-1.us.uncletopia.com","port":27035,"enabled":true,"region":"us-west","cc":"us","latitude":47.608013,"longitude":-122.33517,"reserved":0,"last_update":"0001-01-01T00:00:00Z","name_a2s":"Uncletopia | Seattle | 3 | Stopwatch","protocol":17,"map":"workshop/pl_vigil_rc10.ugc1266210012","folder":"tf","game":"Team Fortress","app_id":440,"player_count":0,"max_players":24,"Bots":0,"server_type":"Dedicated","server_os":"Linux","password":true,"vac":true,"version":"7961495","steam_id":85568392924515217,"keywords":["nocrits","nodmgspread","payload","uncletopia"],"game_id":440,"stv_port":27036,"stv_name":"Uncletopia | Seattle | 3 | Stopwatch | STV","players":null},{"server_id":17,"name":"Uncletopia | San Francisco | 1 | All Maps","name_short":"sfo-1","host":"sfo-1.us.uncletopia.com","port":27015,"enabled":true,"region":"us-west","cc":"us","latitude":37.77397,"longitude":-122.4313,"reserved":0,"last_update":"0001-01-01T00:00:00Z","name_a2s":"Uncletopia | San Francisco | 1 | All Maps","protocol":17,"map":"pl_borneo","folder":"tf","game":"Team Fortress","app_id":440,"player_count":0,"max_players":24,"Bots":0,"server_type":"Dedicated","server_os":"Linux","password":true,"vac":true,"version":"7961495","steam_id":85568392924469999,"keywords":["nocrits","nodmgspread","payload","uncletopia"],"game_id":440,"stv_port":27016,"stv_name":"Uncletopia | San Francisco | 1 | All Maps | STV","players":null},{"server_id":18,"name":"Uncletopia | San Francisco | 2 | All Maps","name_short":"sfo-2","host":"sfo-1.us.uncletopia.com","port":27025,"enabled":true,"region":"us-west","cc":"us","latitude":37.77397,"longitude":-122.4313,"reserved":0,"last_update":"0001-01-01T00:00:00Z","name_a2s":"Uncletopia | San Francisco | 2 | All Maps","protocol":17,"map":"pl_badwater","folder":"tf","game":"Team Fortress","app_id":440,"player_count":24,"max_players":24,"Bots":0,"server_type":"Dedicated","server_os":"Linux","password":true,"vac":true,"version":"7961495","steam_id":85568392924470000,"keywords":["nocrits","nodmgspread","payload","uncletopia"],"game_id":440,"stv_port":27026,"stv_name":"Uncletopia | San Francisco | 2 | All Maps | STV","players":[{"user_id":75,"name":"NaughtNormal","steam_id":76561198037693798,"connected_time":515000000000,"state":"active","ping":54},{"user_id":52,"name":"halcyon019","steam_id":76561199339323468,"connected_time":1708000000000,"state":"active","ping":53},{"user_id":33,"name":"Risingtigerking","steam_id":76561199070704000,"connected_time":2981000000000,"state":"active","ping":133},{"user_id":26,"name":"DrippySpiffy","steam_id":76561199233974512,"connected_time":3688000000000,"state":"active","ping":119},{"user_id":67,"name":"poopsock","steam_id":76561198069688480,"connected_time":812000000000,"state":"active","ping":52},{"user_id":55,"name":"pablo.rodriguez2006","steam_id":76561198059740184,"connected_time":1670000000000,"state":"active","ping":61},{"user_id":56,"name":"mainhoes","steam_id":76561199482142793,"connected_time":1656000000000,"state":"active","ping":45},{"user_id":68,"name":"Toeknee","steam_id":76561198880462440,"connected_time":807000000000,"state":"active","ping":56},{"user_id":76,"name":"dairy","steam_id":76561198047270339,"connected_time":338000000000,"state":"active","ping":61},{"user_id":71,"name":"Virus","steam_id":76561198252166472,"connected_time":669000000000,"state":"active","ping":112},{"user_id":80,"name":"rach9411","steam_id":76561198256535721,"connected_time":216000000000,"state":"active","ping":179},{"user_id":81,"name":"Constipated Barry","steam_id":76561198004482269,"connected_time":177000000000,"state":"active","ping":45},{"user_id":79,"name":"mommy","steam_id":76561198129195009,"connected_time":280000000000,"state":"active","ping":78},{"user_id":82,"name":"geouwu3","steam_id":76561199323519688,"connected_time":93000000000,"state":"active","ping":142},{"user_id":83,"name":"Neato","steam_id":76561198138219428,"connected_time":78000000000,"state":"active","ping":204},{"user_id":58,"name":"spirit","steam_id":76561198102040731,"connected_time":1562000000000,"state":"active","ping":105},{"user_id":50,"name":"Profile Name","steam_id":76561198404517128,"connected_time":1784000000000,"state":"active","ping":115},{"user_id":51,"name":"SlakerRySa(F2P)","steam_id":76561198954198301,"connected_time":1750000000000,"state":"active","ping":161},{"user_id":59,"name":"bladee tf2","steam_id":76561198402943433,"connected_time":1561000000000,"state":"active","ping":60},{"user_id":54,"name":"Viewie","steam_id":76561198280108853,"connected_time":1698000000000,"state":"active","ping":119},{"user_id":60,"name":"AKA-Mae (They/Them)","steam_id":76561198095391311,"connected_time":1532000000000,"state":"active","ping":66},{"user_id":61,"name":"poop","steam_id":76561198297795681,"connected_time":1509000000000,"state":"active","ping":92},{"user_id":64,"name":"kiwi","steam_id":76561198052177917,"connected_time":1329000000000,"state":"active","ping":68},{"user_id":63,"name":"Hallowedspoon","steam_id":76561199141350399,"connected_time":1476000000000,"state":"active","ping":93}]},{"server_id":19,"name":"Uncletopia | San Francisco | 3 | Stopwatch","name_short":"sfo-3","host":"sfo-1.us.uncletopia.com","port":27035,"enabled":true,"region":"us-west","cc":"us","latitude":37.77397,"longitude":-122.4313,"reserved":0,"last_update":"0001-01-01T00:00:00Z","name_a2s":"Uncletopia | San Francisco | 3 | Stopwatch","protocol":17,"map":"workshop/pl_barnblitz_pro7.ugc582280235","folder":"tf","game":"Team Fortress","app_id":440,"player_count":0,"max_players":24,"Bots":0,"server_type":"Dedicated","server_os":"Linux","password":true,"vac":true,"version":"7961495","steam_id":85568392924742824,"keywords":["nocrits","nodmgspread","payload","uncletopia"],"game_id":440,"stv_port":27036,"stv_name":"Uncletopia | San Francisco | 3 | Stopwatch | STV","players":null},{"server_id":20,"name":"Uncletopia | San Francisco | 4 | Community","name_short":"sfo-4","host":"sfo-1.us.uncletopia.com","port":27045,"enabled":true,"region":"us-west","cc":"us","latitude":37.77397,"longitude":-122.4313,"reserved":0,"last_update":"0001-01-01T00:00:00Z","name_a2s":"Uncletopia | San Francisco | 4 | Community","protocol":17,"map":"workshop/koth_bagel_rc6.ugc2514036946","folder":"tf","game":"Team Fortress","app_id":440,"player_count":0,"max_players":24,"Bots":0,"server_type":"Dedicated","server_os":"Linux","password":true,"vac":true,"version":"7961495","steam_id":85568392924742826,"keywords":["cp","nocrits","nodmgspread","uncletopia"],"game_id":440,"stv_port":27046,"stv_name":"Uncletopia | San Francisco | 4 | Community | STV","players":null},{"server_id":141,"name":"Uncletopia | Sydney | 1 | All Maps","name_short":"syd-1","host":"syd-1.au.uncletopia.com","port":27015,"enabled":true,"region":"au","cc":"au","latitude":-33.865143,"longitude":151.2099,"reserved":0,"last_update":"0001-01-01T00:00:00Z","name_a2s":"Uncletopia | Sydney | 1 | All Maps","protocol":17,"map":"pl_swiftwater_final1","folder":"tf","game":"Team Fortress","app_id":440,"player_count":24,"max_players":24,"Bots":0,"server_type":"Dedicated","server_os":"Linux","password":true,"vac":true,"version":"7961495","steam_id":85568392924470001,"keywords":["nocrits","nodmgspread","payload","uncletopia"],"game_id":440,"stv_port":27016,"stv_name":"Uncletopia | Sydney | 1 | All Maps | STV","players":[{"user_id":244,"name":"akmon753","steam_id":76561199507989067,"connected_time":2999000000000,"state":"active","ping":69},{"user_id":235,"name":"Pompadouraus","steam_id":76561198327530525,"connected_time":3884000000000,"state":"active","ping":75},{"user_id":265,"name":"ball oon","steam_id":76561198059052337,"connected_time":847000000000,"state":"active","ping":60},{"user_id":223,"name":"t.tv/catherine_x3","steam_id":76561198041907885,"connected_time":4764000000000,"state":"active","ping":60},{"user_id":245,"name":"MAYHEM","steam_id":76561199323730865,"connected_time":2859000000000,"state":"active","ping":30},{"user_id":236,"name":"sav","steam_id":76561198058760041,"connected_time":3874000000000,"state":"active","ping":76},{"user_id":257,"name":"Dot","steam_id":76561198064534661,"connected_time":1518000000000,"state":"active","ping":59},{"user_id":259,"name":"Bachy","steam_id":76561198993800965,"connected_time":1479000000000,"state":"active","ping":80},{"user_id":252,"name":"toblue","steam_id":76561198189137465,"connected_time":2098000000000,"state":"active","ping":88},{"user_id":201,"name":"Marzell","steam_id":76561198151276153,"connected_time":6399000000000,"state":"active","ping":94},{"user_id":260,"name":"Glockenspe (She/Her)","steam_id":76561199184115241,"connected_time":1207000000000,"state":"active","ping":51},{"user_id":240,"name":"4LOW","steam_id":76561199156942316,"connected_time":3494000000000,"state":"active","ping":77},{"user_id":181,"name":"-Ech0-","steam_id":76561199121536801,"connected_time":8659000000000,"state":"active","ping":57},{"user_id":262,"name":"Arn0tt, Host of the Nightmare","steam_id":76561198027007279,"connected_time":1138000000000,"state":"active","ping":103},{"user_id":253,"name":"Chooka","steam_id":76561197992307814,"connected_time":2001000000000,"state":"active","ping":76},{"user_id":242,"name":"monnickev","steam_id":76561198252587162,"connected_time":3442000000000,"state":"active","ping":36},{"user_id":263,"name":"Matt","steam_id":76561198009757360,"connected_time":1004000000000,"state":"active","ping":67},{"user_id":230,"name":"ravioli","steam_id":76561198001765827,"connected_time":4155000000000,"state":"active","ping":52},{"user_id":266,"name":"The Joker In 4D (Sniff \u0026 Scratc","steam_id":76561198058512735,"connected_time":311000000000,"state":"active","ping":54},{"user_id":267,"name":"Toody","steam_id":76561198212656752,"connected_time":286000000000,"state":"active","ping":48},{"user_id":251,"name":"noXy","steam_id":76561198032671657,"connected_time":2209000000000,"state":"active","ping":57},{"user_id":161,"name":"Hayden","steam_id":76561197983838052,"connected_time":9892000000000,"state":"active","ping":41},{"user_id":261,"name":"scoot010","steam_id":76561198821606563,"connected_time":1206000000000,"state":"active","ping":45},{"user_id":243,"name":"Finios","steam_id":76561198209013071,"connected_time":3440000000000,"state":"active","ping":56}]},{"server_id":123,"name":"Uncletopia | Sydney | 2 | All Maps","name_short":"syd-2","host":"syd-1.au.uncletopia.com","port":27025,"enabled":true,"region":"au","cc":"au","latitude":-33.865143,"longitude":151.2099,"reserved":0,"last_update":"0001-01-01T00:00:00Z","name_a2s":"Uncletopia | Sydney | 2 | All Maps","protocol":17,"map":"koth_highpass","folder":"tf","game":"Team Fortress","app_id":440,"player_count":6,"max_players":24,"Bots":0,"server_type":"Dedicated","server_os":"Linux","password":true,"vac":true,"version":"7961495","steam_id":85568392924470002,"keywords":["cp","nocrits","nodmgspread","uncletopia"],"game_id":440,"stv_port":27026,"stv_name":"Uncletopia | Sydney | 2 | All Maps | STV","players":[{"user_id":20,"name":"Slime the Protogen","steam_id":76561198070632295,"connected_time":1545000000000,"state":"active","ping":63},{"user_id":31,"name":"kanokwan.psr","steam_id":76561199438059955,"connected_time":22000000000,"state":"spawning","ping":167},{"user_id":25,"name":"ChickenHatMan","steam_id":76561198119527347,"connected_time":1210000000000,"state":"active","ping":56},{"user_id":30,"name":"Ruby Everred","steam_id":76561199015581680,"connected_time":413000000000,"state":"active","ping":324},{"user_id":24,"name":"Akatsuki_Yeet F2P","steam_id":76561199190806644,"connected_time":1226000000000,"state":"active","ping":217},{"user_id":29,"name":"El Chupacabra","steam_id":76561198070641651,"connected_time":547000000000,"state":"active","ping":45}]},{"server_id":395,"name":"Uncletopia | Sydney | 3 | All Maps","name_short":"syd-3","host":"syd-1.au.uncletopia.com","port":27035,"enabled":true,"region":"au","cc":"au","latitude":-33.865143,"longitude":151.2099,"reserved":0,"last_update":"0001-01-01T00:00:00Z","name_a2s":"Uncletopia | Sydney | 3 | All Maps","protocol":17,"map":"koth_brazil","folder":"tf","game":"Team Fortress","app_id":440,"player_count":0,"max_players":24,"Bots":0,"server_type":"Dedicated","server_os":"Linux","password":true,"vac":true,"version":"7961495","steam_id":85568392925194467,"keywords":["cp","nocrits","nodmgspread","uncletopia"],"game_id":440,"stv_port":27036,"stv_name":"Uncletopia | Sydney | 3 | All Maps | STV","players":null},{"server_id":396,"name":"Uncletopia | Sydney | 4 | All Maps","name_short":"syd-4","host":"syd-1.au.uncletopia.com","port":27045,"enabled":true,"region":"au","cc":"au","latitude":-33.865143,"longitude":151.2099,"reserved":0,"last_update":"0001-01-01T00:00:00Z","name_a2s":"Uncletopia | Sydney | 4 | All Maps","protocol":17,"map":"pl_upward","folder":"tf","game":"Team Fortress","app_id":440,"player_count":0,"max_players":24,"Bots":0,"server_type":"Dedicated","server_os":"Linux","password":true,"vac":true,"version":"7961495","steam_id":85568392925397958,"keywords":["nocrits","nodmgspread","payload","uncletopia"],"game_id":440,"stv_port":27046,"stv_name":"Uncletopia | Sydney | 4 | All Maps | STV","players":null},{"server_id":58,"name":"Uncletopia | Sydney | 5 | Stopwatch","name_short":"syd-5","host":"syd-1.au.uncletopia.com","port":27055,"enabled":true,"region":"au","cc":"au","latitude":-33.865143,"longitude":151.2099,"reserved":0,"last_update":"0001-01-01T00:00:00Z","name_a2s":"Uncletopia | Sydney | 5 | Stopwatch","protocol":17,"map":"koth_highpass","folder":"tf","game":"Team Fortress","app_id":440,"player_count":0,"max_players":24,"Bots":0,"server_type":"Dedicated","server_os":"Linux","password":true,"vac":true,"version":"7961495","steam_id":85568392925397959,"keywords":["cp","nocrits","nodmgspread","uncletopia"],"game_id":440,"stv_port":27056,"stv_name":"Uncletopia | Sydney | 5 | Stopwatch | STV","players":null},{"server_id":59,"name":"Uncletopia | Sydney | 6 | Community","name_short":"syd-6","host":"syd-1.au.uncletopia.com","port":27065,"enabled":true,"region":"au","cc":"au","latitude":-33.865143,"longitude":151.2099,"reserved":0,"last_update":"0001-01-01T00:00:00Z","name_a2s":"Uncletopia | Sydney | 6 | Community","protocol":17,"map":"workshop/cp_mannbase_rc2a.ugc1900737467","folder":"tf","game":"Team Fortress","app_id":440,"player_count":0,"max_players":24,"Bots":0,"server_type":"Dedicated","server_os":"Linux","password":true,"vac":true,"version":"7961495","steam_id":85568392925397960,"keywords":["cp","nocrits","nodmgspread","uncletopia"],"game_id":440,"stv_port":27066,"stv_name":"Uncletopia | Sydney | 6 | Community | STV","players":null},{"server_id":49,"name":"Uncletopia | Warsaw | 1 | One Thousand Uncles","name_short":"waw-1","host":"waw-1.pl.uncletopia.com","port":27015,"enabled":true,"region":"eu","cc":"pl","latitude":52.2297,"longitude":21.017532,"reserved":0,"last_update":"0001-01-01T00:00:00Z","name_a2s":"Uncletopia | Warsaw | 1 | One Thousand Uncles","protocol":17,"map":"cp_egypt_final","folder":"tf","game":"Team Fortress","app_id":440,"player_count":0,"max_players":32,"Bots":0,"server_type":"Dedicated","server_os":"Linux","password":true,"vac":true,"version":"7961495","steam_id":85568392925397850,"keywords":["alltalk","cp","danepve","increased_maxplayers","norespawntime","uncletopia"],"game_id":440,"stv_port":0,"stv_name":"","players":null},{"server_id":50,"name":"Uncletopia | Warsaw | 2 | One Thousand Uncles","name_short":"waw-2","host":"waw-1.pl.uncletopia.com","port":27025,"enabled":true,"region":"eu","cc":"pl","latitude":52.2297,"longitude":21.017532,"reserved":0,"last_update":"0001-01-01T00:00:00Z","name_a2s":"Uncletopia | Warsaw | 2 | One Thousand Uncles","protocol":17,"map":"pl_pier","folder":"tf","game":"Team Fortress","app_id":440,"player_count":0,"max_players":32,"Bots":0,"server_type":"Dedicated","server_os":"Linux","password":true,"vac":true,"version":"7961495","steam_id":85568392925397851,"keywords":["alltalk","danepve","increased_maxplayers","norespawntime","payload","uncletopia"],"game_id":440,"stv_port":0,"stv_name":"","players":null},{"server_id":51,"name":"Uncletopia | Warsaw | 3 | All Maps","name_short":"waw-3","host":"waw-1.pl.uncletopia.com","port":27035,"enabled":true,"region":"eu","cc":"pl","latitude":52.2297,"longitude":21.017532,"reserved":0,"last_update":"0001-01-01T00:00:00Z","name_a2s":"Uncletopia | Warsaw | 3 | All Maps","protocol":17,"map":"pl_frontier_final","folder":"tf","game":"Team Fortress","app_id":440,"player_count":0,"max_players":24,"Bots":0,"server_type":"Dedicated","server_os":"Linux","password":true,"vac":true,"version":"7961495","steam_id":85568392925397852,"keywords":["nocrits","nodmgspread","payload","uncletopia"],"game_id":440,"stv_port":27036,"stv_name":"Uncletopia | Warsaw | 3 | All Maps | STV","players":null},{"server_id":52,"name":"Uncletopia | Warsaw | 4 | All Maps","name_short":"waw-4","host":"waw-1.pl.uncletopia.com","port":27045,"enabled":true,"region":"eu","cc":"pl","latitude":52.2297,"longitude":21.017532,"reserved":0,"last_update":"0001-01-01T00:00:00Z","name_a2s":"Uncletopia | Warsaw | 4 | All Maps","protocol":17,"map":"ctf_turbine","folder":"tf","game":"Team Fortress","app_id":440,"player_count":0,"max_players":24,"Bots":0,"server_type":"Dedicated","server_os":"Linux","password":true,"vac":true,"version":"7961495","steam_id":85568392925397853,"keywords":["ctf","nocrits","nodmgspread","uncletopia"],"game_id":440,"stv_port":27046,"stv_name":"Uncletopia | Warsaw | 4 | All Maps | STV","players":null},{"server_id":53,"name":"Uncletopia | Warsaw | 5 | Stopwatch","name_short":"waw-5","host":"waw-1.pl.uncletopia.com","port":27055,"enabled":true,"region":"eu","cc":"pl","latitude":52.2297,"longitude":21.017532,"reserved":0,"last_update":"0001-01-01T00:00:00Z","name_a2s":"Uncletopia | Warsaw | 5 | Stopwatch","protocol":17,"map":"workshop/koth_clearcut_b15.ugc2107050255","folder":"tf","game":"Team Fortress","app_id":440,"player_count":0,"max_players":24,"Bots":0,"server_type":"Dedicated","server_os":"Linux","password":true,"vac":true,"version":"7961495","steam_id":85568392925397854,"keywords":["cp","nocrits","nodmgspread","uncletopia"],"game_id":440,"stv_port":27056,"stv_name":"Uncletopia | Warsaw | 5 | Stopwatch | STV","players":null},{"server_id":54,"name":"Uncletopia | Warsaw | 6 | Community","name_short":"waw-6","host":"waw-1.pl.uncletopia.com","port":27065,"enabled":true,"region":"eu","cc":"pl","latitude":52.2297,"longitude":21.017532,"reserved":0,"last_update":"0001-01-01T00:00:00Z","name_a2s":"Uncletopia | Warsaw | 6 | Community","protocol":17,"map":"workshop/pl_highwood_b19.ugc1769496557","folder":"tf","game":"Team Fortress","app_id":440,"player_count":0,"max_players":24,"Bots":0,"server_type":"Dedicated","server_os":"Linux","password":true,"vac":true,"version":"7961495","steam_id":85568392925397856,"keywords":["nocrits","nodmgspread","payload","uncletopia"],"game_id":440,"stv_port":27066,"stv_name":"Uncletopia | Warsaw | 6 | Community | STV","players":null}]}