{"status":true,"message":"","result":[{"server_id":9,"name":"Uncletopia | Atlanta | 1 | All Maps","name_short":"atl-1","host":"atl-1.us.uncletopia.com","port":27015,"enabled":true,"region":"us-east","cc":"us","latitude":33.753746,"longitude":-84.38633,"reserved":0,"last_update":"0001-01-01T00:00:00Z","name_a2s":"Uncletopia | Atlanta | 1 | All Maps","protocol":17,"map":"cp_egypt_final","folder":"tf","game":"Team Fortress","app_id":440,"player_count":24,"max_players":24,"Bots":0,"server_type":"Dedicated","server_os":"Linux","password":true,"vac":true,"version":"7961495","steam_id":85568392924469982,"keywords":["cp","nocrits","nodmgspread","uncletopia"],"game_id":440,"stv_port":27016,"stv_name":"Uncletopia | Atlanta | 1 | All Maps | STV","players":[{"user_id":620,"name":"ash","steam_id":76561198127890645,"connected_time":2619000000000,"state":"active","ping":61},{"user_id":642,"name":"xX_BimboSwallower_Xx","steam_id":76561198016029965,"connected_time":395000000000,"state":"active","ping":57},{"user_id":632,"name":"DuckMann","steam_id":76561198197058638,"connected_time":1563000000000,"state":"active","ping":47},{"user_id":646,"name":"YourLocalMedic","steam_id":76561198004148003,"connected_time":47000000000,"state":"active","ping":95},{"user_id":613,"name":"Oddball","steam_id":76561198040440984,"connected_time":3295000000000,"state":"active","ping":94},{"user_id":552,"name":"River","steam_id":76561198053962431,"connected_time":7888000000000,"state":"active","ping":66},{"user_id":639,"name":"uthgarthegiant","steam_id":76561198348616230,"connected_time":599000000000,"state":"active","ping":62},{"user_id":640,"name":"Bag","steam_id":76561198012395490,"connected_time":427000000000,"state":"active","ping":53},{"user_id":608,"name":"bendera","steam_id":76561197965486503,"connected_time":4112000000000,"state":"active","ping":78},{"user_id":618,"name":"Erchius (she/her)","steam_id":76561198256892300,"connected_time":2755000000000,"state":"active","ping":63},{"user_id":604,"name":"thomasdee725???","steam_id":76561199189526173,"connected_time":4206000000000,"state":"active","ping":82},{"user_id":563,"name":"Intro Bonito","steam_id":76561198119478838,"connected_time":6923000000000,"state":"active","ping":48},{"user_id":594,"name":"Junk","steam_id":76561198024382753,"connected_time":5436000000000,"state":"active","ping":55},{"user_id":567,"name":"marguerite","steam_id":76561198170873495,"connected_time":6774000000000,"state":"active","ping":50},{"user_id":636,"name":"GG.KexruTv","steam_id":76561198374399876,"connected_time":917000000000,"state":"active","ping":59},{"user_id":595,"name":"Thotimus Begonimus","steam_id":76561197970275938,"connected_time":5432000000000,"state":"active","ping":45},{"user_id":599,"name":"Im totally a hacker","steam_id":76561198888005736,"connected_time":5050000000000,"state":"active","ping":60},{"user_id":527,"name":"Shame","steam_id":76561198100490994,"connected_time":10857000000000,"state":"active","ping":66},{"user_id":529,"name":"Monkey Mode","steam_id":76561197961267543,"connected_time":10262000000000,"state":"active","ping":53},{"user_id":641,"name":"shinon","steam_id":76561198373626848,"connected_time":417000000000,"state":"active","ping":65},{"user_id":633,"name":"doom jugó al papito","steam_id":76561198055445565,"connected_time":1400000000000,"state":"active","ping":172},{"user_id":645,"name":"♥Bixit♥","steam_id":76561198958823160,"connected_time":148000000000,"state":"active","ping":70},{"user_id":638,"name":"Lunagriff","steam_id":76561198036889008,"connected_time":833000000000,"state":"active","ping":65},{"user_id":580,"name":"Ashes!","steam_id":76561197998475441,"connected_time":6126000000000,"state":"active","ping":62}]},{"server_id":104,"name":"Uncletopia | Atlanta | 2 | All Maps","name_short":"atl-2","host":"atl-1.us.uncletopia.com","port":27025,"enabled":true,"region":"us-east","cc":"us","latitude":33.753746,"longitude":-84.38633,"reserved":0,"last_update":"0001-01-01T00:00:00Z","name_a2s":"Uncletopia | Atlanta | 2 | All Maps","protocol":17,"map":"cp_dustbowl","folder":"tf","game":"Team Fortress","app_id":440,"player_count":24,"max_players":24,"Bots":0,"server_type":"Dedicated","server_os":"Linux","password":true,"vac":true,"version":"7961495","steam_id":85568392924469983,"keywords":["cp","nocrits","nodmgspread","uncletopia"],"game_id":440,"stv_port":27026,"stv_name":"Uncletopia | Atlanta | 2 | All Maps | STV","players":[{"user_id":627,"name":"Caelestis","steam_id":76561198026481161,"connected_time":1761000000000,"state":"active","ping":65},{"user_id":635,"name":"Arson Aardvark","steam_id":76561198004864204,"connected_time":177000000000,"state":"active","ping":71},{"user_id":625,"name":"Nerd Killer","steam_id":76561198037072888,"connected_time":2032000000000,"state":"active","ping":71},{"user_id":634,"name":"Ok then","steam_id":76561198891914787,"connected_time":188000000000,"state":"active","ping":102},{"user_id":583,"name":"ArcticTone","steam_id":76561199163932146,"connected_time":5067000000000,"state":"active","ping":54},{"user_id":552,"name":"Lee?","steam_id":76561199060892634,"connected_time":7845000000000,"state":"active","ping":64},{"user_id":601,"name":"Mana_Kaktus","steam_id":76561198110468307,"connected_time":3141000000000,"state":"active","ping":81},{"user_id":597,"name":"Zaro","steam_id":76561198433849006,"connected_time":4212000000000,"state":"active","ping":53},{"user_id":587,"name":"Crescent","steam_id":76561198095124633,"connected_time":4997000000000,"state":"active","ping":71},{"user_id":615,"name":"el vengador de la tienda","steam_id":76561199081928341,"connected_time":2177000000000,"state":"active","ping":84},{"user_id":616,"name":"DlTTO","steam_id":76561199427026752,"connected_time":2140000000000,"state":"active","ping":98},{"user_id":636,"name":"FlameEmerald","steam_id":76561198407696514,"connected_time":155000000000,"state":"active","ping":85},{"user_id":596,"name":"RollingCow","steam_id":76561198067114237,"connected_time":4585000000000,"state":"active","ping":88},{"user_id":619,"name":"Barry","steam_id":76561198371953939,"connected_time":2116000000000,"state":"active","ping":66},{"user_id":578,"name":"Ashe is Kiriko main","steam_id":76561198245775974,"connected_time":5994000000000,"state":"active","ping":129},{"user_id":613,"name":"pHsHy","steam_id":76561198013195018,"connected_time":2560000000000,"state":"active","ping":88},{"user_id":600,"name":"guy","steam_id":76561198163306561,"connected_time":3162000000000,"state":"active","ping":61},{"user_id":620,"name":"Spare(8)Ball","steam_id":76561197982432995,"connected_time":2114000000000,"state":"active","ping":111},{"user_id":629,"name":"Hertz","steam_id":76561198310927351,"connected_time":1678000000000,"state":"active","ping":134},{"user_id":605,"name":"chesterwnimitz","steam_id":76561198062664377,"connected_time":3095000000000,"state":"active","ping":106},{"user_id":637,"name":"Herdez Hot Salsa","steam_id":76561197991740906,"connected_time":139000000000,"state":"active","ping":77},{"user_id":631,"name":"ShofaX","steam_id":76561198199768014,"connected_time":1358000000000,"state":"active","ping":70},{"user_id":614,"name":"CHIKN","steam_id":76561198277792665,"connected_time":2554000000000,"state":"active","ping":119},{"user_id":611,"name":"Space Captainface","steam_id":76561197995103493,"connected_time":2989000000000,"state":"active","ping":78}]},{"server_id":400,"name":"Uncletopia | Atlanta | 3 | Stopwatch","name_short":"atl-3","host":"atl-1.us.uncletopia.com","port":27035,"enabled":true,"region":"us-east","cc":"us","latitude":33.753746,"longitude":-84.38633,"reserved":0,"last_update":"0001-01-01T00:00:00Z","name_a2s":"Uncletopia | Atlanta | 3 | Stopwatch","protocol":17,"map":"koth_highpass","folder":"tf","game":"Team Fortress","app_id":440,"player_count":0,"max_players":24,"Bots":0,"server_type":"Dedicated","server_os":"Linux","password":true,"vac":true,"version":"7961495","steam_id":85568392924515187,"keywords":["cp","nocrits","nodmgspread","uncletopia"],"game_id":440,"stv_port":27036,"stv_name":"Uncletopia | Atlanta | 3 | Stopwatch | STV","players":null},{"server_id":401,"name":"Uncletopia | Atlanta | 4 | Community","name_short":"atl-4","host":"atl-1.us.uncletopia.com","port":27045,"enabled":true,"region":"us-east","cc":"us","latitude":33.753746,"longitude":-84.38633,"reserved":0,"last_update":"0001-01-01T00:00:00Z","name_a2s":"Uncletopia | Atlanta | 4 | Community","protocol":17,"map":"workshop/koth_trenchfoot_ab1.ugc731436616","folder":"tf","game":"Team Fortress","app_id":440,"player_count":0,"max_players":24,"Bots":0,"server_type":"Dedicated","server_os":"Linux","password":true,"vac":true,"version":"7961495","steam_id":85568392924515188,"keywords":["cp","nocrits","nodmgspread","uncletopia"],"game_id":440,"stv_port":27046,"stv_name":"Uncletopia | Atlanta | 4 | Community | STV","players":null},{"server_id":2,"name":"Uncletopia | Chicago | 1 | All Maps","name_short":"chi-1","host":"chi-1.us.uncletopia.com","port":27015,"enabled":true,"region":"us-central","cc":"us","latitude":41.881832,"longitude":-87.62318,"reserved":0,"last_update":"0001-01-01T00:00:00Z","name_a2s":"Uncletopia | Chicago | 1 | All Maps","protocol":17,"map":"cp_steel","folder":"tf","game":"Team Fortress","app_id":440,"player_count":24,"max_players":24,"Bots":0,"server_type":"Dedicated","server_os":"Linux","password":true,"vac":true,"version":"7961495","steam_id":85568392924469984,"keywords":["cp","nocrits","nodmgspread","uncletopia"],"game_id":440,"stv_port":27016,"stv_name":"Uncletopia | Chicago | 1 | All Maps | STV","players":[{"user_id":818,"name":"Der Krieger105","steam_id":76561197978384609,"connected_time":13000000000,"state":"active","ping":78},{"user_id":747,"name":"Lia_Rein","steam_id":76561198151569597,"connected_time":4788000000000,"state":"active","ping":145},{"user_id":792,"name":"Stew Eater","steam_id":76561198978307159,"connected_time":3697000000000,"state":"active","ping":56},{"user_id":735,"name":"HealDaddy (SMOKE)","steam_id":76561198017631728,"connected_time":5777000000000,"state":"active","ping":60},{"user_id":810,"name":"Sunny D+","steam_id":76561197999371052,"connected_time":948000000000,"state":"active","ping":59},{"user_id":813,"name":"mopsyNYAA","steam_id":76561199044347663,"connected_time":85000000000,"state":"active","ping":38},{"user_id":806,"name":"PickleHater13","steam_id":76561198259380127,"connected_time":1344000000000,"state":"active","ping":47},{"user_id":668,"name":"hearthian","steam_id":76561198113235260,"connected_time":12215000000000,"state":"active","ping":97},{"user_id":713,"name":"qory","steam_id":76561198152064890,"connected_time":8270000000000,"state":"active","ping":46},{"user_id":811,"name":"♥Bunny♥Slut♥","steam_id":76561198206376851,"connected_time":365000000000,"state":"active","ping":78},{"user_id":807,"name":"Reflector","steam_id":76561198078999855,"connected_time":1331000000000,"state":"active","ping":52},{"user_id":795,"name":"SPIRE_FAN","steam_id":76561198001486573,"connected_time":3586000000000,"state":"active","ping":69},{"user_id":801,"name":"Boxpipe","steam_id":76561197964501915,"connected_time":1940000000000,"state":"active","ping":61},{"user_id":744,"name":"TallBit","steam_id":76561199059748976,"connected_time":5120000000000,"state":"active","ping":51},{"user_id":798,"name":"bird enthusiast","steam_id":76561198087661713,"connected_time":2434000000000,"state":"active","ping":685},{"user_id":755,"name":"Rw","steam_id":76561198124645863,"connected_time":4350000000000,"state":"active","ping":65},{"user_id":733,"name":"TehOneZoot","steam_id":76561198121944243,"connected_time":5800000000000,"state":"active","ping":70},{"user_id":819,"name":"HOMIE","steam_id":76561198057325155,"connected_time":1000000000,"state":"spawning","ping":38},{"user_id":814,"name":"crab","steam_id":76561199094011002,"connected_time":76000000000,"state":"active","ping":46},{"user_id":737,"name":"DinkleBerg","steam_id":76561198891626233,"connected_time":5763000000000,"state":"active","ping":65},{"user_id":820,"name":"THE MENACE","steam_id":76561198312055294,"connected_time":1000000000,"state":"spawning","ping":15},{"user_id":739,"name":"add syrup","steam_id":76561198224614084,"connected_time":5690000000000,"state":"active","ping":74},{"user_id":815,"name":"Your Local Queer Librarian","steam_id":76561198013077080,"connected_time":75000000000,"state":"active","ping":40},{"user_id":804,"name":"Anthid","steam_id":76561198074493797,"connected_time":1884000000000,"state":"active","ping":64}]},{"server_id":106,"name":"Uncletopia | Chicago | 2 | All Maps","name_short":"chi-2","host":"chi-1.us.uncletopia.com","port":27025,"enabled":true,"region":"us-central","cc":"us","latitude":41.881832,"longitude":-87.62318,"reserved":0,"last_update":"0001-01-01T00:00:00Z","name_a2s":"Uncletopia | Chicago | 2 | All Maps","protocol":17,"map":"pl_swiftwater_final1","folder":"tf","game":"Team Fortress","app_id":440,"player_count":24,"max_players":24,"Bots":0,"server_type":"Dedicated","server_os":"Linux","password":true,"vac":true,"version":"7961495","steam_id":85568392924469985,"keywords":["nocrits","nodmgspread","payload","uncletopia"],"game_id":440,"stv_port":27026,"stv_name":"Uncletopia | Chicago | 2 | All Maps | STV","players":[{"user_id":597,"name":"C/Spoons","steam_id":76561198019227661,"connected_time":3181000000000,"state":"active","ping":56},{"user_id":605,"name":"big sandwich","steam_id":76561198017907737,"connected_time":1684000000000,"state":"active","ping":77},{"user_id":545,"name":"astrobob911","steam_id":76561199099110654,"connected_time":6911000000000,"state":"active","ping":83},{"user_id":602,"name":"Geomancer36","steam_id":76561198093370710,"connected_time":2260000000000,"state":"active","ping":69},{"user_id":572,"name":"closer","steam_id":76561198042848500,"connected_time":4802000000000,"state":"active","ping":57},{"user_id":582,"name":"Scarecrow","steam_id":76561198045870511,"connected_time":4055000000000,"state":"active","ping":63},{"user_id":547,"name":"lanoc","steam_id":76561198055415367,"connected_time":6886000000000,"state":"active","ping":61},{"user_id":618,"name":"Pizza","steam_id":76561198118748364,"connected_time":1137000000000,"state":"active","ping":79},{"user_id":620,"name":"anonion","steam_id":76561198056477584,"connected_time":777000000000,"state":"active","ping":87},{"user_id":607,"name":"Rogurts","steam_id":76561198087665145,"connected_time":1660000000000,"state":"active","ping":60},{"user_id":532,"name":"James","steam_id":76561198081313916,"connected_time":7530000000000,"state":"active","ping":68},{"user_id":624,"name":"lilscot","steam_id":76561198099212453,"connected_time":172000000000,"state":"active","ping":68},{"user_id":608,"name":"socialism","steam_id":76561198844003641,"connected_time":1650000000000,"state":"active","ping":113},{"user_id":604,"name":"Drapph","steam_id":76561199384213314,"connected_time":1711000000000,"state":"active","ping":63},{"user_id":586,"name":"sithreis","steam_id":76561198000564263,"connected_time":3834000000000,"state":"active","ping":75},{"user_id":625,"name":"ambatukum","steam_id":76561198042444734,"connected_time":42000000000,"state":"active","ping":81},{"user_id":598,"name":"Thingy","steam_id":76561198140161202,"connected_time":3163000000000,"state":"active","ping":88},{"user_id":611,"name":"|S| Thrashrr","steam_id":76561198870616951,"connected_time":1549000000000,"state":"active","ping":94},{"user_id":623,"name":"avertd","steam_id":76561198067784310,"connected_time":186000000000,"state":"active","ping":61},{"user_id":616,"name":"Mixed Up","steam_id":76561198042570322,"connected_time":1418000000000,"state":"active","ping":59},{"user_id":592,"name":"Orange","steam_id":76561198282214019,"connected_time":3497000000000,"state":"active","ping":73},{"user_id":622,"name":"Gaming","steam_id":76561198107080532,"connected_time":582000000000,"state":"active","ping":68},{"user_id":601,"name":"UNIT 220","steam_id":76561198042243497,"connected_time":2311000000000,"state":"active","ping":75},{"user_id":619,"name":"AlecTheNefarious","steam_id":76561198035291230,"connected_time":1066000000000,"state":"active","ping":74}]},{"server_id":402,"name":"Uncletopia | Chicago | 3 | All Maps","name_short":"chi-3","host":"chi-1.us.uncletopia.com","port":27035,"enabled":true,"region":"us-central","cc":"us","latitude":41.881832,"longitude":-87.62318,"reserved":0,"last_update":"0001-01-01T00:00:00Z","name_a2s":"Uncletopia | Chicago | 3 | All Maps","protocol":17,"map":"pl_badwater","folder":"tf","game":"Team Fortress","app_id":440,"player_count":24,"max_players":24,"Bots":0,"server_type":"Dedicated","server_os":"Linux","password":true,"vac":true,"version":"7961495","steam_id":85568392924515191,"keywords":["nocrits","nodmgspread","payload","uncletopia"],"game_id":440,"stv_port":27036,"stv_name":"Uncletopia | Chicago | 3 | All Maps | STV","players":[{"user_id":377,"name":"Pixeled","steam_id":76561198088917077,"connected_time":6212000000000,"state":"active","ping":87},{"user_id":443,"name":"Canadian Beb","steam_id":76561198055462395,"connected_time":2349000000000,"state":"active","ping":87},{"user_id":457,"name":"Wockicity","steam_id":76561198067176829,"connected_time":1632000000000,"state":"active","ping":107},{"user_id":494,"name":"Randumb","steam_id":76561199083286636,"connected_time":131000000000,"state":"active","ping":56},{"user_id":495,"name":"wise","steam_id":76561198030066204,"connected_time":112000000000,"state":"active","ping":60},{"user_id":394,"name":"Stick","steam_id":76561198001509374,"connected_time":5880000000000,"state":"active","ping":68},{"user_id":496,"name":"Starfruit66","steam_id":76561198069917277,"connected_time":88000000000,"state":"active","ping":100},{"user_id":438,"name":"bluebird","steam_id":76561198065219155,"connected_time":2895000000000,"state":"active","ping":45},{"user_id":488,"name":"CodyBoi","steam_id":76561198191927495,"connected_time":247000000000,"state":"active","ping":49},{"user_id":484,"name":"det ringme","steam_id":76561198170859755,"connected_time":408000000000,"state":"active","ping":71},{"user_id":455,"name":"uptown lucy","steam_id":76561198196769297,"connected_time":1758000000000,"state":"active","ping":52},{"user_id":453,"name":"Erebus","steam_id":76561199061956673,"connected_time":1836000000000,"state":"active","ping":76},{"user_id":497,"name":"ThtGamrW","steam_id":76561199434562549,"connected_time":79000000000,"state":"active","ping":87},{"user_id":380,"name":"Blue","steam_id":76561199093604072,"connected_time":6210000000000,"state":"active","ping":80},{"user_id":493,"name":"shitass | troutsupply.net","steam_id":76561198210572481,"connected_time":163000000000,"state":"active","ping":75},{"user_id":489,"name":"story","steam_id":76561199088496817,"connected_time":229000000000,"state":"active","ping":85},{"user_id":483,"name":"Capt.Swag","steam_id":76561198088340994,"connected_time":422000000000,"state":"active","ping":72},{"user_id":462,"name":"notdoxed","steam_id":76561197992591404,"connected_time":1492000000000,"state":"active","ping":60},{"user_id":498,"name":"Nexusuxen","steam_id":76561198117547131,"connected_time":49000000000,"state":"active","ping":240},{"user_id":499,"name":"Vagrant","steam_id":76561198242536886,"connected_time":35000000000,"state":"active","ping":90},{"user_id":325,"name":"Am I Good At The Video Game?","steam_id":76561198046053281,"connected_time":10275000000000,"state":"active","ping":73},{"user_id":500,"name":"Dullahan","steam_id":76561198119668908,"connected_time":31000000000,"state":"active","ping":106},{"user_id":452,"name":"be","steam_id":76561198000824533,"connected_time":2014000000000,"state":"active","ping":103},{"user_id":486,"name":"Jousty","steam_id":76561199162677853,"connected_time":379000000000,"state":"active","ping":97}]},{"server_id":403,"name":"Uncletopia | Chicago | 4 | All Maps","name_short":"chi-4","host":"chi-1.us.uncletopia.com","port":27045,"enabled":true,"region":"us-central","cc":"us","latitude":41.881832,"longitude":-87.62318,"reserved":0,"last_update":"0001-01-01T00:00:00Z","name_a2s":"Uncletopia | Chicago | 4 | All Maps","protocol":17,"map":"cp_sunshine","folder":"tf","game":"Team Fortress","app_id":440,"player_count":23,"max_players":24,"Bots":0,"server_type":"Dedicated","server_os":"Linux","password":true,"vac":true,"version":"7961495","steam_id":85568392924515193,"keywords":["cp","nocrits","nodmgspread","uncletopia"],"game_id":440,"stv_port":27046,"stv_name":"Uncletopia | Chicago | 4 | All Maps | STV","players":[{"user_id":659,"name":"infinite","steam_id":76561198150060517,"connected_time":1074000000000,"state":"active","ping":47},{"user_id":654,"name":"Bap","steam_id":76561198056717319,"connected_time":1319000000000,"state":"active","ping":57},{"user_id":567,"name":"Chanter","steam_id":76561198246701796,"connected_time":6731000000000,"state":"active","ping":88},{"user_id":658,"name":"Sinister Sandwich","steam_id":76561198142327400,"connected_time":1167000000000,"state":"active","ping":57},{"user_id":666,"name":"Ceige","steam_id":76561198068538473,"connected_time":789000000000,"state":"active","ping":80},{"user_id":673,"name":"Pigzilla","steam_id":76561198373968267,"connected_time":110000000000,"state":"active","ping":54},{"user_id":674,"name":"aurro","steam_id":76561198315692300,"connected_time":66000000000,"state":"active","ping":49},{"user_id":640,"name":"MacawAbalone","steam_id":76561198015127948,"connected_time":1937000000000,"state":"active","ping":50},{"user_id":670,"name":"Tick","steam_id":76561198184161214,"connected_time":730000000000,"state":"active","ping":45},{"user_id":675,"name":"mozzie","steam_id":76561198871173972,"connected_time":25000000000,"state":"active","ping":60},{"user_id":668,"name":"Medici","steam_id":76561198310130481,"connected_time":762000000000,"state":"active","ping":63},{"user_id":643,"name":"Gunkzilla","steam_id":76561198068228415,"connected_time":1752000000000,"state":"active","ping":61},{"user_id":676,"name":"Lucy Lou!","steam_id":76561198078209088,"connected_time":9000000000,"state":"active","ping":67},{"user_id":646,"name":"rude boi","steam_id":76561198006783260,"connected_time":1637000000000,"state":"active","ping":61},{"user_id":671,"name":"2414490 GIF H190 gastroscope","steam_id":76561198079606144,"connected_time":254000000000,"state":"active","ping":44},{"user_id":647,"name":"kaputon","steam_id":76561198146299782,"connected_time":1580000000000,"state":"active","ping":60},{"user_id":641,"name":"Olitude","steam_id":76561199238964574,"connected_time":1795000000000,"state":"active","ping":65},{"user_id":677,"name":"CerealLover8","steam_id":76561199127196546,"connected_time":9000000000,"state":"spawning","ping":85},{"user_id":650,"name":"otwtomarsoffdabars(spacecore)","steam_id":76561199085974120,"connected_time":1554000000000,"state":"active","ping":70},{"user_id":672,"name":"Fluffeline","steam_id":76561198352909489,"connected_time":196000000000,"state":"active","ping":143},{"user_id":655,"name":"Dr Oshawott","steam_id":76561198042021629,"connected_time":1280000000000,"state":"active","ping":64},{"user_id":669,"name":"nice","steam_id":76561199102883421,"connected_time":755000000000,"state":"active","ping":91},{"user_id":632,"name":"Shrebbie","steam_id":76561198875230824,"connected_time":3511000000000,"state":"active","ping":58}]},{"server_id":36,"name":"Uncletopia | Chicago | 5 | All Maps","name_short":"chi-5","host":"chi-2.us.uncletopia.com","port":27015,"enabled":true,"region":"us-central","cc":"us","latitude":41.881832,"longitude":-87.62318,"reserved":0,"last_update":"0001-01-01T00:00:00Z","name_a2s":"Uncletopia | Chicago | 5 | All Maps","protocol":17,"map":"pl_thundermountain","folder":"tf","game":"Team Fortress","app_id":440,"player_count":24,"max_players":24,"Bots":0,"server_type":"Dedicated","server_os":"Linux","password":true,"vac":true,"version":"7961495","steam_id":85568392924866362,"keywords":["nocrits","nodmgspread","payload","uncletopia"],"game_id":440,"stv_port":27016,"stv_name":"Uncletopia | Chicago | 5 | All Maps | STV","players":[{"user_id":588,"name":"Orb","steam_id":76561198353963523,"connected_time":3028000000000,"state":"active","ping":86},{"user_id":627,"name":"craccmoney_1way","steam_id":76561198121871878,"connected_time":393000000000,"state":"active","ping":74},{"user_id":619,"name":"Bonk! fiend","steam_id":76561199498088524,"connected_time":1145000000000,"state":"active","ping":115},{"user_id":592,"name":"Benfeller","steam_id":76561198364285698,"connected_time":2452000000000,"state":"active","ping":63},{"user_id":623,"name":"papa","steam_id":76561198109308860,"connected_time":441000000000,"state":"active","ping":60},{"user_id":544,"name":"lalalemons","steam_id":76561198243965308,"connected_time":6009000000000,"state":"active","ping":94},{"user_id":618,"name":"TGD","steam_id":76561198197582594,"connected_time":1377000000000,"state":"active","ping":50},{"user_id":502,"name":"The strongest ⑨ ball","steam_id":76561198126760743,"connected_time":8528000000000,"state":"active","ping":75},{"user_id":435,"name":"Uwu Micster","steam_id":76561198843890616,"connected_time":11958000000000,"state":"active","ping":88},{"user_id":609,"name":"Mario","steam_id":76561198321794277,"connected_time":1790000000000,"state":"active","ping":65},{"user_id":575,"name":"the real big sips","steam_id":76561197999945358,"connected_time":3993000000000,"state":"active","ping":69},{"user_id":598,"name":"HoneyBadger","steam_id":76561198129202829,"connected_time":2243000000000,"state":"active","ping":86},{"user_id":589,"name":"LordOfTheNoobs","steam_id":76561197962697523,"connected_time":2769000000000,"state":"active","ping":65},{"user_id":572,"name":"butterthoughts","steam_id":76561198025120284,"connected_time":4016000000000,"state":"active","ping":84},{"user_id":565,"name":"Captain 'Murica","steam_id":76561198032659712,"connected_time":4797000000000,"state":"active","ping":82},{"user_id":624,"name":"Hale's BONK! Enthusiast","steam_id":76561198398918486,"connected_time":440000000000,"state":"active","ping":61},{"user_id":578,"name":"voltageG","steam_id":76561198107165710,"connected_time":3899000000000,"state":"active","ping":86},{"user_id":545,"name":"summer time has come for frosty","steam_id":76561198830243167,"connected_time":6005000000000,"state":"active","ping":71},{"user_id":617,"name":"Jelqing Table","steam_id":76561198051373750,"connected_time":1520000000000,"state":"active","ping":72},{"user_id":625,"name":"shadow wizard money gang","steam_id":76561198067487745,"connected_time":432000000000,"state":"active","ping":61},{"user_id":602,"name":"-_-","steam_id":76561198302976864,"connected_time":2195000000000,"state":"active","ping":87},{"user_id":603,"name":"KnightOfGames","steam_id":76561198080460659,"connected_time":2194000000000,"state":"active","ping":85},{"user_id":629,"name":"The Caretaker","steam_id":76561198125241411,"connected_time":360000000000,"state":"active","ping":105}]},{"server_id":37,"name":"Uncletopia | Chicago | 6 | All Maps","name_short":"chi-6","host":"chi-2.us.uncletopia.com","port":27025,"enabled":true,"region":"us-central","cc":"us","latitude":41.881832,"longitude":-87.62318,"reserved":0,"last_update":"0001-01-01T00:00:00Z","name_a2s":"Uncletopia | Chicago | 6 | All Maps","protocol":17,"map":"pl_upward","folder":"tf","game":"Team Fortress","app_id":440,"player_count":24,"max_players":24,"Bots":0,"server_type":"Dedicated","server_os":"Linux","password":true,"vac":true,"version":"7961495","steam_id":85568392924866363,"keywords":["nocrits","nodmgspread","payload","uncletopia"],"game_id":440,"stv_port":27026,"stv_name":"Uncletopia | Chicago | 6 | All Maps | STV","players":[{"user_id":281,"name":"don tomas","steam_id":76561199050423086,"connected_time":466000000000,"state":"active","ping":126},{"user_id":162,"name":"xxxsinpadres","steam_id":76561198366873419,"connected_time":8370000000000,"state":"active","ping":60},{"user_id":257,"name":"kwrzrguy445","steam_id":76561198137124492,"connected_time":1372000000000,"state":"active","ping":58},{"user_id":183,"name":"minecraft_2.0","steam_id":76561198391819120,"connected_time":7085000000000,"state":"active","ping":95},{"user_id":216,"name":"Koffy","steam_id":76561198184386039,"connected_time":5748000000000,"state":"active","ping":93},{"user_id":276,"name":"StudioMania (#SAVETF2)","steam_id":76561198211315795,"connected_time":726000000000,"state":"active","ping":74},{"user_id":240,"name":"Soy King","steam_id":76561198263025614,"connected_time":2944000000000,"state":"active","ping":97},{"user_id":280,"name":"indi","steam_id":76561198045917538,"connected_time":680000000000,"state":"active","ping":57},{"user_id":284,"name":"Prsm","steam_id":76561198053344995,"connected_time":210000000000,"state":"active","ping":59},{"user_id":237,"name":"Drinker of Water","steam_id":76561198284647525,"connected_time":3588000000000,"state":"active","ping":79},{"user_id":261,"name":"Scita","steam_id":76561198066861559,"connected_time":1245000000000,"state":"active","ping":71},{"user_id":285,"name":"devorameeltrozo","steam_id":76561199153217772,"connected_time":13000000000,"state":"spawning","ping":111},{"user_id":217,"name":"Titar Industries","steam_id":76561198143078476,"connected_time":5717000000000,"state":"active","ping":60},{"user_id":98,"name":"Nae Nae no Whip","steam_id":76561198138365728,"connected_time":12926000000000,"state":"active","ping":48},{"user_id":272,"name":"Rusty","steam_id":76561198055585129,"connected_time":1018000000000,"state":"active","ping":87},{"user_id":282,"name":"gyozaking","steam_id":76561197972312696,"connected_time":449000000000,"state":"active","ping":37},{"user_id":278,"name":"Arrythmia","steam_id":76561198093748123,"connected_time":709000000000,"state":"active","ping":103},{"user_id":255,"name":"Vind Gnyr","steam_id":76561198042641211,"connected_time":1887000000000,"state":"active","ping":80},{"user_id":279,"name":"Fattened Dessert","steam_id":76561198351008375,"connected_time":708000000000,"state":"active","ping":49},{"user_id":269,"name":"for the king","steam_id":76561197973488858,"connected_time":1121000000000,"state":"active","ping":66},{"user_id":252,"name":"Wendy's Brand Trash","steam_id":76561198328346670,"connected_time":2397000000000,"state":"active","ping":40},{"user_id":254,"name":"inshallah","steam_id":76561198165212575,"connected_time":2302000000000,"state":"active","ping":63},{"user_id":271,"name":"• Fran •","steam_id":76561198119724479,"connected_time":1095000000000,"state":"active","ping":83},{"user_id":274,"name":"Henry Ota-Clay","steam_id":76561198053232470,"connected_time":926000000000,"state":"active","ping":58}]},{"server_id":38,"name":"Uncletopia | Chicago | 7 | Stopwatch","name_short":"chi-7","host":"chi-2.us.uncletopia.com","port":27035,"enabled":true,"region":"us-central","cc":"us","latitude":41.881832,"longitude":-87.62318,"reserved":0,"last_update":"0001-01-01T00:00:00Z","name_a2s":"Uncletopia | Chicago | 7 | Stopwatch","protocol":17,"map":"workshop/koth_product_final.ugc454272353","folder":"tf","game":"Team Fortress","app_id":440,"player_count":14,"max_players":24,"Bots":0,"server_type":"Dedicated","server_os":"Linux","password":true,"vac":true,"version":"7961495","steam_id":85568392924866364,"keywords":["cp","nocrits","nodmgspread","uncletopia"],"game_id":440,"stv_port":27036,"stv_name":"Uncletopia | Chicago | 7 | Stopwatch | STV","players":[{"user_id":30,"name":"Kobbert","steam_id":76561198045040833,"connected_time":1986000000000,"state":"active","ping":45},{"user_id":31,"name":"FELONIOUS MONK","steam_id":76561198201872929,"connected_time":1977000000000,"state":"active","ping":59},{"user_id":32,"name":"CreateADebate","steam_id":76561198115760035,"connected_time":1967000000000,"state":"active","ping":61},{"user_id":33,"name":"Sex Midfielder","steam_id":76561198048918192,"connected_time":1586000000000,"state":"active","ping":60},{"user_id":37,"name":"Dom","steam_id":76561198156431338,"connected_time":899000000000,"state":"active","ping":49},{"user_id":56,"name":"MokaVoxx","steam_id":76561199039276352,"connected_time":329000000000,"state":"active","ping":90},{"user_id":55,"name":"FreeMovies4KHD","steam_id":76561198098026410,"connected_time":408000000000,"state":"active","ping":144},{"user_id":41,"name":"deathgaming69","steam_id":76561198452547649,"connected_time":795000000000,"state":"active","ping":55},{"user_id":43,"name":"ÐCA","steam_id":76561198094812531,"connected_time":751000000000,"state":"active","ping":75},{"user_id":52,"name":"Drade","steam_id":76561198394605337,"connected_time":444000000000,"state":"active","ping":74},{"user_id":54,"name":"Natsuki the Scunt","steam_id":76561199175922684,"connected_time":430000000000,"state":"active","ping":98},{"user_id":47,"name":"CloakedGreen","steam_id":76561198353123858,"connected_time":624000000000,"state":"active","ping":80},{"user_id":50,"name":"KoolGuy","steam_id":76561199161896568,"connected_time":510000000000,"state":"active","ping":86},{"user_id":60,"name":"SoWhich","steam_id":76561198237125842,"connected_time":208000000000,"state":"active","ping":46}]},{"server_id":39,"name":"Uncletopia | Chicago | 8 | Community","name_short":"chi-8","host":"chi-2.us.uncletopia.com","port":27045,"enabled":true,"region":"us-central","cc":"us","latitude":41.881832,"longitude":-87.62318,"reserved":0,"last_update":"0001-01-01T00:00:00Z","name_a2s":"Uncletopia | Chicago | 8 | Community","protocol":17,"map":"workshop/koth_slaughter_rc1.ugc1712845210","folder":"tf","game":"Team Fortress","app_id":440,"player_count":0,"max_players":24,"Bots":0,"server_type":"Dedicated","server_os":"Linux","password":true,"vac":true,"version":"7961495","steam_id":85568392924866365,"keywords":["cp","nocrits","nodmgspread","uncletopia"],"game_id":440,"stv_port":27046,"stv_name":"Uncletopia | Chicago | 8 | Community | STV","players":null},{"server_id":8,"name":"Uncletopia | Dallas | 1 | All Maps","name_short":"dal-1","host":"dal-1.us.uncletopia.com","port":27015,"enabled":true,"region":"us-central","cc":"us","latitude":32.779167,"longitude":-96.80889,"reserved":0,"last_update":"0001-01-01T00:00:00Z","name_a2s":"Uncletopia | Dallas | 1 | All Maps","protocol":17,"map":"pl_hoodoo_final","folder":"tf","game":"Team Fortress","app_id":440,"player_count":24,"max_players":24,"Bots":0,"server_type":"Dedicated","server_os":"Linux","password":true,"vac":true,"version":"7961495","steam_id":85568392924469986,"keywords":["nocrits","nodmgspread","payload","uncletopia"],"game_id":440,"stv_port":27016,"stv_name":"Uncletopia | Dallas | 1 | All Maps | STV","players":[{"user_id":594,"name":"Wooden E","steam_id":76561198020308956,"connected_time":1446000000000,"state":"active","ping":61},{"user_id":606,"name":"The Sydney Sleeper Itself","steam_id":76561198180251763,"connected_time":908000000000,"state":"active","ping":53},{"user_id":571,"name":"ATLS1 | Strange Festive","steam_id":76561198050385093,"connected_time":4306000000000,"state":"active","ping":90},{"user_id":610,"name":"Familia Jewels","steam_id":76561198144627795,"connected_time":444000000000,"state":"active","ping":67},{"user_id":609,"name":"pab","steam_id":76561198156915999,"connected_time":773000000000,"state":"active","ping":65},{"user_id":611,"name":"Rat Cycle","steam_id":76561198113364714,"connected_time":443000000000,"state":"active","ping":76},{"user_id":601,"name":"com lag","steam_id":76561198019019392,"connected_time":1100000000000,"state":"active","ping":47},{"user_id":607,"name":"Grimace D. Drippings","steam_id":76561198050849790,"connected_time":887000000000,"state":"active","ping":108},{"user_id":600,"name":"Robogineer","steam_id":76561198026994739,"connected_time":1192000000000,"state":"active","ping":107},{"user_id":547,"name":"C Papi","steam_id":76561198027779564,"connected_time":6443000000000,"state":"active","ping":61},{"user_id":604,"name":"frank","steam_id":76561198137777483,"connected_time":1036000000000,"state":"active","ping":90},{"user_id":605,"name":"dairy","steam_id":76561198047270339,"connected_time":1026000000000,"state":"active","ping":118},{"user_id":532,"name":"daemon","steam_id":76561198001541433,"connected_time":7025000000000,"state":"active","ping":90},{"user_id":587,"name":"Andrew's Taint","steam_id":76561198131400543,"connected_time":2187000000000,"state":"active","ping":72},{"user_id":586,"name":"FanaticSalt","steam_id":76561199380123059,"connected_time":2374000000000,"state":"active","ping":51},{"user_id":590,"name":"talented","steam_id":76561198800259660,"connected_time":1907000000000,"state":"active","ping":72},{"user_id":573,"name":"iluvtoust","steam_id":76561198869269207,"connected_time":4075000000000,"state":"active","ping":57},{"user_id":593,"name":"Shmoopy","steam_id":76561198030459152,"connected_time":1612000000000,"state":"active","ping":89},{"user_id":464,"name":"Zero [Birthday Bitch]","steam_id":76561198033384990,"connected_time":10283000000000,"state":"active","ping":82},{"user_id":575,"name":"transfem atsuko kagari","steam_id":76561198217402847,"connected_time":3314000000000,"state":"active","ping":92},{"user_id":612,"name":"VladdyDaddy","steam_id":76561198836759222,"connected_time":402000000000,"state":"active","ping":68},{"user_id":608,"name":"think before you believe","steam_id":76561198857358730,"connected_time":856000000000,"state":"active","ping":84},{"user_id":576,"name":"lover is my jean billie not","steam_id":76561198054070811,"connected_time":3314000000000,"state":"active","ping":76},{"user_id":492,"name":"dilfbot","steam_id":76561198099988165,"connected_time":9327000000000,"state":"active","ping":72}]},{"server_id":108,"name":"Uncletopia | Dallas | 2 | All Maps","name_short":"dal-2","host":"dal-1.us.uncletopia.com","port":27025,"enabled":true,"region":"us-central","cc":"us","latitude":32.779167,"longitude":-96.80889,"reserved":0,"last_update":"0001-01-01T00:00:00Z","name_a2s":"Uncletopia | Dallas | 2 | All Maps","protocol":17,"map":"pl_upward","folder":"tf","game":"Team Fortress","app_id":440,"player_count":24,"max_players":24,"Bots":0,"server_type":"Dedicated","server_os":"Linux","password":true,"vac":true,"version":"7961495","steam_id":85568392924469988,"keywords":["nocrits","nodmgspread","payload","uncletopia"],"game_id":440,"stv_port":27026,"stv_name":"Uncletopia | Dallas | 2 | All Maps | STV","players":[{"user_id":664,"name":"AverageRundownJoe","steam_id":76561198059359620,"connected_time":1460000000000,"state":"active","ping":91},{"user_id":680,"name":"Alfei","steam_id":76561198331938688,"connected_time":885000000000,"state":"active","ping":92},{"user_id":650,"name":"trainmarine -bt","steam_id":76561198341784551,"connected_time":2165000000000,"state":"active","ping":53},{"user_id":672,"name":"kelvindavid121","steam_id":76561199010489413,"connected_time":1100000000000,"state":"active","ping":111},{"user_id":668,"name":"Junowo","steam_id":76561199136179696,"connected_time":1162000000000,"state":"active","ping":73},{"user_id":688,"name":"Pvt. Dimitri Petrenko","steam_id":76561198078040091,"connected_time":404000000000,"state":"active","ping":56},{"user_id":669,"name":"some furry","steam_id":76561198038247674,"connected_time":1151000000000,"state":"active","ping":44},{"user_id":649,"name":"Crλf227","steam_id":76561198196211121,"connected_time":2379000000000,"state":"active","ping":68},{"user_id":670,"name":"omar","steam_id":76561198240028484,"connected_time":1127000000000,"state":"active","ping":77},{"user_id":689,"name":"may i please have a water","steam_id":76561198119536224,"connected_time":280000000000,"state":"active","ping":81},{"user_id":665,"name":"floofy","steam_id":76561198389769098,"connected_time":1341000000000,"state":"active","ping":97},{"user_id":690,"name":"Thank you Mr. Sun","steam_id":76561197998434936,"connected_time":231000000000,"state":"active","ping":74},{"user_id":695,"name":"Betty La Bomba","steam_id":76561198089649422,"connected_time":174000000000,"state":"active","ping":75},{"user_id":691,"name":"Fatticus Finch","steam_id":76561198027052378,"connected_time":224000000000,"state":"active","ping":80},{"user_id":674,"name":"SneakySneak","steam_id":76561198064847921,"connected_time":976000000000,"state":"active","ping":66},{"user_id":692,"name":"lowtierface","steam_id":76561198035629877,"connected_time":220000000000,"state":"active","ping":60},{"user_id":683,"name":"CALL OF DUTY BLACKOPPS","steam_id":76561198262422184,"connected_time":747000000000,"state":"active","ping":55},{"user_id":676,"name":"Cthulhu's Malewife","steam_id":76561198085888959,"connected_time":965000000000,"state":"active","ping":63},{"user_id":693,"name":"Sheev Palpatine","steam_id":76561198252332430,"connected_time":214000000000,"state":"active","ping":106},{"user_id":663,"name":"Valenhart","steam_id":76561198354036240,"connected_time":1651000000000,"state":"active","ping":79},{"user_id":694,"name":"American freedom bird","steam_id":76561198366142388,"connected_time":209000000000,"state":"active","ping":87},{"user_id":677,"name":"Toa of Time","steam_id":76561198086867556,"connected_time":964000000000,"state":"active","ping":76},{"user_id":678,"name":"Chacenator","steam_id":76561198301354575,"connected_time":911000000000,"state":"active","ping":98},{"user_id":679,"name":"mrselfdestruct13","steam_id":76561197992054553,"connected_time":909000000000,"state":"active","ping":98}]},{"server_id":404,"name":"Uncletopia | Dallas | 3 | All Maps","name_short":"dal-3","host":"dal-1.us.uncletopia.com","port":27035,"enabled":true,"region":"us-central","cc":"us","latitude":32.779167,"longitude":-96.80889,"reserved":0,"last_update":"0001-01-01T00:00:00Z","name_a2s":"Uncletopia | Dallas | 3 | All Maps","protocol":17,"map":"pl_pier","folder":"tf","game":"Team Fortress","app_id":440,"player_count":24,"max_players":24,"Bots":0,"server_type":"Dedicated","server_os":"Linux","password":true,"vac":true,"version":"7961495","steam_id":85568392924515219,"keywords":["nocrits","nodmgspread","payload","uncletopia"],"game_id":440,"stv_port":27036,"stv_name":"Uncletopia | Dallas | 3 | All Maps | STV","players":[{"user_id":713,"name":"FUSION","steam_id":76561197972659738,"connected_time":373000000000,"state":"active","ping":75},{"user_id":592,"name":"GLG.Liz","steam_id":76561198021957956,"connected_time":6029000000000,"state":"active","ping":51},{"user_id":593,"name":"Xanadu","steam_id":76561198025245508,"connected_time":6022000000000,"state":"active","ping":76},{"user_id":595,"name":"Kepa","steam_id":76561198091975728,"connected_time":5748000000000,"state":"active","ping":79},{"user_id":624,"name":"butt3r_","steam_id":76561198156374792,"connected_time":4516000000000,"state":"active","ping":91},{"user_id":688,"name":"quake 3 stan","steam_id":76561197968290902,"connected_time":2885000000000,"state":"active","ping":102},{"user_id":700,"name":"Dongus","steam_id":76561197979056451,"connected_time":1499000000000,"state":"active","ping":96},{"user_id":618,"name":"SDK619","steam_id":76561198066699570,"connected_time":5184000000000,"state":"active","ping":66},{"user_id":619,"name":"BurritoCat","steam_id":76561198059822805,"connected_time":5159000000000,"state":"active","ping":90},{"user_id":602,"name":"Trundlini","steam_id":76561198810160534,"connected_time":5531000000000,"state":"active","ping":105},{"user_id":603,"name":"❤ Ashleyyy ❤","steam_id":76561198056428303,"connected_time":5492000000000,"state":"active","ping":76},{"user_id":621,"name":"REspecWizard","steam_id":76561198097950624,"connected_time":4967000000000,"state":"active","ping":85},{"user_id":605,"name":"self sufficient kitten ♥","steam_id":76561197960592612,"connected_time":5468000000000,"state":"active","ping":103},{"user_id":707,"name":"Joe Biden","steam_id":76561198238699798,"connected_time":1107000000000,"state":"active","ping":90},{"user_id":712,"name":"yourlocalforecast","steam_id":76561198042243083,"connected_time":880000000000,"state":"active","ping":80},{"user_id":715,"name":"Skab E²","steam_id":76561199126112357,"connected_time":342000000000,"state":"active","ping":79},{"user_id":706,"name":"Maulfik","steam_id":76561198203277553,"connected_time":1230000000000,"state":"active","ping":70},{"user_id":709,"name":"Fordring","steam_id":76561198141998973,"connected_time":1076000000000,"state":"active","ping":90},{"user_id":710,"name":"Snitzman","steam_id":76561198068303272,"connected_time":1064000000000,"state":"active","ping":65},{"user_id":705,"name":"Chip","steam_id":76561198182205245,"connected_time":1259000000000,"state":"active","ping":85},{"user_id":689,"name":"VixianUwU","steam_id":76561198948815060,"connected_time":2181000000000,"state":"active","ping":68},{"user_id":703,"name":"paws :3","steam_id":76561199371694361,"connected_time":1386000000000,"state":"active","ping":91},{"user_id":694,"name":"Your Dinosaurs","steam_id":76561198392670237,"connected_time":2142000000000,"state":"active","ping":92},{"user_id":695,"name":"the one who knocks","steam_id":76561198373946121,"connected_time":2138000000000,"state":"active","ping":96}]},{"server_id":405,"name":"Uncletopia | Dallas | 4 | Community","name_short":"dal-4","host":"dal-1.us.uncletopia.com","port":27045,"enabled":true,"region":"us-central","cc":"us","latitude":32.779167,"longitude":-96.80889,"reserved":0,"last_update":"0001-01-01T00:00:00Z","name_a2s":"Uncletopia | Dallas | 4 | Community","protocol":17,"map":"workshop/cp_hazyfort_rc6.ugc1365963729","folder":"tf","game":"Team Fortress","app_id":440,"player_count":0,"max_players":24,"Bots":0,"server_type":"Dedicated","server_os":"Linux","password":true,"vac":true,"version":"7961495","steam_id":85568392924515220,"keywords":["cp","nocrits","nodmgspread","uncletopia"],"game_id":440,"stv_port":27046,"stv_name":"Uncletopia | Dallas | 4 | Community | STV","players":null},{"server_id":5,"name":"Uncletopia | Frankfurt | 1 | All Maps","name_short":"frk-1","host":"frk-1.de.uncletopia.com","port":27015,"enabled":true,"region":"eu","cc":"de","latitude":50.110924,"longitude":8.682127,"reserved":0,"last_update":"0001-01-01T00:00:00Z","name_a2s":"Uncletopia | Frankfurt | 1 | All Maps","protocol":17,"map":"cp_snakewater_final1","folder":"tf","game":"Team Fortress","app_id":440,"player_count":0,"max_players":24,"Bots":0,"server_type":"Dedicated","server_os":"Linux","password":true,"vac":true,"version":"7961495","steam_id":85568392924469989,"keywords":["cp","nocrits","nodmgspread","uncletopia"],"game_id":440,"stv_port":27016,"stv_name":"Uncletopia | Frankfurt | 1 | All Maps | STV","players":null},{"server_id":110,"name":"Uncletopia | Frankfurt | 2 | All Maps","name_short":"frk-2","host":"frk-1.de.uncletopia.com","port":27025,"enabled":true,"region":"eu","cc":"de","latitude":50.110924,"longitude":8.682127,"reserved":0,"last_update":"0001-01-01T00:00:00Z","name_a2s":"Uncletopia | Frankfurt | 2 | All Maps","protocol":17,"map":"pl_borneo","folder":"tf","game":"Team Fortress","app_id":440,"player_count":0,"max_players":24,"Bots":0,"server_type":"Dedicated","server_os":"Linux","password":true,"vac":true,"version":"7961495","steam_id":85568392924469990,"keywords":["nocrits","nodmgspread","payload","uncletopia"],"game_id":440,"stv_port":27026,"stv_name":"Uncletopia | Frankfurt | 2 | All Maps | STV","players":null},{"server_id":308,"name":"Uncletopia | Frankfurt | 3 | All Maps","name_short":"frk-3","host":"frk-1.de.uncletopia.com","port":27035,"enabled":true,"region":"eu","cc":"de","latitude":50.110924,"longitude":8.682127,"reserved":0,"last_update":"0001-01-01T00:00:00Z","name_a2s":"Uncletopia | Frankfurt | 3 | All Maps","protocol":17,"map":"cp_gorge","folder":"tf","game":"Team Fortress","app_id":440,"player_count":0,"max_players":24,"Bots":0,"server_type":"Dedicated","server_os":"Linux","password":true,"vac":true,"version":"7961495","steam_id":85568392924504274,"keywords":["cp","nocrits","nodmgspread","uncletopia"],"game_id":440,"stv_port":27036,"stv_name":"Uncletopia | Frankfurt | 3 | All Maps | STV","players":null},{"server_id":309,"name":"Uncletopia | Frankfurt | 4 | All Maps","name_short":"frk-4","host":"frk-1.de.uncletopia.com","port":27045,"enabled":true,"region":"eu","cc":"de","latitude":50.110924,"longitude":8.682127,"reserved":0,"last_update":"0001-01-01T00:00:00Z","name_a2s":"Uncletopia | Frankfurt | 4 | All Maps","protocol":17,"map":"pl_snowycoast","folder":"tf","game":"Team Fortress","app_id":440,"player_count":0,"max_players":24,"Bots":0,"server_type":"Dedicated","server_os":"Linux","password":true,"vac":true,"version":"7961495","steam_id":85568392924504275,"keywords":["nocrits","nodmgspread","payload","uncletopia"],"game_id":440,"stv_port":27046,"stv_name":"Uncletopia | Frankfurt | 4 | All Maps | STV","players":null},{"server_id":310,"name":"Uncletopia | Frankfurt | 5 | All Maps","name_short":"frk-5","host":"frk-1.de.uncletopia.com","port":27055,"enabled":true,"region":"eu","cc":"de","latitude":50.110924,"longitude":8.682127,"reserved":0,"last_update":"0001-01-01T00:00:00Z","name_a2s":"Uncletopia | Frankfurt | 5 | All Maps","protocol":17,"map":"koth_cascade","folder":"tf","game":"Team Fortress","app_id":440,"player_count":1,"max_players":24,"Bots":0,"server_type":"Dedicated","server_os":"Linux","password":true,"vac":true,"version":"7961495","steam_id":85568392924504277,"keywords":["cp","nocrits","nodmgspread","uncletopia"],"game_id":440,"stv_port":27056,"stv_name":"Uncletopia | Frankfurt | 5 | All Maps | STV","players":[{"user_id":679,"name":"Uncle Frank ᗜˬᗜ","steam_id":76561199096268427,"connected_time":1984000000000,"state":"active","ping":138}]},{"server_id":311,"name":"Uncletopia | Frankfurt | 6 | All Maps","name_short":"frk-6","host":"frk-1.de.uncletopia.com","port":27065,"enabled":true,"region":"eu","cc":"de","latitude":50.110924,"longitude":8.682127,"reserved":0,"last_update":"0001-01-01T00:00:00Z","name_a2s":"Uncletopia | Frankfurt | 6 | All Maps","protocol":17,"map":"pl_upward","folder":"tf","game":"Team Fortress","app_id":440,"player_count":0,"max_players":24,"Bots":0,"server_type":"Dedicated","server_os":"Linux","password":true,"vac":true,"version":"7961495","steam_id":85568392924504278,"keywords":["nocrits","nodmgspread","payload","uncletopia"],"game_id":440,"stv_port":27066,"stv_name":"Uncletopia | Frankfurt | 6 | All Maps | STV","players":null},{"server_id":23,"name":"Uncletopia | Frankfurt | 7 | Stopwatch","name_short":"frk-7","host":"frk-1.de.uncletopia.com","port":27075,"enabled":true,"region":"eu","cc":"de","latitude":50.110924,"longitude":8.682127,"reserved":0,"last_update":"0001-01-01T00:00:00Z","name_a2s":"Uncletopia | Frankfurt | 7 | Stopwatch","protocol":17,"map":"workshop/koth_bagel_rc6.ugc2514036946","folder":"tf","game":"Team Fortress","app_id":440,"player_count":0,"max_players":24,"Bots":0,"server_type":"Dedicated","server_os":"Linux","password":true,"vac":true,"version":"7961495","steam_id":85568392924742827,"keywords":["cp","nocrits","nodmgspread","uncletopia"],"game_id":440,"stv_port":27076,"stv_name":"Uncletopia | Frankfurt | 7 | Stopwatch | STV","players":null},{"server_id":24,"name":"Uncletopia | Frankfurt | 8 | Community","name_short":"frk-8","host":"frk-1.de.uncletopia.com","port":27085,"enabled":true,"region":"eu","cc":"de","latitude":50.110924,"longitude":8.682127,"reserved":0,"last_update":"0001-01-01T00:00:00Z","name_a2s":"Uncletopia | Frankfurt | 8 | Community","protocol":17,"map":"workshop/rd_asteroid_redux_b1.ugc2154902912","folder":"tf","game":"Team Fortress","app_id":440,"player_count":0,"max_players":24,"Bots":0,"server_type":"Dedicated","server_os":"Linux","password":true,"vac":true,"version":"7961495","steam_id":85568392924742828,"keywords":["beta","nocrits","nodmgspread","rd","uncletopia"],"game_id":440,"stv_port":27086,"stv_name":"Uncletopia | Frankfurt | 8 | Community | STV","players":null},{"server_id":202,"name":"Uncletopia | Hong Kong | 1 | All Maps","name_short":"hgk-1","host":"hgk-1.hk.uncletopia.com","port":27015,"enabled":true,"region":"asia","cc":"hk","latitude":22.302711,"longitude":114.177216,"reserved":0,"last_update":"0001-01-01T00:00:00Z","name_a2s":"Uncletopia | Hong Kong | 1 | All Maps","protocol":17,"map":"cp_process_final","folder":"tf","game":"Team Fortress","app_id":440,"player_count":23,"max_players":24,"Bots":0,"server_type":"Dedicated","server_os":"Linux","password":true,"vac":true,"version":"7961495","steam_id":85568392924494504,"keywords":["cp","nocrits","nodmgspread","uncletopia"],"game_id":440,"stv_port":27016,"stv_name":"Uncletopia | Hong Kong | 1 | All Maps | STV","players":[{"user_id":19,"name":"Corbezy","steam_id":76561197993398349,"connected_time":5644000000000,"state":"active","ping":91},{"user_id":69,"name":"Gefin","steam_id":76561198944317181,"connected_time":1181000000000,"state":"active","ping":75},{"user_id":57,"name":"qingque","steam_id":76561198230213828,"connected_time":1993000000000,"state":"active","ping":59},{"user_id":71,"name":"cheese5451212","steam_id":76561199146131556,"connected_time":1159000000000,"state":"active","ping":126},{"user_id":42,"name":"Duckzilla","steam_id":76561199223984880,"connected_time":2539000000000,"state":"active","ping":66},{"user_id":43,"name":"beepis","steam_id":76561198965473654,"connected_time":2532000000000,"state":"active","ping":75},{"user_id":59,"name":"14","steam_id":76561198113401862,"connected_time":1883000000000,"state":"active","ping":88},{"user_id":72,"name":"\"SKS\"","steam_id":76561198187995386,"connected_time":1144000000000,"state":"active","ping":84},{"user_id":36,"name":"Aim and Ignite","steam_id":76561198097721707,"connected_time":2882000000000,"state":"active","ping":44},{"user_id":77,"name":"Vesha","steam_id":76561199208233146,"connected_time":843000000000,"state":"active","ping":89},{"user_id":73,"name":"kazaba","steam_id":76561199052251739,"connected_time":1051000000000,"state":"active","ping":112},{"user_id":60,"name":"Juan.","steam_id":76561199017347636,"connected_time":1821000000000,"state":"active","ping":45},{"user_id":74,"name":"moonstar88","steam_id":76561198286261614,"connected_time":1027000000000,"state":"active","ping":87},{"user_id":83,"name":"skyboy0123456","steam_id":76561199087810614,"connected_time":518000000000,"state":"active","ping":90},{"user_id":49,"name":"xd45_","steam_id":76561198410772507,"connected_time":2149000000000,"state":"active","ping":96},{"user_id":75,"name":"Sover blw.tf","steam_id":76561198136347837,"connected_time":951000000000,"state":"active","ping":84},{"user_id":51,"name":"Corn_Archer","steam_id":76561199185044554,"connected_time":2132000000000,"state":"active","ping":65},{"user_id":63,"name":"spinach (old mouse)","steam_id":76561198042539541,"connected_time":1456000000000,"state":"active","ping":81},{"user_id":67,"name":"Male Detected!","steam_id":76561199082459598,"connected_time":1331000000000,"state":"active","ping":85},{"user_id":80,"name":"Lady D.","steam_id":76561199225360457,"connected_time":743000000000,"state":"active","ping":73},{"user_id":84,"name":"yoda BOOL","steam_id":76561199099477033,"connected_time":472000000000,"state":"active","ping":77},{"user_id":82,"name":"Dits","steam_id":76561198283833960,"connected_time":579000000000,"state":"active","ping":39},{"user_id":85,"name":"WhyOwhat","steam_id":76561198137571487,"connected_time":440000000000,"state":"active","ping":118}]},{"server_id":1,"name":"Uncletopia | Los Angeles | 1 | All Maps","name_short":"lax-1","host":"lax-1.us.uncletopia.com","port":27015,"enabled":true,"region":"us-west","cc":"us","latitude":33.94279,"longitude":-118.41004,"reserved":0,"last_update":"0001-01-01T00:00:00Z","name_a2s":"Uncletopia | Los Angeles | 1 | All Maps","protocol":17,"map":"cp_sunshine","folder":"tf","game":"Team Fortress","app_id":440,"player_count":17,"max_players":24,"Bots":0,"server_type":"Dedicated","server_os":"Linux","password":true,"vac":true,"version":"7961495","steam_id":85568392924469991,"keywords":["cp","nocrits","nodmgspread","uncletopia"],"game_id":440,"stv_port":27016,"stv_name":"Uncletopia | Los Angeles | 1 | All Maps | STV","players":[{"user_id":336,"name":"The Real Ninja Fortnite","steam_id":76561198127097632,"connected_time":219000000000,"state":"active","ping":49},{"user_id":337,"name":"Mix56374","steam_id":76561199093717909,"connected_time":123000000000,"state":"active","ping":54},{"user_id":232,"name":"rop.the.bop","steam_id":76561198242567396,"connected_time":5090000000000,"state":"active","ping":95},{"user_id":338,"name":"Barnabie","steam_id":76561198880928921,"connected_time":112000000000,"state":"active","ping":84},{"user_id":339,"name":"nivek","steam_id":76561198056288107,"connected_time":65000000000,"state":"active","ping":74},{"user_id":330,"name":"Pluto","steam_id":76561198012630802,"connected_time":622000000000,"state":"active","ping":55},{"user_id":308,"name":"GrantTheMedicYT","steam_id":76561199077176696,"connected_time":1902000000000,"state":"active","ping":41},{"user_id":332,"name":"team fortress 2","steam_id":76561198093995793,"connected_time":535000000000,"state":"active","ping":86},{"user_id":340,"name":"Noire","steam_id":76561198149370109,"connected_time":53000000000,"state":"active","ping":63},{"user_id":341,"name":"Firedust19","steam_id":76561198153238631,"connected_time":3000000000,"state":"spawning","ping":102},{"user_id":298,"name":"Chauncey von Snuffles III","steam_id":76561198021784746,"connected_time":3194000000000,"state":"active","ping":89},{"user_id":327,"name":"👁 sumixodic","steam_id":76561198090770710,"connected_time":1155000000000,"state":"active","ping":72},{"user_id":300,"name":"Mr.Rogers","steam_id":76561198043878683,"connected_time":2277000000000,"state":"active","ping":55},{"user_id":318,"name":"FI LO","steam_id":76561198976530881,"connected_time":1603000000000,"state":"active","ping":30},{"user_id":321,"name":"type \"bad med\" to kick","steam_id":76561198076402476,"connected_time":1466000000000,"state":"active","ping":57},{"user_id":323,"name":"gas station tweaker","steam_id":76561198264288798,"connected_time":1400000000000,"state":"active","ping":48},{"user_id":335,"name":"SN0W","steam_id":76561198153665468,"connected_time":281000000000,"state":"active","ping":86}]},{"server_id":112,"name":"Uncletopia | Los Angeles | 2 | All Maps","name_short":"lax-2","host":"lax-1.us.uncletopia.com","port":27025,"enabled":true,"region":"us-west","cc":"us","latitude":33.94279,"longitude":-118.41004,"reserved":0,"last_update":"0001-01-01T00:00:00Z","name_a2s":"Uncletopia | Los Angeles | 2 | All Maps","protocol":17,"map":"pl_borneo","folder":"tf","game":"Team Fortress","app_id":440,"player_count":24,"max_players":24,"Bots":0,"server_type":"Dedicated","server_os":"Linux","password":true,"vac":true,"version":"7961495","steam_id":85568392924469992,"keywords":["nocrits","nodmgspread","payload","uncletopia"],"game_id":440,"stv_port":27026,"stv_name":"Uncletopia | Los Angeles | 2 | All Maps | STV","players":[{"user_id":85,"name":"MegaMudkipz","steam_id":76561198354776000,"connected_time":408000000000,"state":"active","ping":104},{"user_id":84,"name":"37 septillion tapeworms","steam_id":76561198186128723,"connected_time":726000000000,"state":"active","ping":85},{"user_id":13,"name":"TeriyakiDynamite","steam_id":76561198050049346,"connected_time":6058000000000,"state":"active","ping":57},{"user_id":48,"name":"Sammy!","steam_id":76561198184171743,"connected_time":4018000000000,"state":"active","ping":63},{"user_id":87,"name":"lorient","steam_id":76561198150831438,"connected_time":376000000000,"state":"active","ping":81},{"user_id":99,"name":"KYBB","steam_id":76561198141390049,"connected_time":187000000000,"state":"active","ping":69},{"user_id":100,"name":"Final_MarioXD","steam_id":76561199184862419,"connected_time":131000000000,"state":"active","ping":107},{"user_id":102,"name":"Magical.Puffin","steam_id":76561198129039275,"connected_time":92000000000,"state":"active","ping":64},{"user_id":101,"name":"Comically Large Spoon","steam_id":76561198837887872,"connected_time":130000000000,"state":"active","ping":125},{"user_id":103,"name":"Yeee","steam_id":76561198362095593,"connected_time":77000000000,"state":"active","ping":107},{"user_id":90,"name":"RC","steam_id":76561198048127881,"connected_time":350000000000,"state":"active","ping":44},{"user_id":39,"name":"dr perky irl","steam_id":76561199467387844,"connected_time":5225000000000,"state":"active","ping":51},{"user_id":64,"name":"Antis","steam_id":76561198055790522,"connected_time":2826000000000,"state":"active","ping":51},{"user_id":86,"name":"Capybara Enjoyer","steam_id":76561199147114434,"connected_time":404000000000,"state":"active","ping":117},{"user_id":83,"name":"ChoccyMiltank","steam_id":76561198981474284,"connected_time":896000000000,"state":"active","ping":45},{"user_id":61,"name":"Sergeant Sear","steam_id":76561197963477221,"connected_time":2875000000000,"state":"active","ping":57},{"user_id":72,"name":"[El Fail] MR.BadassMCLee","steam_id":76561198043787818,"connected_time":2248000000000,"state":"active","ping":62},{"user_id":89,"name":"j0ndice","steam_id":76561198071218172,"connected_time":365000000000,"state":"active","ping":51},{"user_id":91,"name":"big scary fish","steam_id":76561198073269122,"connected_time":348000000000,"state":"active","ping":111},{"user_id":104,"name":"deadpixel","steam_id":76561198150249843,"connected_time":5000000000,"state":"spawning","ping":240},{"user_id":96,"name":"Zuriel","steam_id":76561198149673080,"connected_time":266000000000,"state":"active","ping":45},{"user_id":62,"name":"fart","steam_id":76561198074198286,"connected_time":2873000000000,"state":"active","ping":55},{"user_id":67,"name":"Concede","steam_id":76561198242842394,"connected_time":2801000000000,"state":"active","ping":79},{"user_id":97,"name":"TimeSnake","steam_id":76561198052098233,"connected_time":265000000000,"state":"active","ping":51}]},{"server_id":324,"name":"Uncletopia | Los Angeles | 3 | All Maps","name_short":"lax-3","host":"lax-1.us.uncletopia.com","port":27035,"enabled":true,"region":"us-west","cc":"us","latitude":33.94279,"longitude":-118.41004,"reserved":0,"last_update":"0001-01-01T00:00:00Z","name_a2s":"Uncletopia | Los Angeles | 3 | All Maps","protocol":17,"map":"koth_lakeside_final","folder":"tf","game":"Team Fortress","app_id":440,"player_count":0,"max_players":24,"Bots":0,"server_type":"Dedicated","server_os":"Linux","password":true,"vac":true,"version":"7961495","steam_id":85568392924510198,"keywords":["cp","nocrits","nodmgspread","uncletopia"],"game_id":440,"stv_port":27036,"stv_name":"Uncletopia | Los Angeles | 3 | All Maps | STV","players":null},{"server_id":25,"name":"Uncletopia | Los Angeles | 4 | Stopwatch","name_short":"lax-4","host":"lax-1.us.uncletopia.com","port":27045,"enabled":true,"region":"us-west","cc":"us","latitude":33.94279,"longitude":-118.41004,"reserved":0,"last_update":"0001-01-01T00:00:00Z","name_a2s":"Uncletopia | Los Angeles | 4 | Stopwatch","protocol":17,"map":"cp_metalworks","folder":"tf","game":"Team Fortress","app_id":440,"player_count":0,"max_players":24,"Bots":0,"server_type":"Dedicated","server_os":"Linux","password":true,"vac":true,"version":"7961495","steam_id":85568392924510199,"keywords":["cp","nocrits","nodmgspread","uncletopia"],"game_id":440,"stv_port":27046,"stv_name":"Uncletopia | Los Angeles | 4 | Stopwatch | STV","players":null},{"server_id":11,"name":"Uncletopia | London | 1 | All Maps","name_short":"lon-1","host":"lon-1.uk.uncletopia.com","port":27015,"enabled":true,"region":"eu","cc":"gb","latitude":51.509865,"longitude":-0.118092,"reserved":0,"last_update":"0001-01-01T00:00:00Z","name_a2s":"Uncletopia | London | 1 | All Maps","protocol":17,"map":"koth_harvest_final","folder":"tf","game":"Team Fortress","app_id":440,"player_count":0,"max_players":24,"Bots":0,"server_type":"Dedicated","server_os":"Linux","password":true,"vac":true,"version":"7961495","steam_id":85568392924367362,"keywords":["cp","nocrits","nodmgspread","uncletopia"],"game_id":440,"stv_port":27016,"stv_name":"Uncletopia | London | 1 | All Maps | STV","players":null},{"server_id":114,"name":"Uncletopia | London | 2 | All Maps","name_short":"lon-2","host":"lon-1.uk.uncletopia.com","port":27025,"enabled":true,"region":"eu","cc":"gb","latitude":51.509865,"longitude":-0.118092,"reserved":0,"last_update":"0001-01-01T00:00:00Z","name_a2s":"Uncletopia | London | 2 | All Maps","protocol":17,"map":"koth_viaduct","folder":"tf","game":"Team Fortress","app_id":440,"player_count":0,"max_players":24,"Bots":0,"server_type":"Dedicated","server_os":"Linux","password":true,"vac":true,"version":"7961495","steam_id":85568392924470941,"keywords":["cp","nocrits","nodmgspread","uncletopia"],"game_id":440,"stv_port":27026,"stv_name":"Uncletopia | London | 2 | All Maps | STV","players":null},{"server_id":320,"name":"Uncletopia | London | 3 | All Maps","name_short":"lon-3","host":"lon-1.uk.uncletopia.com","port":27035,"enabled":true,"region":"eu","cc":"gb","latitude":51.509865,"longitude":-0.118092,"reserved":0,"last_update":"0001-01-01T00:00:00Z","name_a2s":"Uncletopia | London | 3 | All Maps","protocol":17,"map":"pl_pier","folder":"tf","game":"Team Fortress","app_id":440,"player_count":0,"max_players":24,"Bots":0,"server_type":"Dedicated","server_os":"Linux","password":true,"vac":true,"version":"7961495","steam_id":85568392924510192,"keywords":["nocrits","nodmgspread","payload","uncletopia"],"game_id":440,"stv_port":27036,"stv_name":"Uncletopia | London | 3 | All Maps | STV","players":null},{"server_id":321,"name":"Uncletopia | London | 4 | All Maps","name_short":"lon-4","host":"lon-1.uk.uncletopia.com","port":27045,"enabled":true,"region":"eu","cc":"gb","latitude":51.509865,"longitude":-0.118092,"reserved":0,"last_update":"0001-01-01T00:00:00Z","name_a2s":"Uncletopia | London | 4 | All Maps","protocol":17,"map":"pl_swiftwater_final1","folder":"tf","game":"Team Fortress","app_id":440,"player_count":6,"max_players":24,"Bots":0,"server_type":"Dedicated","server_os":"Linux","password":true,"vac":true,"version":"7961495","steam_id":85568392924510193,"keywords":["nocrits","nodmgspread","payload","uncletopia"],"game_id":440,"stv_port":27046,"stv_name":"Uncletopia | London | 4 | All Maps | STV","players":[{"user_id":1062,"name":"CumbustiblePunda","steam_id":76561197974274677,"connected_time":5517000000000,"state":"active","ping":53},{"user_id":1063,"name":"Loudladdy","steam_id":76561198095271834,"connected_time":5434000000000,"state":"active","ping":41},{"user_id":1090,"name":"Dont Rely on me, im very bad","steam_id":76561198362116755,"connected_time":3206000000000,"state":"active","ping":139},{"user_id":1088,"name":"Live Ruby Reaction","steam_id":76561198304902462,"connected_time":3501000000000,"state":"active","ping":29},{"user_id":1099,"name":"taffer","steam_id":76561199480942903,"connected_time":2120000000000,"state":"active","ping":62},{"user_id":1103,"name":"Slowdive w/ EATEOF","steam_id":76561198047856328,"connected_time":1702000000000,"state":"active","ping":56}]},{"server_id":21,"name":"Uncletopia | London | 5 | All Maps","name_short":"lon-5","host":"lon-1.uk.uncletopia.com","port":27055,"enabled":true,"region":"eu","cc":"gb","latitude":51.509865,"longitude":-0.118092,"reserved":0,"last_update":"0001-01-01T00:00:00Z","name_a2s":"Uncletopia | London | 5 | All Maps","protocol":17,"map":"koth_viaduct","folder":"tf","game":"Team Fortress","app_id":440,"player_count":2,"max_players":24,"Bots":0,"server_type":"Dedicated","server_os":"Linux","password":true,"vac":true,"version":"7961495","steam_id":85568392924742829,"keywords":["cp","nocrits","nodmgspread","uncletopia"],"game_id":440,"stv_port":27056,"stv_name":"Uncletopia | London | 5 | All Maps | STV","players":[{"user_id":262,"name":"Hank","steam_id":76561198937459218,"connected_time":1848000000000,"state":"active","ping":68},{"user_id":264,"name":"Nahiel...","steam_id":76561198850552924,"connected_time":1612000000000,"state":"active","ping":262}]},{"server_id":22,"name":"Uncletopia | London | 6 | All Maps","name_short":"lon-6","host":"lon-1.uk.uncletopia.com","port":27065,"enabled":true,"region":"eu","cc":"gb","latitude":51.509865,"longitude":-0.118092,"reserved":0,"last_update":"0001-01-01T00:00:00Z","name_a2s":"Uncletopia | London | 6 | All Maps","protocol":17,"map":"cp_gorge","folder":"tf","game":"Team Fortress","app_id":440,"player_count":0,"max_players":24,"Bots":0,"server_type":"Dedicated","server_os":"Linux","password":true,"vac":true,"version":"7961495","steam_id":85568392924742830,"keywords":["cp","nocrits","nodmgspread","uncletopia"],"game_id":440,"stv_port":27066,"stv_name":"Uncletopia | London | 6 | All Maps | STV","players":null},{"server_id":40,"name":"Uncletopia | London | 7 | Stopwatch","name_short":"lon-7","host":"lon-1.uk.uncletopia.com","port":27075,"enabled":true,"region":"eu","cc":"gb","latitude":51.509865,"longitude":-0.118092,"reserved":0,"last_update":"0001-01-01T00:00:00Z","name_a2s":"Uncletopia | London | 7 | Stopwatch","protocol":17,"map":"workshop/koth_ashville_final.ugc2130459942","folder":"tf","game":"Team Fortress","app_id":440,"player_count":0,"max_players":24,"Bots":0,"server_type":"Dedicated","server_os":"Linux","password":true,"vac":true,"version":"7961495","steam_id":85568392924964314,"keywords":["cp","nocrits","nodmgspread","uncletopia"],"game_id":440,"stv_port":27076,"stv_name":"Uncletopia | London | 7 | Stopwatch | STV","players":null},{"server_id":41,"name":"Uncletopia | London | 8 | Community","name_short":"lon-8","host":"lon-1.uk.uncletopia.com","port":27085,"enabled":true,"region":"eu","cc":"gb","latitude":51.509865,"longitude":-0.118092,"reserved":0,"last_update":"0001-01-01T00:00:00Z","name_a2s":"Uncletopia | London | 8 | Community","protocol":17,"map":"workshop/pl_corrode_rc2.ugc546577989","folder":"tf","game":"Team Fortress","app_id":440,"player_count":0,"max_players":24,"Bots":0,"server_type":"Dedicated","server_os":"Linux","password":true,"vac":true,"version":"7961495","steam_id":85568392924964315,"keywords":["nocrits","nodmgspread","payload","uncletopia"],"game_id":440,"stv_port":27086,"stv_name":"Uncletopia | London | 8 | Community | STV","players":null},{"server_id":300,"name":"Uncletopia | Montréal | 1 | One Thousand Uncles","name_short":"mtl-1","host":"mtl-1.ca.uncletopia.com","port":27015,"enabled":true,"region":"us-east","cc":"ca","latitude":45.50889,"longitude":-73.56167,"reserved":0,"last_update":"0001-01-01T00:00:00Z","name_a2s":"Uncletopia | Montréal | 1 | One Thousand Uncles","protocol":17,"map":"pl_barnblitz","folder":"tf","game":"Team Fortress","app_id":440,"player_count":24,"max_players":32,"Bots":20,"server_type":"Dedicated","server_os":"Linux","password":true,"vac":true,"version":"7961495","steam_id":85568392924500087,"keywords":["alltalk","bots","danepve","increased_maxplayers","norespawntime","payload","uncletopia"],"game_id":440,"stv_port":0,"stv_name":"","players":[{"user_id":320,"name":"Dredd™","steam_id":76561197998495764,"connected_time":6802000000000,"state":"active","ping":65},{"user_id":334,"name":"St. Arnold of Soissons","steam_id":76561197974133892,"connected_time":4156000000000,"state":"active","ping":64},{"user_id":376,"name":"auto accident","steam_id":76561198353460257,"connected_time":865000000000,"state":"active","ping":139},{"user_id":323,"name":"Macho.Man.Tower ッ","steam_id":76561198287711628,"connected_time":6393000000000,"state":"active","ping":64}]},{"server_id":301,"name":"Uncletopia | Montréal | 2 | One Thousand Uncles","name_short":"mtl-2","host":"mtl-1.ca.uncletopia.com","port":27025,"enabled":true,"region":"us-east","cc":"ca","latitude":45.50889,"longitude":-73.56167,"reserved":0,"last_update":"0001-01-01T00:00:00Z","name_a2s":"Uncletopia | Montréal | 2 | One Thousand Uncles","protocol":17,"map":"cp_dustbowl","folder":"tf","game":"Team Fortress","app_id":440,"player_count":21,"max_players":32,"Bots":20,"server_type":"Dedicated","server_os":"Linux","password":true,"vac":true,"version":"7961495","steam_id":85568392924500088,"keywords":["alltalk","bots","cp","danepve","increased_maxplayers","norespawntime","uncletopia"],"game_id":440,"stv_port":0,"stv_name":"","players":[{"user_id":138,"name":"Rhutebeer","steam_id":76561198018302761,"connected_time":1857000000000,"state":"active","ping":101}]},{"server_id":302,"name":"Uncletopia | Montréal | 3 | One Thousand Uncles","name_short":"mtl-3","host":"mtl-1.ca.uncletopia.com","port":27035,"enabled":true,"region":"us-east","cc":"ca","latitude":45.50889,"longitude":-73.56167,"reserved":0,"last_update":"0001-01-01T00:00:00Z","name_a2s":"Uncletopia | Montréal | 3 | One Thousand Uncles","protocol":17,"map":"pl_thundermountain","folder":"tf","game":"Team Fortress","app_id":440,"player_count":0,"max_players":32,"Bots":0,"server_type":"Dedicated","server_os":"Linux","password":true,"vac":true,"version":"7961495","steam_id":85568392924500089,"keywords":["alltalk","danepve","increased_maxplayers","norespawntime","payload","uncletopia"],"game_id":440,"stv_port":0,"stv_name":"","players":null},{"server_id":13,"name":"Uncletopia | New York City | 1 | All Maps","name_short":"nyc-1","host":"nyc-1.us.uncletopia.com","port":27015,"enabled":true,"region":"us-east","cc":"us","latitude":40.73061,"longitude":-73.93524,"reserved":0,"last_update":"0001-01-01T00:00:00Z","name_a2s":"Uncletopia | New York City | 1 | All Maps","protocol":17,"map":"pl_snowycoast","folder":"tf","game":"Team Fortress","app_id":440,"player_count":24,"max_players":24,"Bots":0,"server_type":"Dedicated","server_os":"Linux","password":true,"vac":true,"version":"7961495","steam_id":85568392924469993,"keywords":["nocrits","nodmgspread","payload","uncletopia"],"game_id":440,"stv_port":27016,"stv_name":"Uncletopia | New York City | 1 | All Maps | STV","players":[{"user_id":731,"name":"sus man","steam_id":76561199234935153,"connected_time":3473000000000,"state":"active","ping":183},{"user_id":705,"name":"Yuzu","steam_id":76561198417913035,"connected_time":5664000000000,"state":"active","ping":69},{"user_id":676,"name":"bingus cheese","steam_id":76561198069010944,"connected_time":8274000000000,"state":"active","ping":89},{"user_id":754,"name":"Brawns","steam_id":76561198045190199,"connected_time":289000000000,"state":"active","ping":65},{"user_id":714,"name":"John Fortnite","steam_id":76561198076608253,"connected_time":5395000000000,"state":"active","ping":54},{"user_id":751,"name":"Bheem","steam_id":76561198170453459,"connected_time":732000000000,"state":"active","ping":104},{"user_id":724,"name":"GummybearKillr","steam_id":76561198031235750,"connected_time":4041000000000,"state":"active","ping":54},{"user_id":706,"name":"googa","steam_id":76561198133130452,"connected_time":5633000000000,"state":"active","ping":45},{"user_id":749,"name":"PurPle","steam_id":76561198050393396,"connected_time":749000000000,"state":"active","ping":58},{"user_id":740,"name":"sickomode123","steam_id":76561198975511346,"connected_time":1859000000000,"state":"active","ping":56},{"user_id":755,"name":"Skyline","steam_id":76561198018382060,"connected_time":256000000000,"state":"active","ping":45},{"user_id":742,"name":"FemboyNero","steam_id":76561198449565973,"connected_time":1522000000000,"state":"active","ping":70},{"user_id":747,"name":"Fish Fisherman","steam_id":76561198018656022,"connected_time":963000000000,"state":"active","ping":60},{"user_id":720,"name":"space man","steam_id":76561198066333670,"connected_time":4416000000000,"state":"active","ping":70},{"user_id":744,"name":"Magstriker","steam_id":76561198085761854,"connected_time":1473000000000,"state":"active","ping":64},{"user_id":726,"name":"DAYMARES","steam_id":76561198051903982,"connected_time":3859000000000,"state":"active","ping":54},{"user_id":756,"name":"Buck","steam_id":76561198064244796,"connected_time":228000000000,"state":"active","ping":47},{"user_id":750,"name":"Tinkleberry McScrooge","steam_id":76561199077190523,"connected_time":746000000000,"state":"active","ping":52},{"user_id":745,"name":"Bunni","steam_id":76561198065169997,"connected_time":1330000000000,"state":"active","ping":78},{"user_id":748,"name":"Pomegranate88","steam_id":76561198056385456,"connected_time":770000000000,"state":"active","ping":60},{"user_id":738,"name":"fawn","steam_id":76561198043684960,"connected_time":2607000000000,"state":"active","ping":89},{"user_id":739,"name":"milk then cereal","steam_id":76561198047168548,"connected_time":2352000000000,"state":"active","ping":132},{"user_id":737,"name":"Poopisviel Von Einzbern","steam_id":76561198259260433,"connected_time":2693000000000,"state":"active","ping":90},{"user_id":746,"name":"balls","steam_id":76561198143694438,"connected_time":1061000000000,"state":"active","ping":58}]},{"server_id":14,"name":"Uncletopia | New York City | 2 | All Maps","name_short":"nyc-2","host":"nyc-1.us.uncletopia.com","port":27025,"enabled":true,"region":"us-east","cc":"us","latitude":40.73061,"longitude":-73.93524,"reserved":0,"last_update":"0001-01-01T00:00:00Z","name_a2s":"Uncletopia | New York City | 2 | All Maps","protocol":17,"map":"koth_harvest_final","folder":"tf","game":"Team Fortress","app_id":440,"player_count":24,"max_players":24,"Bots":0,"server_type":"Dedicated","server_os":"Linux","password":true,"vac":true,"version":"7961495","steam_id":85568392924469994,"keywords":["cp","nocrits","nodmgspread","uncletopia"],"game_id":440,"stv_port":27026,"stv_name":"Uncletopia | New York City | 2 | All Maps | STV","players":[{"user_id":99,"name":"HundchenTanque","steam_id":76561198122692754,"connected_time":9078000000000,"state":"active","ping":45},{"user_id":238,"name":"Werm","steam_id":76561198149601897,"connected_time":503000000000,"state":"active","ping":57},{"user_id":184,"name":"Xx_Savage_Twerks_xX","steam_id":76561198011665915,"connected_time":4473000000000,"state":"active","ping":47},{"user_id":213,"name":"Beauts","steam_id":76561198068713855,"connected_time":2637000000000,"state":"active","ping":90},{"user_id":228,"name":"ya ya breathe","steam_id":76561198075858067,"connected_time":1512000000000,"state":"active","ping":45},{"user_id":206,"name":"5'3 asian girl (looking for bf)","steam_id":76561198158408338,"connected_time":3022000000000,"state":"active","ping":83},{"user_id":225,"name":"Axon","steam_id":76561198048277051,"connected_time":1692000000000,"state":"active","ping":66},{"user_id":219,"name":"Poser01","steam_id":76561197999257332,"connected_time":2456000000000,"state":"active","ping":123},{"user_id":200,"name":"i eat glue","steam_id":76561198827026673,"connected_time":3169000000000,"state":"active","ping":77},{"user_id":239,"name":"Krispy","steam_id":76561197994783393,"connected_time":288000000000,"state":"active","ping":47},{"user_id":232,"name":"Mediocre Gaming","steam_id":76561199230467980,"connected_time":1250000000000,"state":"active","ping":93},{"user_id":198,"name":"big shot","steam_id":76561199350870177,"connected_time":3232000000000,"state":"active","ping":86},{"user_id":233,"name":"eBay","steam_id":76561198061214569,"connected_time":1241000000000,"state":"active","ping":115},{"user_id":203,"name":"Snoogs","steam_id":76561198444880931,"connected_time":3117000000000,"state":"active","ping":57},{"user_id":204,"name":"Anyar","steam_id":76561198160174097,"connected_time":3060000000000,"state":"active","ping":87},{"user_id":223,"name":"Sen","steam_id":76561198038686030,"connected_time":1758000000000,"state":"active","ping":61},{"user_id":242,"name":"WAAAGH!","steam_id":76561198400247388,"connected_time":114000000000,"state":"active","ping":89},{"user_id":205,"name":"dog.","steam_id":76561198170332855,"connected_time":3045000000000,"state":"active","ping":85},{"user_id":207,"name":"Skiddy","steam_id":76561198125942665,"connected_time":2994000000000,"state":"active","ping":61},{"user_id":211,"name":"What day is it?","steam_id":76561199056736682,"connected_time":2735000000000,"state":"active","ping":76},{"user_id":209,"name":"Waff00","steam_id":76561198848377100,"connected_time":2987000000000,"state":"active","ping":66},{"user_id":240,"name":"marlow","steam_id":76561198094408360,"connected_time":239000000000,"state":"active","ping":74},{"user_id":224,"name":"Wooper","steam_id":76561198047491931,"connected_time":1735000000000,"state":"active","ping":40},{"user_id":243,"name":"Cellus","steam_id":76561198067204847,"connected_time":41000000000,"state":"active","ping":60}]},{"server_id":15,"name":"Uncletopia | New York City | 3 | Stopwatch","name_short":"nyc-3","host":"nyc-1.us.uncletopia.com","port":27035,"enabled":true,"region":"us-east","cc":"us","latitude":40.73061,"longitude":-73.93524,"reserved":0,"last_update":"0001-01-01T00:00:00Z","name_a2s":"Uncletopia | New York City | 3 | Stopwatch","protocol":17,"map":"workshop/pl_badwater_pro_v12.ugc2142942074","folder":"tf","game":"Team Fortress","app_id":440,"player_count":0,"max_players":24,"Bots":0,"server_type":"Dedicated","server_os":"Linux","password":true,"vac":true,"version":"7961495","steam_id":85568392924742820,"keywords":["nocrits","nodmgspread","payload","uncletopia"],"game_id":440,"stv_port":27036,"stv_name":"Uncletopia | New York City | 3 | Stopwatch | STV","players":null},{"server_id":16,"name":"Uncletopia | New York City | 4 | Community","name_short":"nyc-4","host":"nyc-1.us.uncletopia.com","port":27045,"enabled":true,"region":"us-east","cc":"us","latitude":40.73061,"longitude":-73.93524,"reserved":0,"last_update":"0001-01-01T00:00:00Z","name_a2s":"Uncletopia | New York City | 4 | Community","protocol":17,"map":"workshop/cp_bruhstbowl_b6.ugc2878604990","folder":"tf","game":"Team Fortress","app_id":440,"player_count":0,"max_players":24,"Bots":0,"server_type":"Dedicated","server_os":"Linux","password":true,"vac":true,"version":"7961495","steam_id":85568392924742821,"keywords":["cp","nocrits","nodmgspread","uncletopia"],"game_id":440,"stv_port":27046,"stv_name":"Uncletopia | New York City | 4 | Community | STV","players":null},{"server_id":142,"name":"Uncletopia | São Paulo | 1 | All Maps","name_short":"sao-1","host":"sao-1.br.uncletopia.com","port":27015,"enabled":true,"region":"sa","cc":"br","latitude":-23.533773,"longitude":-46.62529,"reserved":0,"last_update":"0001-01-01T00:00:00Z","name_a2s":"Uncletopia | São Paulo | 1 | All Maps","protocol":17,"map":"pl_badwater","folder":"tf","game":"Team Fortress","app_id":440,"player_count":1,"max_players":24,"Bots":0,"server_type":"Dedicated","server_os":"Linux","password":true,"vac":true,"version":"7961495","steam_id":85568392924469996,"keywords":["nocrits","nodmgspread","payload","uncletopia"],"game_id":440,"stv_port":27016,"stv_name":"Uncletopia | São Paulo | 1 | All Maps | STV","players":[{"user_id":30,"name":"el falopero","steam_id":76561199331900381,"connected_time":491000000000,"state":"active","ping":95}]},{"server_id":143,"name":"Uncletopia | São Paulo | 2 | Community","name_short":"sao-2","host":"sao-2.br.uncletopia.com","port":27015,"enabled":true,"region":"sa","cc":"br","latitude":-23.533773,"longitude":-46.62529,"reserved":0,"last_update":"0001-01-01T00:00:00Z","name_a2s":"Uncletopia | São Paulo | 2 | Community","protocol":17,"map":"workshop/koth_product_final.ugc454272353","folder":"tf","game":"Team Fortress","app_id":440,"player_count":2,"max_players":24,"Bots":0,"server_type":"Dedicated","server_os":"Linux","password":true,"vac":true,"version":"7961495","steam_id":85568392924485349,"keywords":["cp","nocrits","nodmgspread","uncletopia"],"game_id":440,"stv_port":27016,"stv_name":"Uncletopia | São Paulo | 2 | Community | STV","players":[{"user_id":26,"name":"SmoggySkewball","steam_id":76561198428665466,"connected_time":132000000000,"state":"active","ping":87},{"user_id":27,"name":"twistedVodka","steam_id":76561199429163241,"connected_time":84000000000,"state":"active","ping":70}]},{"server_id":7,"name":"Uncletopia | Seattle | 1 | All Maps","name_short":"sea-1","host":"sea-1.us.uncletopia.com","port":27015,"enabled":true,"region":"us-west","cc":"us","latitude":47.608013,"longitude":-122.33517,"reserved":0,"last_update":"0001-01-01T00:00:00Z","name_a2s":"Uncletopia | Seattle | 1 | All Maps","protocol":17,"map":"pl_upward","folder":"tf","game":"Team Fortress","app_id":440,"player_count":24,"max_players":24,"Bots":0,"server_type":"Dedicated","server_os":"Linux","password":true,"vac":true,"version":"7961495","steam_id":85568392924469997,"keywords":["nocrits","nodmgspread","payload","uncletopia"],"game_id":440,"stv_port":27016,"stv_name":"Uncletopia | Seattle | 1 | All Maps | STV","players":[{"user_id":697,"name":"etc.","steam_id":76561199488457138,"connected_time":1837000000000,"state":"active","ping":62},{"user_id":683,"name":"doopsies","steam_id":76561198083000867,"connected_time":2986000000000,"state":"active","ping":51},{"user_id":704,"name":"Engynier Gaimeang (F2P)","steam_id":76561199013888779,"connected_time":560000000000,"state":"active","ping":76},{"user_id":689,"name":"dust | it/she [no mic]","steam_id":76561198045218909,"connected_time":2093000000000,"state":"active","ping":36},{"user_id":650,"name":"MrYadaization","steam_id":76561198050770818,"connected_time":7027000000000,"state":"active","ping":68},{"user_id":674,"name":"The Shaq Attack","steam_id":76561198075285534,"connected_time":4779000000000,"state":"active","ping":36},{"user_id":678,"name":"Kazoo","steam_id":76561199229748300,"connected_time":3910000000000,"state":"active","ping":88},{"user_id":707,"name":"edgebug b-roll","steam_id":76561198043558709,"connected_time":537000000000,"state":"active","ping":51},{"user_id":715,"name":"NiceDiceRoll","steam_id":76561199091191812,"connected_time":349000000000,"state":"active","ping":69},{"user_id":710,"name":"Hydroxianchaos","steam_id":76561198043786828,"connected_time":508000000000,"state":"active","ping":122},{"user_id":716,"name":"lukamine","steam_id":76561198166827208,"connected_time":44000000000,"state":"active","ping":45},{"user_id":708,"name":"r0biN","steam_id":76561198097861434,"connected_time":534000000000,"state":"active","ping":99},{"user_id":698,"name":"troller","steam_id":76561198395740686,"connected_time":1836000000000,"state":"active","ping":61},{"user_id":579,"name":"Turban Grease","steam_id":76561198072052434,"connected_time":12584000000000,"state":"active","ping":53},{"user_id":699,"name":"crazey","steam_id":76561198286510667,"connected_time":1819000000000,"state":"active","ping":83},{"user_id":712,"name":"MerkyWaters","steam_id":76561197998853063,"connected_time":488000000000,"state":"active","ping":97},{"user_id":713,"name":"emukill","steam_id":76561198053143720,"connected_time":484000000000,"state":"active","ping":53},{"user_id":692,"name":"Seskova","steam_id":76561198090207032,"connected_time":2089000000000,"state":"active","ping":81},{"user_id":682,"name":"Mii Guest C, From Wii Sports","steam_id":76561198197964803,"connected_time":3087000000000,"state":"active","ping":58},{"user_id":706,"name":"trackball triops","steam_id":76561198059041027,"connected_time":555000000000,"state":"active","ping":58},{"user_id":700,"name":"mega","steam_id":76561198089520959,"connected_time":1774000000000,"state":"active","ping":73},{"user_id":714,"name":"SomeRandomBetaFish","steam_id":76561198827731399,"connected_time":483000000000,"state":"active","ping":67},{"user_id":702,"name":"invenomious™","steam_id":76561199032714821,"connected_time":1534000000000,"state":"active","ping":42},{"user_id":709,"name":"Dukino","steam_id":76561198008455368,"connected_time":531000000000,"state":"active","ping":106}]},{"server_id":119,"name":"Uncletopia | Seattle | 2 | All Maps","name_short":"sea-2","host":"sea-1.us.uncletopia.com","port":27025,"enabled":true,"region":"us-west","cc":"us","latitude":47.608013,"longitude":-122.33517,"reserved":0,"last_update":"0001-01-01T00:00:00Z","name_a2s":"Uncletopia | Seattle | 2 | All Maps","protocol":17,"map":"cp_5gorge","folder":"tf","game":"Team Fortress","app_id":440,"player_count":24,"max_players":24,"Bots":0,"server_type":"Dedicated","server_os":"Linux","password":true,"vac":true,"version":"7961495","steam_id":85568392924469998,"keywords":["cp","nocrits","nodmgspread","uncletopia"],"game_id":440,"stv_port":27026,"stv_name":"Uncletopia | Seattle | 2 | All Maps | STV","players":[{"user_id":439,"name":"Mom","steam_id":76561198207936000,"connected_time":6235000000000,"state":"active","ping":58},{"user_id":345,"name":"\u003c blank \u003e","steam_id":76561198097188001,"connected_time":11829000000000,"state":"active","ping":45},{"user_id":501,"name":"Stev the Hypergamous Pebble","steam_id":76561197999442625,"connected_time":701000000000,"state":"active","ping":64},{"user_id":502,"name":"Memey","steam_id":76561198160525648,"connected_time":666000000000,"state":"active","ping":80},{"user_id":488,"name":"ArchmageF","steam_id":76561197992246851,"connected_time":1514000000000,"state":"active","ping":61},{"user_id":474,"name":"Thunder","steam_id":76561198097721532,"connected_time":2212000000000,"state":"active","ping":75},{"user_id":482,"name":"Sentry Gun Main Man","steam_id":76561198327938247,"connected_time":1838000000000,"state":"active","ping":138},{"user_id":496,"name":"WalrusNyetheBonkGuy","steam_id":76561197995626774,"connected_time":945000000000,"state":"active","ping":73},{"user_id":433,"name":"Kawaiiestboi","steam_id":76561198182178703,"connected_time":6404000000000,"state":"active","ping":58},{"user_id":489,"name":"Bandit","steam_id":76561198008344745,"connected_time":1418000000000,"state":"active","ping":78},{"user_id":463,"name":"nescoceo","steam_id":76561198040801160,"connected_time":3659000000000,"state":"active","ping":80},{"user_id":507,"name":"Dr.Pig","steam_id":76561198069496754,"connected_time":551000000000,"state":"active","ping":111},{"user_id":480,"name":"Dr. Robotnik","steam_id":76561199179823220,"connected_time":2091000000000,"state":"active","ping":119},{"user_id":484,"name":"dantheman","steam_id":76561199486390813,"connected_time":1660000000000,"state":"active","ping":135},{"user_id":498,"name":"MrActionJaxon","steam_id":76561198093549908,"connected_time":903000000000,"state":"active","ping":106},{"user_id":497,"name":"Kakavian","steam_id":76561198030549172,"connected_time":941000000000,"state":"active","ping":93},{"user_id":242,"name":"Banana Man","steam_id":76561199012105803,"connected_time":19475000000000,"state":"active","ping":51},{"user_id":423,"name":"Preston","steam_id":76561198255721392,"connected_time":7142000000000,"state":"active","ping":120},{"user_id":503,"name":"Finger Boy","steam_id":76561198800829278,"connected_time":649000000000,"state":"active","ping":82},{"user_id":509,"name":"Mum","steam_id":76561198059209643,"connected_time":456000000000,"state":"active","ping":73},{"user_id":510,"name":"Frank Horrigan","steam_id":76561198066504831,"connected_time":184000000000,"state":"active","ping":115},{"user_id":437,"name":"pafijohn","steam_id":76561198002535190,"connected_time":6319000000000,"state":"active","ping":73},{"user_id":495,"name":"ronald","steam_id":76561197960691622,"connected_time":1010000000000,"state":"active","ping":83},{"user_id":505,"name":"airbudetc","steam_id":76561199125415611,"connected_time":597000000000,"state":"active","ping":44}]},{"server_id":406,"name":"Uncletopia | Seattle | 3 | Stopwatch","name_short":"sea-3","host":"sea-1.us.uncletopia.com","port":27035,"enabled":true,"region":"us-west","cc":"us","latitude":47.608013,"longitude":-122.33517,"reserved":0,"last_update":"0001-01-01T00:00:00Z","name_a2s":"Uncletopia | Seattle | 3 | Stopwatch","protocol":17,"map":"workshop/pl_vigil_rc10.ugc1266210012","folder":"tf","game":"Team Fortress","app_id":440,"player_count":0,"max_players":24,"Bots":0,"server_type":"Dedicated","server_os":"Linux","password":true,"vac":true,"version":"7961495","steam_id":85568392924515217,"keywords":["nocrits","nodmgspread","payload","uncletopia"],"game_id":440,"stv_port":27036,"stv_name":"Uncletopia | Seattle | 3 | Stopwatch | STV","players":null},{"server_id":17,"name":"Uncletopia | San Francisco | 1 | All Maps","name_short":"sfo-1","host":"sfo-1.us.uncletopia.com","port":27015,"enabled":true,"region":"us-west","cc":"us","latitude":37.77397,"longitude":-122.4313,"reserved":0,"last_update":"0001-01-01T00:00:00Z","name_a2s":"Uncletopia | San Francisco | 1 | All Maps","protocol":17,"map":"pl_badwater","folder":"tf","game":"Team Fortress","app_id":440,"player_count":4,"max_players":24,"Bots":0,"server_type":"Dedicated","server_os":"Linux","password":true,"vac":true,"version":"7961495","steam_id":85568392924469999,"keywords":["nocrits","nodmgspread","payload","uncletopia"],"game_id":440,"stv_port":27016,"stv_name":"Uncletopia | San Francisco | 1 | All Maps | STV","players":[{"user_id":37,"name":"The Pencil Cunts","steam_id":76561198272606252,"connected_time":2023000000000,"state":"active","ping":53},{"user_id":36,"name":"Nick the melon","steam_id":76561198798907871,"connected_time":2055000000000,"state":"active","ping":52},{"user_id":44,"name":"kenzoualexander8","steam_id":76561199501785433,"connected_time":506000000000,"state":"active","ping":244},{"user_id":46,"name":"ImmuneToPeas","steam_id":76561198342411594,"connected_time":185000000000,"state":"active","ping":60}]},{"server_id":18,"name":"Uncletopia | San Francisco | 2 | All Maps","name_short":"sfo-2","host":"sfo-1.us.uncletopia.com","port":27025,"enabled":true,"region":"us-west","cc":"us","latitude":37.77397,"longitude":-122.4313,"reserved":0,"last_update":"0001-01-01T00:00:00Z","name_a2s":"Uncletopia | San Francisco | 2 | All Maps","protocol":17,"map":"cp_snakewater_final1","folder":"tf","game":"Team Fortress","app_id":440,"player_count":0,"max_players":24,"Bots":0,"server_type":"Dedicated","server_os":"Linux","password":true,"vac":true,"version":"7961495","steam_id":85568392924470000,"keywords":["cp","nocrits","nodmgspread","uncletopia"],"game_id":440,"stv_port":27026,"stv_name":"Uncletopia | San Francisco | 2 | All Maps | STV","players":null},{"server_id":19,"name":"Uncletopia | San Francisco | 3 | Stopwatch","name_short":"sfo-3","host":"sfo-1.us.uncletopia.com","port":27035,"enabled":true,"region":"us-west","cc":"us","latitude":37.77397,"longitude":-122.4313,"reserved":0,"last_update":"0001-01-01T00:00:00Z","name_a2s":"Uncletopia | San Francisco | 3 | Stopwatch","protocol":17,"map":"workshop/koth_clearcut_b15.ugc2107050255","folder":"tf","game":"Team Fortress","app_id":440,"player_count":0,"max_players":24,"Bots":0,"server_type":"Dedicated","server_os":"Linux","password":true,"vac":true,"version":"7961495","steam_id":85568392924742824,"keywords":["cp","nocrits","nodmgspread","uncletopia"],"game_id":440,"stv_port":27036,"stv_name":"Uncletopia | San Francisco | 3 | Stopwatch | STV","players":null},{"server_id":20,"name":"Uncletopia | San Francisco | 4 | Community","name_short":"sfo-4","host":"sfo-1.us.uncletopia.com","port":27045,"enabled":true,"region":"us-west","cc":"us","latitude":37.77397,"longitude":-122.4313,"reserved":0,"last_update":"0001-01-01T00:00:00Z","name_a2s":"Uncletopia | San Francisco | 4 | Community","protocol":17,"map":"workshop/koth_bagel_rc6.ugc2514036946","folder":"tf","game":"Team Fortress","app_id":440,"player_count":0,"max_players":24,"Bots":0,"server_type":"Dedicated","server_os":"Linux","password":true,"vac":true,"version":"7961495","steam_id":85568392924742826,"keywords":["cp","nocrits","nodmgspread","uncletopia"],"game_id":440,"stv_port":27046,"stv_name":"Uncletopia | San Francisco | 4 | Community | STV","players":null},{"server_id":141,"name":"Uncletopia | Sydney | 1 | All Maps","name_short":"syd-1","host":"syd-1.au.uncletopia.com","port":27015,"enabled":true,"region":"au","cc":"au","latitude":-33.865143,"longitude":151.2099,"reserved":0,"last_update":"0001-01-01T00:00:00Z","name_a2s":"Uncletopia | Sydney | 1 | All Maps","protocol":17,"map":"pl_frontier_final","folder":"tf","game":"Team Fortress","app_id":440,"player_count":24,"max_players":24,"Bots":0,"server_type":"Dedicated","server_os":"Linux","password":true,"vac":true,"version":"7961495","steam_id":85568392924470001,"keywords":["nocrits","nodmgspread","payload","uncletopia"],"game_id":440,"stv_port":27016,"stv_name":"Uncletopia | Sydney | 1 | All Maps | STV","players":[{"user_id":174,"name":"Poison_Kouki","steam_id":76561198150364859,"connected_time":2531000000000,"state":"active","ping":50},{"user_id":117,"name":"scabies","steam_id":76561198121757287,"connected_time":6400000000000,"state":"active","ping":45},{"user_id":185,"name":"Vanderhoth","steam_id":76561198075411902,"connected_time":1442000000000,"state":"active","ping":53},{"user_id":192,"name":"teal","steam_id":76561198206949925,"connected_time":1057000000000,"state":"active","ping":71},{"user_id":177,"name":"Jager","steam_id":76561198009812709,"connected_time":2281000000000,"state":"active","ping":44},{"user_id":198,"name":"Warren","steam_id":76561198120350917,"connected_time":579000000000,"state":"active","ping":45},{"user_id":159,"name":"Toody","steam_id":76561198212656752,"connected_time":3483000000000,"state":"active","ping":46},{"user_id":179,"name":"pathway","steam_id":76561198346674092,"connected_time":2179000000000,"state":"active","ping":69},{"user_id":195,"name":"bread","steam_id":76561199405764106,"connected_time":986000000000,"state":"active","ping":39},{"user_id":194,"name":"TornadoInABox","steam_id":76561198152440831,"connected_time":1025000000000,"state":"active","ping":65},{"user_id":182,"name":"ravioli","steam_id":76561198001765827,"connected_time":2049000000000,"state":"active","ping":45},{"user_id":166,"name":"Arn0tt, Host of the Nightmare","steam_id":76561198027007279,"connected_time":3064000000000,"state":"active","ping":95},{"user_id":181,"name":"-Ech0-","steam_id":76561199121536801,"connected_time":2136000000000,"state":"active","ping":55},{"user_id":164,"name":"Matt","steam_id":76561198009757360,"connected_time":3137000000000,"state":"active","ping":61},{"user_id":184,"name":"Penguinator5000","steam_id":76561198038183553,"connected_time":1882000000000,"state":"active","ping":45},{"user_id":199,"name":"Alphandiscobean","steam_id":76561198025845937,"connected_time":413000000000,"state":"active","ping":45},{"user_id":99,"name":"t.tv/catherine_x3","steam_id":76561198041907885,"connected_time":7431000000000,"state":"active","ping":59},{"user_id":197,"name":"rule","steam_id":76561198045589950,"connected_time":719000000000,"state":"active","ping":53},{"user_id":178,"name":"V1RU$ (F2P)","steam_id":76561198412190559,"connected_time":2279000000000,"state":"active","ping":32},{"user_id":155,"name":"the rot consumes","steam_id":76561198042198744,"connected_time":4278000000000,"state":"active","ping":73},{"user_id":145,"name":"stroob","steam_id":76561198045320644,"connected_time":4839000000000,"state":"active","ping":51},{"user_id":161,"name":"Hayden","steam_id":76561197983838052,"connected_time":3369000000000,"state":"active","ping":45},{"user_id":191,"name":"Apollo","steam_id":76561198086063185,"connected_time":1099000000000,"state":"active","ping":65},{"user_id":193,"name":"crispest_npc","steam_id":76561199395449002,"connected_time":1054000000000,"state":"active","ping":74}]},{"server_id":123,"name":"Uncletopia | Sydney | 2 | All Maps","name_short":"syd-2","host":"syd-1.au.uncletopia.com","port":27025,"enabled":true,"region":"au","cc":"au","latitude":-33.865143,"longitude":151.2099,"reserved":0,"last_update":"0001-01-01T00:00:00Z","name_a2s":"Uncletopia | Sydney | 2 | All Maps","protocol":17,"map":"cp_altitude","folder":"tf","game":"Team Fortress","app_id":440,"player_count":0,"max_players":24,"Bots":0,"server_type":"Dedicated","server_os":"Linux","password":true,"vac":true,"version":"7961495","steam_id":85568392924470002,"keywords":["cp","nocrits","nodmgspread","uncletopia"],"game_id":440,"stv_port":27026,"stv_name":"Uncletopia | Sydney | 2 | All Maps | STV","players":null},{"server_id":395,"name":"Uncletopia | Sydney | 3 | All Maps","name_short":"syd-3","host":"syd-1.au.uncletopia.com","port":27035,"enabled":true,"region":"au","cc":"au","latitude":-33.865143,"longitude":151.2099,"reserved":0,"last_update":"0001-01-01T00:00:00Z","name_a2s":"Uncletopia | Sydney | 3 | All Maps","protocol":17,"map":"koth_brazil","folder":"tf","game":"Team Fortress","app_id":440,"player_count":0,"max_players":24,"Bots":0,"server_type":"Dedicated","server_os":"Linux","password":true,"vac":true,"version":"7961495","steam_id":85568392925194467,"keywords":["cp","nocrits","nodmgspread","uncletopia"],"game_id":440,"stv_port":27036,"stv_name":"Uncletopia | Sydney | 3 | All Maps | STV","players":null},{"server_id":396,"name":"Uncletopia | Sydney | 4 | All Maps","name_short":"syd-4","host":"syd-1.au.uncletopia.com","port":27045,"enabled":true,"region":"au","cc":"au","latitude":-33.865143,"longitude":151.2099,"reserved":0,"last_update":"0001-01-01T00:00:00Z","name_a2s":"Uncletopia | Sydney | 4 | All Maps","protocol":17,"map":"pl_upward","folder":"tf","game":"Team Fortress","app_id":440,"player_count":0,"max_players":24,"Bots":0,"server_type":"Dedicated","server_os":"Linux","password":true,"vac":true,"version":"7961495","steam_id":85568392925397958,"keywords":["nocrits","nodmgspread","payload","uncletopia"],"game_id":440,"stv_port":27046,"stv_name":"Uncletopia | Sydney | 4 | All Maps | STV","players":null},{"server_id":58,"name":"Uncletopia | Sydney | 5 | Stopwatch","name_short":"syd-5","host":"syd-1.au.uncletopia.com","port":27055,"enabled":true,"region":"au","cc":"au","latitude":-33.865143,"longitude":151.2099,"reserved":0,"last_update":"0001-01-01T00:00:00Z","name_a2s":"Uncletopia | Sydney | 5 | Stopwatch","protocol":17,"map":"koth_highpass","folder":"tf","game":"Team Fortress","app_id":440,"player_count":0,"max_players":24,"Bots":0,"server_type":"Dedicated","server_os":"Linux","password":true,"vac":true,"version":"7961495","steam_id":85568392925397959,"keywords":["cp","nocrits","nodmgspread","uncletopia"],"game_id":440,"stv_port":27056,"stv_name":"Uncletopia | Sydney | 5 | Stopwatch | STV","players":null},{"server_id":59,"name":"Uncletopia | Sydney | 6 | Community","name_short":"syd-6","host":"syd-1.au.uncletopia.com","port":27065,"enabled":true,"region":"au","cc":"au","latitude":-33.865143,"longitude":151.2099,"reserved":0,"last_update":"0001-01-01T00:00:00Z","name_a2s":"Uncletopia | Sydney | 6 | Community","protocol":17,"map":"workshop/cp_mannbase_rc2a.ugc1900737467","folder":"tf","game":"Team Fortress","app_id":440,"player_count":0,"max_players":24,"Bots":0,"server_type":"Dedicated","server_os":"Linux","password":true,"vac":true,"version":"7961495","steam_id":85568392925397960,"keywords":["cp","nocrits","nodmgspread","uncletopia"],"game_id":440,"stv_port":27066,"stv_name":"Uncletopia | Sydney | 6 | Community | STV","players":null},{"server_id":49,"name":"Uncletopia | Warsaw | 1 | One Thousand Uncles","name_short":"waw-1","host":"waw-1.pl.uncletopia.com","port":27015,"enabled":true,"region":"eu","cc":"pl","latitude":52.2297,"longitude":21.017532,"reserved":0,"last_update":"0001-01-01T00:00:00Z","name_a2s":"Uncletopia | Warsaw | 1 | One Thousand Uncles","protocol":17,"map":"pl_badwater","folder":"tf","game":"Team Fortress","app_id":440,"player_count":0,"max_players":32,"Bots":0,"server_type":"Dedicated","server_os":"Linux","password":true,"vac":true,"version":"7961495","steam_id":85568392925397850,"keywords":["alltalk","danepve","increased_maxplayers","norespawntime","payload","uncletopia"],"game_id":440,"stv_port":0,"stv_name":"","players":null},{"server_id":50,"name":"Uncletopia | Warsaw | 2 | One Thousand Uncles","name_short":"waw-2","host":"waw-1.pl.uncletopia.com","port":27025,"enabled":true,"region":"eu","cc":"pl","latitude":52.2297,"longitude":21.017532,"reserved":0,"last_update":"0001-01-01T00:00:00Z","name_a2s":"Uncletopia | Warsaw | 2 | One Thousand Uncles","protocol":17,"map":"pl_thundermountain","folder":"tf","game":"Team Fortress","app_id":440,"player_count":0,"max_players":32,"Bots":0,"server_type":"Dedicated","server_os":"Linux","password":true,"vac":true,"version":"7961495","steam_id":85568392925397851,"keywords":["alltalk","danepve","increased_maxplayers","norespawntime","payload","uncletopia"],"game_id":440,"stv_port":0,"stv_name":"","players":null},{"server_id":51,"name":"Uncletopia | Warsaw | 3 | All Maps","name_short":"waw-3","host":"waw-1.pl.uncletopia.com","port":27035,"enabled":true,"region":"eu","cc":"pl","latitude":52.2297,"longitude":21.017532,"reserved":0,"last_update":"0001-01-01T00:00:00Z","name_a2s":"Uncletopia | Warsaw | 3 | All Maps","protocol":17,"map":"koth_highpass","folder":"tf","game":"Team Fortress","app_id":440,"player_count":0,"max_players":24,"Bots":0,"server_type":"Dedicated","server_os":"Linux","password":true,"vac":true,"version":"7961495","steam_id":85568392925397852,"keywords":["cp","nocrits","nodmgspread","uncletopia"],"game_id":440,"stv_port":27036,"stv_name":"Uncletopia | Warsaw | 3 | All Maps | STV","players":null},{"server_id":52,"name":"Uncletopia | Warsaw | 4 | All Maps","name_short":"waw-4","host":"waw-1.pl.uncletopia.com","port":27045,"enabled":true,"region":"eu","cc":"pl","latitude":52.2297,"longitude":21.017532,"reserved":0,"last_update":"0001-01-01T00:00:00Z","name_a2s":"Uncletopia | Warsaw | 4 | All Maps","protocol":17,"map":"koth_highpass","folder":"tf","game":"Team Fortress","app_id":440,"player_count":0,"max_players":24,"Bots":0,"server_type":"Dedicated","server_os":"Linux","password":true,"vac":true,"version":"7961495","steam_id":85568392925397853,"keywords":["cp","nocrits","nodmgspread","uncletopia"],"game_id":440,"stv_port":27046,"stv_name":"Uncletopia | Warsaw | 4 | All Maps | STV","players":null},{"server_id":53,"name":"Uncletopia | Warsaw | 5 | Stopwatch","name_short":"waw-5","host":"waw-1.pl.uncletopia.com","port":27055,"enabled":true,"region":"eu","cc":"pl","latitude":52.2297,"longitude":21.017532,"reserved":0,"last_update":"0001-01-01T00:00:00Z","name_a2s":"Uncletopia | Warsaw | 5 | Stopwatch","protocol":17,"map":"koth_lakeside_final","folder":"tf","game":"Team Fortress","app_id":440,"player_count":0,"max_players":24,"Bots":0,"server_type":"Dedicated","server_os":"Linux","password":true,"vac":true,"version":"7961495","steam_id":85568392925397854,"keywords":["cp","nocrits","nodmgspread","uncletopia"],"game_id":440,"stv_port":27056,"stv_name":"Uncletopia | Warsaw | 5 | Stopwatch | STV","players":null},{"server_id":54,"name":"Uncletopia | Warsaw | 6 | Community","name_short":"waw-6","host":"waw-1.pl.uncletopia.com","port":27065,"enabled":true,"region":"eu","cc":"pl","latitude":52.2297,"longitude":21.017532,"reserved":0,"last_update":"0001-01-01T00:00:00Z","name_a2s":"Uncletopia | Warsaw | 6 | Community","protocol":17,"map":"workshop/koth_product_final.ugc454272353","folder":"tf","game":"Team Fortress","app_id":440,"player_count":0,"max_players":24,"Bots":0,"server_type":"Dedicated","server_os":"Linux","password":true,"vac":true,"version":"7961495","steam_id":85568392925397856,"keywords":["cp","nocrits","nodmgspread","uncletopia"],"game_id":440,"stv_port":27066,"stv_name":"Uncletopia | Warsaw | 6 | Community | STV","players":null}]}