{"status":true,"message":"","result":[{"server_id":9,"name":"Uncletopia | Atlanta | 1 | All Maps","name_short":"atl-1","host":"atl-1.us.uncletopia.com","port":27015,"enabled":true,"region":"us-east","cc":"us","latitude":33.753746,"longitude":-84.38633,"reserved":0,"last_update":"0001-01-01T00:00:00Z","name_a2s":"Uncletopia | Atlanta | 1 | All Maps","protocol":17,"map":"pl_swiftwater_final1","folder":"tf","game":"Team Fortress","app_id":440,"player_count":24,"max_players":24,"Bots":0,"server_type":"Dedicated","server_os":"Linux","password":true,"vac":true,"version":"7961495","steam_id":85568392924469982,"keywords":["nocrits","nodmgspread","payload","uncletopia"],"game_id":440,"stv_port":27016,"stv_name":"Uncletopia | Atlanta | 1 | All Maps | STV","players":[{"user_id":495,"name":"Uung","steam_id":76561198183956731,"connected_time":3575000000000,"state":"active","ping":52},{"user_id":513,"name":"Alphowlet98","steam_id":76561199093985532,"connected_time":2458000000000,"state":"active","ping":121},{"user_id":524,"name":"CipherlockYT","steam_id":76561198075994493,"connected_time":901000000000,"state":"active","ping":153},{"user_id":520,"name":"The Professor","steam_id":76561198113760863,"connected_time":1036000000000,"state":"active","ping":59},{"user_id":490,"name":"펨보이","steam_id":76561199468748840,"connected_time":3932000000000,"state":"active","ping":68},{"user_id":470,"name":"DiamondEpsilon","steam_id":76561198203883311,"connected_time":6129000000000,"state":"active","ping":101},{"user_id":491,"name":"JustAnotherHuman","steam_id":76561199018122924,"connected_time":3907000000000,"state":"active","ping":387},{"user_id":531,"name":"vid_","steam_id":76561198065159053,"connected_time":285000000000,"state":"active","ping":52},{"user_id":532,"name":"ATL 1 | Save your wifi","steam_id":76561198286147372,"connected_time":62000000000,"state":"active","ping":61},{"user_id":458,"name":"Marrow \u003c3","steam_id":76561198930350337,"connected_time":7494000000000,"state":"active","ping":57},{"user_id":519,"name":"Artixes","steam_id":76561198379574232,"connected_time":1041000000000,"state":"active","ping":41},{"user_id":518,"name":"Klepto","steam_id":76561199501643797,"connected_time":1923000000000,"state":"active","ping":88},{"user_id":521,"name":"juanjoesc","steam_id":76561198186368430,"connected_time":940000000000,"state":"active","ping":115},{"user_id":525,"name":"Kratos Car","steam_id":76561198829553239,"connected_time":893000000000,"state":"active","ping":68},{"user_id":516,"name":"Fudge","steam_id":76561198058604331,"connected_time":2336000000000,"state":"active","ping":46},{"user_id":472,"name":"KASHI","steam_id":76561198045285049,"connected_time":6053000000000,"state":"active","ping":101},{"user_id":522,"name":"Gen-E","steam_id":76561199497800989,"connected_time":931000000000,"state":"active","ping":85},{"user_id":506,"name":"The Sorrow of Dandy","steam_id":76561198005551894,"connected_time":2816000000000,"state":"active","ping":71},{"user_id":529,"name":"Apothecaring","steam_id":76561198169653100,"connected_time":625000000000,"state":"active","ping":62},{"user_id":527,"name":"Allister","steam_id":76561197999823352,"connected_time":846000000000,"state":"active","ping":66},{"user_id":508,"name":"HalfDead","steam_id":76561198049700226,"connected_time":2807000000000,"state":"active","ping":88},{"user_id":528,"name":"Satanael","steam_id":76561198165252930,"connected_time":814000000000,"state":"active","ping":46},{"user_id":530,"name":"guy","steam_id":76561198079925551,"connected_time":560000000000,"state":"active","ping":72},{"user_id":467,"name":"YeeboBeebo","steam_id":76561198812879907,"connected_time":6617000000000,"state":"active","ping":77}]},{"server_id":104,"name":"Uncletopia | Atlanta | 2 | All Maps","name_short":"atl-2","host":"atl-1.us.uncletopia.com","port":27025,"enabled":true,"region":"us-east","cc":"us","latitude":33.753746,"longitude":-84.38633,"reserved":0,"last_update":"0001-01-01T00:00:00Z","name_a2s":"Uncletopia | Atlanta | 2 | All Maps","protocol":17,"map":"pl_badwater","folder":"tf","game":"Team Fortress","app_id":440,"player_count":24,"max_players":24,"Bots":0,"server_type":"Dedicated","server_os":"Linux","password":true,"vac":true,"version":"7961495","steam_id":85568392924469983,"keywords":["nocrits","nodmgspread","payload","uncletopia"],"game_id":440,"stv_port":27026,"stv_name":"Uncletopia | Atlanta | 2 | All Maps | STV","players":[{"user_id":285,"name":"The Rock","steam_id":76561198433328517,"connected_time":3000000000000,"state":"active","ping":69},{"user_id":306,"name":"Charlie","steam_id":76561199098209171,"connected_time":1185000000000,"state":"active","ping":70},{"user_id":326,"name":"AnnieM","steam_id":76561199435467297,"connected_time":47000000000,"state":"active","ping":71},{"user_id":263,"name":"Azazellotl","steam_id":76561198824814392,"connected_time":4610000000000,"state":"active","ping":68},{"user_id":312,"name":"Lee?","steam_id":76561199060892634,"connected_time":848000000000,"state":"active","ping":77},{"user_id":325,"name":"Unco Denis","steam_id":76561198272705539,"connected_time":307000000000,"state":"active","ping":192},{"user_id":249,"name":"Decolour","steam_id":76561199045608372,"connected_time":5729000000000,"state":"active","ping":80},{"user_id":313,"name":"CHAI","steam_id":76561198119556082,"connected_time":837000000000,"state":"active","ping":75},{"user_id":305,"name":"totally not a pile of beans","steam_id":76561198119851931,"connected_time":1489000000000,"state":"active","ping":78},{"user_id":304,"name":"Wafflez","steam_id":76561198081611996,"connected_time":1606000000000,"state":"active","ping":63},{"user_id":323,"name":"scrapheap","steam_id":76561198202407087,"connected_time":441000000000,"state":"active","ping":99},{"user_id":301,"name":"JoeFalco","steam_id":76561198064005012,"connected_time":1968000000000,"state":"active","ping":102},{"user_id":302,"name":"YouR dad","steam_id":76561198044013623,"connected_time":1668000000000,"state":"active","ping":56},{"user_id":316,"name":"SungChook [TF2]","steam_id":76561198106636116,"connected_time":665000000000,"state":"active","ping":72},{"user_id":290,"name":"GardenOfStone","steam_id":76561199069870534,"connected_time":2869000000000,"state":"active","ping":96},{"user_id":294,"name":"CherriKat","steam_id":76561198821297512,"connected_time":2800000000000,"state":"active","ping":105},{"user_id":322,"name":"Que-sus-dilla","steam_id":76561198125712564,"connected_time":482000000000,"state":"active","ping":152},{"user_id":303,"name":"Colossal Falafel","steam_id":76561198108086245,"connected_time":1652000000000,"state":"active","ping":68},{"user_id":315,"name":"Triple Lizard","steam_id":76561198188459654,"connected_time":691000000000,"state":"active","ping":61},{"user_id":300,"name":"kuani","steam_id":76561199061380038,"connected_time":2064000000000,"state":"active","ping":58},{"user_id":327,"name":"Captain Malarkey","steam_id":76561198869924281,"connected_time":47000000000,"state":"active","ping":75},{"user_id":295,"name":"moe","steam_id":76561198929586245,"connected_time":2796000000000,"state":"active","ping":89},{"user_id":256,"name":"The Great British Breaking Bad","steam_id":76561198028882338,"connected_time":5581000000000,"state":"active","ping":56},{"user_id":310,"name":"non_ai","steam_id":76561198270951938,"connected_time":1084000000000,"state":"active","ping":64}]},{"server_id":400,"name":"Uncletopia | Atlanta | 3 | Stopwatch","name_short":"atl-3","host":"atl-1.us.uncletopia.com","port":27035,"enabled":true,"region":"us-east","cc":"us","latitude":33.753746,"longitude":-84.38633,"reserved":0,"last_update":"0001-01-01T00:00:00Z","name_a2s":"Uncletopia | Atlanta | 3 | Stopwatch","protocol":17,"map":"workshop/pl_badwater_pro_v12.ugc2142942074","folder":"tf","game":"Team Fortress","app_id":440,"player_count":9,"max_players":24,"Bots":0,"server_type":"Dedicated","server_os":"Linux","password":true,"vac":true,"version":"7961495","steam_id":85568392924515187,"keywords":["nocrits","nodmgspread","payload","uncletopia"],"game_id":440,"stv_port":27036,"stv_name":"Uncletopia | Atlanta | 3 | Stopwatch | STV","players":[{"user_id":115,"name":"Bonk Nickeltoon","steam_id":76561198027738883,"connected_time":7739000000000,"state":"active","ping":63},{"user_id":194,"name":"kjr :)","steam_id":76561198799443149,"connected_time":1991000000000,"state":"active","ping":48},{"user_id":188,"name":"Fry","steam_id":76561198065320920,"connected_time":2738000000000,"state":"active","ping":155},{"user_id":87,"name":"12 yottabytes of women's feet","steam_id":76561198057034390,"connected_time":9054000000000,"state":"active","ping":120},{"user_id":197,"name":"Limerumpus","steam_id":76561198138113676,"connected_time":1268000000000,"state":"active","ping":86},{"user_id":198,"name":"Pandaquack","steam_id":76561198298012549,"connected_time":1259000000000,"state":"active","ping":55},{"user_id":202,"name":"Alabit","steam_id":76561198065578560,"connected_time":494000000000,"state":"active","ping":90},{"user_id":145,"name":"i am a chicken nugget, with no ","steam_id":76561198053832401,"connected_time":5572000000000,"state":"active","ping":121}]},{"server_id":401,"name":"Uncletopia | Atlanta | 4 | Community","name_short":"atl-4","host":"atl-1.us.uncletopia.com","port":27045,"enabled":true,"region":"us-east","cc":"us","latitude":33.753746,"longitude":-84.38633,"reserved":0,"last_update":"0001-01-01T00:00:00Z","name_a2s":"Uncletopia | Atlanta | 4 | Community","protocol":17,"map":"workshop/koth_product_final.ugc454272353","folder":"tf","game":"Team Fortress","app_id":440,"player_count":0,"max_players":24,"Bots":0,"server_type":"Dedicated","server_os":"Linux","password":true,"vac":true,"version":"7961495","steam_id":85568392924515188,"keywords":["cp","nocrits","nodmgspread","uncletopia"],"game_id":440,"stv_port":27046,"stv_name":"Uncletopia | Atlanta | 4 | Community | STV","players":null},{"server_id":2,"name":"Uncletopia | Chicago | 1 | All Maps","name_short":"chi-1","host":"chi-1.us.uncletopia.com","port":27015,"enabled":true,"region":"us-central","cc":"us","latitude":41.881832,"longitude":-87.62318,"reserved":0,"last_update":"0001-01-01T00:00:00Z","name_a2s":"Uncletopia | Chicago | 1 | All Maps","protocol":17,"map":"pl_frontier_final","folder":"tf","game":"Team Fortress","app_id":440,"player_count":24,"max_players":24,"Bots":0,"server_type":"Dedicated","server_os":"Linux","password":true,"vac":true,"version":"7961495","steam_id":85568392924469984,"keywords":["nocrits","nodmgspread","payload","uncletopia"],"game_id":440,"stv_port":27016,"stv_name":"Uncletopia | Chicago | 1 | All Maps | STV","players":[{"user_id":455,"name":"stuffedidiot","steam_id":76561199181513019,"connected_time":2728000000000,"state":"active","ping":90},{"user_id":450,"name":"Heartbeat","steam_id":76561198155872356,"connected_time":3321000000000,"state":"active","ping":59},{"user_id":438,"name":"Endzilla88","steam_id":76561198257926514,"connected_time":4184000000000,"state":"active","ping":68},{"user_id":482,"name":"Rocko","steam_id":76561198088283800,"connected_time":421000000000,"state":"active","ping":55},{"user_id":456,"name":"paypur -rng","steam_id":76561198214370515,"connected_time":2702000000000,"state":"active","ping":85},{"user_id":483,"name":"Fredrick","steam_id":76561197981419964,"connected_time":418000000000,"state":"active","ping":67},{"user_id":473,"name":"GregGaming098","steam_id":76561198882415360,"connected_time":1553000000000,"state":"active","ping":84},{"user_id":477,"name":"Motreir","steam_id":76561198151717946,"connected_time":801000000000,"state":"active","ping":81},{"user_id":479,"name":"Ayylmao","steam_id":76561198104780147,"connected_time":797000000000,"state":"active","ping":45},{"user_id":484,"name":"Comfy Monkey","steam_id":76561197998434936,"connected_time":411000000000,"state":"active","ping":53},{"user_id":474,"name":"mootier","steam_id":76561198030365192,"connected_time":1187000000000,"state":"active","ping":68},{"user_id":453,"name":"sadako","steam_id":76561198170642407,"connected_time":2834000000000,"state":"active","ping":74},{"user_id":476,"name":"Amari","steam_id":76561198272446730,"connected_time":950000000000,"state":"active","ping":54},{"user_id":451,"name":"Space","steam_id":76561198350489754,"connected_time":3069000000000,"state":"active","ping":48},{"user_id":485,"name":"⚆ _ ⚆","steam_id":76561198999217575,"connected_time":376000000000,"state":"active","ping":68},{"user_id":467,"name":"anonEDM","steam_id":76561197976560316,"connected_time":2106000000000,"state":"active","ping":91},{"user_id":486,"name":"♥Zoot♥Turbo-Virgin♥","steam_id":76561198121944243,"connected_time":363000000000,"state":"active","ping":52},{"user_id":459,"name":"TehSpooch","steam_id":76561199244670744,"connected_time":2642000000000,"state":"active","ping":71},{"user_id":475,"name":"Cigarette Man","steam_id":76561198201978589,"connected_time":1107000000000,"state":"active","ping":68},{"user_id":469,"name":"`o2","steam_id":76561197992030936,"connected_time":1808000000000,"state":"active","ping":67},{"user_id":461,"name":"Rat Smacker","steam_id":76561198043629646,"connected_time":2581000000000,"state":"active","ping":84},{"user_id":462,"name":"Mug","steam_id":76561198000672907,"connected_time":2572000000000,"state":"active","ping":74},{"user_id":463,"name":"Gelisor","steam_id":76561198001581101,"connected_time":2572000000000,"state":"active","ping":67},{"user_id":480,"name":"Granola","steam_id":76561198312513800,"connected_time":790000000000,"state":"active","ping":46}]},{"server_id":106,"name":"Uncletopia | Chicago | 2 | All Maps","name_short":"chi-2","host":"chi-1.us.uncletopia.com","port":27025,"enabled":true,"region":"us-central","cc":"us","latitude":41.881832,"longitude":-87.62318,"reserved":0,"last_update":"0001-01-01T00:00:00Z","name_a2s":"Uncletopia | Chicago | 2 | All Maps","protocol":17,"map":"pl_thundermountain","folder":"tf","game":"Team Fortress","app_id":440,"player_count":24,"max_players":24,"Bots":0,"server_type":"Dedicated","server_os":"Linux","password":true,"vac":true,"version":"7961495","steam_id":85568392924469985,"keywords":["nocrits","nodmgspread","payload","uncletopia"],"game_id":440,"stv_port":27026,"stv_name":"Uncletopia | Chicago | 2 | All Maps | STV","players":[{"user_id":532,"name":"Birthday Twink","steam_id":76561198085598022,"connected_time":1765000000000,"state":"active","ping":53},{"user_id":533,"name":"Ice","steam_id":76561198045076794,"connected_time":1455000000000,"state":"active","ping":50},{"user_id":497,"name":"Lia_Rein","steam_id":76561198151569597,"connected_time":3909000000000,"state":"active","ping":159},{"user_id":537,"name":"Macho Man","steam_id":76561198062247260,"connected_time":1162000000000,"state":"active","ping":60},{"user_id":483,"name":"Buckler","steam_id":76561197969421355,"connected_time":5048000000000,"state":"active","ping":57},{"user_id":536,"name":"boffo","steam_id":76561198096978718,"connected_time":1236000000000,"state":"active","ping":88},{"user_id":480,"name":"Howard Hamlin","steam_id":76561198881039861,"connected_time":5195000000000,"state":"active","ping":63},{"user_id":515,"name":"Beeg Yoshi","steam_id":76561198835789509,"connected_time":2769000000000,"state":"active","ping":60},{"user_id":453,"name":"Maximum Flame","steam_id":76561198073682529,"connected_time":7570000000000,"state":"active","ping":43},{"user_id":502,"name":"Shrim","steam_id":76561198068455981,"connected_time":3626000000000,"state":"active","ping":77},{"user_id":457,"name":"Brains . . .","steam_id":76561198100249037,"connected_time":7264000000000,"state":"active","ping":37},{"user_id":518,"name":"psyk0smurf","steam_id":76561199077856919,"connected_time":2384000000000,"state":"active","ping":65},{"user_id":488,"name":"Tobo","steam_id":76561198085846393,"connected_time":4611000000000,"state":"active","ping":94},{"user_id":525,"name":"Stock Dog","steam_id":76561198070469034,"connected_time":2171000000000,"state":"active","ping":93},{"user_id":531,"name":"1985 Toyota Sprinter Trueno","steam_id":76561198436383373,"connected_time":1822000000000,"state":"active","ping":113},{"user_id":455,"name":"MedRed™ #IATAH","steam_id":76561198002962970,"connected_time":7543000000000,"state":"active","ping":106},{"user_id":526,"name":"Jimmy","steam_id":76561198059948196,"connected_time":2170000000000,"state":"active","ping":87},{"user_id":445,"name":"hej","steam_id":76561197996366940,"connected_time":7876000000000,"state":"active","ping":60},{"user_id":450,"name":"Hazeyboi","steam_id":76561198130687838,"connected_time":7754000000000,"state":"active","ping":46},{"user_id":512,"name":"Piyono","steam_id":76561197962188504,"connected_time":3041000000000,"state":"active","ping":72},{"user_id":527,"name":"Mr. Hankey","steam_id":76561198872852200,"connected_time":2152000000000,"state":"active","ping":147},{"user_id":528,"name":"allah's strongest twink","steam_id":76561198209267577,"connected_time":2145000000000,"state":"active","ping":86},{"user_id":529,"name":"i eat glue","steam_id":76561198827026673,"connected_time":2142000000000,"state":"active","ping":71},{"user_id":538,"name":"Anthid","steam_id":76561198074493797,"connected_time":1006000000000,"state":"active","ping":74}]},{"server_id":402,"name":"Uncletopia | Chicago | 3 | All Maps","name_short":"chi-3","host":"chi-1.us.uncletopia.com","port":27035,"enabled":true,"region":"us-central","cc":"us","latitude":41.881832,"longitude":-87.62318,"reserved":0,"last_update":"0001-01-01T00:00:00Z","name_a2s":"Uncletopia | Chicago | 3 | All Maps","protocol":17,"map":"cp_dustbowl","folder":"tf","game":"Team Fortress","app_id":440,"player_count":21,"max_players":24,"Bots":0,"server_type":"Dedicated","server_os":"Linux","password":true,"vac":true,"version":"7961495","steam_id":85568392924515191,"keywords":["cp","nocrits","nodmgspread","uncletopia"],"game_id":440,"stv_port":27036,"stv_name":"Uncletopia | Chicago | 3 | All Maps | STV","players":[{"user_id":619,"name":"winning","steam_id":76561198003206947,"connected_time":7749000000000,"state":"active","ping":45},{"user_id":733,"name":"milk then cereal","steam_id":76561198047168548,"connected_time":307000000000,"state":"active","ping":100},{"user_id":734,"name":"sckeeb","steam_id":76561198151064563,"connected_time":290000000000,"state":"active","ping":83},{"user_id":724,"name":"souljaboytellem.com","steam_id":76561198095824426,"connected_time":949000000000,"state":"active","ping":78},{"user_id":746,"name":"chippy","steam_id":76561198079655664,"connected_time":76000000000,"state":"active","ping":79},{"user_id":697,"name":"Strange Diplomat","steam_id":76561198428191920,"connected_time":2465000000000,"state":"active","ping":70},{"user_id":694,"name":"works cited","steam_id":76561198853297459,"connected_time":2662000000000,"state":"active","ping":59},{"user_id":739,"name":"Zebulaun","steam_id":76561197965160251,"connected_time":177000000000,"state":"active","ping":75},{"user_id":742,"name":"Mojave Mo'Problem","steam_id":76561198021706593,"connected_time":128000000000,"state":"active","ping":76},{"user_id":712,"name":"Willy","steam_id":76561198129013079,"connected_time":1615000000000,"state":"active","ping":71},{"user_id":714,"name":"Squigly","steam_id":76561198084811625,"connected_time":1595000000000,"state":"active","ping":74},{"user_id":681,"name":"Nibelsnarf (She/They)","steam_id":76561198137642054,"connected_time":3744000000000,"state":"active","ping":53},{"user_id":662,"name":"Crab","steam_id":76561198067628664,"connected_time":4509000000000,"state":"active","ping":102},{"user_id":743,"name":"Arctem","steam_id":76561198012937871,"connected_time":110000000000,"state":"active","ping":80},{"user_id":717,"name":"DethSQRL","steam_id":76561199149628610,"connected_time":1562000000000,"state":"active","ping":80},{"user_id":732,"name":"lv.2 goblin","steam_id":76561198323380643,"connected_time":418000000000,"state":"active","ping":66},{"user_id":721,"name":"jerma but crying and lesbian","steam_id":76561198110661425,"connected_time":1275000000000,"state":"active","ping":54},{"user_id":731,"name":"PearForceOne","steam_id":76561197999091748,"connected_time":467000000000,"state":"active","ping":56},{"user_id":744,"name":"Girthworm Jim","steam_id":76561198007433376,"connected_time":107000000000,"state":"active","ping":71},{"user_id":730,"name":"Balerion the Black Dread","steam_id":76561198003728369,"connected_time":495000000000,"state":"active","ping":64},{"user_id":618,"name":"Nazrin","steam_id":76561198246701796,"connected_time":7826000000000,"state":"active","ping":73}]},{"server_id":403,"name":"Uncletopia | Chicago | 4 | All Maps","name_short":"chi-4","host":"chi-1.us.uncletopia.com","port":27045,"enabled":true,"region":"us-central","cc":"us","latitude":41.881832,"longitude":-87.62318,"reserved":0,"last_update":"0001-01-01T00:00:00Z","name_a2s":"Uncletopia | Chicago | 4 | All Maps","protocol":17,"map":"koth_cascade","folder":"tf","game":"Team Fortress","app_id":440,"player_count":24,"max_players":24,"Bots":0,"server_type":"Dedicated","server_os":"Linux","password":true,"vac":true,"version":"7961495","steam_id":85568392924515193,"keywords":["cp","nocrits","nodmgspread","uncletopia"],"game_id":440,"stv_port":27046,"stv_name":"Uncletopia | Chicago | 4 | All Maps | STV","players":[{"user_id":452,"name":"ravN :)","steam_id":76561198272366231,"connected_time":3694000000000,"state":"active","ping":54},{"user_id":474,"name":"Duncan Idaho","steam_id":76561197988963861,"connected_time":2132000000000,"state":"active","ping":60},{"user_id":490,"name":"captainskullet","steam_id":76561198314597170,"connected_time":1321000000000,"state":"active","ping":65},{"user_id":494,"name":"SoldMyKidneyForCollege","steam_id":76561198096329559,"connected_time":702000000000,"state":"active","ping":97},{"user_id":495,"name":"cilo","steam_id":76561198046163502,"connected_time":641000000000,"state":"active","ping":67},{"user_id":469,"name":"Natsuki the Scunt","steam_id":76561199175922684,"connected_time":2720000000000,"state":"active","ping":103},{"user_id":482,"name":"Uncle Kirk","steam_id":76561198200909977,"connected_time":1746000000000,"state":"active","ping":79},{"user_id":502,"name":"Soldie","steam_id":76561198118414372,"connected_time":416000000000,"state":"active","ping":84},{"user_id":506,"name":"Miss Star","steam_id":76561199106587693,"connected_time":153000000000,"state":"active","ping":73},{"user_id":476,"name":"misterspud","steam_id":76561198195306218,"connected_time":2032000000000,"state":"active","ping":44},{"user_id":496,"name":"ceres","steam_id":76561198291976960,"connected_time":609000000000,"state":"active","ping":103},{"user_id":471,"name":"Yongle","steam_id":76561198068591156,"connected_time":2536000000000,"state":"active","ping":56},{"user_id":503,"name":"0","steam_id":76561198077845560,"connected_time":369000000000,"state":"active","ping":67},{"user_id":491,"name":"Chuck Finley","steam_id":76561198027411284,"connected_time":1318000000000,"state":"active","ping":76},{"user_id":483,"name":"Shoeshocker","steam_id":76561198174302467,"connected_time":1633000000000,"state":"active","ping":63},{"user_id":498,"name":"spice","steam_id":76561198138467891,"connected_time":531000000000,"state":"active","ping":151},{"user_id":463,"name":"roman","steam_id":76561198170066797,"connected_time":3151000000000,"state":"active","ping":64},{"user_id":500,"name":"CookieFACE!","steam_id":76561198112586200,"connected_time":515000000000,"state":"active","ping":52},{"user_id":493,"name":"doughboy","steam_id":76561198219012928,"connected_time":1160000000000,"state":"active","ping":105},{"user_id":501,"name":"Harven Cosset","steam_id":76561198399526024,"connected_time":490000000000,"state":"active","ping":68},{"user_id":507,"name":"cure","steam_id":76561199174450788,"connected_time":32000000000,"state":"active","ping":103},{"user_id":504,"name":"Phos","steam_id":76561198122339506,"connected_time":367000000000,"state":"active","ping":76},{"user_id":505,"name":"Forever Cult","steam_id":76561198083175190,"connected_time":345000000000,"state":"active","ping":67},{"user_id":480,"name":"Yiggs_","steam_id":76561198058742814,"connected_time":1955000000000,"state":"active","ping":52}]},{"server_id":36,"name":"Uncletopia | Chicago | 5 | All Maps","name_short":"chi-5","host":"chi-2.us.uncletopia.com","port":27015,"enabled":true,"region":"us-central","cc":"us","latitude":41.881832,"longitude":-87.62318,"reserved":0,"last_update":"0001-01-01T00:00:00Z","name_a2s":"Uncletopia | Chicago | 5 | All Maps","protocol":17,"map":"koth_harvest_final","folder":"tf","game":"Team Fortress","app_id":440,"player_count":16,"max_players":24,"Bots":0,"server_type":"Dedicated","server_os":"Linux","password":true,"vac":true,"version":"7961495","steam_id":85568392924866362,"keywords":["cp","nocrits","nodmgspread","uncletopia"],"game_id":440,"stv_port":27016,"stv_name":"Uncletopia | Chicago | 5 | All Maps | STV","players":[{"user_id":615,"name":"thundah!","steam_id":76561199159928133,"connected_time":94000000000,"state":"active","ping":70},{"user_id":607,"name":"Goldensliv","steam_id":76561198161673891,"connected_time":1200000000000,"state":"active","ping":90},{"user_id":616,"name":"milo","steam_id":76561199081639163,"connected_time":69000000000,"state":"active","ping":97},{"user_id":617,"name":"bottomsweep","steam_id":76561198250215874,"connected_time":0,"state":"spawning","ping":0},{"user_id":594,"name":"Eomy","steam_id":76561198297783627,"connected_time":1836000000000,"state":"active","ping":71},{"user_id":591,"name":"gyat","steam_id":76561198043684960,"connected_time":2198000000000,"state":"active","ping":73},{"user_id":608,"name":"Truly Cryo","steam_id":76561198347497484,"connected_time":1073000000000,"state":"active","ping":85},{"user_id":600,"name":"Shady Businessman","steam_id":76561198143855968,"connected_time":1411000000000,"state":"active","ping":91},{"user_id":610,"name":"Forehead","steam_id":76561198124151399,"connected_time":719000000000,"state":"active","ping":64},{"user_id":614,"name":"Jelqing Table","steam_id":76561198051373750,"connected_time":355000000000,"state":"active","ping":70},{"user_id":544,"name":"Owls = Government Drones","steam_id":76561198439793697,"connected_time":4397000000000,"state":"active","ping":72},{"user_id":487,"name":"Captain","steam_id":76561198155723294,"connected_time":7623000000000,"state":"active","ping":60},{"user_id":576,"name":"Person","steam_id":76561198093244204,"connected_time":3123000000000,"state":"active","ping":74},{"user_id":592,"name":"Engineer2650","steam_id":76561198121410799,"connected_time":2150000000000,"state":"active","ping":73},{"user_id":606,"name":"Sprit ♥","steam_id":76561198268780781,"connected_time":1343000000000,"state":"active","ping":45},{"user_id":613,"name":"Lord Cutler Beckett","steam_id":76561198091356047,"connected_time":615000000000,"state":"active","ping":46}]},{"server_id":37,"name":"Uncletopia | Chicago | 6 | All Maps","name_short":"chi-6","host":"chi-2.us.uncletopia.com","port":27025,"enabled":true,"region":"us-central","cc":"us","latitude":41.881832,"longitude":-87.62318,"reserved":0,"last_update":"0001-01-01T00:00:00Z","name_a2s":"Uncletopia | Chicago | 6 | All Maps","protocol":17,"map":"pl_barnblitz","folder":"tf","game":"Team Fortress","app_id":440,"player_count":24,"max_players":24,"Bots":0,"server_type":"Dedicated","server_os":"Linux","password":true,"vac":true,"version":"7961495","steam_id":85568392924866363,"keywords":["nocrits","nodmgspread","payload","uncletopia"],"game_id":440,"stv_port":27026,"stv_name":"Uncletopia | Chicago | 6 | All Maps | STV","players":[{"user_id":368,"name":"paetho YT","steam_id":76561198152690003,"connected_time":1184000000000,"state":"active","ping":59},{"user_id":354,"name":"menonamed","steam_id":76561198199564382,"connected_time":2283000000000,"state":"active","ping":69},{"user_id":366,"name":"Ping","steam_id":76561199206514106,"connected_time":1274000000000,"state":"active","ping":53},{"user_id":378,"name":"ghosty","steam_id":76561198044210264,"connected_time":1024000000000,"state":"active","ping":79},{"user_id":338,"name":"The Russian Aristocrat","steam_id":76561198136982572,"connected_time":3097000000000,"state":"active","ping":106},{"user_id":369,"name":"Cliff Uppercut","steam_id":76561197999439391,"connected_time":1183000000000,"state":"active","ping":77},{"user_id":370,"name":"Ike","steam_id":76561198066696440,"connected_time":1142000000000,"state":"active","ping":90},{"user_id":383,"name":"SHADOW","steam_id":76561198207768148,"connected_time":547000000000,"state":"active","ping":110},{"user_id":372,"name":"nut master","steam_id":76561198277662053,"connected_time":1096000000000,"state":"active","ping":47},{"user_id":373,"name":"Dullahan","steam_id":76561198119668908,"connected_time":1087000000000,"state":"active","ping":107},{"user_id":355,"name":"enemy npc","steam_id":76561198801207748,"connected_time":2241000000000,"state":"active","ping":64},{"user_id":385,"name":"THICCBEEF GRANDPA","steam_id":76561197993550572,"connected_time":438000000000,"state":"active","ping":70},{"user_id":361,"name":"Shoes [Gaming]","steam_id":76561198836436110,"connected_time":1961000000000,"state":"active","ping":70},{"user_id":290,"name":"snive","steam_id":76561198086748674,"connected_time":6455000000000,"state":"active","ping":85},{"user_id":375,"name":"GreenApples","steam_id":76561198120559543,"connected_time":1081000000000,"state":"active","ping":114},{"user_id":320,"name":"ginosaurusx","steam_id":76561198410640142,"connected_time":5031000000000,"state":"active","ping":84},{"user_id":376,"name":"gwegwee333","steam_id":76561198046948758,"connected_time":1077000000000,"state":"active","ping":68},{"user_id":377,"name":"The premium licking experience","steam_id":76561199213456232,"connected_time":1071000000000,"state":"active","ping":104},{"user_id":363,"name":"Masonicle","steam_id":76561198192327657,"connected_time":1687000000000,"state":"active","ping":75},{"user_id":379,"name":"fakeness","steam_id":76561198018811206,"connected_time":992000000000,"state":"active","ping":81},{"user_id":380,"name":"zpalmtree","steam_id":76561198134307620,"connected_time":960000000000,"state":"active","ping":60},{"user_id":382,"name":"chungus","steam_id":76561198047451663,"connected_time":638000000000,"state":"active","ping":69},{"user_id":381,"name":"hashmap","steam_id":76561198043794014,"connected_time":948000000000,"state":"active","ping":49},{"user_id":387,"name":"LivingRaccoon","steam_id":76561198035425632,"connected_time":285000000000,"state":"active","ping":112}]},{"server_id":38,"name":"Uncletopia | Chicago | 7 | Stopwatch","name_short":"chi-7","host":"chi-2.us.uncletopia.com","port":27035,"enabled":true,"region":"us-central","cc":"us","latitude":41.881832,"longitude":-87.62318,"reserved":0,"last_update":"0001-01-01T00:00:00Z","name_a2s":"Uncletopia | Chicago | 7 | Stopwatch","protocol":17,"map":"pl_upward","folder":"tf","game":"Team Fortress","app_id":440,"player_count":15,"max_players":24,"Bots":0,"server_type":"Dedicated","server_os":"Linux","password":true,"vac":true,"version":"7961495","steam_id":85568392924866364,"keywords":["nocrits","nodmgspread","payload","uncletopia"],"game_id":440,"stv_port":27036,"stv_name":"Uncletopia | Chicago | 7 | Stopwatch | STV","players":[{"user_id":315,"name":"stivanaker","steam_id":76561198346276579,"connected_time":3246000000000,"state":"active","ping":102},{"user_id":327,"name":"Luglige","steam_id":76561198094827948,"connected_time":1922000000000,"state":"active","ping":91},{"user_id":343,"name":"Generic Name","steam_id":76561198094225684,"connected_time":1269000000000,"state":"active","ping":71},{"user_id":361,"name":"Sewer Wizard","steam_id":76561199061404496,"connected_time":239000000000,"state":"active","ping":65},{"user_id":362,"name":"Dmonic Plays","steam_id":76561198006572380,"connected_time":94000000000,"state":"active","ping":73},{"user_id":263,"name":"Tohru","steam_id":76561198139393876,"connected_time":5901000000000,"state":"active","ping":74},{"user_id":363,"name":"Jester","steam_id":76561199203898660,"connected_time":24000000000,"state":"active","ping":67},{"user_id":319,"name":"The Salacious Monk Monk","steam_id":76561198013781408,"connected_time":2927000000000,"state":"active","ping":81},{"user_id":328,"name":"Sneed-poster","steam_id":76561198206198937,"connected_time":1902000000000,"state":"active","ping":62},{"user_id":350,"name":"Cooldogjoe","steam_id":76561198105543698,"connected_time":966000000000,"state":"active","ping":56},{"user_id":345,"name":"Sammy","steam_id":76561198236650172,"connected_time":1237000000000,"state":"active","ping":64},{"user_id":258,"name":"Jolly #Murdererrights","steam_id":76561198064214000,"connected_time":6001000000000,"state":"active","ping":59},{"user_id":355,"name":"Plinko","steam_id":76561197968530638,"connected_time":704000000000,"state":"active","ping":52},{"user_id":360,"name":"stubowden","steam_id":76561198421175184,"connected_time":479000000000,"state":"active","ping":106},{"user_id":260,"name":"fujoshi #cigsforteachers","steam_id":76561198305796131,"connected_time":5998000000000,"state":"active","ping":44}]},{"server_id":39,"name":"Uncletopia | Chicago | 8 | Community","name_short":"chi-8","host":"chi-2.us.uncletopia.com","port":27045,"enabled":true,"region":"us-central","cc":"us","latitude":41.881832,"longitude":-87.62318,"reserved":0,"last_update":"0001-01-01T00:00:00Z","name_a2s":"Uncletopia | Chicago | 8 | Community","protocol":17,"map":"pl_pier","folder":"tf","game":"Team Fortress","app_id":440,"player_count":0,"max_players":24,"Bots":0,"server_type":"Dedicated","server_os":"Linux","password":true,"vac":true,"version":"7961495","steam_id":85568392924866365,"keywords":["nocrits","nodmgspread","payload","uncletopia"],"game_id":440,"stv_port":27046,"stv_name":"Uncletopia | Chicago | 8 | Community | STV","players":null},{"server_id":8,"name":"Uncletopia | Dallas | 1 | All Maps","name_short":"dal-1","host":"dal-1.us.uncletopia.com","port":27015,"enabled":true,"region":"us-central","cc":"us","latitude":32.779167,"longitude":-96.80889,"reserved":0,"last_update":"0001-01-01T00:00:00Z","name_a2s":"Uncletopia | Dallas | 1 | All Maps","protocol":17,"map":"pl_snowycoast","folder":"tf","game":"Team Fortress","app_id":440,"player_count":24,"max_players":24,"Bots":0,"server_type":"Dedicated","server_os":"Linux","password":true,"vac":true,"version":"7961495","steam_id":85568392924469986,"keywords":["nocrits","nodmgspread","payload","uncletopia"],"game_id":440,"stv_port":27016,"stv_name":"Uncletopia | Dallas | 1 | All Maps | STV","players":[{"user_id":761,"name":"a crystal lizard","steam_id":76561197997661928,"connected_time":95000000000,"state":"active","ping":83},{"user_id":754,"name":"look at me hector","steam_id":76561198168492250,"connected_time":305000000000,"state":"active","ping":78},{"user_id":711,"name":"supcupman","steam_id":76561198051513866,"connected_time":1302000000000,"state":"active","ping":125},{"user_id":641,"name":"TheGreythreat","steam_id":76561198021995538,"connected_time":4073000000000,"state":"active","ping":88},{"user_id":659,"name":"self sufficient kitten","steam_id":76561197960592612,"connected_time":2691000000000,"state":"active","ping":104},{"user_id":653,"name":"tek lintowe fan","steam_id":76561198206177593,"connected_time":3285000000000,"state":"active","ping":75},{"user_id":671,"name":"damiankiller1243","steam_id":76561198868885090,"connected_time":2053000000000,"state":"active","ping":66},{"user_id":738,"name":"schmuck","steam_id":76561198143789773,"connected_time":739000000000,"state":"active","ping":56},{"user_id":675,"name":"Burny Sanders","steam_id":76561197961879048,"connected_time":1984000000000,"state":"active","ping":44},{"user_id":590,"name":"❤ Ashley ❤","steam_id":76561198056428303,"connected_time":7780000000000,"state":"active","ping":72},{"user_id":755,"name":"Gengar","steam_id":76561198061247147,"connected_time":296000000000,"state":"active","ping":73},{"user_id":756,"name":"GOLDIE","steam_id":76561199375258674,"connected_time":276000000000,"state":"active","ping":79},{"user_id":740,"name":"Jetstream Sam","steam_id":76561198842076296,"connected_time":713000000000,"state":"active","ping":47},{"user_id":650,"name":"A Straw","steam_id":76561199367935846,"connected_time":3681000000000,"state":"active","ping":75},{"user_id":742,"name":"mrthugpug1732","steam_id":76561198881200768,"connected_time":661000000000,"state":"active","ping":92},{"user_id":689,"name":"Couldron","steam_id":76561198242842394,"connected_time":1741000000000,"state":"active","ping":56},{"user_id":749,"name":"V. G. Sunderland","steam_id":76561198161839980,"connected_time":466000000000,"state":"active","ping":89},{"user_id":715,"name":"tardis_946","steam_id":76561199090388860,"connected_time":1258000000000,"state":"active","ping":81},{"user_id":646,"name":"Estrogenizing Burger King Burge","steam_id":76561198083882597,"connected_time":3912000000000,"state":"active","ping":45},{"user_id":758,"name":"Professor","steam_id":76561198097038169,"connected_time":174000000000,"state":"active","ping":72},{"user_id":759,"name":"monsterkill4567","steam_id":76561198272986367,"connected_time":169000000000,"state":"active","ping":85},{"user_id":746,"name":"breathing meat donut","steam_id":76561198123566649,"connected_time":565000000000,"state":"active","ping":325},{"user_id":645,"name":"marisa kirisame","steam_id":76561198070327681,"connected_time":3970000000000,"state":"active","ping":75},{"user_id":657,"name":"Drake from State Farm","steam_id":76561199069029812,"connected_time":3072000000000,"state":"active","ping":100}]},{"server_id":108,"name":"Uncletopia | Dallas | 2 | All Maps","name_short":"dal-2","host":"dal-1.us.uncletopia.com","port":27025,"enabled":true,"region":"us-central","cc":"us","latitude":32.779167,"longitude":-96.80889,"reserved":0,"last_update":"0001-01-01T00:00:00Z","name_a2s":"Uncletopia | Dallas | 2 | All Maps","protocol":17,"map":"koth_nucleus","folder":"tf","game":"Team Fortress","app_id":440,"player_count":15,"max_players":24,"Bots":0,"server_type":"Dedicated","server_os":"Linux","password":true,"vac":true,"version":"7961495","steam_id":85568392924469988,"keywords":["cp","nocrits","nodmgspread","uncletopia"],"game_id":440,"stv_port":27026,"stv_name":"Uncletopia | Dallas | 2 | All Maps | STV","players":[{"user_id":172,"name":"leesh","steam_id":76561198079603938,"connected_time":8863000000000,"state":"active","ping":55},{"user_id":293,"name":"Stick","steam_id":76561198987222560,"connected_time":656000000000,"state":"active","ping":59},{"user_id":297,"name":"Silverkeys","steam_id":76561197986012496,"connected_time":91000000000,"state":"active","ping":85},{"user_id":271,"name":"story","steam_id":76561199088496817,"connected_time":2051000000000,"state":"active","ping":62},{"user_id":259,"name":"Die-Sas","steam_id":76561198987794008,"connected_time":2403000000000,"state":"active","ping":73},{"user_id":240,"name":"SoCal Kaizer","steam_id":76561198334361081,"connected_time":3958000000000,"state":"active","ping":101},{"user_id":223,"name":"Rob","steam_id":76561199187786660,"connected_time":5539000000000,"state":"active","ping":56},{"user_id":289,"name":"Asanez3","steam_id":76561198037381436,"connected_time":780000000000,"state":"active","ping":89},{"user_id":278,"name":"Pink Tooth Bob","steam_id":76561198142122915,"connected_time":1754000000000,"state":"active","ping":113},{"user_id":121,"name":"THRONGLER","steam_id":76561198198563466,"connected_time":11658000000000,"state":"active","ping":35},{"user_id":261,"name":"Stage","steam_id":76561198409245214,"connected_time":2376000000000,"state":"active","ping":131},{"user_id":284,"name":"yeetyfreety","steam_id":76561198882735886,"connected_time":1223000000000,"state":"active","ping":46},{"user_id":279,"name":"Doctor Emerald(Bison Emperor)","steam_id":76561199123003872,"connected_time":1637000000000,"state":"active","ping":84},{"user_id":282,"name":"iluvtoust","steam_id":76561198869269207,"connected_time":1342000000000,"state":"active","ping":46},{"user_id":294,"name":"dave","steam_id":76561198135961731,"connected_time":539000000000,"state":"spawning","ping":89}]},{"server_id":404,"name":"Uncletopia | Dallas | 3 | All Maps","name_short":"dal-3","host":"dal-1.us.uncletopia.com","port":27035,"enabled":true,"region":"us-central","cc":"us","latitude":32.779167,"longitude":-96.80889,"reserved":0,"last_update":"0001-01-01T00:00:00Z","name_a2s":"Uncletopia | Dallas | 3 | All Maps","protocol":17,"map":"cp_dustbowl","folder":"tf","game":"Team Fortress","app_id":440,"player_count":23,"max_players":24,"Bots":0,"server_type":"Dedicated","server_os":"Linux","password":true,"vac":true,"version":"7961495","steam_id":85568392924515219,"keywords":["cp","nocrits","nodmgspread","uncletopia"],"game_id":440,"stv_port":27036,"stv_name":"Uncletopia | Dallas | 3 | All Maps | STV","players":[{"user_id":218,"name":"HUESO","steam_id":76561198276383681,"connected_time":7001000000000,"state":"active","ping":86},{"user_id":276,"name":"cupsovietxeno","steam_id":76561198997539399,"connected_time":735000000000,"state":"active","ping":95},{"user_id":257,"name":"Manny Heffley","steam_id":76561198135137213,"connected_time":2538000000000,"state":"active","ping":42},{"user_id":281,"name":"blademiss","steam_id":76561198062083019,"connected_time":358000000000,"state":"active","ping":92},{"user_id":283,"name":"quendalin","steam_id":76561198032748289,"connected_time":322000000000,"state":"active","ping":60},{"user_id":268,"name":"pizza whore","steam_id":76561199471269566,"connected_time":1719000000000,"state":"active","ping":53},{"user_id":258,"name":"kim wexler","steam_id":76561199199795741,"connected_time":2529000000000,"state":"active","ping":76},{"user_id":227,"name":"DiscoTraveler","steam_id":76561199240168088,"connected_time":6013000000000,"state":"active","ping":80},{"user_id":265,"name":"RPGnoob","steam_id":76561198384913758,"connected_time":2112000000000,"state":"active","ping":56},{"user_id":291,"name":"Kimmyera","steam_id":76561198060317191,"connected_time":17000000000,"state":"spawning","ping":74},{"user_id":282,"name":"Bombsgamer","steam_id":76561198350009050,"connected_time":350000000000,"state":"active","ping":85},{"user_id":107,"name":"Lyricalnoot","steam_id":76561199164905065,"connected_time":14436000000000,"state":"active","ping":55},{"user_id":284,"name":"Major Woody","steam_id":76561198835541533,"connected_time":321000000000,"state":"active","ping":61},{"user_id":270,"name":"pizza cuck","steam_id":76561198040455711,"connected_time":1704000000000,"state":"active","ping":69},{"user_id":274,"name":"find lofi","steam_id":76561199134462656,"connected_time":1315000000000,"state":"active","ping":90},{"user_id":290,"name":"Anstorner","steam_id":76561198274026015,"connected_time":28000000000,"state":"spawning","ping":70},{"user_id":285,"name":"Bimbonito","steam_id":76561198069676563,"connected_time":306000000000,"state":"active","ping":73},{"user_id":273,"name":"Colonel Salt","steam_id":76561198207009563,"connected_time":1429000000000,"state":"active","ping":57},{"user_id":204,"name":"Alchemist","steam_id":76561198094238189,"connected_time":8240000000000,"state":"active","ping":73},{"user_id":252,"name":"hideyochest","steam_id":76561198090366059,"connected_time":3700000000000,"state":"active","ping":42},{"user_id":289,"name":"Dosario","steam_id":76561198298095535,"connected_time":167000000000,"state":"active","ping":113},{"user_id":238,"name":"MilkToast","steam_id":76561198167959226,"connected_time":5081000000000,"state":"active","ping":73},{"user_id":262,"name":"RAWRWAIFU","steam_id":76561198032118386,"connected_time":2461000000000,"state":"active","ping":74}]},{"server_id":405,"name":"Uncletopia | Dallas | 4 | Community","name_short":"dal-4","host":"dal-1.us.uncletopia.com","port":27045,"enabled":true,"region":"us-central","cc":"us","latitude":32.779167,"longitude":-96.80889,"reserved":0,"last_update":"0001-01-01T00:00:00Z","name_a2s":"Uncletopia | Dallas | 4 | Community","protocol":17,"map":"workshop/cp_fulgur_rc2a.ugc2068252300","folder":"tf","game":"Team Fortress","app_id":440,"player_count":0,"max_players":24,"Bots":0,"server_type":"Dedicated","server_os":"Linux","password":true,"vac":true,"version":"7961495","steam_id":85568392924515220,"keywords":["cp","nocrits","nodmgspread","uncletopia"],"game_id":440,"stv_port":27046,"stv_name":"Uncletopia | Dallas | 4 | Community | STV","players":null},{"server_id":5,"name":"Uncletopia | Frankfurt | 1 | All Maps","name_short":"frk-1","host":"frk-1.de.uncletopia.com","port":27015,"enabled":true,"region":"eu","cc":"de","latitude":50.110924,"longitude":8.682127,"reserved":0,"last_update":"0001-01-01T00:00:00Z","name_a2s":"Uncletopia | Frankfurt | 1 | All Maps","protocol":17,"map":"koth_highpass","folder":"tf","game":"Team Fortress","app_id":440,"player_count":0,"max_players":24,"Bots":0,"server_type":"Dedicated","server_os":"Linux","password":true,"vac":true,"version":"7961495","steam_id":85568392924469989,"keywords":["cp","nocrits","nodmgspread","uncletopia"],"game_id":440,"stv_port":27016,"stv_name":"Uncletopia | Frankfurt | 1 | All Maps | STV","players":null},{"server_id":110,"name":"Uncletopia | Frankfurt | 2 | All Maps","name_short":"frk-2","host":"frk-1.de.uncletopia.com","port":27025,"enabled":true,"region":"eu","cc":"de","latitude":50.110924,"longitude":8.682127,"reserved":0,"last_update":"0001-01-01T00:00:00Z","name_a2s":"Uncletopia | Frankfurt | 2 | All Maps","protocol":17,"map":"cp_mountainlab","folder":"tf","game":"Team Fortress","app_id":440,"player_count":0,"max_players":24,"Bots":0,"server_type":"Dedicated","server_os":"Linux","password":true,"vac":true,"version":"7961495","steam_id":85568392924469990,"keywords":["cp","nocrits","nodmgspread","uncletopia"],"game_id":440,"stv_port":27026,"stv_name":"Uncletopia | Frankfurt | 2 | All Maps | STV","players":null},{"server_id":308,"name":"Uncletopia | Frankfurt | 3 | All Maps","name_short":"frk-3","host":"frk-1.de.uncletopia.com","port":27035,"enabled":true,"region":"eu","cc":"de","latitude":50.110924,"longitude":8.682127,"reserved":0,"last_update":"0001-01-01T00:00:00Z","name_a2s":"Uncletopia | Frankfurt | 3 | All Maps","protocol":17,"map":"cp_mountainlab","folder":"tf","game":"Team Fortress","app_id":440,"player_count":0,"max_players":24,"Bots":0,"server_type":"Dedicated","server_os":"Linux","password":true,"vac":true,"version":"7961495","steam_id":85568392924504274,"keywords":["cp","nocrits","nodmgspread","uncletopia"],"game_id":440,"stv_port":27036,"stv_name":"Uncletopia | Frankfurt | 3 | All Maps | STV","players":null},{"server_id":309,"name":"Uncletopia | Frankfurt | 4 | All Maps","name_short":"frk-4","host":"frk-1.de.uncletopia.com","port":27045,"enabled":true,"region":"eu","cc":"de","latitude":50.110924,"longitude":8.682127,"reserved":0,"last_update":"0001-01-01T00:00:00Z","name_a2s":"Uncletopia | Frankfurt | 4 | All Maps","protocol":17,"map":"koth_highpass","folder":"tf","game":"Team Fortress","app_id":440,"player_count":0,"max_players":24,"Bots":0,"server_type":"Dedicated","server_os":"Linux","password":true,"vac":true,"version":"7961495","steam_id":85568392924504275,"keywords":["cp","nocrits","nodmgspread","uncletopia"],"game_id":440,"stv_port":27046,"stv_name":"Uncletopia | Frankfurt | 4 | All Maps | STV","players":null},{"server_id":310,"name":"Uncletopia | Frankfurt | 5 | All Maps","name_short":"frk-5","host":"frk-1.de.uncletopia.com","port":27055,"enabled":true,"region":"eu","cc":"de","latitude":50.110924,"longitude":8.682127,"reserved":0,"last_update":"0001-01-01T00:00:00Z","name_a2s":"Uncletopia | Frankfurt | 5 | All Maps","protocol":17,"map":"koth_highpass","folder":"tf","game":"Team Fortress","app_id":440,"player_count":0,"max_players":24,"Bots":0,"server_type":"Dedicated","server_os":"Linux","password":true,"vac":true,"version":"7961495","steam_id":85568392924504277,"keywords":["cp","nocrits","nodmgspread","uncletopia"],"game_id":440,"stv_port":27056,"stv_name":"Uncletopia | Frankfurt | 5 | All Maps | STV","players":null},{"server_id":311,"name":"Uncletopia | Frankfurt | 6 | All Maps","name_short":"frk-6","host":"frk-1.de.uncletopia.com","port":27065,"enabled":true,"region":"eu","cc":"de","latitude":50.110924,"longitude":8.682127,"reserved":0,"last_update":"0001-01-01T00:00:00Z","name_a2s":"Uncletopia | Frankfurt | 6 | All Maps","protocol":17,"map":"pl_badwater","folder":"tf","game":"Team Fortress","app_id":440,"player_count":0,"max_players":24,"Bots":0,"server_type":"Dedicated","server_os":"Linux","password":true,"vac":true,"version":"7961495","steam_id":85568392924504278,"keywords":["nocrits","nodmgspread","payload","uncletopia"],"game_id":440,"stv_port":27066,"stv_name":"Uncletopia | Frankfurt | 6 | All Maps | STV","players":null},{"server_id":23,"name":"Uncletopia | Frankfurt | 7 | Stopwatch","name_short":"frk-7","host":"frk-1.de.uncletopia.com","port":27075,"enabled":true,"region":"eu","cc":"de","latitude":50.110924,"longitude":8.682127,"reserved":0,"last_update":"0001-01-01T00:00:00Z","name_a2s":"Uncletopia | Frankfurt | 7 | Stopwatch","protocol":17,"map":"koth_lakeside_final","folder":"tf","game":"Team Fortress","app_id":440,"player_count":0,"max_players":24,"Bots":0,"server_type":"Dedicated","server_os":"Linux","password":true,"vac":true,"version":"7961495","steam_id":85568392924742827,"keywords":["cp","nocrits","nodmgspread","uncletopia"],"game_id":440,"stv_port":27076,"stv_name":"Uncletopia | Frankfurt | 7 | Stopwatch | STV","players":null},{"server_id":24,"name":"Uncletopia | Frankfurt | 8 | Community","name_short":"frk-8","host":"frk-1.de.uncletopia.com","port":27085,"enabled":true,"region":"eu","cc":"de","latitude":50.110924,"longitude":8.682127,"reserved":0,"last_update":"0001-01-01T00:00:00Z","name_a2s":"Uncletopia | Frankfurt | 8 | Community","protocol":17,"map":"workshop/cp_coilblaze_rc7.ugc1272700588","folder":"tf","game":"Team Fortress","app_id":440,"player_count":0,"max_players":24,"Bots":0,"server_type":"Dedicated","server_os":"Linux","password":true,"vac":true,"version":"7961495","steam_id":85568392924742828,"keywords":["cp","nocrits","nodmgspread","uncletopia"],"game_id":440,"stv_port":27086,"stv_name":"Uncletopia | Frankfurt | 8 | Community | STV","players":null},{"server_id":202,"name":"Uncletopia | Hong Kong | 1 | All Maps","name_short":"hgk-1","host":"hgk-1.hk.uncletopia.com","port":27015,"enabled":true,"region":"asia","cc":"hk","latitude":22.302711,"longitude":114.177216,"reserved":0,"last_update":"0001-01-01T00:00:00Z","name_a2s":"Uncletopia | Hong Kong | 1 | All Maps","protocol":17,"map":"koth_viaduct","folder":"tf","game":"Team Fortress","app_id":440,"player_count":6,"max_players":24,"Bots":0,"server_type":"Dedicated","server_os":"Linux","password":true,"vac":true,"version":"7961495","steam_id":85568392924494504,"keywords":["cp","nocrits","nodmgspread","uncletopia"],"game_id":440,"stv_port":27016,"stv_name":"Uncletopia | Hong Kong | 1 | All Maps | STV","players":[{"user_id":7,"name":"mistake of nature","steam_id":76561198827090178,"connected_time":4818000000000,"state":"active","ping":61},{"user_id":51,"name":"MS PowerPoint","steam_id":76561198369523192,"connected_time":726000000000,"state":"active","ping":69},{"user_id":35,"name":"fred","steam_id":76561199496222946,"connected_time":2395000000000,"state":"active","ping":82},{"user_id":31,"name":"CaptainHalal","steam_id":76561199232624836,"connected_time":2674000000000,"state":"active","ping":108},{"user_id":19,"name":"DeesDeedsF2p|trade.tf|HM|","steam_id":76561199244400513,"connected_time":3727000000000,"state":"active","ping":52},{"user_id":36,"name":"TomProPlayer","steam_id":76561199223292521,"connected_time":2326000000000,"state":"active","ping":68}]},{"server_id":1,"name":"Uncletopia | Los Angeles | 1 | All Maps","name_short":"lax-1","host":"lax-1.us.uncletopia.com","port":27015,"enabled":true,"region":"us-west","cc":"us","latitude":33.94279,"longitude":-118.41004,"reserved":0,"last_update":"0001-01-01T00:00:00Z","name_a2s":"Uncletopia | Los Angeles | 1 | All Maps","protocol":17,"map":"cp_snakewater_final1","folder":"tf","game":"Team Fortress","app_id":440,"player_count":24,"max_players":24,"Bots":0,"server_type":"Dedicated","server_os":"Linux","password":true,"vac":true,"version":"7961495","steam_id":85568392924469991,"keywords":["cp","nocrits","nodmgspread","uncletopia"],"game_id":440,"stv_port":27016,"stv_name":"Uncletopia | Los Angeles | 1 | All Maps | STV","players":[{"user_id":189,"name":"doro","steam_id":76561198099041747,"connected_time":1516000000000,"state":"active","ping":51},{"user_id":192,"name":"for the king","steam_id":76561197973488858,"connected_time":1257000000000,"state":"active","ping":104},{"user_id":183,"name":"Happytoe","steam_id":76561198001295503,"connected_time":2412000000000,"state":"active","ping":74},{"user_id":193,"name":"sud","steam_id":76561198014929529,"connected_time":1243000000000,"state":"active","ping":94},{"user_id":190,"name":"Kaito","steam_id":76561198055733757,"connected_time":1350000000000,"state":"active","ping":68},{"user_id":194,"name":"smog monster","steam_id":76561198118954499,"connected_time":1206000000000,"state":"active","ping":133},{"user_id":201,"name":"ColdRamen","steam_id":76561198128945664,"connected_time":926000000000,"state":"active","ping":61},{"user_id":174,"name":"shitass (Reaping and Sowing)","steam_id":76561198210572481,"connected_time":3510000000000,"state":"active","ping":49},{"user_id":185,"name":"BigGoose","steam_id":76561198833281392,"connected_time":2202000000000,"state":"active","ping":92},{"user_id":205,"name":"jayzak24","steam_id":76561198354267509,"connected_time":613000000000,"state":"active","ping":49},{"user_id":171,"name":"Roe Jogan","steam_id":76561198062763370,"connected_time":3610000000000,"state":"active","ping":63},{"user_id":191,"name":"groovetomanny","steam_id":76561198371660675,"connected_time":1310000000000,"state":"active","ping":55},{"user_id":204,"name":"darren","steam_id":76561199050155136,"connected_time":870000000000,"state":"active","ping":48},{"user_id":213,"name":"Rockintylerj","steam_id":76561198151254982,"connected_time":42000000000,"state":"active","ping":50},{"user_id":211,"name":"wrist game dumbin","steam_id":76561198247984828,"connected_time":165000000000,"state":"active","ping":55},{"user_id":206,"name":"Velgrauder","steam_id":76561198848526938,"connected_time":556000000000,"state":"active","ping":103},{"user_id":170,"name":"JtsRes","steam_id":76561197994809241,"connected_time":3727000000000,"state":"active","ping":92},{"user_id":172,"name":"Diddy Kong","steam_id":76561198053208862,"connected_time":3595000000000,"state":"active","ping":69},{"user_id":212,"name":"goon refinery","steam_id":76561198166781089,"connected_time":111000000000,"state":"active","ping":86},{"user_id":178,"name":"OniSlays","steam_id":76561198043875292,"connected_time":3435000000000,"state":"active","ping":71},{"user_id":202,"name":"womenobtainer39","steam_id":76561199236568388,"connected_time":898000000000,"state":"active","ping":82},{"user_id":186,"name":"john.","steam_id":76561198982939658,"connected_time":2070000000000,"state":"active","ping":63},{"user_id":179,"name":"Aerospine","steam_id":76561198021438134,"connected_time":3404000000000,"state":"active","ping":50},{"user_id":210,"name":"a NEW kind of idiot","steam_id":76561197987056308,"connected_time":401000000000,"state":"active","ping":52}]},{"server_id":112,"name":"Uncletopia | Los Angeles | 2 | All Maps","name_short":"lax-2","host":"lax-1.us.uncletopia.com","port":27025,"enabled":true,"region":"us-west","cc":"us","latitude":33.94279,"longitude":-118.41004,"reserved":0,"last_update":"0001-01-01T00:00:00Z","name_a2s":"Uncletopia | Los Angeles | 2 | All Maps","protocol":17,"map":"pl_badwater","folder":"tf","game":"Team Fortress","app_id":440,"player_count":0,"max_players":24,"Bots":0,"server_type":"Dedicated","server_os":"Linux","password":true,"vac":true,"version":"7961495","steam_id":85568392924469992,"keywords":["nocrits","nodmgspread","payload","uncletopia"],"game_id":440,"stv_port":27026,"stv_name":"Uncletopia | Los Angeles | 2 | All Maps | STV","players":null},{"server_id":324,"name":"Uncletopia | Los Angeles | 3 | All Maps","name_short":"lax-3","host":"lax-1.us.uncletopia.com","port":27035,"enabled":true,"region":"us-west","cc":"us","latitude":33.94279,"longitude":-118.41004,"reserved":0,"last_update":"0001-01-01T00:00:00Z","name_a2s":"Uncletopia | Los Angeles | 3 | All Maps","protocol":17,"map":"pl_borneo","folder":"tf","game":"Team Fortress","app_id":440,"player_count":24,"max_players":24,"Bots":0,"server_type":"Dedicated","server_os":"Linux","password":true,"vac":true,"version":"7961495","steam_id":85568392924510198,"keywords":["nocrits","nodmgspread","payload","uncletopia"],"game_id":440,"stv_port":27036,"stv_name":"Uncletopia | Los Angeles | 3 | All Maps | STV","players":[{"user_id":147,"name":"FrushCube","steam_id":76561198151299244,"connected_time":2053000000000,"state":"active","ping":89},{"user_id":110,"name":"Lambchop","steam_id":76561198043900363,"connected_time":3491000000000,"state":"active","ping":62},{"user_id":164,"name":"big fish","steam_id":76561198186479818,"connected_time":1367000000000,"state":"active","ping":57},{"user_id":148,"name":"MajorPingu77","steam_id":76561198068873144,"connected_time":2041000000000,"state":"active","ping":90},{"user_id":146,"name":"MonkeyNobody","steam_id":76561199451266605,"connected_time":2113000000000,"state":"active","ping":56},{"user_id":168,"name":"Cargo","steam_id":76561198065535025,"connected_time":737000000000,"state":"active","ping":56},{"user_id":104,"name":"Kdash","steam_id":76561198043829155,"connected_time":3707000000000,"state":"active","ping":80},{"user_id":161,"name":"Genius Meme","steam_id":76561198162911254,"connected_time":1482000000000,"state":"active","ping":76},{"user_id":150,"name":"Extome","steam_id":76561198097801342,"connected_time":1984000000000,"state":"active","ping":98},{"user_id":151,"name":"Richard Nixon","steam_id":76561198212800640,"connected_time":1951000000000,"state":"active","ping":114},{"user_id":152,"name":"Akkrillic","steam_id":76561198224891080,"connected_time":1938000000000,"state":"active","ping":93},{"user_id":165,"name":"californjoe","steam_id":76561197965047795,"connected_time":1196000000000,"state":"active","ping":54},{"user_id":154,"name":"Quaalude","steam_id":76561198100177449,"connected_time":1911000000000,"state":"active","ping":85},{"user_id":113,"name":"Frank Horrigan","steam_id":76561198066504831,"connected_time":3356000000000,"state":"active","ping":62},{"user_id":155,"name":"milkmana","steam_id":76561198068583958,"connected_time":1865000000000,"state":"active","ping":99},{"user_id":136,"name":"greentop_","steam_id":76561198209650964,"connected_time":2622000000000,"state":"active","ping":47},{"user_id":159,"name":"Ethanol Buttchugger","steam_id":76561199127590316,"connected_time":1680000000000,"state":"active","ping":63},{"user_id":157,"name":"Sizenberg","steam_id":76561198115842661,"connected_time":1855000000000,"state":"active","ping":124},{"user_id":138,"name":"California Police Department","steam_id":76561199071151136,"connected_time":2568000000000,"state":"active","ping":42},{"user_id":169,"name":"erm... krill yourself","steam_id":76561198095121758,"connected_time":732000000000,"state":"active","ping":58},{"user_id":158,"name":"rilby","steam_id":76561198132755619,"connected_time":1823000000000,"state":"active","ping":38},{"user_id":167,"name":"FROYO b4nny","steam_id":76561197970669109,"connected_time":998000000000,"state":"active","ping":50},{"user_id":75,"name":"30-50 feral hogs","steam_id":76561198073587145,"connected_time":4573000000000,"state":"active","ping":87},{"user_id":125,"name":"Throat Goat","steam_id":76561198132532519,"connected_time":3130000000000,"state":"active","ping":62}]},{"server_id":25,"name":"Uncletopia | Los Angeles | 4 | Stopwatch","name_short":"lax-4","host":"lax-1.us.uncletopia.com","port":27045,"enabled":true,"region":"us-west","cc":"us","latitude":33.94279,"longitude":-118.41004,"reserved":0,"last_update":"0001-01-01T00:00:00Z","name_a2s":"Uncletopia | Los Angeles | 4 | Stopwatch","protocol":17,"map":"workshop/koth_bagel_rc6.ugc2514036946","folder":"tf","game":"Team Fortress","app_id":440,"player_count":0,"max_players":24,"Bots":0,"server_type":"Dedicated","server_os":"Linux","password":true,"vac":true,"version":"7961495","steam_id":85568392924510199,"keywords":["cp","nocrits","nodmgspread","uncletopia"],"game_id":440,"stv_port":27046,"stv_name":"Uncletopia | Los Angeles | 4 | Stopwatch | STV","players":null},{"server_id":11,"name":"Uncletopia | London | 1 | All Maps","name_short":"lon-1","host":"lon-1.uk.uncletopia.com","port":27015,"enabled":true,"region":"eu","cc":"gb","latitude":51.509865,"longitude":-0.118092,"reserved":0,"last_update":"0001-01-01T00:00:00Z","name_a2s":"Uncletopia | London | 1 | All Maps","protocol":17,"map":"koth_lakeside_final","folder":"tf","game":"Team Fortress","app_id":440,"player_count":0,"max_players":24,"Bots":0,"server_type":"Dedicated","server_os":"Linux","password":true,"vac":true,"version":"7961495","steam_id":85568392924367362,"keywords":["cp","nocrits","nodmgspread","uncletopia"],"game_id":440,"stv_port":27016,"stv_name":"Uncletopia | London | 1 | All Maps | STV","players":null},{"server_id":114,"name":"Uncletopia | London | 2 | All Maps","name_short":"lon-2","host":"lon-1.uk.uncletopia.com","port":27025,"enabled":true,"region":"eu","cc":"gb","latitude":51.509865,"longitude":-0.118092,"reserved":0,"last_update":"0001-01-01T00:00:00Z","name_a2s":"Uncletopia | London | 2 | All Maps","protocol":17,"map":"pl_snowycoast","folder":"tf","game":"Team Fortress","app_id":440,"player_count":0,"max_players":24,"Bots":0,"server_type":"Dedicated","server_os":"Linux","password":true,"vac":true,"version":"7961495","steam_id":85568392924470941,"keywords":["nocrits","nodmgspread","payload","uncletopia"],"game_id":440,"stv_port":27026,"stv_name":"Uncletopia | London | 2 | All Maps | STV","players":null},{"server_id":320,"name":"Uncletopia | London | 3 | All Maps","name_short":"lon-3","host":"lon-1.uk.uncletopia.com","port":27035,"enabled":true,"region":"eu","cc":"gb","latitude":51.509865,"longitude":-0.118092,"reserved":0,"last_update":"0001-01-01T00:00:00Z","name_a2s":"Uncletopia | London | 3 | All Maps","protocol":17,"map":"pl_swiftwater_final1","folder":"tf","game":"Team Fortress","app_id":440,"player_count":0,"max_players":24,"Bots":0,"server_type":"Dedicated","server_os":"Linux","password":true,"vac":true,"version":"7961495","steam_id":85568392924510192,"keywords":["nocrits","nodmgspread","payload","uncletopia"],"game_id":440,"stv_port":27036,"stv_name":"Uncletopia | London | 3 | All Maps | STV","players":null},{"server_id":321,"name":"Uncletopia | London | 4 | All Maps","name_short":"lon-4","host":"lon-1.uk.uncletopia.com","port":27045,"enabled":true,"region":"eu","cc":"gb","latitude":51.509865,"longitude":-0.118092,"reserved":0,"last_update":"0001-01-01T00:00:00Z","name_a2s":"Uncletopia | London | 4 | All Maps","protocol":17,"map":"koth_viaduct","folder":"tf","game":"Team Fortress","app_id":440,"player_count":0,"max_players":24,"Bots":0,"server_type":"Dedicated","server_os":"Linux","password":true,"vac":true,"version":"7961495","steam_id":85568392924510193,"keywords":["cp","nocrits","nodmgspread","uncletopia"],"game_id":440,"stv_port":27046,"stv_name":"Uncletopia | London | 4 | All Maps | STV","players":null},{"server_id":21,"name":"Uncletopia | London | 5 | All Maps","name_short":"lon-5","host":"lon-1.uk.uncletopia.com","port":27055,"enabled":true,"region":"eu","cc":"gb","latitude":51.509865,"longitude":-0.118092,"reserved":0,"last_update":"0001-01-01T00:00:00Z","name_a2s":"Uncletopia | London | 5 | All Maps","protocol":17,"map":"plr_nightfall_final","folder":"tf","game":"Team Fortress","app_id":440,"player_count":0,"max_players":24,"Bots":0,"server_type":"Dedicated","server_os":"Linux","password":true,"vac":true,"version":"7961495","steam_id":85568392924742829,"keywords":["nocrits","nodmgspread","payload","uncletopia"],"game_id":440,"stv_port":27056,"stv_name":"Uncletopia | London | 5 | All Maps | STV","players":null},{"server_id":22,"name":"Uncletopia | London | 6 | All Maps","name_short":"lon-6","host":"lon-1.uk.uncletopia.com","port":27065,"enabled":true,"region":"eu","cc":"gb","latitude":51.509865,"longitude":-0.118092,"reserved":0,"last_update":"0001-01-01T00:00:00Z","name_a2s":"Uncletopia | London | 6 | All Maps","protocol":17,"map":"pl_upward","folder":"tf","game":"Team Fortress","app_id":440,"player_count":24,"max_players":24,"Bots":0,"server_type":"Dedicated","server_os":"Linux","password":true,"vac":true,"version":"7961495","steam_id":85568392924742830,"keywords":["nocrits","nodmgspread","payload","uncletopia"],"game_id":440,"stv_port":27066,"stv_name":"Uncletopia | London | 6 | All Maps | STV","players":[{"user_id":496,"name":"Burak","steam_id":76561198441622971,"connected_time":422000000000,"state":"active","ping":95},{"user_id":463,"name":"MaLbILLI","steam_id":76561198096057221,"connected_time":2025000000000,"state":"active","ping":128},{"user_id":470,"name":"demps","steam_id":76561198049405872,"connected_time":1415000000000,"state":"active","ping":45},{"user_id":410,"name":"noseb","steam_id":76561199480942903,"connected_time":7783000000000,"state":"active","ping":75},{"user_id":493,"name":"I snort asbestos dust","steam_id":76561199466010120,"connected_time":546000000000,"state":"active","ping":144},{"user_id":459,"name":"Dragon","steam_id":76561198163255365,"connected_time":2507000000000,"state":"active","ping":108},{"user_id":462,"name":"heuji","steam_id":76561197971067828,"connected_time":2374000000000,"state":"active","ping":52},{"user_id":394,"name":"Bobirulez","steam_id":76561198009125458,"connected_time":9311000000000,"state":"active","ping":71},{"user_id":445,"name":"sticks","steam_id":76561198127099299,"connected_time":4390000000000,"state":"active","ping":32},{"user_id":461,"name":"Kavary","steam_id":76561198024792146,"connected_time":2491000000000,"state":"active","ping":82},{"user_id":430,"name":"SuntanPikachu","steam_id":76561198121242476,"connected_time":6059000000000,"state":"active","ping":61},{"user_id":469,"name":"✧Tori Roach","steam_id":76561198170599306,"connected_time":1477000000000,"state":"active","ping":126},{"user_id":471,"name":"MrEdman4","steam_id":76561198062233923,"connected_time":1229000000000,"state":"active","ping":117},{"user_id":452,"name":"mumbler","steam_id":76561197970641239,"connected_time":3071000000000,"state":"active","ping":56},{"user_id":501,"name":"gamerweed5","steam_id":76561198087651151,"connected_time":252000000000,"state":"active","ping":42},{"user_id":482,"name":"jones","steam_id":76561198044434971,"connected_time":1006000000000,"state":"active","ping":63},{"user_id":450,"name":"yuno appreciator","steam_id":76561198083286511,"connected_time":3170000000000,"state":"active","ping":41},{"user_id":467,"name":"Zapchon","steam_id":76561198123856921,"connected_time":1609000000000,"state":"active","ping":64},{"user_id":453,"name":"volkiano","steam_id":76561198319802031,"connected_time":3049000000000,"state":"active","ping":45},{"user_id":477,"name":"DDUUCCKK","steam_id":76561198141953050,"connected_time":1170000000000,"state":"active","ping":59},{"user_id":458,"name":"Cranbury","steam_id":76561198079170457,"connected_time":2623000000000,"state":"active","ping":46},{"user_id":497,"name":"Black Tom","steam_id":76561198335730273,"connected_time":389000000000,"state":"active","ping":62},{"user_id":475,"name":"Nyhde","steam_id":76561198012771416,"connected_time":1188000000000,"state":"active","ping":98},{"user_id":500,"name":"spooz","steam_id":76561198100590571,"connected_time":265000000000,"state":"active","ping":50}]},{"server_id":40,"name":"Uncletopia | London | 7 | Stopwatch","name_short":"lon-7","host":"lon-1.uk.uncletopia.com","port":27075,"enabled":true,"region":"eu","cc":"gb","latitude":51.509865,"longitude":-0.118092,"reserved":0,"last_update":"0001-01-01T00:00:00Z","name_a2s":"Uncletopia | London | 7 | Stopwatch","protocol":17,"map":"pl_swiftwater_final1","folder":"tf","game":"Team Fortress","app_id":440,"player_count":0,"max_players":24,"Bots":0,"server_type":"Dedicated","server_os":"Linux","password":true,"vac":true,"version":"7961495","steam_id":85568392924964314,"keywords":["nocrits","nodmgspread","payload","uncletopia"],"game_id":440,"stv_port":27076,"stv_name":"Uncletopia | London | 7 | Stopwatch | STV","players":null},{"server_id":41,"name":"Uncletopia | London | 8 | Community","name_short":"lon-8","host":"lon-1.uk.uncletopia.com","port":27085,"enabled":true,"region":"eu","cc":"gb","latitude":51.509865,"longitude":-0.118092,"reserved":0,"last_update":"0001-01-01T00:00:00Z","name_a2s":"Uncletopia | London | 8 | Community","protocol":17,"map":"workshop/koth_ashville_final.ugc2130459942","folder":"tf","game":"Team Fortress","app_id":440,"player_count":0,"max_players":24,"Bots":0,"server_type":"Dedicated","server_os":"Linux","password":true,"vac":true,"version":"7961495","steam_id":85568392924964315,"keywords":["cp","nocrits","nodmgspread","uncletopia"],"game_id":440,"stv_port":27086,"stv_name":"Uncletopia | London | 8 | Community | STV","players":null},{"server_id":300,"name":"Uncletopia | Montréal | 1 | One Thousand Uncles","name_short":"mtl-1","host":"mtl-1.ca.uncletopia.com","port":27015,"enabled":true,"region":"us-east","cc":"ca","latitude":45.50889,"longitude":-73.56167,"reserved":0,"last_update":"0001-01-01T00:00:00Z","name_a2s":"","protocol":0,"map":"","folder":"","game":"","app_id":0,"player_count":0,"max_players":0,"Bots":0,"server_type":"","server_os":"","password":false,"vac":false,"version":"","steam_id":0,"keywords":null,"game_id":0,"stv_port":0,"stv_name":"","players":null},{"server_id":301,"name":"Uncletopia | Montréal | 2 | One Thousand Uncles","name_short":"mtl-2","host":"mtl-1.ca.uncletopia.com","port":27025,"enabled":true,"region":"us-east","cc":"ca","latitude":45.50889,"longitude":-73.56167,"reserved":0,"last_update":"0001-01-01T00:00:00Z","name_a2s":"","protocol":0,"map":"","folder":"","game":"","app_id":0,"player_count":0,"max_players":0,"Bots":0,"server_type":"","server_os":"","password":false,"vac":false,"version":"","steam_id":0,"keywords":null,"game_id":0,"stv_port":0,"stv_name":"","players":null},{"server_id":302,"name":"Uncletopia | Montréal | 3 | One Thousand Uncles","name_short":"mtl-3","host":"mtl-1.ca.uncletopia.com","port":27035,"enabled":true,"region":"us-east","cc":"ca","latitude":45.50889,"longitude":-73.56167,"reserved":0,"last_update":"0001-01-01T00:00:00Z","name_a2s":"","protocol":0,"map":"","folder":"","game":"","app_id":0,"player_count":0,"max_players":0,"Bots":0,"server_type":"","server_os":"","password":false,"vac":false,"version":"","steam_id":0,"keywords":null,"game_id":0,"stv_port":0,"stv_name":"","players":null},{"server_id":13,"name":"Uncletopia | New York City | 1 | All Maps","name_short":"nyc-1","host":"nyc-1.us.uncletopia.com","port":27015,"enabled":true,"region":"us-east","cc":"us","latitude":40.73061,"longitude":-73.93524,"reserved":0,"last_update":"0001-01-01T00:00:00Z","name_a2s":"Uncletopia | New York City | 1 | All Maps","protocol":17,"map":"pl_badwater","folder":"tf","game":"Team Fortress","app_id":440,"player_count":24,"max_players":24,"Bots":0,"server_type":"Dedicated","server_os":"Linux","password":true,"vac":true,"version":"7961495","steam_id":85568392924469993,"keywords":["nocrits","nodmgspread","payload","uncletopia"],"game_id":440,"stv_port":27016,"stv_name":"Uncletopia | New York City | 1 | All Maps | STV","players":[{"user_id":747,"name":"ROGUE-PLANET","steam_id":76561198116023052,"connected_time":845000000000,"state":"active","ping":97},{"user_id":732,"name":"Gentoo Linux Gaming","steam_id":76561197999657118,"connected_time":3173000000000,"state":"active","ping":81},{"user_id":742,"name":"otwtomarsoffdabars(spacecore)","steam_id":76561199085974120,"connected_time":1658000000000,"state":"active","ping":59},{"user_id":720,"name":"I Use Basher for Medic","steam_id":76561198165834369,"connected_time":3865000000000,"state":"active","ping":112},{"user_id":655,"name":"ndvr","steam_id":76561199379200102,"connected_time":9201000000000,"state":"active","ping":50},{"user_id":757,"name":"GSP","steam_id":76561197997012669,"connected_time":148000000000,"state":"active","ping":51},{"user_id":721,"name":"fini","steam_id":76561198352139173,"connected_time":3863000000000,"state":"active","ping":47},{"user_id":733,"name":"Niλiwiλi, ▼iscount of ▼io","steam_id":76561198009193777,"connected_time":2846000000000,"state":"active","ping":59},{"user_id":722,"name":"taigaxx","steam_id":76561198202669250,"connected_time":3814000000000,"state":"active","ping":75},{"user_id":754,"name":"BiggFoot","steam_id":76561197998605599,"connected_time":687000000000,"state":"active","ping":73},{"user_id":734,"name":"meat.","steam_id":76561198256154493,"connected_time":2784000000000,"state":"active","ping":73},{"user_id":749,"name":"firelord","steam_id":76561198254188888,"connected_time":822000000000,"state":"active","ping":60},{"user_id":739,"name":"SouerLuigi","steam_id":76561198261896480,"connected_time":1992000000000,"state":"active","ping":93},{"user_id":758,"name":"Yuzu","steam_id":76561198417913035,"connected_time":93000000000,"state":"active","ping":76},{"user_id":705,"name":"Spiral Mountain","steam_id":76561198058683715,"connected_time":4997000000000,"state":"active","ping":73},{"user_id":660,"name":"High School Nudical","steam_id":76561198172120615,"connected_time":8706000000000,"state":"active","ping":39},{"user_id":751,"name":"Subxo","steam_id":76561198341198154,"connected_time":774000000000,"state":"active","ping":55},{"user_id":752,"name":"Big Bill Haywood","steam_id":76561198142290733,"connected_time":748000000000,"state":"active","ping":54},{"user_id":753,"name":"KTNO","steam_id":76561198043881522,"connected_time":742000000000,"state":"active","ping":60},{"user_id":736,"name":"peace dog","steam_id":76561198267988522,"connected_time":2725000000000,"state":"active","ping":74},{"user_id":725,"name":"HundchenTanque","steam_id":76561198122692754,"connected_time":3729000000000,"state":"active","ping":45},{"user_id":745,"name":"Femboy Medic Main","steam_id":76561198268225109,"connected_time":1015000000000,"state":"active","ping":100},{"user_id":756,"name":"bur","steam_id":76561198004231658,"connected_time":526000000000,"state":"active","ping":42},{"user_id":755,"name":"Big Daddy's Worst Nightmare","steam_id":76561198087155304,"connected_time":607000000000,"state":"active","ping":64}]},{"server_id":14,"name":"Uncletopia | New York City | 2 | All Maps","name_short":"nyc-2","host":"nyc-1.us.uncletopia.com","port":27025,"enabled":true,"region":"us-east","cc":"us","latitude":40.73061,"longitude":-73.93524,"reserved":0,"last_update":"0001-01-01T00:00:00Z","name_a2s":"Uncletopia | New York City | 2 | All Maps","protocol":17,"map":"koth_viaduct","folder":"tf","game":"Team Fortress","app_id":440,"player_count":24,"max_players":24,"Bots":0,"server_type":"Dedicated","server_os":"Linux","password":true,"vac":true,"version":"7961495","steam_id":85568392924469994,"keywords":["cp","nocrits","nodmgspread","uncletopia"],"game_id":440,"stv_port":27026,"stv_name":"Uncletopia | New York City | 2 | All Maps | STV","players":[{"user_id":402,"name":"incredirocks","steam_id":76561198061079993,"connected_time":2986000000000,"state":"active","ping":62},{"user_id":416,"name":"TheNighs","steam_id":76561198094593460,"connected_time":1971000000000,"state":"active","ping":42},{"user_id":436,"name":"YummerBummer","steam_id":76561198094773987,"connected_time":0,"state":"spawning","ping":15},{"user_id":408,"name":"Rudy","steam_id":76561198013456828,"connected_time":2385000000000,"state":"active","ping":55},{"user_id":399,"name":"Fiendish Frog","steam_id":76561198029478821,"connected_time":3349000000000,"state":"active","ping":55},{"user_id":426,"name":"camoik","steam_id":76561198808002874,"connected_time":1073000000000,"state":"active","ping":125},{"user_id":400,"name":"Spazmatic Dingus","steam_id":76561198117514263,"connected_time":3032000000000,"state":"active","ping":80},{"user_id":375,"name":"Mike","steam_id":76561198449656454,"connected_time":5261000000000,"state":"active","ping":49},{"user_id":434,"name":"Luis wid a mic","steam_id":76561198349570006,"connected_time":638000000000,"state":"active","ping":42},{"user_id":376,"name":"Bunnyboy","steam_id":76561198298416058,"connected_time":5202000000000,"state":"active","ping":71},{"user_id":406,"name":"Aristotle Voulton","steam_id":76561198100174923,"connected_time":2691000000000,"state":"active","ping":92},{"user_id":427,"name":"WhoJoined","steam_id":76561199062370879,"connected_time":1071000000000,"state":"active","ping":67},{"user_id":428,"name":"Some_Arse","steam_id":76561198039095394,"connected_time":1044000000000,"state":"active","ping":72},{"user_id":429,"name":"Brenda Delam","steam_id":76561198006983771,"connected_time":1025000000000,"state":"active","ping":61},{"user_id":367,"name":"Sir_Dounut_III","steam_id":76561198447537093,"connected_time":6064000000000,"state":"active","ping":67},{"user_id":430,"name":"Goku","steam_id":76561199013167718,"connected_time":1024000000000,"state":"active","ping":68},{"user_id":374,"name":"G4Vi","steam_id":76561197998117895,"connected_time":5281000000000,"state":"active","ping":52},{"user_id":431,"name":"Peepster","steam_id":76561198297854733,"connected_time":1020000000000,"state":"active","ping":85},{"user_id":412,"name":"M4TT","steam_id":76561198118496274,"connected_time":2240000000000,"state":"active","ping":58},{"user_id":384,"name":"Wique","steam_id":76561198071217597,"connected_time":4194000000000,"state":"active","ping":68},{"user_id":420,"name":"twitch.tv/axities","steam_id":76561198278008225,"connected_time":1421000000000,"state":"active","ping":74},{"user_id":413,"name":"KBoneski ♡","steam_id":76561198307409065,"connected_time":2186000000000,"state":"active","ping":71},{"user_id":433,"name":"Ballistic","steam_id":76561197992355477,"connected_time":700000000000,"state":"active","ping":60},{"user_id":353,"name":"♦♣Quadric♥♠","steam_id":76561198061003853,"connected_time":7090000000000,"state":"active","ping":58}]},{"server_id":15,"name":"Uncletopia | New York City | 3 | Stopwatch","name_short":"nyc-3","host":"nyc-1.us.uncletopia.com","port":27035,"enabled":true,"region":"us-east","cc":"us","latitude":40.73061,"longitude":-73.93524,"reserved":0,"last_update":"0001-01-01T00:00:00Z","name_a2s":"Uncletopia | New York City | 3 | Stopwatch","protocol":17,"map":"workshop/pl_badwater_pro_v12.ugc2142942074","folder":"tf","game":"Team Fortress","app_id":440,"player_count":0,"max_players":24,"Bots":0,"server_type":"Dedicated","server_os":"Linux","password":true,"vac":true,"version":"7961495","steam_id":85568392924742820,"keywords":["nocrits","nodmgspread","payload","uncletopia"],"game_id":440,"stv_port":27036,"stv_name":"Uncletopia | New York City | 3 | Stopwatch | STV","players":null},{"server_id":16,"name":"Uncletopia | New York City | 4 | Community","name_short":"nyc-4","host":"nyc-1.us.uncletopia.com","port":27045,"enabled":true,"region":"us-east","cc":"us","latitude":40.73061,"longitude":-73.93524,"reserved":0,"last_update":"0001-01-01T00:00:00Z","name_a2s":"Uncletopia | New York City | 4 | Community","protocol":17,"map":"workshop/cp_snowbase_b21.ugc2081770490","folder":"tf","game":"Team Fortress","app_id":440,"player_count":0,"max_players":24,"Bots":0,"server_type":"Dedicated","server_os":"Linux","password":true,"vac":true,"version":"7961495","steam_id":85568392924742821,"keywords":["cp","nocrits","nodmgspread","uncletopia"],"game_id":440,"stv_port":27046,"stv_name":"Uncletopia | New York City | 4 | Community | STV","players":null},{"server_id":142,"name":"Uncletopia | São Paulo | 1 | All Maps","name_short":"sao-1","host":"sao-1.br.uncletopia.com","port":27015,"enabled":true,"region":"sa","cc":"br","latitude":-23.533773,"longitude":-46.62529,"reserved":0,"last_update":"0001-01-01T00:00:00Z","name_a2s":"Uncletopia | São Paulo | 1 | All Maps","protocol":17,"map":"koth_lakeside_final","folder":"tf","game":"Team Fortress","app_id":440,"player_count":0,"max_players":24,"Bots":0,"server_type":"Dedicated","server_os":"Linux","password":true,"vac":true,"version":"7961495","steam_id":85568392924469996,"keywords":["cp","nocrits","nodmgspread","uncletopia"],"game_id":440,"stv_port":27016,"stv_name":"Uncletopia | São Paulo | 1 | All Maps | STV","players":null},{"server_id":143,"name":"Uncletopia | São Paulo | 2 | Community","name_short":"sao-2","host":"sao-2.br.uncletopia.com","port":27015,"enabled":true,"region":"sa","cc":"br","latitude":-23.533773,"longitude":-46.62529,"reserved":0,"last_update":"0001-01-01T00:00:00Z","name_a2s":"Uncletopia | São Paulo | 2 | Community","protocol":17,"map":"workshop/rd_asteroid_redux_b1.ugc2154902912","folder":"tf","game":"Team Fortress","app_id":440,"player_count":0,"max_players":24,"Bots":0,"server_type":"Dedicated","server_os":"Linux","password":true,"vac":true,"version":"7961495","steam_id":85568392924485349,"keywords":["beta","nocrits","nodmgspread","rd","uncletopia"],"game_id":440,"stv_port":27016,"stv_name":"Uncletopia | São Paulo | 2 | Community | STV","players":null},{"server_id":7,"name":"Uncletopia | Seattle | 1 | All Maps","name_short":"sea-1","host":"sea-1.us.uncletopia.com","port":27015,"enabled":true,"region":"us-west","cc":"us","latitude":47.608013,"longitude":-122.33517,"reserved":0,"last_update":"0001-01-01T00:00:00Z","name_a2s":"Uncletopia | Seattle | 1 | All Maps","protocol":17,"map":"plr_bananabay","folder":"tf","game":"Team Fortress","app_id":440,"player_count":24,"max_players":24,"Bots":0,"server_type":"Dedicated","server_os":"Linux","password":true,"vac":true,"version":"7961495","steam_id":85568392924469997,"keywords":["nocrits","nodmgspread","payload","uncletopia"],"game_id":440,"stv_port":27016,"stv_name":"Uncletopia | Seattle | 1 | All Maps | STV","players":[{"user_id":640,"name":"NEBULA","steam_id":76561198086878595,"connected_time":4704000000000,"state":"active","ping":69},{"user_id":678,"name":"Niftis","steam_id":76561199123171549,"connected_time":1382000000000,"state":"active","ping":77},{"user_id":687,"name":"fwoov","steam_id":76561198129166260,"connected_time":542000000000,"state":"active","ping":75},{"user_id":696,"name":"Kc","steam_id":76561198210734407,"connected_time":432000000000,"state":"active","ping":108},{"user_id":665,"name":"sillymoder2005","steam_id":76561198202235495,"connected_time":2104000000000,"state":"active","ping":38},{"user_id":591,"name":"Strangest","steam_id":76561198076592068,"connected_time":8339000000000,"state":"active","ping":41},{"user_id":660,"name":"Daz","steam_id":76561198041431938,"connected_time":2577000000000,"state":"active","ping":50},{"user_id":649,"name":"fly","steam_id":76561199003715735,"connected_time":4137000000000,"state":"active","ping":91},{"user_id":681,"name":"Sudsen","steam_id":76561198370603787,"connected_time":1163000000000,"state":"active","ping":68},{"user_id":668,"name":"thunderous prophet","steam_id":76561198131166135,"connected_time":1814000000000,"state":"active","ping":40},{"user_id":689,"name":"moronkey","steam_id":76561199009904316,"connected_time":516000000000,"state":"active","ping":92},{"user_id":697,"name":"NightHawk","steam_id":76561198276385639,"connected_time":337000000000,"state":"active","ping":94},{"user_id":664,"name":"ed (bowl of soup in hand)","steam_id":76561198080475712,"connected_time":2137000000000,"state":"active","ping":71},{"user_id":667,"name":"porfer","steam_id":76561199118049168,"connected_time":1942000000000,"state":"active","ping":71},{"user_id":698,"name":"I THINK COOLSVILLE SUCKS","steam_id":76561198066855998,"connected_time":206000000000,"state":"active","ping":47},{"user_id":692,"name":"The Shaq Attack","steam_id":76561198075285534,"connected_time":494000000000,"state":"active","ping":45},{"user_id":679,"name":"Mr.Bones","steam_id":76561198205170595,"connected_time":1374000000000,"state":"active","ping":46},{"user_id":673,"name":"bcizzo","steam_id":76561197994399953,"connected_time":1519000000000,"state":"active","ping":66},{"user_id":680,"name":"GMFD! fungi","steam_id":76561198169755734,"connected_time":1206000000000,"state":"active","ping":66},{"user_id":693,"name":"Nom Skirrett","steam_id":76561198014600788,"connected_time":478000000000,"state":"active","ping":60},{"user_id":594,"name":"rat gets the cheese","steam_id":76561198031234032,"connected_time":7846000000000,"state":"active","ping":99},{"user_id":685,"name":"Closed.","steam_id":76561198212598967,"connected_time":550000000000,"state":"active","ping":94},{"user_id":655,"name":"rushy :))","steam_id":76561198065825165,"connected_time":3355000000000,"state":"active","ping":117},{"user_id":695,"name":"Cheezbeargur","steam_id":76561198164702899,"connected_time":461000000000,"state":"active","ping":67}]},{"server_id":119,"name":"Uncletopia | Seattle | 2 | All Maps","name_short":"sea-2","host":"sea-1.us.uncletopia.com","port":27025,"enabled":true,"region":"us-west","cc":"us","latitude":47.608013,"longitude":-122.33517,"reserved":0,"last_update":"0001-01-01T00:00:00Z","name_a2s":"Uncletopia | Seattle | 2 | All Maps","protocol":17,"map":"cp_granary","folder":"tf","game":"Team Fortress","app_id":440,"player_count":24,"max_players":24,"Bots":0,"server_type":"Dedicated","server_os":"Linux","password":true,"vac":true,"version":"7961495","steam_id":85568392924469998,"keywords":["cp","nocrits","nodmgspread","uncletopia"],"game_id":440,"stv_port":27026,"stv_name":"Uncletopia | Seattle | 2 | All Maps | STV","players":[{"user_id":281,"name":"fragadelphia","steam_id":76561198066116363,"connected_time":1730000000000,"state":"active","ping":45},{"user_id":264,"name":"The Horny","steam_id":76561198863639459,"connected_time":4511000000000,"state":"active","ping":50},{"user_id":297,"name":"Lily Thorn","steam_id":76561198305488625,"connected_time":48000000000,"state":"active","ping":46},{"user_id":295,"name":"Lazy Broadcasts","steam_id":76561198132871394,"connected_time":388000000000,"state":"active","ping":69},{"user_id":289,"name":"ohohaye","steam_id":76561198043911164,"connected_time":796000000000,"state":"active","ping":58},{"user_id":254,"name":"Dextersbrain","steam_id":76561198011831579,"connected_time":5012000000000,"state":"active","ping":59},{"user_id":194,"name":"woodpigeon","steam_id":76561199488457138,"connected_time":8730000000000,"state":"active","ping":58},{"user_id":293,"name":"Escapism","steam_id":76561198045302512,"connected_time":647000000000,"state":"active","ping":50},{"user_id":260,"name":"V_","steam_id":76561198147577835,"connected_time":4697000000000,"state":"active","ping":62},{"user_id":277,"name":"disgusting freak","steam_id":76561198049258493,"connected_time":2933000000000,"state":"active","ping":61},{"user_id":278,"name":"🌸AVY🌸","steam_id":76561197964252106,"connected_time":2683000000000,"state":"active","ping":92},{"user_id":282,"name":"McSpazatron","steam_id":76561198955942148,"connected_time":1715000000000,"state":"active","ping":53},{"user_id":296,"name":"TimaeusTensei","steam_id":76561199064971440,"connected_time":304000000000,"state":"active","ping":35},{"user_id":294,"name":"Giddy","steam_id":76561198271951969,"connected_time":551000000000,"state":"active","ping":76},{"user_id":234,"name":"ilun","steam_id":76561198042913843,"connected_time":6641000000000,"state":"active","ping":62},{"user_id":291,"name":"Real","steam_id":76561198405830028,"connected_time":760000000000,"state":"active","ping":85},{"user_id":290,"name":"Furious George","steam_id":76561198405111646,"connected_time":794000000000,"state":"active","ping":60},{"user_id":268,"name":"diredeafeningdigestivedisaster","steam_id":76561197972601902,"connected_time":4247000000000,"state":"active","ping":87},{"user_id":284,"name":"oog","steam_id":76561199089730744,"connected_time":1664000000000,"state":"active","ping":86},{"user_id":292,"name":"Ziggie Smalls","steam_id":76561198804592809,"connected_time":730000000000,"state":"active","ping":50},{"user_id":285,"name":"Rude Dog","steam_id":76561197980385816,"connected_time":1202000000000,"state":"active","ping":48},{"user_id":206,"name":"Skaði","steam_id":76561198063949642,"connected_time":8571000000000,"state":"active","ping":36},{"user_id":249,"name":"a familiar cat","steam_id":76561198080046542,"connected_time":5304000000000,"state":"active","ping":51},{"user_id":276,"name":"FREAKS","steam_id":76561198285819311,"connected_time":3035000000000,"state":"active","ping":73}]},{"server_id":406,"name":"Uncletopia | Seattle | 3 | Stopwatch","name_short":"sea-3","host":"sea-1.us.uncletopia.com","port":27035,"enabled":true,"region":"us-west","cc":"us","latitude":47.608013,"longitude":-122.33517,"reserved":0,"last_update":"0001-01-01T00:00:00Z","name_a2s":"Uncletopia | Seattle | 3 | Stopwatch","protocol":17,"map":"workshop/koth_ramjam_rc1.ugc459778887","folder":"tf","game":"Team Fortress","app_id":440,"player_count":0,"max_players":24,"Bots":0,"server_type":"Dedicated","server_os":"Linux","password":true,"vac":true,"version":"7961495","steam_id":85568392924515217,"keywords":["cp","nocrits","nodmgspread","uncletopia"],"game_id":440,"stv_port":27036,"stv_name":"Uncletopia | Seattle | 3 | Stopwatch | STV","players":null},{"server_id":17,"name":"Uncletopia | San Francisco | 1 | All Maps","name_short":"sfo-1","host":"sfo-1.us.uncletopia.com","port":27015,"enabled":true,"region":"us-west","cc":"us","latitude":37.77397,"longitude":-122.4313,"reserved":0,"last_update":"0001-01-01T00:00:00Z","name_a2s":"Uncletopia | San Francisco | 1 | All Maps","protocol":17,"map":"pl_badwater","folder":"tf","game":"Team Fortress","app_id":440,"player_count":24,"max_players":24,"Bots":0,"server_type":"Dedicated","server_os":"Linux","password":true,"vac":true,"version":"7961495","steam_id":85568392924469999,"keywords":["nocrits","nodmgspread","payload","uncletopia"],"game_id":440,"stv_port":27016,"stv_name":"Uncletopia | San Francisco | 1 | All Maps | STV","players":[{"user_id":645,"name":"Lucky","steam_id":76561198124910662,"connected_time":340000000000,"state":"active","ping":58},{"user_id":566,"name":"sim0n","steam_id":76561198198137847,"connected_time":5555000000000,"state":"active","ping":73},{"user_id":646,"name":"video games","steam_id":76561198334059206,"connected_time":276000000000,"state":"active","ping":48},{"user_id":632,"name":"dewey","steam_id":76561198132791511,"connected_time":961000000000,"state":"active","ping":69},{"user_id":607,"name":"Seshreb","steam_id":76561198846614634,"connected_time":2354000000000,"state":"active","ping":70},{"user_id":643,"name":"Epicmullen","steam_id":76561198259850795,"connected_time":461000000000,"state":"active","ping":105},{"user_id":648,"name":"DamienIsAsian","steam_id":76561198228819444,"connected_time":155000000000,"state":"active","ping":79},{"user_id":536,"name":"organic kale","steam_id":76561198101506575,"connected_time":6204000000000,"state":"active","ping":76},{"user_id":617,"name":"Psycho Raptor","steam_id":76561198325853767,"connected_time":1913000000000,"state":"active","ping":69},{"user_id":593,"name":"mellgibs","steam_id":76561198119657503,"connected_time":4197000000000,"state":"active","ping":79},{"user_id":640,"name":"Seskova","steam_id":76561198090207032,"connected_time":563000000000,"state":"active","ping":81},{"user_id":634,"name":"Ya_Boi_Clapitao","steam_id":76561198274969584,"connected_time":845000000000,"state":"active","ping":70},{"user_id":638,"name":"Beef Wellington","steam_id":76561197995635241,"connected_time":622000000000,"state":"active","ping":168},{"user_id":637,"name":"Lemonade Juice","steam_id":76561198402892608,"connected_time":655000000000,"state":"active","ping":50},{"user_id":633,"name":"Antwan","steam_id":76561198246200638,"connected_time":928000000000,"state":"active","ping":82},{"user_id":619,"name":"Because","steam_id":76561199482135239,"connected_time":1846000000000,"state":"active","ping":123},{"user_id":628,"name":"GaymerGay","steam_id":76561199051061384,"connected_time":1175000000000,"state":"active","ping":71},{"user_id":588,"name":"Johni3FireFly","steam_id":76561198089760607,"connected_time":4451000000000,"state":"active","ping":72},{"user_id":644,"name":"D.A.V.I.D","steam_id":76561199443570634,"connected_time":414000000000,"state":"active","ping":91},{"user_id":647,"name":"C^a^L","steam_id":76561198241124222,"connected_time":245000000000,"state":"active","ping":48},{"user_id":620,"name":"☭Borris☭","steam_id":76561198011136886,"connected_time":1705000000000,"state":"active","ping":86},{"user_id":616,"name":"Spaceman","steam_id":76561198349305249,"connected_time":2118000000000,"state":"active","ping":78},{"user_id":582,"name":"Bizsnitch","steam_id":76561198017936794,"connected_time":5007000000000,"state":"active","ping":77},{"user_id":625,"name":"zedisgone","steam_id":76561199174794563,"connected_time":1241000000000,"state":"active","ping":49}]},{"server_id":18,"name":"Uncletopia | San Francisco | 2 | All Maps","name_short":"sfo-2","host":"sfo-1.us.uncletopia.com","port":27025,"enabled":true,"region":"us-west","cc":"us","latitude":37.77397,"longitude":-122.4313,"reserved":0,"last_update":"0001-01-01T00:00:00Z","name_a2s":"Uncletopia | San Francisco | 2 | All Maps","protocol":17,"map":"pl_swiftwater_final1","folder":"tf","game":"Team Fortress","app_id":440,"player_count":24,"max_players":24,"Bots":0,"server_type":"Dedicated","server_os":"Linux","password":true,"vac":true,"version":"7961495","steam_id":85568392924470000,"keywords":["nocrits","nodmgspread","payload","uncletopia"],"game_id":440,"stv_port":27026,"stv_name":"Uncletopia | San Francisco | 2 | All Maps | STV","players":[{"user_id":95,"name":"grunt","steam_id":76561199097839921,"connected_time":1223000000000,"state":"active","ping":69},{"user_id":79,"name":"Buswolley","steam_id":76561197995205571,"connected_time":2044000000000,"state":"active","ping":47},{"user_id":105,"name":"Useless","steam_id":76561198116079299,"connected_time":576000000000,"state":"active","ping":60},{"user_id":106,"name":"Vitae Kakon","steam_id":76561198307440313,"connected_time":386000000000,"state":"active","ping":48},{"user_id":107,"name":"Jaded","steam_id":76561198272575611,"connected_time":354000000000,"state":"active","ping":103},{"user_id":98,"name":"rmbl (fork eater)","steam_id":76561198150137369,"connected_time":1064000000000,"state":"active","ping":59},{"user_id":108,"name":"vanillain","steam_id":76561198058617608,"connected_time":351000000000,"state":"active","ping":71},{"user_id":25,"name":"ConnorWRM","steam_id":76561199350333302,"connected_time":6018000000000,"state":"active","ping":116},{"user_id":26,"name":"pipebombrater","steam_id":76561199029030831,"connected_time":5705000000000,"state":"active","ping":126},{"user_id":61,"name":"Platinum","steam_id":76561198052463484,"connected_time":2789000000000,"state":"active","ping":44},{"user_id":80,"name":"blue duck the 2nd","steam_id":76561198263142765,"connected_time":2021000000000,"state":"active","ping":124},{"user_id":100,"name":"iwillstealurphone","steam_id":76561198353460257,"connected_time":1046000000000,"state":"active","ping":83},{"user_id":86,"name":"Dongus","steam_id":76561197979056451,"connected_time":1745000000000,"state":"active","ping":72},{"user_id":109,"name":"Pestilence","steam_id":76561198272327629,"connected_time":347000000000,"state":"active","ping":59},{"user_id":75,"name":"Creature","steam_id":76561198194585781,"connected_time":2306000000000,"state":"active","ping":57},{"user_id":65,"name":"Weed Dealer","steam_id":76561198418604400,"connected_time":2512000000000,"state":"active","ping":80},{"user_id":101,"name":"Polar","steam_id":76561198271964253,"connected_time":825000000000,"state":"active","ping":91},{"user_id":110,"name":"Uranium fever","steam_id":76561199028686952,"connected_time":323000000000,"state":"active","ping":89},{"user_id":88,"name":"DuckyJacob","steam_id":76561199222498634,"connected_time":1718000000000,"state":"active","ping":57},{"user_id":90,"name":"buhn","steam_id":76561198106117196,"connected_time":1635000000000,"state":"active","ping":58},{"user_id":111,"name":"Maid 'n' China","steam_id":76561198423392976,"connected_time":309000000000,"state":"active","ping":62},{"user_id":102,"name":"Gallus Domesticus","steam_id":76561198137242703,"connected_time":814000000000,"state":"active","ping":62},{"user_id":97,"name":"miguelrodriguez2013","steam_id":76561198269253587,"connected_time":1170000000000,"state":"active","ping":46},{"user_id":84,"name":"top 10 sidewalks","steam_id":76561198844273999,"connected_time":1928000000000,"state":"active","ping":68}]},{"server_id":19,"name":"Uncletopia | San Francisco | 3 | Stopwatch","name_short":"sfo-3","host":"sfo-1.us.uncletopia.com","port":27035,"enabled":true,"region":"us-west","cc":"us","latitude":37.77397,"longitude":-122.4313,"reserved":0,"last_update":"0001-01-01T00:00:00Z","name_a2s":"Uncletopia | San Francisco | 3 | Stopwatch","protocol":17,"map":"cp_process_final","folder":"tf","game":"Team Fortress","app_id":440,"player_count":0,"max_players":24,"Bots":0,"server_type":"Dedicated","server_os":"Linux","password":true,"vac":true,"version":"7961495","steam_id":85568392924742824,"keywords":["cp","nocrits","nodmgspread","uncletopia"],"game_id":440,"stv_port":27036,"stv_name":"Uncletopia | San Francisco | 3 | Stopwatch | STV","players":null},{"server_id":20,"name":"Uncletopia | San Francisco | 4 | Community","name_short":"sfo-4","host":"sfo-1.us.uncletopia.com","port":27045,"enabled":true,"region":"us-west","cc":"us","latitude":37.77397,"longitude":-122.4313,"reserved":0,"last_update":"0001-01-01T00:00:00Z","name_a2s":"Uncletopia | San Francisco | 4 | Community","protocol":17,"map":"workshop/koth_trenchfoot_ab1.ugc731436616","folder":"tf","game":"Team Fortress","app_id":440,"player_count":0,"max_players":24,"Bots":0,"server_type":"Dedicated","server_os":"Linux","password":true,"vac":true,"version":"7961495","steam_id":85568392924742826,"keywords":["cp","nocrits","nodmgspread","uncletopia"],"game_id":440,"stv_port":27046,"stv_name":"Uncletopia | San Francisco | 4 | Community | STV","players":null},{"server_id":141,"name":"Uncletopia | Sydney | 1 | All Maps","name_short":"syd-1","host":"syd-1.au.uncletopia.com","port":27015,"enabled":true,"region":"au","cc":"au","latitude":-33.865143,"longitude":151.2099,"reserved":0,"last_update":"0001-01-01T00:00:00Z","name_a2s":"Uncletopia | Sydney | 1 | All Maps","protocol":17,"map":"koth_viaduct","folder":"tf","game":"Team Fortress","app_id":440,"player_count":0,"max_players":24,"Bots":0,"server_type":"Dedicated","server_os":"Linux","password":true,"vac":true,"version":"7961495","steam_id":85568392924470001,"keywords":["cp","nocrits","nodmgspread","uncletopia"],"game_id":440,"stv_port":27016,"stv_name":"Uncletopia | Sydney | 1 | All Maps | STV","players":null},{"server_id":123,"name":"Uncletopia | Sydney | 2 | All Maps","name_short":"syd-2","host":"syd-1.au.uncletopia.com","port":27025,"enabled":true,"region":"au","cc":"au","latitude":-33.865143,"longitude":151.2099,"reserved":0,"last_update":"0001-01-01T00:00:00Z","name_a2s":"Uncletopia | Sydney | 2 | All Maps","protocol":17,"map":"koth_lakeside_final","folder":"tf","game":"Team Fortress","app_id":440,"player_count":0,"max_players":24,"Bots":0,"server_type":"Dedicated","server_os":"Linux","password":true,"vac":true,"version":"7961495","steam_id":85568392924470002,"keywords":["cp","nocrits","nodmgspread","uncletopia"],"game_id":440,"stv_port":27026,"stv_name":"Uncletopia | Sydney | 2 | All Maps | STV","players":null},{"server_id":395,"name":"Uncletopia | Sydney | 3 | All Maps","name_short":"syd-3","host":"syd-1.au.uncletopia.com","port":27035,"enabled":true,"region":"au","cc":"au","latitude":-33.865143,"longitude":151.2099,"reserved":0,"last_update":"0001-01-01T00:00:00Z","name_a2s":"Uncletopia | Sydney | 3 | All Maps","protocol":17,"map":"pl_frontier_final","folder":"tf","game":"Team Fortress","app_id":440,"player_count":0,"max_players":24,"Bots":0,"server_type":"Dedicated","server_os":"Linux","password":true,"vac":true,"version":"7961495","steam_id":85568392925194467,"keywords":["nocrits","nodmgspread","payload","uncletopia"],"game_id":440,"stv_port":27036,"stv_name":"Uncletopia | Sydney | 3 | All Maps | STV","players":null},{"server_id":396,"name":"Uncletopia | Sydney | 4 | All Maps","name_short":"syd-4","host":"syd-1.au.uncletopia.com","port":27045,"enabled":true,"region":"au","cc":"au","latitude":-33.865143,"longitude":151.2099,"reserved":0,"last_update":"0001-01-01T00:00:00Z","name_a2s":"Uncletopia | Sydney | 4 | All Maps","protocol":17,"map":"cp_process_final","folder":"tf","game":"Team Fortress","app_id":440,"player_count":0,"max_players":24,"Bots":0,"server_type":"Dedicated","server_os":"Linux","password":true,"vac":true,"version":"7961495","steam_id":85568392925397958,"keywords":["cp","nocrits","nodmgspread","uncletopia"],"game_id":440,"stv_port":27046,"stv_name":"Uncletopia | Sydney | 4 | All Maps | STV","players":null},{"server_id":58,"name":"Uncletopia | Sydney | 5 | Stopwatch","name_short":"syd-5","host":"syd-1.au.uncletopia.com","port":27055,"enabled":true,"region":"au","cc":"au","latitude":-33.865143,"longitude":151.2099,"reserved":0,"last_update":"0001-01-01T00:00:00Z","name_a2s":"Uncletopia | Sydney | 5 | Stopwatch","protocol":17,"map":"pl_frontier_final","folder":"tf","game":"Team Fortress","app_id":440,"player_count":0,"max_players":24,"Bots":0,"server_type":"Dedicated","server_os":"Linux","password":true,"vac":true,"version":"7961495","steam_id":85568392925397959,"keywords":["nocrits","nodmgspread","payload","uncletopia"],"game_id":440,"stv_port":27056,"stv_name":"Uncletopia | Sydney | 5 | Stopwatch | STV","players":null},{"server_id":59,"name":"Uncletopia | Sydney | 6 | Community","name_short":"syd-6","host":"syd-1.au.uncletopia.com","port":27065,"enabled":true,"region":"au","cc":"au","latitude":-33.865143,"longitude":151.2099,"reserved":0,"last_update":"0001-01-01T00:00:00Z","name_a2s":"Uncletopia | Sydney | 6 | Community","protocol":17,"map":"cp_sunshine","folder":"tf","game":"Team Fortress","app_id":440,"player_count":0,"max_players":24,"Bots":0,"server_type":"Dedicated","server_os":"Linux","password":true,"vac":true,"version":"7961495","steam_id":85568392925397960,"keywords":["cp","nocrits","nodmgspread","uncletopia"],"game_id":440,"stv_port":27066,"stv_name":"Uncletopia | Sydney | 6 | Community | STV","players":null},{"server_id":49,"name":"Uncletopia | Warsaw | 1 | One Thousand Uncles","name_short":"waw-1","host":"waw-1.pl.uncletopia.com","port":27015,"enabled":true,"region":"eu","cc":"pl","latitude":52.2297,"longitude":21.017532,"reserved":0,"last_update":"0001-01-01T00:00:00Z","name_a2s":"Uncletopia | Warsaw | 1 | One Thousand Uncles","protocol":17,"map":"pl_thundermountain","folder":"tf","game":"Team Fortress","app_id":440,"player_count":18,"max_players":32,"Bots":16,"server_type":"Dedicated","server_os":"Linux","password":true,"vac":true,"version":"7961495","steam_id":85568392925397850,"keywords":["alltalk","bots","danepve","increased_maxplayers","nocrits","norespawntime","payload","uncletopia"],"game_id":440,"stv_port":0,"stv_name":"","players":[{"user_id":613,"name":"Dimo","steam_id":76561199145809112,"connected_time":4058000000000,"state":"active","ping":163},{"user_id":632,"name":"snadboxer","steam_id":76561199236982996,"connected_time":940000000000,"state":"active","ping":141}]},{"server_id":50,"name":"Uncletopia | Warsaw | 2 | One Thousand Uncles","name_short":"waw-2","host":"waw-1.pl.uncletopia.com","port":27025,"enabled":true,"region":"eu","cc":"pl","latitude":52.2297,"longitude":21.017532,"reserved":0,"last_update":"0001-01-01T00:00:00Z","name_a2s":"Uncletopia | Warsaw | 2 | One Thousand Uncles","protocol":17,"map":"pl_upward","folder":"tf","game":"Team Fortress","app_id":440,"player_count":0,"max_players":32,"Bots":0,"server_type":"Dedicated","server_os":"Linux","password":true,"vac":true,"version":"7961495","steam_id":85568392925397851,"keywords":["alltalk","danepve","increased_maxplayers","nocrits","norespawntime","payload","uncletopia"],"game_id":440,"stv_port":0,"stv_name":"","players":null},{"server_id":51,"name":"Uncletopia | Warsaw | 3 | All Maps","name_short":"waw-3","host":"waw-1.pl.uncletopia.com","port":27035,"enabled":true,"region":"eu","cc":"pl","latitude":52.2297,"longitude":21.017532,"reserved":0,"last_update":"0001-01-01T00:00:00Z","name_a2s":"Uncletopia | Warsaw | 3 | All Maps","protocol":17,"map":"pl_snowycoast","folder":"tf","game":"Team Fortress","app_id":440,"player_count":0,"max_players":24,"Bots":0,"server_type":"Dedicated","server_os":"Linux","password":true,"vac":true,"version":"7961495","steam_id":85568392925397852,"keywords":["nocrits","nodmgspread","payload","uncletopia"],"game_id":440,"stv_port":27036,"stv_name":"Uncletopia | Warsaw | 3 | All Maps | STV","players":null},{"server_id":52,"name":"Uncletopia | Warsaw | 4 | All Maps","name_short":"waw-4","host":"waw-1.pl.uncletopia.com","port":27045,"enabled":true,"region":"eu","cc":"pl","latitude":52.2297,"longitude":21.017532,"reserved":0,"last_update":"0001-01-01T00:00:00Z","name_a2s":"Uncletopia | Warsaw | 4 | All Maps","protocol":17,"map":"cp_mountainlab","folder":"tf","game":"Team Fortress","app_id":440,"player_count":0,"max_players":24,"Bots":0,"server_type":"Dedicated","server_os":"Linux","password":true,"vac":true,"version":"7961495","steam_id":85568392925397853,"keywords":["cp","nocrits","nodmgspread","uncletopia"],"game_id":440,"stv_port":27046,"stv_name":"Uncletopia | Warsaw | 4 | All Maps | STV","players":null},{"server_id":53,"name":"Uncletopia | Warsaw | 5 | Stopwatch","name_short":"waw-5","host":"waw-1.pl.uncletopia.com","port":27055,"enabled":true,"region":"eu","cc":"pl","latitude":52.2297,"longitude":21.017532,"reserved":0,"last_update":"0001-01-01T00:00:00Z","name_a2s":"Uncletopia | Warsaw | 5 | Stopwatch","protocol":17,"map":"koth_lakeside_final","folder":"tf","game":"Team Fortress","app_id":440,"player_count":0,"max_players":24,"Bots":0,"server_type":"Dedicated","server_os":"Linux","password":true,"vac":true,"version":"7961495","steam_id":85568392925397854,"keywords":["cp","nocrits","nodmgspread","uncletopia"],"game_id":440,"stv_port":27056,"stv_name":"Uncletopia | Warsaw | 5 | Stopwatch | STV","players":null},{"server_id":54,"name":"Uncletopia | Warsaw | 6 | Community","name_short":"waw-6","host":"waw-1.pl.uncletopia.com","port":27065,"enabled":true,"region":"eu","cc":"pl","latitude":52.2297,"longitude":21.017532,"reserved":0,"last_update":"0001-01-01T00:00:00Z","name_a2s":"Uncletopia | Warsaw | 6 | Community","protocol":17,"map":"workshop/cp_caldera_rc3.ugc2834196889","folder":"tf","game":"Team Fortress","app_id":440,"player_count":0,"max_players":24,"Bots":0,"server_type":"Dedicated","server_os":"Linux","password":true,"vac":true,"version":"7961495","steam_id":85568392925397856,"keywords":["cp","nocrits","nodmgspread","uncletopia"],"game_id":440,"stv_port":27066,"stv_name":"Uncletopia | Warsaw | 6 | Community | STV","players":null}]}