{"status":true,"message":"","result":[{"server_id":9,"name":"Uncletopia | Atlanta | 1 | All Maps","name_short":"atl-1","host":"atl-1.us.uncletopia.com","port":27015,"enabled":true,"region":"us-east","cc":"us","latitude":33.753746,"longitude":-84.38633,"reserved":0,"last_update":"0001-01-01T00:00:00Z","name_a2s":"Uncletopia | Atlanta | 1 | All Maps","protocol":17,"map":"pl_frontier_final","folder":"tf","game":"Team Fortress","app_id":440,"player_count":24,"max_players":24,"Bots":0,"server_type":"Dedicated","server_os":"Linux","password":true,"vac":true,"version":"7757534","steam_id":85568392924469982,"keywords":["nocrits","nodmgspread","payload","uncletopia"],"game_id":440,"stv_port":27016,"stv_name":"Uncletopia | Atlanta | 1 | All Maps | STV","players":[{"user_id":87,"name":"ATL1 | Lylith!!!","steam_id":76561198386687546,"connected_time":4321000000000,"state":"active","ping":45},{"user_id":103,"name":"Broken Cereal‚àö","steam_id":76561198087489795,"connected_time":2218000000000,"state":"active","ping":66},{"user_id":110,"name":"floofy","steam_id":76561198389769098,"connected_time":1941000000000,"state":"active","ping":87},{"user_id":113,"name":"Gugulethu Ntombifuthi","steam_id":76561198977893783,"connected_time":1526000000000,"state":"active","ping":56},{"user_id":114,"name":"dlevine0","steam_id":76561198030528211,"connected_time":1519000000000,"state":"active","ping":90},{"user_id":66,"name":"Dude bro","steam_id":76561198249916746,"connected_time":5142000000000,"state":"active","ping":61},{"user_id":123,"name":"lynt","steam_id":76561198988333976,"connected_time":497000000000,"state":"active","ping":43},{"user_id":78,"name":"Lepo","steam_id":76561198383509659,"connected_time":4493000000000,"state":"active","ping":77},{"user_id":102,"name":"LuckyZero-_-","steam_id":76561198139891051,"connected_time":2941000000000,"state":"active","ping":70},{"user_id":124,"name":"I-C WEINER","steam_id":76561198075552138,"connected_time":495000000000,"state":"active","ping":93},{"user_id":23,"name":"ATL1 | p4ka","steam_id":76561198315291317,"connected_time":8231000000000,"state":"active","ping":77},{"user_id":126,"name":"Buddy55","steam_id":76561198201783021,"connected_time":467000000000,"state":"active","ping":68},{"user_id":118,"name":"supernova1241","steam_id":76561198325215872,"connected_time":1291000000000,"state":"active","ping":74},{"user_id":119,"name":"Atomik","steam_id":76561199070549800,"connected_time":1283000000000,"state":"active","ping":66},{"user_id":81,"name":"semaj (._. )/","steam_id":76561199072490942,"connected_time":4422000000000,"state":"active","ping":75},{"user_id":122,"name":"melancholy","steam_id":76561198024301465,"connected_time":882000000000,"state":"active","ping":45},{"user_id":127,"name":"Bottom Trans Cowgirl","steam_id":76561198304239680,"connected_time":82000000000,"state":"active","ping":95},{"user_id":109,"name":"Luucyf3r","steam_id":76561198141820085,"connected_time":1968000000000,"state":"active","ping":61},{"user_id":88,"name":"lil hog","steam_id":76561199230929836,"connected_time":4258000000000,"state":"active","ping":85},{"user_id":91,"name":"Genetic Komodo (He/Him)","steam_id":76561198174806758,"connected_time":4037000000000,"state":"active","ping":59},{"user_id":111,"name":"puppy boy","steam_id":76561198255639473,"connected_time":1791000000000,"state":"active","ping":81},{"user_id":74,"name":"ATL1 | ma0re","steam_id":76561199231971506,"connected_time":4689000000000,"state":"active","ping":69},{"user_id":120,"name":"autistic enby","steam_id":76561198440145948,"connected_time":1252000000000,"state":"active","ping":57},{"user_id":98,"name":"Actuary","steam_id":76561198838757422,"connected_time":3205000000000,"state":"active","ping":99}]},{"server_id":104,"name":"Uncletopia | Atlanta | 2 | All Maps","name_short":"atl-2","host":"atl-1.us.uncletopia.com","port":27025,"enabled":true,"region":"us-east","cc":"us","latitude":33.753746,"longitude":-84.38633,"reserved":0,"last_update":"0001-01-01T00:00:00Z","name_a2s":"Uncletopia | Atlanta | 2 | All Maps","protocol":17,"map":"pl_barnblitz","folder":"tf","game":"Team Fortress","app_id":440,"player_count":24,"max_players":24,"Bots":0,"server_type":"Dedicated","server_os":"Linux","password":true,"vac":true,"version":"7757534","steam_id":85568392924469983,"keywords":["nocrits","nodmgspread","payload","uncletopia"],"game_id":440,"stv_port":27026,"stv_name":"Uncletopia | Atlanta | 2 | All Maps | STV","players":[{"user_id":294,"name":"the grunch","steam_id":76561199013160273,"connected_time":441000000000,"state":"active","ping":48},{"user_id":292,"name":"randomprimary2004","steam_id":76561199118304154,"connected_time":487000000000,"state":"active","ping":82},{"user_id":291,"name":"TheGrassMan (He/Him)","steam_id":76561198118984048,"connected_time":599000000000,"state":"active","ping":85},{"user_id":295,"name":"soy consumer","steam_id":76561198047168548,"connected_time":428000000000,"state":"active","ping":106},{"user_id":278,"name":"Registeel","steam_id":76561198068516556,"connected_time":1213000000000,"state":"active","ping":119},{"user_id":296,"name":"Resident Thrussy Lender","steam_id":76561198071790583,"connected_time":405000000000,"state":"active","ping":41},{"user_id":251,"name":"Johnbug1","steam_id":76561198066898527,"connected_time":3541000000000,"state":"active","ping":71},{"user_id":286,"name":"Belvidere","steam_id":76561198121336953,"connected_time":748000000000,"state":"active","ping":101},{"user_id":238,"name":"‚úø Old Sport‚Ñ¢ ‚úø","steam_id":76561198121383743,"connected_time":4258000000000,"state":"active","ping":81},{"user_id":297,"name":"the real babytron","steam_id":76561197989627918,"connected_time":363000000000,"state":"active","ping":81},{"user_id":260,"name":"rustyorion","steam_id":76561198439186347,"connected_time":1988000000000,"state":"active","ping":121},{"user_id":201,"name":"AcenSamurai","steam_id":76561199440038716,"connected_time":5701000000000,"state":"active","ping":75},{"user_id":246,"name":"morgborg","steam_id":76561198350206257,"connected_time":3746000000000,"state":"active","ping":91},{"user_id":252,"name":"Shamrock Shake Oct.10.2020 @8pm","steam_id":76561198833313201,"connected_time":3526000000000,"state":"active","ping":112},{"user_id":290,"name":"kazoo2","steam_id":76561198260473504,"connected_time":665000000000,"state":"active","ping":100},{"user_id":263,"name":"RabidTaco","steam_id":76561198023404808,"connected_time":1799000000000,"state":"active","ping":65},{"user_id":298,"name":"MintVibes","steam_id":76561198844411772,"connected_time":346000000000,"state":"active","ping":86},{"user_id":282,"name":"TheRkey","steam_id":76561198989187114,"connected_time":1051000000000,"state":"active","ping":92},{"user_id":268,"name":"ThatGamingKiwi","steam_id":76561199170522237,"connected_time":1641000000000,"state":"active","ping":90},{"user_id":269,"name":"Drygongames","steam_id":76561198250418424,"connected_time":1634000000000,"state":"active","ping":86},{"user_id":274,"name":"twitch.tv/EmiTV","steam_id":76561198041201321,"connected_time":1546000000000,"state":"active","ping":93},{"user_id":241,"name":"A Shiny Meat Bicycle","steam_id":76561198358757709,"connected_time":4152000000000,"state":"active","ping":75},{"user_id":247,"name":"Smol Zuzu","steam_id":76561198042446540,"connected_time":3662000000000,"state":"active","ping":73},{"user_id":299,"name":"Dawk Rawk","steam_id":76561197996027396,"connected_time":307000000000,"state":"active","ping":47}]},{"server_id":400,"name":"Uncletopia | Atlanta | 3 | Community","name_short":"atl-3","host":"atl-1.us.uncletopia.com","port":27035,"enabled":true,"region":"us-east","cc":"us","latitude":33.753746,"longitude":-84.38633,"reserved":0,"last_update":"0001-01-01T00:00:00Z","name_a2s":"Uncletopia | Atlanta | 3 | Community","protocol":17,"map":"workshop/cp_fulgur_rc2a.ugc2068252300","folder":"tf","game":"Team Fortress","app_id":440,"player_count":8,"max_players":24,"Bots":0,"server_type":"Dedicated","server_os":"Linux","password":true,"vac":true,"version":"7757534","steam_id":85568392924515187,"keywords":["cp","nocrits","nodmgspread","uncletopia"],"game_id":440,"stv_port":27036,"stv_name":"Uncletopia | Atlanta | 3 | Community | STV","players":[{"user_id":8,"name":"bopy","steam_id":76561198845789946,"connected_time":698000000000,"state":"active","ping":98},{"user_id":9,"name":"Lone Rider","steam_id":76561198091978968,"connected_time":480000000000,"state":"active","ping":62},{"user_id":10,"name":"Crotonga","steam_id":76561198077178900,"connected_time":464000000000,"state":"active","ping":73},{"user_id":11,"name":"Personaless","steam_id":76561198060279377,"connected_time":456000000000,"state":"active","ping":84},{"user_id":12,"name":"Kunai","steam_id":76561198091165171,"connected_time":344000000000,"state":"active","ping":68},{"user_id":13,"name":"Spiffo Raccoon (love this anima","steam_id":76561198035667824,"connected_time":241000000000,"state":"active","ping":47},{"user_id":14,"name":"Ministerio del lag","steam_id":76561198319121665,"connected_time":23000000000,"state":"active","ping":185},{"user_id":15,"name":"ihavebeenstarving","steam_id":76561199449852744,"connected_time":17000000000,"state":"active","ping":70}]},{"server_id":401,"name":"Uncletopia | Atlanta | 4 | No Payload","name_short":"atl-4","host":"atl-1.us.uncletopia.com","port":27045,"enabled":true,"region":"us-east","cc":"us","latitude":33.753746,"longitude":-84.38633,"reserved":0,"last_update":"0001-01-01T00:00:00Z","name_a2s":"","protocol":0,"map":"","folder":"","game":"","app_id":0,"player_count":0,"max_players":0,"Bots":0,"server_type":"","server_os":"","password":false,"vac":false,"version":"","steam_id":0,"keywords":null,"game_id":0,"stv_port":0,"stv_name":"","players":null},{"server_id":2,"name":"Uncletopia | Chicago | 1 | All Maps","name_short":"chi-1","host":"chi-1.us.uncletopia.com","port":27015,"enabled":true,"region":"us-central","cc":"us","latitude":41.881832,"longitude":-87.62318,"reserved":0,"last_update":"0001-01-01T00:00:00Z","name_a2s":"Uncletopia | Chicago | 1 | All Maps","protocol":17,"map":"cp_dustbowl","folder":"tf","game":"Team Fortress","app_id":440,"player_count":24,"max_players":24,"Bots":0,"server_type":"Dedicated","server_os":"Linux","password":true,"vac":true,"version":"7757534","steam_id":85568392924469984,"keywords":["cp","nocrits","nodmgspread","uncletopia"],"game_id":440,"stv_port":27016,"stv_name":"Uncletopia | Chicago | 1 | All Maps | STV","players":[{"user_id":462,"name":"Macko","steam_id":76561198452005461,"connected_time":1996000000000,"state":"active","ping":86},{"user_id":480,"name":"a footnote in sounding history","steam_id":76561198063064857,"connected_time":256000000000,"state":"active","ping":74},{"user_id":453,"name":"Corn","steam_id":76561198177186718,"connected_time":2535000000000,"state":"active","ping":53},{"user_id":481,"name":"pizzachit","steam_id":76561198803053113,"connected_time":109000000000,"state":"active","ping":108},{"user_id":479,"name":"instantpot","steam_id":76561199001109830,"connected_time":440000000000,"state":"active","ping":67},{"user_id":478,"name":"Ed gaming 114","steam_id":76561199401784260,"connected_time":483000000000,"state":"active","ping":81},{"user_id":413,"name":"TheDapperTaco","steam_id":76561199103076602,"connected_time":6129000000000,"state":"active","ping":94},{"user_id":463,"name":"daBigBoss","steam_id":76561198120428029,"connected_time":1868000000000,"state":"active","ping":102},{"user_id":469,"name":"Venk","steam_id":76561198251131422,"connected_time":1133000000000,"state":"active","ping":71},{"user_id":470,"name":"elevatorboi","steam_id":76561198373691695,"connected_time":1081000000000,"state":"active","ping":75},{"user_id":431,"name":"Ramadan Steve","steam_id":76561198138568488,"connected_time":4195000000000,"state":"active","ping":67},{"user_id":464,"name":"Craig Isonychia","steam_id":76561198272013678,"connected_time":1740000000000,"state":"active","ping":75},{"user_id":471,"name":"StevieNicholai","steam_id":76561198327310266,"connected_time":1045000000000,"state":"active","ping":57},{"user_id":429,"name":"Garfield","steam_id":76561198037803087,"connected_time":4306000000000,"state":"active","ping":71},{"user_id":458,"name":"Drunkard Bocchi","steam_id":76561198025668771,"connected_time":2330000000000,"state":"active","ping":110},{"user_id":476,"name":"Theodore Roosevelt","steam_id":76561197993295656,"connected_time":752000000000,"state":"active","ping":42},{"user_id":466,"name":"Ansuz();","steam_id":76561198260732135,"connected_time":1621000000000,"state":"active","ping":72},{"user_id":227,"name":"Brokayo","steam_id":76561198053802723,"connected_time":17596000000000,"state":"active","ping":90},{"user_id":447,"name":"Video James","steam_id":76561198240919690,"connected_time":3059000000000,"state":"active","ping":88},{"user_id":477,"name":"Gunkpump","steam_id":76561197975794806,"connected_time":545000000000,"state":"active","ping":89},{"user_id":428,"name":"beta central","steam_id":76561198301876831,"connected_time":4405000000000,"state":"active","ping":52},{"user_id":465,"name":"Demo-Sans","steam_id":76561198067029049,"connected_time":1701000000000,"state":"active","ping":106},{"user_id":474,"name":"Antwan","steam_id":76561198246200638,"connected_time":960000000000,"state":"active","ping":70},{"user_id":451,"name":"OpenDown","steam_id":76561198064132688,"connected_time":2815000000000,"state":"active","ping":70}]},{"server_id":106,"name":"Uncletopia | Chicago | 2 | All Maps","name_short":"chi-2","host":"chi-1.us.uncletopia.com","port":27025,"enabled":true,"region":"us-central","cc":"us","latitude":41.881832,"longitude":-87.62318,"reserved":0,"last_update":"0001-01-01T00:00:00Z","name_a2s":"Uncletopia | Chicago | 2 | All Maps","protocol":17,"map":"pl_frontier_final","folder":"tf","game":"Team Fortress","app_id":440,"player_count":0,"max_players":24,"Bots":0,"server_type":"Dedicated","server_os":"Linux","password":true,"vac":true,"version":"7757534","steam_id":85568392924469985,"keywords":["nocrits","nodmgspread","payload","uncletopia"],"game_id":440,"stv_port":27026,"stv_name":"Uncletopia | Chicago | 2 | All Maps | STV","players":null},{"server_id":402,"name":"Uncletopia | Chicago | 3 | All Maps","name_short":"chi-3","host":"chi-1.us.uncletopia.com","port":27035,"enabled":true,"region":"us-central","cc":"us","latitude":41.881832,"longitude":-87.62318,"reserved":0,"last_update":"0001-01-01T00:00:00Z","name_a2s":"Uncletopia | Chicago | 3 | All Maps","protocol":17,"map":"pl_swiftwater_final1","folder":"tf","game":"Team Fortress","app_id":440,"player_count":19,"max_players":24,"Bots":0,"server_type":"Dedicated","server_os":"Linux","password":true,"vac":true,"version":"7757534","steam_id":85568392924515191,"keywords":["nocrits","nodmgspread","payload","uncletopia"],"game_id":440,"stv_port":27036,"stv_name":"Uncletopia | Chicago | 3 | All Maps | STV","players":[{"user_id":332,"name":"Dookie","steam_id":76561198354025894,"connected_time":22000000000,"state":"active","ping":121},{"user_id":297,"name":"momiji fumo","steam_id":76561198066698922,"connected_time":2470000000000,"state":"active","ping":56},{"user_id":326,"name":"Waffle Wannabe","steam_id":76561198064510650,"connected_time":95000000000,"state":"active","ping":54},{"user_id":325,"name":"Cave","steam_id":76561198263551216,"connected_time":113000000000,"state":"active","ping":75},{"user_id":221,"name":"merkmywords ttttttv","steam_id":76561198066840152,"connected_time":9427000000000,"state":"active","ping":44},{"user_id":322,"name":"bunger","steam_id":76561198183160666,"connected_time":301000000000,"state":"active","ping":61},{"user_id":303,"name":"LerN","steam_id":76561198083463877,"connected_time":1595000000000,"state":"active","ping":47},{"user_id":327,"name":"Bing Soy","steam_id":76561199091381775,"connected_time":93000000000,"state":"active","ping":106},{"user_id":328,"name":"smart mort (caffeinated)","steam_id":76561198849711174,"connected_time":85000000000,"state":"active","ping":82},{"user_id":319,"name":"Vial of Throbb","steam_id":76561198348095996,"connected_time":779000000000,"state":"active","ping":68},{"user_id":306,"name":"andrew tate","steam_id":76561198170064217,"connected_time":1437000000000,"state":"active","ping":75},{"user_id":330,"name":"BasicPeaches","steam_id":76561198190890150,"connected_time":65000000000,"state":"active","ping":75},{"user_id":331,"name":"ttv/lemonellaa !tf2giveaway","steam_id":76561198015248954,"connected_time":53000000000,"state":"active","ping":201},{"user_id":299,"name":"Take the L","steam_id":76561198379223875,"connected_time":2330000000000,"state":"active","ping":53},{"user_id":271,"name":"xiii","steam_id":76561198079416036,"connected_time":5304000000000,"state":"active","ping":40},{"user_id":257,"name":"D(b) Hell","steam_id":76561198067869016,"connected_time":6797000000000,"state":"active","ping":39},{"user_id":250,"name":"Winkrill","steam_id":76561198108515561,"connected_time":7256000000000,"state":"active","ping":71},{"user_id":313,"name":"Donkski","steam_id":76561198406895347,"connected_time":1258000000000,"state":"active","ping":73},{"user_id":283,"name":"Dot.","steam_id":76561198149463984,"connected_time":4542000000000,"state":"active","ping":54}]},{"server_id":403,"name":"Uncletopia | Chicago | 4 | All Maps","name_short":"chi-4","host":"chi-1.us.uncletopia.com","port":27045,"enabled":true,"region":"us-central","cc":"us","latitude":41.881832,"longitude":-87.62318,"reserved":0,"last_update":"0001-01-01T00:00:00Z","name_a2s":"Uncletopia | Chicago | 4 | All Maps","protocol":17,"map":"pl_badwater","folder":"tf","game":"Team Fortress","app_id":440,"player_count":24,"max_players":24,"Bots":0,"server_type":"Dedicated","server_os":"Linux","password":true,"vac":true,"version":"7757534","steam_id":85568392924515193,"keywords":["nocrits","nodmgspread","payload","uncletopia"],"game_id":440,"stv_port":27046,"stv_name":"Uncletopia | Chicago | 4 | All Maps | STV","players":[{"user_id":129,"name":"earthbound393","steam_id":76561199444276547,"connected_time":4002000000000,"state":"active","ping":101},{"user_id":180,"name":"ExtremeDucks","steam_id":76561198351756464,"connected_time":666000000000,"state":"active","ping":74},{"user_id":171,"name":"gps","steam_id":76561198067492304,"connected_time":1274000000000,"state":"active","ping":76},{"user_id":170,"name":"guh","steam_id":76561198003219831,"connected_time":1295000000000,"state":"active","ping":75},{"user_id":172,"name":"BetoelAff es","steam_id":76561198377842585,"connected_time":1175000000000,"state":"active","ping":134},{"user_id":152,"name":"motherfucker 2.0","steam_id":76561198141189209,"connected_time":2439000000000,"state":"active","ping":60},{"user_id":153,"name":"AudaCD","steam_id":76561198202775853,"connected_time":2338000000000,"state":"active","ping":45},{"user_id":173,"name":"Seller of Waffles","steam_id":76561198296018138,"connected_time":1160000000000,"state":"active","ping":61},{"user_id":160,"name":"Sir Iasis","steam_id":76561198035666760,"connected_time":2142000000000,"state":"active","ping":58},{"user_id":168,"name":"auurr","steam_id":76561198028572994,"connected_time":1716000000000,"state":"active","ping":46},{"user_id":179,"name":"Onii-chan","steam_id":76561197972195497,"connected_time":874000000000,"state":"active","ping":58},{"user_id":38,"name":"QueenPinharam","steam_id":76561199015626409,"connected_time":10892000000000,"state":"active","ping":79},{"user_id":125,"name":"CeigeBirb","steam_id":76561198068538473,"connected_time":4342000000000,"state":"active","ping":75},{"user_id":156,"name":"DededeMain | trade.tf","steam_id":76561198310951632,"connected_time":2232000000000,"state":"active","ping":93},{"user_id":175,"name":"Legit_Jaxer","steam_id":76561198172234053,"connected_time":1050000000000,"state":"active","ping":131},{"user_id":185,"name":"‚ô•RizaTiz‚ô•","steam_id":76561198165274309,"connected_time":239000000000,"state":"active","ping":121},{"user_id":186,"name":"uzr","steam_id":76561198799343084,"connected_time":209000000000,"state":"active","ping":105},{"user_id":176,"name":"fazaness","steam_id":76561198851525394,"connected_time":1047000000000,"state":"active","ping":83},{"user_id":178,"name":"Blazinbanjo#savetf2","steam_id":76561198070380332,"connected_time":912000000000,"state":"active","ping":75},{"user_id":164,"name":"r0zemary","steam_id":76561198128494897,"connected_time":1985000000000,"state":"active","ping":84},{"user_id":127,"name":"Fluffeline","steam_id":76561198352909489,"connected_time":4145000000000,"state":"active","ping":140},{"user_id":184,"name":"Jango","steam_id":76561198121922413,"connected_time":418000000000,"state":"active","ping":105},{"user_id":181,"name":"Cousin Corn on the Cob","steam_id":76561198049837377,"connected_time":544000000000,"state":"active","ping":47},{"user_id":177,"name":"Mr.Pwesident","steam_id":76561198058114703,"connected_time":995000000000,"state":"active","ping":98}]},{"server_id":36,"name":"Uncletopia | Chicago | 5 | All Maps","name_short":"chi-5","host":"chi-2.us.uncletopia.com","port":27015,"enabled":true,"region":"us-central","cc":"us","latitude":41.881832,"longitude":-87.62318,"reserved":0,"last_update":"0001-01-01T00:00:00Z","name_a2s":"Uncletopia | Chicago | 5 | All Maps","protocol":17,"map":"pl_pier","folder":"tf","game":"Team Fortress","app_id":440,"player_count":24,"max_players":24,"Bots":0,"server_type":"Dedicated","server_os":"Linux","password":true,"vac":true,"version":"7757534","steam_id":85568392924866362,"keywords":["nocrits","nodmgspread","payload","uncletopia"],"game_id":440,"stv_port":27016,"stv_name":"Uncletopia | Chicago | 5 | All Maps | STV","players":[{"user_id":117,"name":"Olhado","steam_id":76561198390880200,"connected_time":1767000000000,"state":"active","ping":81},{"user_id":137,"name":"Jews? In my country?","steam_id":76561198170130454,"connected_time":1139000000000,"state":"active","ping":68},{"user_id":140,"name":"Thequirka","steam_id":76561198968058652,"connected_time":996000000000,"state":"active","ping":92},{"user_id":128,"name":"sussy soy sauce","steam_id":76561199122132474,"connected_time":1259000000000,"state":"active","ping":65},{"user_id":44,"name":"The Cannoneer","steam_id":76561198071368120,"connected_time":7875000000000,"state":"active","ping":74},{"user_id":45,"name":"his flatulence","steam_id":76561198799404824,"connected_time":7730000000000,"state":"active","ping":65},{"user_id":109,"name":"Kohbold","steam_id":76561198996480140,"connected_time":2687000000000,"state":"active","ping":80},{"user_id":118,"name":"Riggamortis","steam_id":76561199237017378,"connected_time":1721000000000,"state":"active","ping":86},{"user_id":145,"name":"mao zaddy","steam_id":76561198283687382,"connected_time":120000000000,"state":"active","ping":65},{"user_id":92,"name":"wolf_71","steam_id":76561198963570945,"connected_time":4133000000000,"state":"active","ping":67},{"user_id":138,"name":"Bean","steam_id":76561199454045650,"connected_time":1126000000000,"state":"active","ping":84},{"user_id":120,"name":"tank","steam_id":76561198068027379,"connected_time":1496000000000,"state":"active","ping":173},{"user_id":114,"name":"creepycrawler","steam_id":76561198352016831,"connected_time":2214000000000,"state":"active","ping":60},{"user_id":121,"name":"Annie DW3","steam_id":76561198268990628,"connected_time":1482000000000,"state":"active","ping":87},{"user_id":129,"name":"yesoko","steam_id":76561198072917024,"connected_time":1233000000000,"state":"active","ping":56},{"user_id":93,"name":"Smoker Lung","steam_id":76561198077167395,"connected_time":4091000000000,"state":"active","ping":51},{"user_id":124,"name":"ccox42132","steam_id":76561199333482908,"connected_time":1416000000000,"state":"active","ping":126},{"user_id":143,"name":"giant_dork","steam_id":76561199105606956,"connected_time":364000000000,"state":"active","ping":68},{"user_id":105,"name":"4+1MyriadFuturesCosMo@BousouFC","steam_id":76561198181929019,"connected_time":3466000000000,"state":"active","ping":50},{"user_id":144,"name":"Skrasher","steam_id":76561198281711422,"connected_time":311000000000,"state":"active","ping":71},{"user_id":146,"name":"Soviet Toaster","steam_id":76561198207577240,"connected_time":103000000000,"state":"active","ping":60},{"user_id":142,"name":"BigDeac","steam_id":76561198091237274,"connected_time":742000000000,"state":"active","ping":56},{"user_id":135,"name":"big stank dick dad","steam_id":76561198121561534,"connected_time":1163000000000,"state":"active","ping":72},{"user_id":141,"name":"R@cing74m","steam_id":76561199036177043,"connected_time":967000000000,"state":"active","ping":76}]},{"server_id":37,"name":"Uncletopia | Chicago | 6 | All Maps","name_short":"chi-6","host":"chi-2.us.uncletopia.com","port":27025,"enabled":true,"region":"us-central","cc":"us","latitude":41.881832,"longitude":-87.62318,"reserved":0,"last_update":"0001-01-01T00:00:00Z","name_a2s":"Uncletopia | Chicago | 6 | All Maps","protocol":17,"map":"pl_badwater","folder":"tf","game":"Team Fortress","app_id":440,"player_count":24,"max_players":24,"Bots":0,"server_type":"Dedicated","server_os":"Linux","password":true,"vac":true,"version":"7757534","steam_id":85568392924866363,"keywords":["nocrits","nodmgspread","payload","uncletopia"],"game_id":440,"stv_port":27026,"stv_name":"Uncletopia | Chicago | 6 | All Maps | STV","players":[{"user_id":67,"name":"Sentient Plant","steam_id":76561199196300397,"connected_time":475000000000,"state":"active","ping":104},{"user_id":39,"name":"Nerdycatgamer","steam_id":76561198235698272,"connected_time":2652000000000,"state":"active","ping":116},{"user_id":52,"name":"andyiscolorless","steam_id":76561199239870921,"connected_time":2505000000000,"state":"active","ping":142},{"user_id":33,"name":"shake","steam_id":76561199064204750,"connected_time":2832000000000,"state":"active","ping":83},{"user_id":72,"name":"choi","steam_id":76561198053669887,"connected_time":222000000000,"state":"active","ping":107},{"user_id":27,"name":"Blitzy","steam_id":76561198149472890,"connected_time":3096000000000,"state":"active","ping":72},{"user_id":25,"name":"üÖúüÖîüÖîüÖöüÖ¢üÖ£üÖî\ufffd\ufffd\ufffd","steam_id":76561197999748343,"connected_time":3393000000000,"state":"active","ping":61},{"user_id":40,"name":"Yosh","steam_id":76561198027078899,"connected_time":2626000000000,"state":"active","ping":78},{"user_id":28,"name":"Auggy","steam_id":76561198041816037,"connected_time":3068000000000,"state":"active","ping":108},{"user_id":29,"name":"Big Jon","steam_id":76561198402285099,"connected_time":3066000000000,"state":"active","ping":101},{"user_id":30,"name":"Gay Cowboy","steam_id":76561198151549658,"connected_time":3004000000000,"state":"active","ping":94},{"user_id":64,"name":"A Puppy","steam_id":76561198828184456,"connected_time":751000000000,"state":"active","ping":59},{"user_id":54,"name":"Wahooka","steam_id":76561197962240925,"connected_time":2474000000000,"state":"active","ping":57},{"user_id":36,"name":"Bobby Zimmeruski","steam_id":76561198171428589,"connected_time":2728000000000,"state":"active","ping":68},{"user_id":37,"name":"Madd Maxx","steam_id":76561198339584998,"connected_time":2687000000000,"state":"active","ping":86},{"user_id":70,"name":"lorelius hogglefart","steam_id":76561198211781375,"connected_time":266000000000,"state":"active","ping":85},{"user_id":41,"name":"Weerk","steam_id":76561199209543551,"connected_time":2613000000000,"state":"active","ping":93},{"user_id":65,"name":"thatguy_luigi","steam_id":76561198968055462,"connected_time":747000000000,"state":"active","ping":81},{"user_id":66,"name":"Coughdrop Addict [F2P]","steam_id":76561199254281550,"connected_time":687000000000,"state":"active","ping":72},{"user_id":71,"name":"Bad Rollout","steam_id":76561197971948876,"connected_time":255000000000,"state":"active","ping":73},{"user_id":69,"name":"MinusSoup918","steam_id":76561198060902773,"connected_time":396000000000,"state":"active","ping":119},{"user_id":61,"name":"Mamson","steam_id":76561198308073902,"connected_time":1095000000000,"state":"active","ping":74},{"user_id":62,"name":"xMystic_Fire","steam_id":76561198189961543,"connected_time":879000000000,"state":"active","ping":84},{"user_id":59,"name":"Yume","steam_id":76561198018060136,"connected_time":2115000000000,"state":"active","ping":95}]},{"server_id":38,"name":"Uncletopia | Chicago | 7 | Stopwatch Beta","name_short":"chi-7","host":"chi-2.us.uncletopia.com","port":27035,"enabled":true,"region":"us-central","cc":"us","latitude":41.881832,"longitude":-87.62318,"reserved":0,"last_update":"0001-01-01T00:00:00Z","name_a2s":"Uncletopia | Chicago | 7 | Stopwatch Beta","protocol":17,"map":"pl_barnblitz","folder":"tf","game":"Team Fortress","app_id":440,"player_count":0,"max_players":24,"Bots":0,"server_type":"Dedicated","server_os":"Linux","password":true,"vac":true,"version":"7757534","steam_id":85568392924866364,"keywords":["nocrits","nodmgspread","payload","uncletopia"],"game_id":440,"stv_port":27036,"stv_name":"Uncletopia | Chicago | 7 | Stopwatch Beta | STV","players":null},{"server_id":39,"name":"Uncletopia | Chicago | 8 | Community","name_short":"chi-8","host":"chi-2.us.uncletopia.com","port":27045,"enabled":true,"region":"us-central","cc":"us","latitude":41.881832,"longitude":-87.62318,"reserved":0,"last_update":"0001-01-01T00:00:00Z","name_a2s":"Uncletopia | Chicago | 8 | Community","protocol":17,"map":"workshop/cp_propaganda_b18.ugc1603743849","folder":"tf","game":"Team Fortress","app_id":440,"player_count":0,"max_players":24,"Bots":0,"server_type":"Dedicated","server_os":"Linux","password":true,"vac":true,"version":"7757534","steam_id":85568392924866365,"keywords":["cp","nocrits","nodmgspread","uncletopia"],"game_id":440,"stv_port":27046,"stv_name":"Uncletopia | Chicago | 8 | Community | STV","players":null},{"server_id":8,"name":"Uncletopia | Dallas | 1 | All Maps","name_short":"dal-1","host":"dal-1.us.uncletopia.com","port":27015,"enabled":true,"region":"us-central","cc":"us","latitude":32.779167,"longitude":-96.80889,"reserved":0,"last_update":"0001-01-01T00:00:00Z","name_a2s":"Uncletopia | Dallas | 1 | All Maps","protocol":17,"map":"koth_lakeside_final","folder":"tf","game":"Team Fortress","app_id":440,"player_count":13,"max_players":24,"Bots":0,"server_type":"Dedicated","server_os":"Linux","password":true,"vac":true,"version":"7757534","steam_id":85568392924469986,"keywords":["cp","nocrits","nodmgspread","uncletopia"],"game_id":440,"stv_port":27016,"stv_name":"Uncletopia | Dallas | 1 | All Maps | STV","players":[{"user_id":28,"name":"Snoopy","steam_id":76561198273735974,"connected_time":140000000000,"state":"active","ping":74},{"user_id":14,"name":"Mr.Pan","steam_id":76561198069030613,"connected_time":828000000000,"state":"active","ping":69},{"user_id":15,"name":"$2.99 Shrimps","steam_id":76561198077272494,"connected_time":803000000000,"state":"active","ping":64},{"user_id":16,"name":"Outlander","steam_id":76561197998995746,"connected_time":686000000000,"state":"active","ping":105},{"user_id":17,"name":"Scottish meatballs.","steam_id":76561199405759754,"connected_time":622000000000,"state":"active","ping":85},{"user_id":31,"name":"Alkimia","steam_id":76561198385763137,"connected_time":24000000000,"state":"active","ping":129},{"user_id":19,"name":"QWERTY_KKL","steam_id":76561199156419203,"connected_time":549000000000,"state":"active","ping":102},{"user_id":26,"name":"Lyn-Z Griffin","steam_id":76561198190257694,"connected_time":314000000000,"state":"active","ping":73},{"user_id":21,"name":"Áõä‰ª£ÊµÖÈªÑ","steam_id":76561199225554577,"connected_time":507000000000,"state":"active","ping":78},{"user_id":22,"name":"Ape","steam_id":76561198132535311,"connected_time":491000000000,"state":"active","ping":102},{"user_id":23,"name":"Blackbird","steam_id":76561198127818333,"connected_time":486000000000,"state":"active","ping":78},{"user_id":25,"name":"CMAhappy","steam_id":76561198336929808,"connected_time":400000000000,"state":"active","ping":88},{"user_id":29,"name":"capybara","steam_id":76561198182288455,"connected_time":112000000000,"state":"active","ping":82}]},{"server_id":108,"name":"Uncletopia | Dallas | 2 | All Maps","name_short":"dal-2","host":"dal-1.us.uncletopia.com","port":27025,"enabled":true,"region":"us-central","cc":"us","latitude":32.779167,"longitude":-96.80889,"reserved":0,"last_update":"0001-01-01T00:00:00Z","name_a2s":"Uncletopia | Dallas | 2 | All Maps","protocol":17,"map":"cp_steel","folder":"tf","game":"Team Fortress","app_id":440,"player_count":23,"max_players":24,"Bots":0,"server_type":"Dedicated","server_os":"Linux","password":true,"vac":true,"version":"7757534","steam_id":85568392924469988,"keywords":["cp","nocrits","nodmgspread","uncletopia"],"game_id":440,"stv_port":27026,"stv_name":"Uncletopia | Dallas | 2 | All Maps | STV","players":[{"user_id":401,"name":"Average Guy","steam_id":76561199211257988,"connected_time":987000000000,"state":"active","ping":79},{"user_id":363,"name":"Pybro","steam_id":76561199019647814,"connected_time":3020000000000,"state":"active","ping":50},{"user_id":373,"name":"emily","steam_id":76561198051872256,"connected_time":2305000000000,"state":"active","ping":80},{"user_id":395,"name":"Cofi","steam_id":76561199026721822,"connected_time":1435000000000,"state":"active","ping":82},{"user_id":319,"name":"Glaceon","steam_id":76561198177715869,"connected_time":6547000000000,"state":"active","ping":66},{"user_id":410,"name":"Cresant Ape","steam_id":76561198127425559,"connected_time":689000000000,"state":"active","ping":46},{"user_id":380,"name":"Crooked60","steam_id":76561198359653418,"connected_time":2085000000000,"state":"active","ping":84},{"user_id":399,"name":"‚ô°Alex‚ô°","steam_id":76561199424028559,"connected_time":1355000000000,"state":"active","ping":53},{"user_id":402,"name":"Michaelpc1","steam_id":76561198088365519,"connected_time":970000000000,"state":"active","ping":75},{"user_id":377,"name":"BANGARANG","steam_id":76561198816597453,"connected_time":2223000000000,"state":"active","ping":70},{"user_id":407,"name":"Hell's Reindeer","steam_id":76561198065310364,"connected_time":816000000000,"state":"active","ping":76},{"user_id":409,"name":"NUKAHOLIC","steam_id":76561198095051652,"connected_time":718000000000,"state":"active","ping":41},{"user_id":411,"name":"Mr.Kevin120","steam_id":76561199186919096,"connected_time":650000000000,"state":"active","ping":134},{"user_id":397,"name":"89","steam_id":76561198106308056,"connected_time":1369000000000,"state":"active","ping":77},{"user_id":344,"name":"Soul_Intern","steam_id":76561198310238109,"connected_time":4516000000000,"state":"active","ping":134},{"user_id":387,"name":"icm2008","steam_id":76561199277408836,"connected_time":1917000000000,"state":"active","ping":82},{"user_id":390,"name":"orange rind (3 cent wifi)","steam_id":76561198130242461,"connected_time":1780000000000,"state":"active","ping":55},{"user_id":276,"name":"Humon Player","steam_id":76561198013593178,"connected_time":9622000000000,"state":"active","ping":58},{"user_id":408,"name":"spy","steam_id":76561198937717599,"connected_time":734000000000,"state":"active","ping":36},{"user_id":405,"name":"stungoperation","steam_id":76561199162409918,"connected_time":852000000000,"state":"active","ping":76},{"user_id":406,"name":"Lil' Urban Achiever","steam_id":76561197970450546,"connected_time":846000000000,"state":"active","ping":113},{"user_id":415,"name":"Schmeple Tank Head","steam_id":76561199010857399,"connected_time":489000000000,"state":"active","ping":75},{"user_id":124,"name":"Joe Swanson","steam_id":76561199089907740,"connected_time":27400000000000,"state":"active","ping":65}]},{"server_id":5,"name":"Uncletopia | Frankfurt | 1 | All Maps","name_short":"frk-1","host":"frk-1.de.uncletopia.com","port":27015,"enabled":true,"region":"eu","cc":"de","latitude":50.110924,"longitude":8.682127,"reserved":0,"last_update":"0001-01-01T00:00:00Z","name_a2s":"Uncletopia | Frankfurt | 1 | All Maps","protocol":17,"map":"cp_vanguard","folder":"tf","game":"Team Fortress","app_id":440,"player_count":19,"max_players":24,"Bots":0,"server_type":"Dedicated","server_os":"Linux","password":true,"vac":true,"version":"7757534","steam_id":85568392924469989,"keywords":["cp","nocrits","nodmgspread","uncletopia"],"game_id":440,"stv_port":27016,"stv_name":"Uncletopia | Frankfurt | 1 | All Maps | STV","players":[{"user_id":179,"name":"buko","steam_id":76561198349648942,"connected_time":13000000000,"state":"active","ping":86},{"user_id":168,"name":"Matael","steam_id":76561198452200894,"connected_time":412000000000,"state":"active","ping":66},{"user_id":164,"name":"ASAP","steam_id":76561198322078500,"connected_time":500000000000,"state":"active","ping":95},{"user_id":150,"name":"Ptahotep","steam_id":76561198008708645,"connected_time":1626000000000,"state":"active","ping":65},{"user_id":155,"name":"Destinys","steam_id":76561198056132894,"connected_time":1166000000000,"state":"active","ping":55},{"user_id":169,"name":"WatchingTriple/Twitch.tv","steam_id":76561198189375493,"connected_time":394000000000,"state":"active","ping":84},{"user_id":167,"name":"Relix18144","steam_id":76561199202454318,"connected_time":421000000000,"state":"active","ping":86},{"user_id":116,"name":"Balls","steam_id":76561198086400484,"connected_time":3292000000000,"state":"active","ping":82},{"user_id":149,"name":"pepe","steam_id":76561199466019231,"connected_time":1696000000000,"state":"active","ping":75},{"user_id":170,"name":"mud","steam_id":76561198141497461,"connected_time":393000000000,"state":"active","ping":65},{"user_id":171,"name":"Tree baited","steam_id":76561199078162032,"connected_time":347000000000,"state":"active","ping":66},{"user_id":173,"name":"hasansaeedifar","steam_id":76561198974563618,"connected_time":174000000000,"state":"active","ping":165},{"user_id":174,"name":"JAMES \"JIM\" COURIER","steam_id":76561198847048146,"connected_time":149000000000,"state":"active","ping":75},{"user_id":157,"name":"and that's on Gek","steam_id":76561198104896547,"connected_time":1152000000000,"state":"active","ping":74},{"user_id":176,"name":"peso enjoyer","steam_id":76561198798177799,"connected_time":106000000000,"state":"active","ping":66},{"user_id":151,"name":"Flostro","steam_id":76561198259793697,"connected_time":1501000000000,"state":"active","ping":72},{"user_id":178,"name":"Makeways","steam_id":76561198274466477,"connected_time":82000000000,"state":"active","ping":102},{"user_id":180,"name":"Merc","steam_id":76561198044864067,"connected_time":8000000000,"state":"spawning","ping":71},{"user_id":181,"name":"unnecessary","steam_id":76561197994492154,"connected_time":1000000000,"state":"spawning","ping":52}]},{"server_id":110,"name":"Uncletopia | Frankfurt | 2 | All Maps","name_short":"frk-2","host":"frk-1.de.uncletopia.com","port":27025,"enabled":true,"region":"eu","cc":"de","latitude":50.110924,"longitude":8.682127,"reserved":0,"last_update":"0001-01-01T00:00:00Z","name_a2s":"Uncletopia | Frankfurt | 2 | All Maps","protocol":17,"map":"pl_barnblitz","folder":"tf","game":"Team Fortress","app_id":440,"player_count":0,"max_players":24,"Bots":0,"server_type":"Dedicated","server_os":"Linux","password":true,"vac":true,"version":"7757534","steam_id":85568392924469990,"keywords":["nocrits","nodmgspread","payload","uncletopia"],"game_id":440,"stv_port":27026,"stv_name":"Uncletopia | Frankfurt | 2 | All Maps | STV","players":null},{"server_id":308,"name":"Uncletopia | Frankfurt | 3 | All Maps","name_short":"frk-3","host":"frk-1.de.uncletopia.com","port":27035,"enabled":true,"region":"eu","cc":"de","latitude":50.110924,"longitude":8.682127,"reserved":0,"last_update":"0001-01-01T00:00:00Z","name_a2s":"Uncletopia | Frankfurt | 3 | All Maps","protocol":17,"map":"pl_swiftwater_final1","folder":"tf","game":"Team Fortress","app_id":440,"player_count":24,"max_players":24,"Bots":0,"server_type":"Dedicated","server_os":"Linux","password":true,"vac":true,"version":"7757534","steam_id":85568392924504274,"keywords":["nocrits","nodmgspread","payload","uncletopia"],"game_id":440,"stv_port":27036,"stv_name":"Uncletopia | Frankfurt | 3 | All Maps | STV","players":[{"user_id":607,"name":"flappi","steam_id":76561198072892783,"connected_time":4305000000000,"state":"active","ping":55},{"user_id":645,"name":"jt7","steam_id":76561198073655162,"connected_time":1442000000000,"state":"active","ping":69},{"user_id":597,"name":"Big Al","steam_id":76561198067692439,"connected_time":5538000000000,"state":"active","ping":121},{"user_id":647,"name":"Bobirulez","steam_id":76561198009125458,"connected_time":1019000000000,"state":"active","ping":75},{"user_id":592,"name":"Raymus","steam_id":76561198021330407,"connected_time":5803000000000,"state":"active","ping":47},{"user_id":588,"name":"Silent Person","steam_id":76561198107763537,"connected_time":6058000000000,"state":"active","ping":62},{"user_id":659,"name":"jovi_","steam_id":76561198449280552,"connected_time":163000000000,"state":"active","ping":60},{"user_id":621,"name":"The Spah","steam_id":76561198292845505,"connected_time":3489000000000,"state":"active","ping":92},{"user_id":657,"name":"BAGASSER","steam_id":76561198051283300,"connected_time":348000000000,"state":"active","ping":62},{"user_id":652,"name":"‚ô• Cirno ‚ô•","steam_id":76561198834982738,"connected_time":382000000000,"state":"active","ping":67},{"user_id":635,"name":"Spinal fluid leaking I hear cre","steam_id":76561198055809651,"connected_time":1733000000000,"state":"active","ping":72},{"user_id":610,"name":"Smith","steam_id":76561198132589784,"connected_time":3965000000000,"state":"active","ping":78},{"user_id":648,"name":"Hildreth","steam_id":76561197995254867,"connected_time":420000000000,"state":"active","ping":59},{"user_id":595,"name":"donal rump","steam_id":76561198136239861,"connected_time":5746000000000,"state":"active","ping":60},{"user_id":656,"name":"Knez","steam_id":76561198043806388,"connected_time":358000000000,"state":"active","ping":73},{"user_id":660,"name":"Meki","steam_id":76561198108279631,"connected_time":154000000000,"state":"active","ping":95},{"user_id":638,"name":"ItsMeZam","steam_id":76561199033728420,"connected_time":1719000000000,"state":"active","ping":58},{"user_id":608,"name":"fallingpencil","steam_id":76561199230233148,"connected_time":4202000000000,"state":"active","ping":67},{"user_id":646,"name":"Udinese Dion","steam_id":76561198067931573,"connected_time":1139000000000,"state":"active","ping":41},{"user_id":654,"name":"elijah","steam_id":76561198093936708,"connected_time":369000000000,"state":"active","ping":64},{"user_id":579,"name":"decriminalise goblins","steam_id":76561198048257605,"connected_time":6374000000000,"state":"active","ping":62},{"user_id":618,"name":"s a i","steam_id":76561197970379754,"connected_time":3650000000000,"state":"active","ping":57},{"user_id":661,"name":"me when im walking into class","steam_id":76561198048250715,"connected_time":116000000000,"state":"active","ping":47},{"user_id":502,"name":"Piox","steam_id":76561198125689157,"connected_time":11271000000000,"state":"active","ping":84}]},{"server_id":309,"name":"Uncletopia | Frankfurt | 4 | All Maps","name_short":"frk-4","host":"frk-1.de.uncletopia.com","port":27045,"enabled":true,"region":"eu","cc":"de","latitude":50.110924,"longitude":8.682127,"reserved":0,"last_update":"0001-01-01T00:00:00Z","name_a2s":"Uncletopia | Frankfurt | 4 | All Maps","protocol":17,"map":"koth_cascade","folder":"tf","game":"Team Fortress","app_id":440,"player_count":0,"max_players":24,"Bots":0,"server_type":"Dedicated","server_os":"Linux","password":true,"vac":true,"version":"7757534","steam_id":85568392924504275,"keywords":["cp","nocrits","nodmgspread","uncletopia"],"game_id":440,"stv_port":27046,"stv_name":"Uncletopia | Frankfurt | 4 | All Maps | STV","players":null},{"server_id":310,"name":"Uncletopia | Frankfurt | 5 | All Maps","name_short":"frk-5","host":"frk-1.de.uncletopia.com","port":27055,"enabled":true,"region":"eu","cc":"de","latitude":50.110924,"longitude":8.682127,"reserved":0,"last_update":"0001-01-01T00:00:00Z","name_a2s":"Uncletopia | Frankfurt | 5 | All Maps","protocol":17,"map":"koth_harvest_final","folder":"tf","game":"Team Fortress","app_id":440,"player_count":23,"max_players":24,"Bots":0,"server_type":"Dedicated","server_os":"Linux","password":true,"vac":true,"version":"7757534","steam_id":85568392924504277,"keywords":["cp","nocrits","nodmgspread","uncletopia"],"game_id":440,"stv_port":27056,"stv_name":"Uncletopia | Frankfurt | 5 | All Maps | STV","players":[{"user_id":667,"name":"outin","steam_id":76561198137734730,"connected_time":45000000000,"state":"active","ping":71},{"user_id":642,"name":"Acheron","steam_id":76561198306593373,"connected_time":972000000000,"state":"active","ping":69},{"user_id":637,"name":"Dr. Le Quack","steam_id":76561197995711176,"connected_time":1439000000000,"state":"active","ping":81},{"user_id":657,"name":"Garden Freeman","steam_id":76561199073314677,"connected_time":351000000000,"state":"active","ping":69},{"user_id":655,"name":"go on lad","steam_id":76561198083615367,"connected_time":416000000000,"state":"active","ping":49},{"user_id":619,"name":"goblin","steam_id":76561198004520848,"connected_time":2393000000000,"state":"active","ping":47},{"user_id":620,"name":"BPsii","steam_id":76561198003704194,"connected_time":2360000000000,"state":"active","ping":54},{"user_id":656,"name":"Bobby","steam_id":76561198868077651,"connected_time":392000000000,"state":"active","ping":48},{"user_id":668,"name":"Juiceydough","steam_id":76561197997323419,"connected_time":0,"state":"spawning","ping":22},{"user_id":659,"name":"disc0rd","steam_id":76561197985965776,"connected_time":322000000000,"state":"active","ping":59},{"user_id":664,"name":"KLAMA  ‚ù§","steam_id":76561198351549661,"connected_time":213000000000,"state":"active","ping":62},{"user_id":661,"name":"Captain Slow","steam_id":76561199071095638,"connected_time":281000000000,"state":"active","ping":84},{"user_id":597,"name":"MAKENTAKEN","steam_id":76561199127359587,"connected_time":4645000000000,"state":"active","ping":99},{"user_id":622,"name":"KorieOne ‚ù£","steam_id":76561197982998663,"connected_time":2283000000000,"state":"active","ping":58},{"user_id":628,"name":"Beni ü¶ßüçå","steam_id":76561198011340227,"connected_time":2040000000000,"state":"active","ping":62},{"user_id":662,"name":"dotdotdot","steam_id":76561198057628751,"connected_time":248000000000,"state":"active","ping":61},{"user_id":652,"name":"Umbro","steam_id":76561198087930438,"connected_time":446000000000,"state":"active","ping":95},{"user_id":624,"name":".::[SerafeTTiN]::.","steam_id":76561198009471724,"connected_time":2253000000000,"state":"active","ping":90},{"user_id":666,"name":"Hookiest Owler","steam_id":76561198872013525,"connected_time":78000000000,"state":"active","ping":92},{"user_id":665,"name":"lore","steam_id":76561198120984188,"connected_time":191000000000,"state":"active","ping":58},{"user_id":634,"name":":)","steam_id":76561198977420882,"connected_time":1659000000000,"state":"active","ping":60},{"user_id":635,"name":"Johan","steam_id":76561199380849468,"connected_time":1652000000000,"state":"active","ping":61},{"user_id":612,"name":"kane","steam_id":76561198334528186,"connected_time":2663000000000,"state":"active","ping":61}]},{"server_id":311,"name":"Uncletopia | Frankfurt | 6 | All Maps","name_short":"frk-6","host":"frk-1.de.uncletopia.com","port":27065,"enabled":true,"region":"eu","cc":"de","latitude":50.110924,"longitude":8.682127,"reserved":0,"last_update":"0001-01-01T00:00:00Z","name_a2s":"Uncletopia | Frankfurt | 6 | All Maps","protocol":17,"map":"koth_viaduct","folder":"tf","game":"Team Fortress","app_id":440,"player_count":18,"max_players":24,"Bots":0,"server_type":"Dedicated","server_os":"Linux","password":true,"vac":true,"version":"7757534","steam_id":85568392924504278,"keywords":["cp","nocrits","nodmgspread","uncletopia"],"game_id":440,"stv_port":27066,"stv_name":"Uncletopia | Frankfurt | 6 | All Maps | STV","players":[{"user_id":339,"name":"texory","steam_id":76561198060339391,"connected_time":1363000000000,"state":"active","ping":44},{"user_id":346,"name":"sex havin'","steam_id":76561198169857427,"connected_time":822000000000,"state":"active","ping":61},{"user_id":344,"name":"‚òÖpoyo‚òÖ","steam_id":76561198150078959,"connected_time":923000000000,"state":"active","ping":59},{"user_id":335,"name":"Drekad√≥ttir","steam_id":76561198119979169,"connected_time":1493000000000,"state":"active","ping":68},{"user_id":345,"name":"Jack Dickfister","steam_id":76561198145145810,"connected_time":923000000000,"state":"active","ping":52},{"user_id":360,"name":"finbar","steam_id":76561198056812396,"connected_time":378000000000,"state":"active","ping":84},{"user_id":348,"name":"Michael's B-Day Rats MixGuy2310","steam_id":76561198057902686,"connected_time":567000000000,"state":"active","ping":156},{"user_id":349,"name":"Bodhi","steam_id":76561198025865556,"connected_time":556000000000,"state":"active","ping":171},{"user_id":363,"name":"rz-/Atomic Punch","steam_id":76561199195508541,"connected_time":199000000000,"state":"active","ping":77},{"user_id":366,"name":"ldshwt","steam_id":76561198090364357,"connected_time":98000000000,"state":"active","ping":44},{"user_id":338,"name":"e36 1.8","steam_id":76561198134203031,"connected_time":1377000000000,"state":"active","ping":60},{"user_id":364,"name":"Sigma Bale","steam_id":76561198365750503,"connected_time":187000000000,"state":"active","ping":51},{"user_id":353,"name":"heck","steam_id":76561198953767140,"connected_time":512000000000,"state":"active","ping":45},{"user_id":302,"name":"Iceeagle","steam_id":76561198056328858,"connected_time":4313000000000,"state":"active","ping":54},{"user_id":365,"name":"ruskie (fake)","steam_id":76561199106215999,"connected_time":159000000000,"state":"active","ping":135},{"user_id":355,"name":"Gordon","steam_id":76561198088042034,"connected_time":482000000000,"state":"active","ping":111},{"user_id":361,"name":"Apox","steam_id":76561198008005377,"connected_time":375000000000,"state":"active","ping":51},{"user_id":359,"name":"ToM","steam_id":76561199111585109,"connected_time":426000000000,"state":"active","ping":69}]},{"server_id":23,"name":"Uncletopia | Frankfurt | 7 | Stopwatch Beta","name_short":"frk-7","host":"frk-1.de.uncletopia.com","port":27075,"enabled":true,"region":"eu","cc":"de","latitude":50.110924,"longitude":8.682127,"reserved":0,"last_update":"0001-01-01T00:00:00Z","name_a2s":"Uncletopia | Frankfurt | 7 | Stopwatch Beta","protocol":17,"map":"workshop/koth_ramjam_rc1.ugc459778887","folder":"tf","game":"Team Fortress","app_id":440,"player_count":0,"max_players":24,"Bots":0,"server_type":"Dedicated","server_os":"Linux","password":true,"vac":true,"version":"7757534","steam_id":85568392924742827,"keywords":["cp","nocrits","nodmgspread","uncletopia"],"game_id":440,"stv_port":27076,"stv_name":"Uncletopia | Frankfurt | 7 | Stopwatch Beta | STV","players":null},{"server_id":24,"name":"Uncletopia | Frankfurt | 8 | Community","name_short":"frk-8","host":"frk-1.de.uncletopia.com","port":27085,"enabled":true,"region":"eu","cc":"de","latitude":50.110924,"longitude":8.682127,"reserved":0,"last_update":"0001-01-01T00:00:00Z","name_a2s":"Uncletopia | Frankfurt | 8 | Community","protocol":17,"map":"workshop/koth_ashville_final.ugc2130459942","folder":"tf","game":"Team Fortress","app_id":440,"player_count":0,"max_players":24,"Bots":0,"server_type":"Dedicated","server_os":"Linux","password":true,"vac":true,"version":"7757534","steam_id":85568392924742828,"keywords":["cp","nocrits","nodmgspread","uncletopia"],"game_id":440,"stv_port":27086,"stv_name":"Uncletopia | Frankfurt | 8 | Community | STV","players":null},{"server_id":202,"name":"Uncletopia | Hong Kong | 1 | All Maps","name_short":"hgk-1","host":"hgk-1.hk.uncletopia.com","port":27015,"enabled":true,"region":"asia","cc":"hk","latitude":22.302711,"longitude":114.177216,"reserved":0,"last_update":"0001-01-01T00:00:00Z","name_a2s":"Uncletopia | Hong Kong | 1 | All Maps","protocol":17,"map":"koth_cascade","folder":"tf","game":"Team Fortress","app_id":440,"player_count":0,"max_players":24,"Bots":0,"server_type":"Dedicated","server_os":"Linux","password":true,"vac":true,"version":"7757534","steam_id":85568392924494504,"keywords":["cp","nocrits","nodmgspread","uncletopia"],"game_id":440,"stv_port":27016,"stv_name":"Uncletopia | Hong Kong | 1 | All Maps | STV","players":null},{"server_id":1,"name":"Uncletopia | Los Angeles | 1 | All Maps","name_short":"lax-1","host":"lax-1.us.uncletopia.com","port":27015,"enabled":true,"region":"us-west","cc":"us","latitude":33.94279,"longitude":-118.41004,"reserved":0,"last_update":"0001-01-01T00:00:00Z","name_a2s":"Uncletopia | Los Angeles | 1 | All Maps","protocol":17,"map":"pl_pier","folder":"tf","game":"Team Fortress","app_id":440,"player_count":0,"max_players":24,"Bots":0,"server_type":"Dedicated","server_os":"Linux","password":true,"vac":true,"version":"7757534","steam_id":85568392924469991,"keywords":["nocrits","nodmgspread","payload","uncletopia"],"game_id":440,"stv_port":27016,"stv_name":"Uncletopia | Los Angeles | 1 | All Maps | STV","players":null},{"server_id":112,"name":"Uncletopia | Los Angeles | 2 | All Maps","name_short":"lax-2","host":"lax-1.us.uncletopia.com","port":27025,"enabled":true,"region":"us-west","cc":"us","latitude":33.94279,"longitude":-118.41004,"reserved":0,"last_update":"0001-01-01T00:00:00Z","name_a2s":"Uncletopia | Los Angeles | 2 | All Maps","protocol":17,"map":"pl_frontier_final","folder":"tf","game":"Team Fortress","app_id":440,"player_count":0,"max_players":24,"Bots":0,"server_type":"Dedicated","server_os":"Linux","password":true,"vac":true,"version":"7757534","steam_id":85568392924469992,"keywords":["nocrits","nodmgspread","payload","uncletopia"],"game_id":440,"stv_port":27026,"stv_name":"Uncletopia | Los Angeles | 2 | All Maps | STV","players":null},{"server_id":324,"name":"Uncletopia | Los Angeles | 3 | All Maps","name_short":"lax-3","host":"lax-1.us.uncletopia.com","port":27035,"enabled":true,"region":"us-west","cc":"us","latitude":33.94279,"longitude":-118.41004,"reserved":0,"last_update":"0001-01-01T00:00:00Z","name_a2s":"Uncletopia | Los Angeles | 3 | All Maps","protocol":17,"map":"cp_dustbowl","folder":"tf","game":"Team Fortress","app_id":440,"player_count":0,"max_players":24,"Bots":0,"server_type":"Dedicated","server_os":"Linux","password":true,"vac":true,"version":"7757534","steam_id":85568392924510198,"keywords":["cp","nocrits","nodmgspread","uncletopia"],"game_id":440,"stv_port":27036,"stv_name":"Uncletopia | Los Angeles | 3 | All Maps | STV","players":null},{"server_id":25,"name":"Uncletopia | Los Angeles | 4 | Stopwatch Beta","name_short":"lax-4","host":"lax-1.us.uncletopia.com","port":27045,"enabled":true,"region":"us-west","cc":"us","latitude":33.94279,"longitude":-118.41004,"reserved":0,"last_update":"0001-01-01T00:00:00Z","name_a2s":"Uncletopia | Los Angeles | 4 | Stopwatch Beta","protocol":17,"map":"pl_swiftwater_final1","folder":"tf","game":"Team Fortress","app_id":440,"player_count":0,"max_players":24,"Bots":0,"server_type":"Dedicated","server_os":"Linux","password":true,"vac":true,"version":"7757534","steam_id":85568392924510199,"keywords":["nocrits","nodmgspread","payload","uncletopia"],"game_id":440,"stv_port":27046,"stv_name":"Uncletopia | Los Angeles | 4 | Stopwatch Beta | STV","players":null},{"server_id":11,"name":"Uncletopia | London | 1 | All Maps","name_short":"lon-1","host":"lon-1.uk.uncletopia.com","port":27015,"enabled":true,"region":"eu","cc":"gb","latitude":51.509865,"longitude":-0.118092,"reserved":0,"last_update":"0001-01-01T00:00:00Z","name_a2s":"Uncletopia | London | 1 | All Maps","protocol":17,"map":"pl_snowycoast","folder":"tf","game":"Team Fortress","app_id":440,"player_count":24,"max_players":24,"Bots":0,"server_type":"Dedicated","server_os":"Linux","password":true,"vac":true,"version":"7757534","steam_id":85568392924367362,"keywords":["nocrits","nodmgspread","payload","uncletopia"],"game_id":440,"stv_port":27016,"stv_name":"Uncletopia | London | 1 | All Maps | STV","players":[{"user_id":650,"name":"Night Fury","steam_id":76561197995207032,"connected_time":895000000000,"state":"active","ping":81},{"user_id":657,"name":"mmm delicious bullets","steam_id":76561198254664484,"connected_time":379000000000,"state":"active","ping":63},{"user_id":645,"name":"ArikMor","steam_id":76561199124472513,"connected_time":1259000000000,"state":"active","ping":120},{"user_id":625,"name":"Sandshee","steam_id":76561198088574666,"connected_time":2391000000000,"state":"active","ping":36},{"user_id":648,"name":"Kaptin Badrukk","steam_id":76561198048011649,"connected_time":1053000000000,"state":"active","ping":56},{"user_id":658,"name":"AWildTamim","steam_id":76561198048060652,"connected_time":197000000000,"state":"active","ping":43},{"user_id":628,"name":"=flashpoint=","steam_id":76561197976774456,"connected_time":2274000000000,"state":"active","ping":44},{"user_id":599,"name":"Emily","steam_id":76561198393596975,"connected_time":3599000000000,"state":"active","ping":52},{"user_id":637,"name":"kbbq","steam_id":76561198346638308,"connected_time":1446000000000,"state":"active","ping":59},{"user_id":638,"name":"Hive","steam_id":76561198207343209,"connected_time":1436000000000,"state":"active","ping":101},{"user_id":606,"name":"yush","steam_id":76561198121688934,"connected_time":3349000000000,"state":"active","ping":77},{"user_id":647,"name":"Officer Big Mac","steam_id":76561197972008326,"connected_time":1237000000000,"state":"active","ping":74},{"user_id":633,"name":"SuperBob103","steam_id":76561199175360012,"connected_time":1529000000000,"state":"active","ping":48},{"user_id":656,"name":"dn4k","steam_id":76561199221755690,"connected_time":619000000000,"state":"active","ping":91},{"user_id":653,"name":"the babadook","steam_id":76561198040168682,"connected_time":767000000000,"state":"active","ping":45},{"user_id":651,"name":"Gearless","steam_id":76561198362367074,"connected_time":890000000000,"state":"active","ping":85},{"user_id":659,"name":"Volcyy","steam_id":76561198063979124,"connected_time":121000000000,"state":"active","ping":51},{"user_id":643,"name":"AYE","steam_id":76561198181368101,"connected_time":1330000000000,"state":"active","ping":64},{"user_id":644,"name":"i collect ants","steam_id":76561198069649097,"connected_time":1293000000000,"state":"active","ping":47},{"user_id":616,"name":"Ohad","steam_id":76561198067989324,"connected_time":2710000000000,"state":"active","ping":110},{"user_id":649,"name":"Hudson Hornet","steam_id":76561198084705501,"connected_time":992000000000,"state":"active","ping":88},{"user_id":655,"name":"Critical Hit","steam_id":76561198028524029,"connected_time":725000000000,"state":"active","ping":71},{"user_id":631,"name":"Richard Hammond","steam_id":76561199223016965,"connected_time":1808000000000,"state":"active","ping":46},{"user_id":630,"name":"Borat","steam_id":76561198122226417,"connected_time":1977000000000,"state":"active","ping":46}]},{"server_id":114,"name":"Uncletopia | London | 2 | All Maps","name_short":"lon-2","host":"lon-1.uk.uncletopia.com","port":27025,"enabled":true,"region":"eu","cc":"gb","latitude":51.509865,"longitude":-0.118092,"reserved":0,"last_update":"0001-01-01T00:00:00Z","name_a2s":"Uncletopia | London | 2 | All Maps","protocol":17,"map":"pl_snowycoast","folder":"tf","game":"Team Fortress","app_id":440,"player_count":23,"max_players":24,"Bots":0,"server_type":"Dedicated","server_os":"Linux","password":true,"vac":true,"version":"7757534","steam_id":85568392924470941,"keywords":["nocrits","nodmgspread","payload","uncletopia"],"game_id":440,"stv_port":27026,"stv_name":"Uncletopia | London | 2 | All Maps | STV","players":[{"user_id":411,"name":"Grim the lemon","steam_id":76561199083433988,"connected_time":116000000000,"state":"active","ping":44},{"user_id":412,"name":"goktwoxd","steam_id":76561198065114415,"connected_time":71000000000,"state":"active","ping":75},{"user_id":409,"name":"filo","steam_id":76561198103633797,"connected_time":155000000000,"state":"active","ping":85},{"user_id":410,"name":"_Starlight_","steam_id":76561197993885738,"connected_time":149000000000,"state":"active","ping":83},{"user_id":406,"name":"Purps","steam_id":76561198053886680,"connected_time":542000000000,"state":"active","ping":36},{"user_id":344,"name":"Yuzu","steam_id":76561198121694613,"connected_time":6558000000000,"state":"active","ping":50},{"user_id":389,"name":"Son Goku","steam_id":76561199383437138,"connected_time":2056000000000,"state":"active","ping":128},{"user_id":376,"name":"Dark elixir addict","steam_id":76561198304053926,"connected_time":4268000000000,"state":"active","ping":102},{"user_id":392,"name":"ricky pee pee","steam_id":76561198152620745,"connected_time":1620000000000,"state":"active","ping":59},{"user_id":407,"name":"YourNeighbourhoodHobo","steam_id":76561198072756392,"connected_time":471000000000,"state":"active","ping":69},{"user_id":340,"name":"Dwevy","steam_id":76561198090379437,"connected_time":6828000000000,"state":"active","ping":55},{"user_id":380,"name":"2BCD","steam_id":76561198178254946,"connected_time":3438000000000,"state":"active","ping":63},{"user_id":403,"name":"ELON MUSK","steam_id":76561198132788284,"connected_time":964000000000,"state":"active","ping":54},{"user_id":413,"name":"free uber","steam_id":76561198198581079,"connected_time":58000000000,"state":"active","ping":66},{"user_id":367,"name":"Rooce","steam_id":76561199061011421,"connected_time":4786000000000,"state":"active","ping":84},{"user_id":347,"name":"M4R1O","steam_id":76561198050528464,"connected_time":6540000000000,"state":"active","ping":75},{"user_id":394,"name":"Clitorina","steam_id":76561198077570815,"connected_time":1589000000000,"state":"active","ping":40},{"user_id":414,"name":"FoOzTV","steam_id":76561197998636728,"connected_time":20000000000,"state":"active","ping":62},{"user_id":415,"name":"iq drops","steam_id":76561198035795130,"connected_time":6000000000,"state":"spawning","ping":52},{"user_id":405,"name":"rummy","steam_id":76561197997573379,"connected_time":868000000000,"state":"active","ping":43},{"user_id":397,"name":"Hood","steam_id":76561199229682408,"connected_time":1492000000000,"state":"active","ping":36},{"user_id":379,"name":"Grillem Dafoe","steam_id":76561198306874574,"connected_time":3587000000000,"state":"active","ping":64},{"user_id":399,"name":"Well, off to hang myself","steam_id":76561198053374944,"connected_time":1267000000000,"state":"active","ping":84}]},{"server_id":320,"name":"Uncletopia | London | 3 | All Maps","name_short":"lon-3","host":"lon-1.uk.uncletopia.com","port":27035,"enabled":true,"region":"eu","cc":"gb","latitude":51.509865,"longitude":-0.118092,"reserved":0,"last_update":"0001-01-01T00:00:00Z","name_a2s":"Uncletopia | London | 3 | All Maps","protocol":17,"map":"ctf_2fort","folder":"tf","game":"Team Fortress","app_id":440,"player_count":19,"max_players":24,"Bots":0,"server_type":"Dedicated","server_os":"Linux","password":true,"vac":true,"version":"7757534","steam_id":85568392924510192,"keywords":["ctf","nocrits","nodmgspread","uncletopia"],"game_id":440,"stv_port":27036,"stv_name":"Uncletopia | London | 3 | All Maps | STV","players":[{"user_id":565,"name":"fshfkr","steam_id":76561198095979282,"connected_time":170000000000,"state":"active","ping":45},{"user_id":532,"name":"brk559","steam_id":76561199095687349,"connected_time":1831000000000,"state":"active","ping":74},{"user_id":524,"name":"Anonymous47007","steam_id":76561199005211417,"connected_time":2883000000000,"state":"active","ping":77},{"user_id":535,"name":"Toa LightMakuta","steam_id":76561198212178104,"connected_time":1670000000000,"state":"active","ping":50},{"user_id":567,"name":"maurice","steam_id":76561198379362481,"connected_time":111000000000,"state":"active","ping":51},{"user_id":561,"name":"that fat croc from donkey kong","steam_id":76561198159172495,"connected_time":399000000000,"state":"active","ping":71},{"user_id":563,"name":"Yelowchy","steam_id":76561198199416121,"connected_time":326000000000,"state":"active","ping":64},{"user_id":562,"name":"Zune","steam_id":76561198119382708,"connected_time":383000000000,"state":"active","ping":80},{"user_id":538,"name":"Voks_","steam_id":76561198159687785,"connected_time":1611000000000,"state":"active","ping":69},{"user_id":569,"name":"Your personal pocket medic","steam_id":76561199246615687,"connected_time":53000000000,"state":"active","ping":125},{"user_id":539,"name":"Unfortunate","steam_id":76561198125500777,"connected_time":1601000000000,"state":"active","ping":96},{"user_id":510,"name":"Tomau5","steam_id":76561198027409468,"connected_time":3971000000000,"state":"active","ping":48},{"user_id":556,"name":"nutlube","steam_id":76561198128831131,"connected_time":990000000000,"state":"active","ping":61},{"user_id":558,"name":"i hate this game","steam_id":76561198849524221,"connected_time":816000000000,"state":"active","ping":95},{"user_id":547,"name":"shekels","steam_id":76561199218838411,"connected_time":1437000000000,"state":"active","ping":51},{"user_id":564,"name":"Chaine","steam_id":76561198088660956,"connected_time":275000000000,"state":"active","ping":80},{"user_id":557,"name":"Tom","steam_id":76561198008519979,"connected_time":940000000000,"state":"active","ping":65},{"user_id":549,"name":"Qpangfire","steam_id":76561198094354139,"connected_time":1403000000000,"state":"active","ping":45},{"user_id":554,"name":"A Featherless Biped","steam_id":76561198307904901,"connected_time":1143000000000,"state":"active","ping":50}]},{"server_id":321,"name":"Uncletopia | London | 4 | All Maps","name_short":"lon-4","host":"lon-1.uk.uncletopia.com","port":27045,"enabled":true,"region":"eu","cc":"gb","latitude":51.509865,"longitude":-0.118092,"reserved":0,"last_update":"0001-01-01T00:00:00Z","name_a2s":"Uncletopia | London | 4 | All Maps","protocol":17,"map":"koth_viaduct","folder":"tf","game":"Team Fortress","app_id":440,"player_count":0,"max_players":24,"Bots":0,"server_type":"Dedicated","server_os":"Linux","password":true,"vac":true,"version":"7757534","steam_id":85568392924510193,"keywords":["cp","nocrits","nodmgspread","uncletopia"],"game_id":440,"stv_port":27046,"stv_name":"Uncletopia | London | 4 | All Maps | STV","players":null},{"server_id":21,"name":"Uncletopia | London | 5 | All Maps","name_short":"lon-5","host":"lon-1.uk.uncletopia.com","port":27055,"enabled":true,"region":"eu","cc":"gb","latitude":51.509865,"longitude":-0.118092,"reserved":0,"last_update":"0001-01-01T00:00:00Z","name_a2s":"Uncletopia | London | 5 | All Maps","protocol":17,"map":"pl_borneo","folder":"tf","game":"Team Fortress","app_id":440,"player_count":24,"max_players":24,"Bots":0,"server_type":"Dedicated","server_os":"Linux","password":true,"vac":true,"version":"7757534","steam_id":85568392924742829,"keywords":["nocrits","nodmgspread","payload","uncletopia"],"game_id":440,"stv_port":27056,"stv_name":"Uncletopia | London | 5 | All Maps | STV","players":[{"user_id":137,"name":"H-say","steam_id":76561198177400362,"connected_time":4075000000000,"state":"active","ping":93},{"user_id":173,"name":"MANIFESTING HOGWARTS LEGACY","steam_id":76561198046921199,"connected_time":1055000000000,"state":"active","ping":60},{"user_id":174,"name":"Average","steam_id":76561198158411479,"connected_time":1018000000000,"state":"active","ping":67},{"user_id":175,"name":"8 Ball","steam_id":76561197960988736,"connected_time":1006000000000,"state":"active","ping":48},{"user_id":169,"name":"austinsmith","steam_id":76561198167838540,"connected_time":1139000000000,"state":"active","ping":143},{"user_id":170,"name":"I AM DOT","steam_id":76561198354118090,"connected_time":1129000000000,"state":"active","ping":87},{"user_id":125,"name":"Nox Equites","steam_id":76561198115438449,"connected_time":5049000000000,"state":"active","ping":100},{"user_id":111,"name":"Toast Nook","steam_id":76561199093949301,"connected_time":5692000000000,"state":"active","ping":87},{"user_id":115,"name":"avenje","steam_id":76561198155824845,"connected_time":5640000000000,"state":"active","ping":53},{"user_id":171,"name":"big_gamer","steam_id":76561198078656552,"connected_time":1115000000000,"state":"active","ping":32},{"user_id":162,"name":"Peanut","steam_id":76561198018865486,"connected_time":1661000000000,"state":"active","ping":71},{"user_id":172,"name":"JohnMat2","steam_id":76561199007662486,"connected_time":1105000000000,"state":"active","ping":71},{"user_id":151,"name":"tm`","steam_id":76561197993580412,"connected_time":2027000000000,"state":"active","ping":73},{"user_id":139,"name":"doritos cubun","steam_id":76561198116530769,"connected_time":3583000000000,"state":"active","ping":94},{"user_id":154,"name":"Valen","steam_id":76561198049614521,"connected_time":1990000000000,"state":"active","ping":75},{"user_id":155,"name":"elchi","steam_id":76561198009531752,"connected_time":1966000000000,"state":"active","ping":51},{"user_id":142,"name":"nick murphy","steam_id":76561198086592534,"connected_time":3263000000000,"state":"active","ping":49},{"user_id":135,"name":"syms","steam_id":76561198066679812,"connected_time":4183000000000,"state":"active","ping":79},{"user_id":126,"name":"Flash","steam_id":76561198067379855,"connected_time":5031000000000,"state":"active","ping":53},{"user_id":157,"name":"RebirthInFire","steam_id":76561198200555755,"connected_time":1885000000000,"state":"active","ping":51},{"user_id":143,"name":"dd","steam_id":76561198257836694,"connected_time":3259000000000,"state":"active","ping":37},{"user_id":148,"name":"blade","steam_id":76561198235739036,"connected_time":2864000000000,"state":"active","ping":90},{"user_id":161,"name":"FTN | Nice1","steam_id":76561198026969020,"connected_time":1686000000000,"state":"active","ping":99}]},{"server_id":22,"name":"Uncletopia | London | 6 | All Maps","name_short":"lon-6","host":"lon-1.uk.uncletopia.com","port":27065,"enabled":true,"region":"eu","cc":"gb","latitude":51.509865,"longitude":-0.118092,"reserved":0,"last_update":"0001-01-01T00:00:00Z","name_a2s":"Uncletopia | London | 6 | All Maps","protocol":17,"map":"cp_dustbowl","folder":"tf","game":"Team Fortress","app_id":440,"player_count":0,"max_players":24,"Bots":0,"server_type":"Dedicated","server_os":"Linux","password":true,"vac":true,"version":"7757534","steam_id":85568392924742830,"keywords":["cp","nocrits","nodmgspread","uncletopia"],"game_id":440,"stv_port":27066,"stv_name":"Uncletopia | London | 6 | All Maps | STV","players":null},{"server_id":40,"name":"Uncletopia | London | 7 | No Payload","name_short":"lon-7","host":"lon-1.uk.uncletopia.com","port":27075,"enabled":true,"region":"eu","cc":"gb","latitude":51.509865,"longitude":-0.118092,"reserved":0,"last_update":"0001-01-01T00:00:00Z","name_a2s":"Uncletopia | London | 7 | No Payload","protocol":17,"map":"koth_king","folder":"tf","game":"Team Fortress","app_id":440,"player_count":0,"max_players":24,"Bots":0,"server_type":"Dedicated","server_os":"Linux","password":true,"vac":true,"version":"7757534","steam_id":85568392924964314,"keywords":["cp","nocrits","nodmgspread","uncletopia"],"game_id":440,"stv_port":27076,"stv_name":"Uncletopia | London | 7 | No Payload | STV","players":null},{"server_id":41,"name":"Uncletopia | London | 8 | Community","name_short":"lon-8","host":"lon-1.uk.uncletopia.com","port":27085,"enabled":true,"region":"eu","cc":"gb","latitude":51.509865,"longitude":-0.118092,"reserved":0,"last_update":"0001-01-01T00:00:00Z","name_a2s":"Uncletopia | London | 8 | Community","protocol":17,"map":"workshop/pl_cashworks_final1.ugc2904065412","folder":"tf","game":"Team Fortress","app_id":440,"player_count":24,"max_players":24,"Bots":0,"server_type":"Dedicated","server_os":"Linux","password":true,"vac":true,"version":"7757534","steam_id":85568392924964315,"keywords":["nocrits","nodmgspread","payload","uncletopia"],"game_id":440,"stv_port":27086,"stv_name":"Uncletopia | London | 8 | Community | STV","players":[{"user_id":315,"name":"Tomfool","steam_id":76561197993256481,"connected_time":3503000000000,"state":"active","ping":86},{"user_id":354,"name":"Ork","steam_id":76561197968575924,"connected_time":1100000000000,"state":"active","ping":60},{"user_id":356,"name":"TheTiredMario","steam_id":76561199062425739,"connected_time":1021000000000,"state":"active","ping":200},{"user_id":286,"name":"Piquesque","steam_id":76561198286763046,"connected_time":5675000000000,"state":"active","ping":110},{"user_id":342,"name":"Stabbyratbag","steam_id":76561198119531916,"connected_time":2230000000000,"state":"active","ping":45},{"user_id":330,"name":"Simoh The Swoob","steam_id":76561198058078322,"connected_time":2952000000000,"state":"active","ping":89},{"user_id":362,"name":"Superiumentarius","steam_id":76561198081642249,"connected_time":21000000000,"state":"active","ping":60},{"user_id":340,"name":"LordReX","steam_id":76561198139782454,"connected_time":2456000000000,"state":"active","ping":60},{"user_id":359,"name":"tone","steam_id":76561197975301462,"connected_time":245000000000,"state":"active","ping":76},{"user_id":360,"name":"Vershal Smershal","steam_id":76561198116223995,"connected_time":228000000000,"state":"active","ping":63},{"user_id":228,"name":"Fat Pigeon","steam_id":76561198817940142,"connected_time":10366000000000,"state":"active","ping":46},{"user_id":351,"name":"[T]aKer","steam_id":76561198001778013,"connected_time":1226000000000,"state":"active","ping":49},{"user_id":343,"name":"Momovsky","steam_id":76561198005738407,"connected_time":2199000000000,"state":"active","ping":91},{"user_id":298,"name":"‚òûLaZe‚òú","steam_id":76561198202191400,"connected_time":4859000000000,"state":"active","ping":53},{"user_id":341,"name":"KFD","steam_id":76561198157183003,"connected_time":2335000000000,"state":"active","ping":84},{"user_id":321,"name":"X-tis","steam_id":76561198043837480,"connected_time":3246000000000,"state":"active","ping":76},{"user_id":309,"name":"rabbitface26","steam_id":76561198327540113,"connected_time":4212000000000,"state":"active","ping":38},{"user_id":350,"name":"Mr.Cobretti","steam_id":76561198089905715,"connected_time":1668000000000,"state":"active","ping":84},{"user_id":305,"name":"Ivan the Terrible","steam_id":76561198139595241,"connected_time":4599000000000,"state":"active","ping":86},{"user_id":220,"name":"Aregularhuman","steam_id":76561198343319848,"connected_time":11182000000000,"state":"active","ping":48},{"user_id":349,"name":"quickfast","steam_id":76561199438900919,"connected_time":1723000000000,"state":"active","ping":46},{"user_id":358,"name":"–¢—Ä—É–ø –í–æ–ª–æ–¥—è","steam_id":76561198035718457,"connected_time":438000000000,"state":"active","ping":93},{"user_id":308,"name":"„ÄÇ„ÄÇ„ÄÇ","steam_id":76561198101624996,"connected_time":4572000000000,"state":"active","ping":100},{"user_id":334,"name":"Miku","steam_id":76561198041717890,"connected_time":2889000000000,"state":"active","ping":90}]},{"server_id":300,"name":"Uncletopia | Montr√©al | 1 | All Maps","name_short":"mtl-1","host":"mtl-1.ca.uncletopia.com","port":27015,"enabled":true,"region":"us-east","cc":"ca","latitude":45.50889,"longitude":-73.56167,"reserved":0,"last_update":"0001-01-01T00:00:00Z","name_a2s":"Uncletopia | Montr√©al | 1 | All Maps","protocol":17,"map":"koth_viaduct","folder":"tf","game":"Team Fortress","app_id":440,"player_count":0,"max_players":24,"Bots":0,"server_type":"Dedicated","server_os":"Linux","password":true,"vac":true,"version":"7757534","steam_id":85568392924500087,"keywords":["cp","nocrits","nodmgspread","uncletopia"],"game_id":440,"stv_port":27016,"stv_name":"Uncletopia | Montr√©al | 1 | All Maps | STV","players":null},{"server_id":301,"name":"Uncletopia | Montr√©al | 2 | All Maps","name_short":"mtl-2","host":"mtl-1.ca.uncletopia.com","port":27025,"enabled":true,"region":"us-east","cc":"ca","latitude":45.50889,"longitude":-73.56167,"reserved":0,"last_update":"0001-01-01T00:00:00Z","name_a2s":"Uncletopia | Montr√©al | 2 | All Maps","protocol":17,"map":"pl_snowycoast","folder":"tf","game":"Team Fortress","app_id":440,"player_count":0,"max_players":24,"Bots":0,"server_type":"Dedicated","server_os":"Linux","password":true,"vac":true,"version":"7757534","steam_id":85568392924500088,"keywords":["nocrits","nodmgspread","payload","uncletopia"],"game_id":440,"stv_port":27026,"stv_name":"Uncletopia | Montr√©al | 2 | All Maps | STV","players":null},{"server_id":302,"name":"Uncletopia | Montr√©al | 3 | All Maps","name_short":"mtl-3","host":"mtl-1.ca.uncletopia.com","port":27035,"enabled":true,"region":"us-east","cc":"ca","latitude":45.50889,"longitude":-73.56167,"reserved":0,"last_update":"0001-01-01T00:00:00Z","name_a2s":"Uncletopia | Montr√©al | 3 | All Maps","protocol":17,"map":"pl_swiftwater_final1","folder":"tf","game":"Team Fortress","app_id":440,"player_count":0,"max_players":24,"Bots":0,"server_type":"Dedicated","server_os":"Linux","password":true,"vac":true,"version":"7757534","steam_id":85568392924500089,"keywords":["nocrits","nodmgspread","payload","uncletopia"],"game_id":440,"stv_port":27036,"stv_name":"Uncletopia | Montr√©al | 3 | All Maps | STV","players":null},{"server_id":303,"name":"Uncletopia | Montr√©al | 4 | No Payload","name_short":"mtl-4","host":"mtl-1.ca.uncletopia.com","port":27045,"enabled":true,"region":"us-east","cc":"ca","latitude":45.50889,"longitude":-73.56167,"reserved":0,"last_update":"0001-01-01T00:00:00Z","name_a2s":"Uncletopia | Montr√©al | 4 | No Payload","protocol":17,"map":"cp_gravelpit","folder":"tf","game":"Team Fortress","app_id":440,"player_count":0,"max_players":24,"Bots":0,"server_type":"Dedicated","server_os":"Linux","password":true,"vac":true,"version":"7757534","steam_id":85568392924500090,"keywords":["cp","nocrits","nodmgspread","uncletopia"],"game_id":440,"stv_port":27046,"stv_name":"Uncletopia | Montr√©al | 4 | No Payload | STV","players":null},{"server_id":13,"name":"Uncletopia | New York City | 1 | All Maps","name_short":"nyc-1","host":"nyc-1.us.uncletopia.com","port":27015,"enabled":true,"region":"us-east","cc":"us","latitude":40.73061,"longitude":-73.93524,"reserved":0,"last_update":"0001-01-01T00:00:00Z","name_a2s":"Uncletopia | New York City | 1 | All Maps","protocol":17,"map":"pl_barnblitz","folder":"tf","game":"Team Fortress","app_id":440,"player_count":24,"max_players":24,"Bots":0,"server_type":"Dedicated","server_os":"Linux","password":true,"vac":true,"version":"7757534","steam_id":85568392924469993,"keywords":["nocrits","nodmgspread","payload","uncletopia"],"game_id":440,"stv_port":27016,"stv_name":"Uncletopia | New York City | 1 | All Maps | STV","players":[{"user_id":78,"name":"WeegeePJ","steam_id":76561199383362382,"connected_time":3980000000000,"state":"active","ping":60},{"user_id":126,"name":"monqueer","steam_id":76561199125615716,"connected_time":240000000000,"state":"active","ping":94},{"user_id":123,"name":"reanimator","steam_id":76561198085830470,"connected_time":1090000000000,"state":"active","ping":47},{"user_id":106,"name":"nate","steam_id":76561197963935504,"connected_time":2001000000000,"state":"active","ping":85},{"user_id":114,"name":"Ursus Ludius","steam_id":76561198025470722,"connected_time":1605000000000,"state":"active","ping":76},{"user_id":125,"name":"yer_nerd","steam_id":76561199435454093,"connected_time":293000000000,"state":"active","ping":56},{"user_id":120,"name":"FS Jorda","steam_id":76561198071421459,"connected_time":1304000000000,"state":"active","ping":32},{"user_id":82,"name":"StarLy","steam_id":76561198174428289,"connected_time":3891000000000,"state":"active","ping":85},{"user_id":96,"name":"Jmciano24","steam_id":76561198050723212,"connected_time":3054000000000,"state":"active","ping":50},{"user_id":127,"name":"OPOC","steam_id":76561198026539183,"connected_time":188000000000,"state":"active","ping":62},{"user_id":115,"name":"roman","steam_id":76561198170066797,"connected_time":1562000000000,"state":"active","ping":62},{"user_id":128,"name":"Roloman11","steam_id":76561198308927283,"connected_time":172000000000,"state":"active","ping":87},{"user_id":124,"name":"Induceddata","steam_id":76561198868302455,"connected_time":798000000000,"state":"active","ping":45},{"user_id":103,"name":"Baphomet","steam_id":76561199233723900,"connected_time":2115000000000,"state":"active","ping":54},{"user_id":117,"name":"Nice21","steam_id":76561199427548141,"connected_time":1478000000000,"state":"active","ping":74},{"user_id":121,"name":"Spycheck","steam_id":76561198170147553,"connected_time":1127000000000,"state":"active","ping":101},{"user_id":57,"name":"Bolarroza","steam_id":76561198806968845,"connected_time":5223000000000,"state":"active","ping":38},{"user_id":111,"name":"Primal","steam_id":76561197983118203,"connected_time":1873000000000,"state":"active","ping":84},{"user_id":132,"name":"sansa musa","steam_id":76561198163723555,"connected_time":94000000000,"state":"active","ping":60},{"user_id":130,"name":"ros","steam_id":76561198859332989,"connected_time":119000000000,"state":"active","ping":79},{"user_id":131,"name":"pyh√§ yrj√∂","steam_id":76561198355645915,"connected_time":110000000000,"state":"active","ping":53},{"user_id":118,"name":"jdkjdsjsdjdfsfsdfffg","steam_id":76561198338950292,"connected_time":1462000000000,"state":"active","ping":61},{"user_id":133,"name":"Gaminglast","steam_id":76561198362927765,"connected_time":94000000000,"state":"active","ping":169},{"user_id":119,"name":"stepho","steam_id":76561199132035586,"connected_time":1449000000000,"state":"active","ping":78}]},{"server_id":14,"name":"Uncletopia | New York City | 2 | All Maps","name_short":"nyc-2","host":"nyc-1.us.uncletopia.com","port":27025,"enabled":true,"region":"us-east","cc":"us","latitude":40.73061,"longitude":-73.93524,"reserved":0,"last_update":"0001-01-01T00:00:00Z","name_a2s":"Uncletopia | New York City | 2 | All Maps","protocol":17,"map":"pl_badwater","folder":"tf","game":"Team Fortress","app_id":440,"player_count":24,"max_players":24,"Bots":0,"server_type":"Dedicated","server_os":"Linux","password":true,"vac":true,"version":"7757534","steam_id":85568392924469994,"keywords":["nocrits","nodmgspread","payload","uncletopia"],"game_id":440,"stv_port":27026,"stv_name":"Uncletopia | New York City | 2 | All Maps | STV","players":[{"user_id":353,"name":"10KO!","steam_id":76561199134895220,"connected_time":2272000000000,"state":"active","ping":61},{"user_id":338,"name":"Zenabie","steam_id":76561198088372680,"connected_time":3389000000000,"state":"active","ping":76},{"user_id":366,"name":"MANAZE","steam_id":76561199011166893,"connected_time":1080000000000,"state":"active","ping":180},{"user_id":355,"name":"Commander Thorn","steam_id":76561199027129554,"connected_time":2155000000000,"state":"active","ping":55},{"user_id":367,"name":"Deltaco","steam_id":76561198094572694,"connected_time":996000000000,"state":"active","ping":116},{"user_id":326,"name":"mothsprings","steam_id":76561198928604937,"connected_time":4122000000000,"state":"active","ping":58},{"user_id":372,"name":"Jeffery Jitterson","steam_id":76561199021400714,"connected_time":472000000000,"state":"active","ping":45},{"user_id":371,"name":"man behind the slaughter (F2P)","steam_id":76561198854070384,"connected_time":893000000000,"state":"active","ping":112},{"user_id":374,"name":"Tangerine","steam_id":76561198373668488,"connected_time":421000000000,"state":"active","ping":93},{"user_id":307,"name":"Toiletpaop","steam_id":76561198985520642,"connected_time":4814000000000,"state":"active","ping":71},{"user_id":379,"name":"ur $ subtracting d(-_-b)","steam_id":76561198072179483,"connected_time":194000000000,"state":"active","ping":75},{"user_id":258,"name":"Bozanimal","steam_id":76561198044096897,"connected_time":8140000000000,"state":"active","ping":44},{"user_id":349,"name":"skincel","steam_id":76561198190323610,"connected_time":2779000000000,"state":"active","ping":75},{"user_id":351,"name":"bruh2","steam_id":76561198046055673,"connected_time":2464000000000,"state":"active","ping":58},{"user_id":358,"name":"JPSS","steam_id":76561199239530493,"connected_time":2125000000000,"state":"active","ping":69},{"user_id":318,"name":"heck","steam_id":76561198067898014,"connected_time":4609000000000,"state":"active","ping":30},{"user_id":333,"name":"NOAH FROM SUPER 3D NOAH'S ARK!","steam_id":76561198042011714,"connected_time":3772000000000,"state":"active","ping":70},{"user_id":359,"name":"Egpta","steam_id":76561198237840238,"connected_time":2068000000000,"state":"active","ping":57},{"user_id":348,"name":"Violet42","steam_id":76561198072927887,"connected_time":2843000000000,"state":"active","ping":45},{"user_id":364,"name":"avo toast","steam_id":76561198339644583,"connected_time":1744000000000,"state":"active","ping":73},{"user_id":362,"name":"TrevBev45","steam_id":76561198273637677,"connected_time":1908000000000,"state":"active","ping":56},{"user_id":377,"name":"creeeeeee","steam_id":76561198392539722,"connected_time":233000000000,"state":"active","ping":85},{"user_id":373,"name":"Blooky","steam_id":76561199193944882,"connected_time":451000000000,"state":"active","ping":98},{"user_id":378,"name":"Warkeidan","steam_id":76561198118805546,"connected_time":220000000000,"state":"active","ping":64}]},{"server_id":15,"name":"Uncletopia | New York City | 3 | Stopwatch Beta","name_short":"nyc-3","host":"nyc-1.us.uncletopia.com","port":27035,"enabled":true,"region":"us-east","cc":"us","latitude":40.73061,"longitude":-73.93524,"reserved":0,"last_update":"0001-01-01T00:00:00Z","name_a2s":"Uncletopia | New York City | 3 | Stopwatch Beta","protocol":17,"map":"koth_lakeside_final","folder":"tf","game":"Team Fortress","app_id":440,"player_count":0,"max_players":24,"Bots":0,"server_type":"Dedicated","server_os":"Linux","password":true,"vac":true,"version":"7757534","steam_id":85568392924742820,"keywords":["cp","nocrits","nodmgspread","uncletopia"],"game_id":440,"stv_port":27036,"stv_name":"Uncletopia | New York City | 3 | Stopwatch Beta | STV","players":null},{"server_id":16,"name":"Uncletopia | New York City | 4 | Community","name_short":"nyc-4","host":"nyc-1.us.uncletopia.com","port":27045,"enabled":true,"region":"us-east","cc":"us","latitude":40.73061,"longitude":-73.93524,"reserved":0,"last_update":"0001-01-01T00:00:00Z","name_a2s":"Uncletopia | New York City | 4 | Community","protocol":17,"map":"pl_swiftwater_final1","folder":"tf","game":"Team Fortress","app_id":440,"player_count":0,"max_players":24,"Bots":0,"server_type":"Dedicated","server_os":"Linux","password":true,"vac":true,"version":"7757534","steam_id":85568392924742821,"keywords":["nocrits","nodmgspread","payload","uncletopia"],"game_id":440,"stv_port":27046,"stv_name":"Uncletopia | New York City | 4 | Community | STV","players":null},{"server_id":142,"name":"Uncletopia | S√£o Paulo | 1 | All Maps","name_short":"sao-1","host":"sao-1.br.uncletopia.com","port":27015,"enabled":true,"region":"sa","cc":"br","latitude":-23.533773,"longitude":-46.62529,"reserved":0,"last_update":"0001-01-01T00:00:00Z","name_a2s":"Uncletopia | S√£o Paulo | 1 | All Maps","protocol":17,"map":"koth_lakeside_final","folder":"tf","game":"Team Fortress","app_id":440,"player_count":0,"max_players":24,"Bots":0,"server_type":"Dedicated","server_os":"Linux","password":true,"vac":true,"version":"7757534","steam_id":85568392924469996,"keywords":["cp","nocrits","nodmgspread","uncletopia"],"game_id":440,"stv_port":27016,"stv_name":"Uncletopia | S√£o Paulo | 1 | All Maps | STV","players":null},{"server_id":143,"name":"Uncletopia | S√£o Paulo | 2 | All Maps","name_short":"sao-2","host":"sao-2.br.uncletopia.com","port":27015,"enabled":true,"region":"sa","cc":"br","latitude":-23.533773,"longitude":-46.62529,"reserved":0,"last_update":"0001-01-01T00:00:00Z","name_a2s":"Uncletopia | S√£o Paulo | 2 | All Maps","protocol":17,"map":"koth_cascade","folder":"tf","game":"Team Fortress","app_id":440,"player_count":0,"max_players":24,"Bots":0,"server_type":"Dedicated","server_os":"Linux","password":true,"vac":true,"version":"7757534","steam_id":85568392924485349,"keywords":["cp","nocrits","nodmgspread","uncletopia"],"game_id":440,"stv_port":27016,"stv_name":"Uncletopia | S√£o Paulo | 2 | All Maps | STV","players":null},{"server_id":7,"name":"Uncletopia | Seattle | 1 | All Maps","name_short":"sea-1","host":"sea-1.us.uncletopia.com","port":27015,"enabled":true,"region":"us-west","cc":"us","latitude":47.608013,"longitude":-122.33517,"reserved":0,"last_update":"0001-01-01T00:00:00Z","name_a2s":"Uncletopia | Seattle | 1 | All Maps","protocol":17,"map":"pl_pier","folder":"tf","game":"Team Fortress","app_id":440,"player_count":24,"max_players":24,"Bots":0,"server_type":"Dedicated","server_os":"Linux","password":true,"vac":true,"version":"7757534","steam_id":85568392924469997,"keywords":["nocrits","nodmgspread","payload","uncletopia"],"game_id":440,"stv_port":27016,"stv_name":"Uncletopia | Seattle | 1 | All Maps | STV","players":[{"user_id":333,"name":"Papa Panda","steam_id":76561198159061475,"connected_time":2163000000000,"state":"active","ping":75},{"user_id":366,"name":"ESS Alltrex","steam_id":76561198202254225,"connected_time":70000000000,"state":"active","ping":44},{"user_id":359,"name":"Troy Winters","steam_id":76561198051442422,"connected_time":520000000000,"state":"active","ping":91},{"user_id":348,"name":"MinillaMan","steam_id":76561199304028178,"connected_time":1433000000000,"state":"active","ping":94},{"user_id":305,"name":"mega","steam_id":76561198089520959,"connected_time":3141000000000,"state":"active","ping":92},{"user_id":361,"name":"J415","steam_id":76561199194276068,"connected_time":206000000000,"state":"active","ping":85},{"user_id":338,"name":"Rocketface","steam_id":76561198043679540,"connected_time":1745000000000,"state":"active","ping":69},{"user_id":362,"name":"Lazy","steam_id":76561198802747832,"connected_time":204000000000,"state":"active","ping":49},{"user_id":254,"name":"1dk","steam_id":76561198135104742,"connected_time":6578000000000,"state":"active","ping":46},{"user_id":354,"name":"chanoc","steam_id":76561198026734746,"connected_time":989000000000,"state":"active","ping":60},{"user_id":250,"name":"lili","steam_id":76561199391478575,"connected_time":7114000000000,"state":"active","ping":85},{"user_id":299,"name":"Dimitri","steam_id":76561199077636183,"connected_time":3351000000000,"state":"active","ping":131},{"user_id":364,"name":"Pmguino","steam_id":76561198971257562,"connected_time":169000000000,"state":"active","ping":62},{"user_id":285,"name":"Drew","steam_id":76561198058893405,"connected_time":4664000000000,"state":"active","ping":93},{"user_id":296,"name":"da bankman","steam_id":76561199127423378,"connected_time":3460000000000,"state":"active","ping":91},{"user_id":351,"name":"gunboyshootman","steam_id":76561198067026220,"connected_time":1357000000000,"state":"active","ping":117},{"user_id":300,"name":"Grammaring","steam_id":76561198867366139,"connected_time":3337000000000,"state":"active","ping":77},{"user_id":297,"name":"jawnymac","steam_id":76561198179529599,"connected_time":3457000000000,"state":"active","ping":75},{"user_id":365,"name":"Gaiduk","steam_id":76561198112323877,"connected_time":112000000000,"state":"active","ping":144},{"user_id":349,"name":"Mr. Mane T.S.H.A.","steam_id":76561198056728986,"connected_time":1401000000000,"state":"active","ping":113},{"user_id":360,"name":"Keamy","steam_id":76561199471434875,"connected_time":298000000000,"state":"active","ping":41},{"user_id":367,"name":"mounkay","steam_id":76561199271869948,"connected_time":22000000000,"state":"active","ping":102},{"user_id":355,"name":"shiadyne","steam_id":76561198271939793,"connected_time":946000000000,"state":"active","ping":46},{"user_id":352,"name":"TonesMcGroans","steam_id":76561197996691606,"connected_time":1348000000000,"state":"active","ping":96}]},{"server_id":119,"name":"Uncletopia | Seattle | 2 | All Maps","name_short":"sea-2","host":"sea-1.us.uncletopia.com","port":27025,"enabled":true,"region":"us-west","cc":"us","latitude":47.608013,"longitude":-122.33517,"reserved":0,"last_update":"0001-01-01T00:00:00Z","name_a2s":"Uncletopia | Seattle | 2 | All Maps","protocol":17,"map":"pl_barnblitz","folder":"tf","game":"Team Fortress","app_id":440,"player_count":24,"max_players":24,"Bots":0,"server_type":"Dedicated","server_os":"Linux","password":true,"vac":true,"version":"7757534","steam_id":85568392924469998,"keywords":["nocrits","nodmgspread","payload","uncletopia"],"game_id":440,"stv_port":27026,"stv_name":"Uncletopia | Seattle | 2 | All Maps | STV","players":[{"user_id":49,"name":"This game sucks","steam_id":76561198042007578,"connected_time":1207000000000,"state":"active","ping":78},{"user_id":61,"name":"x1x","steam_id":76561198068672882,"connected_time":347000000000,"state":"active","ping":71},{"user_id":50,"name":"loser","steam_id":76561198132182386,"connected_time":1194000000000,"state":"active","ping":80},{"user_id":27,"name":"profile name","steam_id":76561198990223681,"connected_time":2211000000000,"state":"active","ping":128},{"user_id":55,"name":"bigman1","steam_id":76561198050225055,"connected_time":614000000000,"state":"active","ping":80},{"user_id":51,"name":"ScaryMonday","steam_id":76561199204705216,"connected_time":1074000000000,"state":"active","ping":82},{"user_id":39,"name":"Phase_Emo","steam_id":76561198820645374,"connected_time":1460000000000,"state":"active","ping":116},{"user_id":52,"name":"GenericCommunist","steam_id":76561199025823295,"connected_time":1038000000000,"state":"active","ping":109},{"user_id":56,"name":"Lord","steam_id":76561198052973565,"connected_time":607000000000,"state":"active","ping":123},{"user_id":31,"name":"benji","steam_id":76561198084417967,"connected_time":1855000000000,"state":"active","ping":67},{"user_id":57,"name":"Frank","steam_id":76561198126681511,"connected_time":540000000000,"state":"active","ping":77},{"user_id":35,"name":"Nibotshooter","steam_id":76561199284825579,"connected_time":1693000000000,"state":"active","ping":90},{"user_id":36,"name":"Noxus","steam_id":76561199009820852,"connected_time":1691000000000,"state":"active","ping":94},{"user_id":37,"name":"Tom","steam_id":76561198070630154,"connected_time":1652000000000,"state":"active","ping":83},{"user_id":38,"name":"dreamybullxxx","steam_id":76561198415697906,"connected_time":1561000000000,"state":"active","ping":125},{"user_id":60,"name":"caberknight tf2","steam_id":76561199273882768,"connected_time":484000000000,"state":"active","ping":123},{"user_id":62,"name":"DerKaiser","steam_id":76561198248356196,"connected_time":342000000000,"state":"active","ping":114},{"user_id":54,"name":"DaBeatGoOff?","steam_id":76561198106507400,"connected_time":637000000000,"state":"active","ping":82},{"user_id":43,"name":"ARGON Soulidity","steam_id":76561198429603550,"connected_time":1321000000000,"state":"active","ping":120},{"user_id":44,"name":"COOL master_9","steam_id":76561198073041151,"connected_time":1320000000000,"state":"active","ping":102},{"user_id":45,"name":"narca","steam_id":76561198313400099,"connected_time":1283000000000,"state":"active","ping":126},{"user_id":46,"name":"THEDINKY","steam_id":76561198190077399,"connected_time":1281000000000,"state":"active","ping":118},{"user_id":47,"name":"silly jester","steam_id":76561198079609974,"connected_time":1276000000000,"state":"active","ping":90},{"user_id":64,"name":"Spy of 83","steam_id":76561199062242958,"connected_time":196000000000,"state":"active","ping":53}]},{"server_id":406,"name":"Uncletopia | Seattle | 3 | Stopwatch Beta","name_short":"sea-3","host":"sea-1.us.uncletopia.com","port":27035,"enabled":true,"region":"us-west","cc":"us","latitude":47.608013,"longitude":-122.33517,"reserved":0,"last_update":"0001-01-01T00:00:00Z","name_a2s":"Uncletopia | Seattle | 3 | Stopwatch Beta","protocol":17,"map":"cp_dustbowl","folder":"tf","game":"Team Fortress","app_id":440,"player_count":0,"max_players":24,"Bots":0,"server_type":"Dedicated","server_os":"Linux","password":true,"vac":true,"version":"7757534","steam_id":85568392924515217,"keywords":["cp","nocrits","nodmgspread","uncletopia"],"game_id":440,"stv_port":27036,"stv_name":"Uncletopia | Seattle | 3 | Stopwatch Beta | STV","players":null},{"server_id":17,"name":"Uncletopia | San Francisco | 1 | All Maps","name_short":"sfo-1","host":"sfo-1.us.uncletopia.com","port":27015,"enabled":true,"region":"us-west","cc":"us","latitude":37.77397,"longitude":-122.4313,"reserved":0,"last_update":"0001-01-01T00:00:00Z","name_a2s":"Uncletopia | San Francisco | 1 | All Maps","protocol":17,"map":"cp_process_final","folder":"tf","game":"Team Fortress","app_id":440,"player_count":0,"max_players":24,"Bots":0,"server_type":"Dedicated","server_os":"Linux","password":true,"vac":true,"version":"7757534","steam_id":85568392924469999,"keywords":["cp","nocrits","nodmgspread","uncletopia"],"game_id":440,"stv_port":27016,"stv_name":"Uncletopia | San Francisco | 1 | All Maps | STV","players":null},{"server_id":18,"name":"Uncletopia | San Francisco | 2 | All Maps","name_short":"sfo-2","host":"sfo-1.us.uncletopia.com","port":27025,"enabled":true,"region":"us-west","cc":"us","latitude":37.77397,"longitude":-122.4313,"reserved":0,"last_update":"0001-01-01T00:00:00Z","name_a2s":"Uncletopia | San Francisco | 2 | All Maps","protocol":17,"map":"pl_enclosure_final","folder":"tf","game":"Team Fortress","app_id":440,"player_count":2,"max_players":24,"Bots":0,"server_type":"Dedicated","server_os":"Linux","password":true,"vac":true,"version":"7757534","steam_id":85568392924470000,"keywords":["nocrits","nodmgspread","payload","uncletopia"],"game_id":440,"stv_port":27026,"stv_name":"Uncletopia | San Francisco | 2 | All Maps | STV","players":[{"user_id":10,"name":"me","steam_id":76561198861711988,"connected_time":112000000000,"state":"active","ping":60},{"user_id":11,"name":"Snicksnork18","steam_id":76561198074342600,"connected_time":31000000000,"state":"active","ping":56}]},{"server_id":19,"name":"Uncletopia | San Francisco | 3 | Stopwatch Beta","name_short":"sfo-3","host":"sfo-1.us.uncletopia.com","port":27035,"enabled":true,"region":"us-west","cc":"us","latitude":37.77397,"longitude":-122.4313,"reserved":0,"last_update":"0001-01-01T00:00:00Z","name_a2s":"Uncletopia | San Francisco | 3 | Stopwatch Beta","protocol":17,"map":"koth_lakeside_final","folder":"tf","game":"Team Fortress","app_id":440,"player_count":0,"max_players":24,"Bots":0,"server_type":"Dedicated","server_os":"Linux","password":true,"vac":true,"version":"7757534","steam_id":85568392924742824,"keywords":["cp","nocrits","nodmgspread","uncletopia"],"game_id":440,"stv_port":27036,"stv_name":"Uncletopia | San Francisco | 3 | Stopwatch Beta | STV","players":null},{"server_id":20,"name":"Uncletopia | San Francisco | 4 | Community","name_short":"sfo-4","host":"sfo-1.us.uncletopia.com","port":27045,"enabled":true,"region":"us-west","cc":"us","latitude":37.77397,"longitude":-122.4313,"reserved":0,"last_update":"0001-01-01T00:00:00Z","name_a2s":"Uncletopia | San Francisco | 4 | Community","protocol":17,"map":"cp_altitude","folder":"tf","game":"Team Fortress","app_id":440,"player_count":0,"max_players":24,"Bots":0,"server_type":"Dedicated","server_os":"Linux","password":true,"vac":true,"version":"7757534","steam_id":85568392924742826,"keywords":["cp","nocrits","nodmgspread","uncletopia"],"game_id":440,"stv_port":27046,"stv_name":"Uncletopia | San Francisco | 4 | Community | STV","players":null},{"server_id":141,"name":"Uncletopia | Sydney | 1 | All Maps","name_short":"syd-1","host":"syd-1.au.uncletopia.com","port":27015,"enabled":true,"region":"au","cc":"au","latitude":-33.865143,"longitude":151.2099,"reserved":0,"last_update":"0001-01-01T00:00:00Z","name_a2s":"Uncletopia | Sydney | 1 | All Maps","protocol":17,"map":"koth_highpass","folder":"tf","game":"Team Fortress","app_id":440,"player_count":0,"max_players":24,"Bots":0,"server_type":"Dedicated","server_os":"Linux","password":true,"vac":true,"version":"7757534","steam_id":85568392924470001,"keywords":["cp","nocrits","nodmgspread","uncletopia"],"game_id":440,"stv_port":27016,"stv_name":"Uncletopia | Sydney | 1 | All Maps | STV","players":null},{"server_id":123,"name":"Uncletopia | Sydney | 2 | All Maps","name_short":"syd-2","host":"syd-1.au.uncletopia.com","port":27025,"enabled":true,"region":"au","cc":"au","latitude":-33.865143,"longitude":151.2099,"reserved":0,"last_update":"0001-01-01T00:00:00Z","name_a2s":"Uncletopia | Sydney | 2 | All Maps","protocol":17,"map":"cp_dustbowl","folder":"tf","game":"Team Fortress","app_id":440,"player_count":0,"max_players":24,"Bots":0,"server_type":"Dedicated","server_os":"Linux","password":true,"vac":true,"version":"7757534","steam_id":85568392924470002,"keywords":["cp","nocrits","nodmgspread","uncletopia"],"game_id":440,"stv_port":27026,"stv_name":"Uncletopia | Sydney | 2 | All Maps | STV","players":null},{"server_id":395,"name":"Uncletopia | Sydney | 3 | All Maps","name_short":"syd-3","host":"syd-1.au.uncletopia.com","port":27035,"enabled":true,"region":"au","cc":"au","latitude":-33.865143,"longitude":151.2099,"reserved":0,"last_update":"0001-01-01T00:00:00Z","name_a2s":"Uncletopia | Sydney | 3 | All Maps","protocol":17,"map":"pl_swiftwater_final1","folder":"tf","game":"Team Fortress","app_id":440,"player_count":0,"max_players":24,"Bots":0,"server_type":"Dedicated","server_os":"Linux","password":true,"vac":true,"version":"7757534","steam_id":85568392925194467,"keywords":["nocrits","nodmgspread","payload","uncletopia"],"game_id":440,"stv_port":27036,"stv_name":"Uncletopia | Sydney | 3 | All Maps | STV","players":null},{"server_id":396,"name":"Uncletopia | Sydney | 4 | All Maps","name_short":"syd-4","host":"syd-1.au.uncletopia.com","port":27045,"enabled":true,"region":"au","cc":"au","latitude":-33.865143,"longitude":151.2099,"reserved":0,"last_update":"0001-01-01T00:00:00Z","name_a2s":"Uncletopia | Sydney | 4 | All Maps","protocol":17,"map":"koth_highpass","folder":"tf","game":"Team Fortress","app_id":440,"player_count":0,"max_players":24,"Bots":0,"server_type":"Dedicated","server_os":"Linux","password":true,"vac":true,"version":"7757534","steam_id":85568392925397958,"keywords":["cp","nocrits","nodmgspread","uncletopia"],"game_id":440,"stv_port":27046,"stv_name":"Uncletopia | Sydney | 4 | All Maps | STV","players":null},{"server_id":58,"name":"Uncletopia | Sydney | 5 | Stopwatch Beta","name_short":"syd-5","host":"syd-1.au.uncletopia.com","port":27055,"enabled":true,"region":"au","cc":"au","latitude":-33.865143,"longitude":151.2099,"reserved":0,"last_update":"0001-01-01T00:00:00Z","name_a2s":"Uncletopia | Sydney | 5 | Stopwatch Beta","protocol":17,"map":"koth_cascade","folder":"tf","game":"Team Fortress","app_id":440,"player_count":0,"max_players":24,"Bots":0,"server_type":"Dedicated","server_os":"Linux","password":true,"vac":true,"version":"7757534","steam_id":85568392925397959,"keywords":["cp","nocrits","nodmgspread","uncletopia"],"game_id":440,"stv_port":27056,"stv_name":"Uncletopia | Sydney | 5 | Stopwatch Beta | STV","players":null},{"server_id":59,"name":"Uncletopia | Sydney | 6 | Community","name_short":"syd-6","host":"syd-1.au.uncletopia.com","port":27065,"enabled":true,"region":"au","cc":"au","latitude":-33.865143,"longitude":151.2099,"reserved":0,"last_update":"0001-01-01T00:00:00Z","name_a2s":"Uncletopia | Sydney | 6 | Community","protocol":17,"map":"workshop/cp_villa_b19.ugc2113052569","folder":"tf","game":"Team Fortress","app_id":440,"player_count":0,"max_players":24,"Bots":0,"server_type":"Dedicated","server_os":"Linux","password":true,"vac":true,"version":"7757534","steam_id":85568392925397960,"keywords":["cp","nocrits","nodmgspread","uncletopia"],"game_id":440,"stv_port":27066,"stv_name":"Uncletopia | Sydney | 6 | Community | STV","players":null},{"server_id":49,"name":"Uncletopia | Warsaw | 1 | All Maps","name_short":"waw-1","host":"waw-1.pl.uncletopia.com","port":27015,"enabled":true,"region":"eu","cc":"pl","latitude":52.2297,"longitude":21.017532,"reserved":0,"last_update":"0001-01-01T00:00:00Z","name_a2s":"","protocol":0,"map":"","folder":"","game":"","app_id":0,"player_count":0,"max_players":0,"Bots":0,"server_type":"","server_os":"","password":false,"vac":false,"version":"","steam_id":0,"keywords":null,"game_id":0,"stv_port":0,"stv_name":"","players":null},{"server_id":50,"name":"Uncletopia | Warsaw | 2 | All Maps","name_short":"waw-2","host":"waw-1.pl.uncletopia.com","port":27025,"enabled":true,"region":"eu","cc":"pl","latitude":52.2297,"longitude":21.017532,"reserved":0,"last_update":"0001-01-01T00:00:00Z","name_a2s":"Uncletopia | Warsaw | 2 | All Maps","protocol":17,"map":"koth_viaduct","folder":"tf","game":"Team Fortress","app_id":440,"player_count":0,"max_players":24,"Bots":0,"server_type":"Dedicated","server_os":"Linux","password":true,"vac":true,"version":"7757534","steam_id":85568392925397851,"keywords":["cp","nocrits","nodmgspread","uncletopia"],"game_id":440,"stv_port":27026,"stv_name":"Uncletopia | Warsaw | 2 | All Maps | STV","players":null},{"server_id":51,"name":"Uncletopia | Warsaw | 3 | All Maps","name_short":"waw-3","host":"waw-1.pl.uncletopia.com","port":27035,"enabled":true,"region":"eu","cc":"pl","latitude":52.2297,"longitude":21.017532,"reserved":0,"last_update":"0001-01-01T00:00:00Z","name_a2s":"Uncletopia | Warsaw | 3 | All Maps","protocol":17,"map":"pl_badwater","folder":"tf","game":"Team Fortress","app_id":440,"player_count":0,"max_players":24,"Bots":0,"server_type":"Dedicated","server_os":"Linux","password":true,"vac":true,"version":"7757534","steam_id":85568392925397852,"keywords":["nocrits","nodmgspread","payload","uncletopia"],"game_id":440,"stv_port":27036,"stv_name":"Uncletopia | Warsaw | 3 | All Maps | STV","players":null},{"server_id":52,"name":"Uncletopia | Warsaw | 4 | All Maps","name_short":"waw-4","host":"waw-1.pl.uncletopia.com","port":27045,"enabled":true,"region":"eu","cc":"pl","latitude":52.2297,"longitude":21.017532,"reserved":0,"last_update":"0001-01-01T00:00:00Z","name_a2s":"Uncletopia | Warsaw | 4 | All Maps","protocol":17,"map":"koth_lakeside_final","folder":"tf","game":"Team Fortress","app_id":440,"player_count":0,"max_players":24,"Bots":0,"server_type":"Dedicated","server_os":"Linux","password":true,"vac":true,"version":"7757534","steam_id":85568392925397853,"keywords":["cp","nocrits","nodmgspread","uncletopia"],"game_id":440,"stv_port":27046,"stv_name":"Uncletopia | Warsaw | 4 | All Maps | STV","players":null},{"server_id":53,"name":"Uncletopia | Warsaw | 5 | Stopwatch Beta","name_short":"waw-5","host":"waw-1.pl.uncletopia.com","port":27055,"enabled":true,"region":"eu","cc":"pl","latitude":52.2297,"longitude":21.017532,"reserved":0,"last_update":"0001-01-01T00:00:00Z","name_a2s":"Uncletopia | Warsaw | 5 | Stopwatch Beta","protocol":17,"map":"pl_borneo","folder":"tf","game":"Team Fortress","app_id":440,"player_count":0,"max_players":24,"Bots":0,"server_type":"Dedicated","server_os":"Linux","password":true,"vac":true,"version":"7757534","steam_id":85568392925397854,"keywords":["nocrits","nodmgspread","payload","uncletopia"],"game_id":440,"stv_port":27056,"stv_name":"Uncletopia | Warsaw | 5 | Stopwatch Beta | STV","players":null},{"server_id":54,"name":"Uncletopia | Warsaw | 6 | Community","name_short":"waw-6","host":"waw-1.pl.uncletopia.com","port":27065,"enabled":true,"region":"eu","cc":"pl","latitude":52.2297,"longitude":21.017532,"reserved":0,"last_update":"0001-01-01T00:00:00Z","name_a2s":"Uncletopia | Warsaw | 6 | Community","protocol":17,"map":"koth_lakeside_final","folder":"tf","game":"Team Fortress","app_id":440,"player_count":0,"max_players":24,"Bots":0,"server_type":"Dedicated","server_os":"Linux","password":true,"vac":true,"version":"7757534","steam_id":85568392925397856,"keywords":["cp","nocrits","nodmgspread","uncletopia"],"game_id":440,"stv_port":27066,"stv_name":"Uncletopia | Warsaw | 6 | Community | STV","players":null}]}