{"status":true,"message":"","result":[{"server_id":9,"name":"Uncletopia | Atlanta | 1 | All Maps","name_short":"atl-1","host":"atl-1.us.uncletopia.com","port":27015,"enabled":true,"region":"us-east","cc":"us","latitude":33.753746,"longitude":-84.38633,"reserved":0,"last_update":"0001-01-01T00:00:00Z","name_a2s":"Uncletopia | Atlanta | 1 | All Maps","protocol":17,"map":"pl_upward","folder":"tf","game":"Team Fortress","app_id":440,"player_count":24,"max_players":24,"Bots":0,"server_type":"Dedicated","server_os":"Linux","password":true,"vac":true,"version":"7757534","steam_id":85568392924469982,"keywords":["nocrits","nodmgspread","payload","uncletopia"],"game_id":440,"stv_port":27016,"stv_name":"Uncletopia | Atlanta | 1 | All Maps | STV","players":[{"user_id":419,"name":"Omnoman","steam_id":76561198006258213,"connected_time":1553000000000,"state":"active","ping":72},{"user_id":416,"name":"Higgle Poggers","steam_id":76561198043960257,"connected_time":1557000000000,"state":"active","ping":65},{"user_id":408,"name":"Mr.Clean(All Purpose Cleaner)","steam_id":76561198208014257,"connected_time":2548000000000,"state":"active","ping":78},{"user_id":417,"name":"lukiepills","steam_id":76561199020587077,"connected_time":1553000000000,"state":"active","ping":67},{"user_id":381,"name":"DoomoPelota","steam_id":76561198326462587,"connected_time":4346000000000,"state":"active","ping":94},{"user_id":382,"name":"ConiferCarver(#SaveTF2)","steam_id":76561198195875845,"connected_time":4344000000000,"state":"active","ping":106},{"user_id":422,"name":"Ashes!","steam_id":76561197998475441,"connected_time":693000000000,"state":"active","ping":77},{"user_id":426,"name":"[txc] garf","steam_id":76561198083078030,"connected_time":204000000000,"state":"active","ping":48},{"user_id":429,"name":"GKEmperor","steam_id":76561197995187011,"connected_time":88000000000,"state":"active","ping":75},{"user_id":401,"name":"bing bing pharts","steam_id":76561198301019618,"connected_time":2766000000000,"state":"active","ping":120},{"user_id":328,"name":"vv","steam_id":76561198134813102,"connected_time":9293000000000,"state":"active","ping":91},{"user_id":420,"name":"MistGlow","steam_id":76561198964375610,"connected_time":1526000000000,"state":"active","ping":90},{"user_id":329,"name":"Coffee with a Stranger","steam_id":76561198307422313,"connected_time":9136000000000,"state":"active","ping":61},{"user_id":345,"name":"schteewpid rat","steam_id":76561199262600666,"connected_time":8165000000000,"state":"active","ping":76},{"user_id":358,"name":"chubbbo","steam_id":76561198943598378,"connected_time":6925000000000,"state":"active","ping":44},{"user_id":364,"name":"BIG HOG","steam_id":76561198079923652,"connected_time":5741000000000,"state":"active","ping":62},{"user_id":402,"name":"Tri-Dot","steam_id":76561199075186597,"connected_time":2759000000000,"state":"active","ping":87},{"user_id":389,"name":"marguerite","steam_id":76561198170873495,"connected_time":3846000000000,"state":"active","ping":59},{"user_id":414,"name":"Emma","steam_id":76561198318093783,"connected_time":1916000000000,"state":"active","ping":87},{"user_id":428,"name":"Fatass","steam_id":76561199209403512,"connected_time":165000000000,"state":"active","ping":48},{"user_id":391,"name":"FancyBones","steam_id":76561198180198885,"connected_time":3694000000000,"state":"active","ping":75},{"user_id":423,"name":"SparkStorm","steam_id":76561198095817025,"connected_time":644000000000,"state":"active","ping":41},{"user_id":404,"name":"CrazyShawnsPvz","steam_id":76561198350691501,"connected_time":2692000000000,"state":"active","ping":138},{"user_id":405,"name":"jstn","steam_id":76561198845283665,"connected_time":2673000000000,"state":"active","ping":55}]},{"server_id":104,"name":"Uncletopia | Atlanta | 2 | All Maps","name_short":"atl-2","host":"atl-1.us.uncletopia.com","port":27025,"enabled":true,"region":"us-east","cc":"us","latitude":33.753746,"longitude":-84.38633,"reserved":0,"last_update":"0001-01-01T00:00:00Z","name_a2s":"Uncletopia | Atlanta | 2 | All Maps","protocol":17,"map":"pl_borneo","folder":"tf","game":"Team Fortress","app_id":440,"player_count":24,"max_players":24,"Bots":0,"server_type":"Dedicated","server_os":"Linux","password":true,"vac":true,"version":"7757534","steam_id":85568392924469983,"keywords":["nocrits","nodmgspread","payload","uncletopia"],"game_id":440,"stv_port":27026,"stv_name":"Uncletopia | Atlanta | 2 | All Maps | STV","players":[{"user_id":72,"name":"HighJingo","steam_id":76561198846814390,"connected_time":1669000000000,"state":"active","ping":83},{"user_id":92,"name":"roman","steam_id":76561198170066797,"connected_time":535000000000,"state":"active","ping":66},{"user_id":26,"name":"üî•üêá","steam_id":76561198357456014,"connected_time":4583000000000,"state":"active","ping":107},{"user_id":40,"name":"Dr.Evil","steam_id":76561198050495521,"connected_time":3482000000000,"state":"active","ping":76},{"user_id":74,"name":"Ginger Jesus","steam_id":76561198052386458,"connected_time":1635000000000,"state":"active","ping":69},{"user_id":66,"name":"Killer Queen","steam_id":76561198860424456,"connected_time":2440000000000,"state":"active","ping":168},{"user_id":30,"name":"Mister","steam_id":76561198097164652,"connected_time":4281000000000,"state":"active","ping":70},{"user_id":93,"name":"edelyn","steam_id":76561198815644949,"connected_time":503000000000,"state":"active","ping":43},{"user_id":102,"name":"justcallmesam56","steam_id":76561198309676005,"connected_time":4000000000,"state":"spawning","ping":44},{"user_id":89,"name":"Icaras","steam_id":76561198416724843,"connected_time":1040000000000,"state":"active","ping":134},{"user_id":99,"name":"mylomalopi","steam_id":76561198354990729,"connected_time":164000000000,"state":"active","ping":85},{"user_id":98,"name":"azzy","steam_id":76561198825918211,"connected_time":280000000000,"state":"active","ping":196},{"user_id":39,"name":"BearAteMahoney","steam_id":76561198020439356,"connected_time":3548000000000,"state":"active","ping":72},{"user_id":70,"name":"That Guy","steam_id":76561198798973444,"connected_time":2199000000000,"state":"active","ping":74},{"user_id":56,"name":"Highground","steam_id":76561199197544789,"connected_time":3040000000000,"state":"active","ping":124},{"user_id":101,"name":"lu","steam_id":76561198080731872,"connected_time":51000000000,"state":"active","ping":87},{"user_id":81,"name":"gecko","steam_id":76561198172614709,"connected_time":1452000000000,"state":"active","ping":97},{"user_id":82,"name":"Jghost","steam_id":76561198079520603,"connected_time":1438000000000,"state":"active","ping":104},{"user_id":71,"name":"L + Ratio","steam_id":76561198263786953,"connected_time":1947000000000,"state":"active","ping":73},{"user_id":100,"name":"El Bondin","steam_id":76561198820792434,"connected_time":162000000000,"state":"active","ping":96},{"user_id":59,"name":"Majintak","steam_id":76561197967274007,"connected_time":2801000000000,"state":"active","ping":94},{"user_id":61,"name":"yeyoi","steam_id":76561198069821885,"connected_time":2663000000000,"state":"active","ping":78},{"user_id":88,"name":"DiamondEpsilon","steam_id":76561198203883311,"connected_time":1299000000000,"state":"active","ping":113},{"user_id":97,"name":"miki minach","steam_id":76561198249206656,"connected_time":371000000000,"state":"active","ping":90}]},{"server_id":400,"name":"Uncletopia | Atlanta | 3 | Community","name_short":"atl-3","host":"atl-1.us.uncletopia.com","port":27035,"enabled":true,"region":"us-east","cc":"us","latitude":33.753746,"longitude":-84.38633,"reserved":0,"last_update":"0001-01-01T00:00:00Z","name_a2s":"Uncletopia | Atlanta | 3 | Community","protocol":17,"map":"workshop/cp_bruhstbowl_b5.ugc2878604990","folder":"tf","game":"Team Fortress","app_id":440,"player_count":5,"max_players":24,"Bots":0,"server_type":"Dedicated","server_os":"Linux","password":true,"vac":true,"version":"7757534","steam_id":85568392924515187,"keywords":["cp","nocrits","nodmgspread","uncletopia"],"game_id":440,"stv_port":27036,"stv_name":"Uncletopia | Atlanta | 3 | Community | STV","players":[{"user_id":10,"name":"Cheesi","steam_id":76561199417190840,"connected_time":2051000000000,"state":"active","ping":94},{"user_id":12,"name":"William Wallace","steam_id":76561199343316814,"connected_time":1580000000000,"state":"active","ping":59},{"user_id":13,"name":"Inax","steam_id":76561198398677744,"connected_time":803000000000,"state":"active","ping":103},{"user_id":14,"name":"nup noodle","steam_id":76561198101278181,"connected_time":519000000000,"state":"active","ping":89},{"user_id":16,"name":"Yoru","steam_id":76561198119698950,"connected_time":111000000000,"state":"active","ping":115}]},{"server_id":401,"name":"Uncletopia | Atlanta | 4 | No Payload","name_short":"atl-4","host":"atl-1.us.uncletopia.com","port":27045,"enabled":true,"region":"us-east","cc":"us","latitude":33.753746,"longitude":-84.38633,"reserved":0,"last_update":"0001-01-01T00:00:00Z","name_a2s":"","protocol":0,"map":"","folder":"","game":"","app_id":0,"player_count":0,"max_players":0,"Bots":0,"server_type":"","server_os":"","password":false,"vac":false,"version":"","steam_id":0,"keywords":null,"game_id":0,"stv_port":0,"stv_name":"","players":null},{"server_id":2,"name":"Uncletopia | Chicago | 1 | All Maps","name_short":"chi-1","host":"chi-1.us.uncletopia.com","port":27015,"enabled":true,"region":"us-central","cc":"us","latitude":41.881832,"longitude":-87.62318,"reserved":0,"last_update":"0001-01-01T00:00:00Z","name_a2s":"Uncletopia | Chicago | 1 | All Maps","protocol":17,"map":"ctf_2fort","folder":"tf","game":"Team Fortress","app_id":440,"player_count":24,"max_players":24,"Bots":0,"server_type":"Dedicated","server_os":"Linux","password":true,"vac":true,"version":"7757534","steam_id":85568392924469984,"keywords":["ctf","nocrits","nodmgspread","uncletopia"],"game_id":440,"stv_port":27016,"stv_name":"Uncletopia | Chicago | 1 | All Maps | STV","players":[{"user_id":353,"name":"Cousin Corn on the Cob","steam_id":76561198049837377,"connected_time":2516000000000,"state":"active","ping":46},{"user_id":377,"name":"Kyzer","steam_id":76561198048034600,"connected_time":520000000000,"state":"active","ping":64},{"user_id":385,"name":"Critscare","steam_id":76561198087712508,"connected_time":198000000000,"state":"active","ping":45},{"user_id":375,"name":"Cedric","steam_id":76561198072090580,"connected_time":622000000000,"state":"active","ping":132},{"user_id":365,"name":"recycle","steam_id":76561198819562111,"connected_time":1316000000000,"state":"active","ping":66},{"user_id":220,"name":"Glass Joe","steam_id":76561198317365741,"connected_time":10262000000000,"state":"active","ping":69},{"user_id":310,"name":"SIGMA [BS]","steam_id":76561197962604879,"connected_time":4835000000000,"state":"active","ping":69},{"user_id":378,"name":"je‚Äômond #RunThatBack","steam_id":76561198113990147,"connected_time":485000000000,"state":"active","ping":87},{"user_id":379,"name":"Barlon","steam_id":76561198023717515,"connected_time":433000000000,"state":"active","ping":75},{"user_id":380,"name":"DamerDoozle","steam_id":76561199121686201,"connected_time":396000000000,"state":"active","ping":56},{"user_id":381,"name":"Carl, Good to see you","steam_id":76561198070574075,"connected_time":384000000000,"state":"active","ping":70},{"user_id":327,"name":"OWEENIE","steam_id":76561198083135927,"connected_time":4038000000000,"state":"active","ping":46},{"user_id":382,"name":"drdoofus123","steam_id":76561198016826181,"connected_time":333000000000,"state":"active","ping":73},{"user_id":373,"name":"birbmanminty","steam_id":76561199159145275,"connected_time":773000000000,"state":"active","ping":104},{"user_id":347,"name":"Killerkarate","steam_id":76561198067533929,"connected_time":2732000000000,"state":"active","ping":58},{"user_id":383,"name":"Bot Karma","steam_id":76561198422386331,"connected_time":319000000000,"state":"active","ping":137},{"user_id":335,"name":"Thy.Roid","steam_id":76561198122291992,"connected_time":3250000000000,"state":"active","ping":57},{"user_id":386,"name":"Sinklefink","steam_id":76561199220662103,"connected_time":146000000000,"state":"active","ping":75},{"user_id":359,"name":"Doctor Pyro","steam_id":76561198240400118,"connected_time":1905000000000,"state":"active","ping":93},{"user_id":354,"name":"primordialheath","steam_id":76561199386942638,"connected_time":2425000000000,"state":"active","ping":48},{"user_id":366,"name":"Zoot","steam_id":76561198121944243,"connected_time":1158000000000,"state":"active","ping":75},{"user_id":351,"name":"Cake Noddle","steam_id":76561198070072005,"connected_time":2629000000000,"state":"active","ping":150},{"user_id":372,"name":"dude with a cause","steam_id":76561198975505309,"connected_time":855000000000,"state":"active","ping":153},{"user_id":367,"name":"loser","steam_id":76561198171507451,"connected_time":1157000000000,"state":"active","ping":91}]},{"server_id":106,"name":"Uncletopia | Chicago | 2 | All Maps","name_short":"chi-2","host":"chi-1.us.uncletopia.com","port":27025,"enabled":true,"region":"us-central","cc":"us","latitude":41.881832,"longitude":-87.62318,"reserved":0,"last_update":"0001-01-01T00:00:00Z","name_a2s":"Uncletopia | Chicago | 2 | All Maps","protocol":17,"map":"pl_upward","folder":"tf","game":"Team Fortress","app_id":440,"player_count":24,"max_players":24,"Bots":0,"server_type":"Dedicated","server_os":"Linux","password":true,"vac":true,"version":"7757534","steam_id":85568392924469985,"keywords":["nocrits","nodmgspread","payload","uncletopia"],"game_id":440,"stv_port":27026,"stv_name":"Uncletopia | Chicago | 2 | All Maps | STV","players":[{"user_id":317,"name":"asbestos","steam_id":76561198079178866,"connected_time":3742000000000,"state":"active","ping":63},{"user_id":327,"name":"Honolulu","steam_id":76561198106381764,"connected_time":2901000000000,"state":"active","ping":56},{"user_id":343,"name":"BubbaBasher","steam_id":76561198829909547,"connected_time":511000000000,"state":"active","ping":55},{"user_id":308,"name":"cruel‚òÜnoise","steam_id":76561198019388641,"connected_time":4424000000000,"state":"active","ping":63},{"user_id":279,"name":"ÔºîÔºê Ôº¶Ôº∞Ôº≥","steam_id":76561198272394965,"connected_time":6297000000000,"state":"active","ping":128},{"user_id":336,"name":"Plasmoklo","steam_id":76561199071571167,"connected_time":1505000000000,"state":"active","ping":87},{"user_id":253,"name":"Jack The Racc","steam_id":76561198044762365,"connected_time":8440000000000,"state":"active","ping":50},{"user_id":344,"name":"6 pints deep","steam_id":76561198857643139,"connected_time":510000000000,"state":"active","ping":72},{"user_id":314,"name":"Donkski","steam_id":76561198406895347,"connected_time":4027000000000,"state":"active","ping":75},{"user_id":345,"name":"Raydn","steam_id":76561198418414338,"connected_time":508000000000,"state":"active","ping":75},{"user_id":350,"name":"andkon7i","steam_id":76561198375348510,"connected_time":283000000000,"state":"active","ping":89},{"user_id":338,"name":"popfulmail","steam_id":76561198865971290,"connected_time":1341000000000,"state":"active","ping":83},{"user_id":329,"name":"Queen Frau the Round","steam_id":76561197999942134,"connected_time":2478000000000,"state":"active","ping":45},{"user_id":330,"name":"HOT SOUP","steam_id":76561199077389918,"connected_time":2453000000000,"state":"active","ping":76},{"user_id":333,"name":"Candy Sparkles","steam_id":76561198126871264,"connected_time":2241000000000,"state":"active","ping":88},{"user_id":334,"name":"The local hobo","steam_id":76561198289650060,"connected_time":2231000000000,"state":"active","ping":87},{"user_id":266,"name":"Goober","steam_id":76561198988863807,"connected_time":6704000000000,"state":"active","ping":77},{"user_id":335,"name":"CF-TF2","steam_id":76561198145893044,"connected_time":2130000000000,"state":"active","ping":79},{"user_id":346,"name":"Wang of Wall St","steam_id":76561198047460598,"connected_time":503000000000,"state":"active","ping":81},{"user_id":98,"name":"Ajax","steam_id":76561197962240140,"connected_time":22430000000000,"state":"active","ping":71},{"user_id":305,"name":"Zeek","steam_id":76561197987204351,"connected_time":4735000000000,"state":"active","ping":60},{"user_id":347,"name":"Clyde","steam_id":76561198158206236,"connected_time":492000000000,"state":"active","ping":109},{"user_id":348,"name":"soup","steam_id":76561198099977572,"connected_time":462000000000,"state":"active","ping":60},{"user_id":342,"name":"natahan","steam_id":76561198043250800,"connected_time":547000000000,"state":"active","ping":66}]},{"server_id":402,"name":"Uncletopia | Chicago | 3 | All Maps","name_short":"chi-3","host":"chi-1.us.uncletopia.com","port":27035,"enabled":true,"region":"us-central","cc":"us","latitude":41.881832,"longitude":-87.62318,"reserved":0,"last_update":"0001-01-01T00:00:00Z","name_a2s":"Uncletopia | Chicago | 3 | All Maps","protocol":17,"map":"koth_cascade","folder":"tf","game":"Team Fortress","app_id":440,"player_count":24,"max_players":24,"Bots":0,"server_type":"Dedicated","server_os":"Linux","password":true,"vac":true,"version":"7757534","steam_id":85568392924515191,"keywords":["cp","nocrits","nodmgspread","uncletopia"],"game_id":440,"stv_port":27036,"stv_name":"Uncletopia | Chicago | 3 | All Maps | STV","players":[{"user_id":16,"name":"PajamaPants","steam_id":76561198400306643,"connected_time":1828000000000,"state":"active","ping":71},{"user_id":19,"name":"super dookie 69","steam_id":76561198300660227,"connected_time":815000000000,"state":"active","ping":43},{"user_id":20,"name":"he sees the sentries","steam_id":76561198053046161,"connected_time":727000000000,"state":"active","ping":64},{"user_id":21,"name":"jamyw2010","steam_id":76561199477897380,"connected_time":686000000000,"state":"active","ping":68},{"user_id":22,"name":"custodian","steam_id":76561198058793778,"connected_time":669000000000,"state":"active","ping":79},{"user_id":27,"name":"Notafraid90","steam_id":76561198104072542,"connected_time":485000000000,"state":"active","ping":66},{"user_id":24,"name":"polynuke","steam_id":76561199175595151,"connected_time":621000000000,"state":"active","ping":85},{"user_id":26,"name":"The World's Softest Sandwich","steam_id":76561198015577707,"connected_time":589000000000,"state":"active","ping":76},{"user_id":29,"name":"Cat","steam_id":76561198027383284,"connected_time":360000000000,"state":"active","ping":150},{"user_id":30,"name":"wuddles","steam_id":76561198025782349,"connected_time":340000000000,"state":"active","ping":102},{"user_id":31,"name":"TrashCanGaming","steam_id":76561199150746424,"connected_time":319000000000,"state":"active","ping":57},{"user_id":32,"name":"Mosi ‚òæ","steam_id":76561198015281553,"connected_time":315000000000,"state":"active","ping":90},{"user_id":33,"name":"doc","steam_id":76561197997949711,"connected_time":308000000000,"state":"active","ping":62},{"user_id":37,"name":"biggerbob1212","steam_id":76561198090078480,"connected_time":149000000000,"state":"active","ping":80},{"user_id":35,"name":"i really like this dog :)","steam_id":76561198882404753,"connected_time":250000000000,"state":"active","ping":77},{"user_id":36,"name":"Deltaco","steam_id":76561198094572694,"connected_time":192000000000,"state":"active","ping":116},{"user_id":38,"name":"Dededoo","steam_id":76561198279033471,"connected_time":144000000000,"state":"active","ping":90},{"user_id":39,"name":"NewmanBiggio","steam_id":76561198069167611,"connected_time":131000000000,"state":"active","ping":65},{"user_id":40,"name":"jibby","steam_id":76561198046872382,"connected_time":122000000000,"state":"active","ping":60},{"user_id":41,"name":"The Dokkan Dance","steam_id":76561198855935442,"connected_time":97000000000,"state":"active","ping":75},{"user_id":42,"name":"SC|Formuoli","steam_id":76561198254354595,"connected_time":94000000000,"state":"active","ping":39},{"user_id":43,"name":"Grify","steam_id":76561198012292317,"connected_time":92000000000,"state":"active","ping":86},{"user_id":44,"name":"Junior_198X","steam_id":76561198158596794,"connected_time":87000000000,"state":"active","ping":92},{"user_id":45,"name":"Hannibal Lecture","steam_id":76561198329087915,"connected_time":87000000000,"state":"active","ping":104}]},{"server_id":403,"name":"Uncletopia | Chicago | 4 | All Maps","name_short":"chi-4","host":"chi-1.us.uncletopia.com","port":27045,"enabled":true,"region":"us-central","cc":"us","latitude":41.881832,"longitude":-87.62318,"reserved":0,"last_update":"0001-01-01T00:00:00Z","name_a2s":"Uncletopia | Chicago | 4 | All Maps","protocol":17,"map":"cp_snakewater_final1","folder":"tf","game":"Team Fortress","app_id":440,"player_count":23,"max_players":24,"Bots":0,"server_type":"Dedicated","server_os":"Linux","password":true,"vac":true,"version":"7757534","steam_id":85568392924515193,"keywords":["cp","nocrits","nodmgspread","uncletopia"],"game_id":440,"stv_port":27046,"stv_name":"Uncletopia | Chicago | 4 | All Maps | STV","players":[{"user_id":223,"name":"Doubting Dave","steam_id":76561198066410749,"connected_time":1632000000000,"state":"active","ping":74},{"user_id":160,"name":"023e20902o0239ee02390o239e","steam_id":76561198175741741,"connected_time":5166000000000,"state":"active","ping":74},{"user_id":229,"name":"Robo Intern","steam_id":76561199067098696,"connected_time":1094000000000,"state":"active","ping":81},{"user_id":249,"name":"SilverPlayz","steam_id":76561198972736392,"connected_time":85000000000,"state":"active","ping":97},{"user_id":226,"name":"Eraserhead Baby","steam_id":76561198010968514,"connected_time":1206000000000,"state":"active","ping":78},{"user_id":180,"name":"Peter Popoff","steam_id":76561198027171160,"connected_time":4240000000000,"state":"active","ping":43},{"user_id":250,"name":"Cerabond","steam_id":76561199230915333,"connected_time":29000000000,"state":"active","ping":78},{"user_id":232,"name":"LukeLeal","steam_id":76561198049822995,"connected_time":1000000000000,"state":"active","ping":169},{"user_id":197,"name":"Xen","steam_id":76561198025311844,"connected_time":2713000000000,"state":"active","ping":92},{"user_id":209,"name":"chimb","steam_id":76561197993795544,"connected_time":2441000000000,"state":"active","ping":91},{"user_id":240,"name":"b√ºddeh","steam_id":76561198070735936,"connected_time":599000000000,"state":"active","ping":56},{"user_id":245,"name":"bobbyreinman2009","steam_id":76561198804763186,"connected_time":363000000000,"state":"active","ping":58},{"user_id":239,"name":"tighty walter whities","steam_id":76561199122915452,"connected_time":630000000000,"state":"active","ping":101},{"user_id":247,"name":"Shwa","steam_id":76561198122613101,"connected_time":189000000000,"state":"active","ping":71},{"user_id":236,"name":"Yosh","steam_id":76561198027078899,"connected_time":884000000000,"state":"active","ping":79},{"user_id":237,"name":"zuhl","steam_id":76561198992914023,"connected_time":821000000000,"state":"active","ping":57},{"user_id":176,"name":"Fresh Lychee","steam_id":76561198045399559,"connected_time":4380000000000,"state":"active","ping":55},{"user_id":204,"name":"David Rainbowie","steam_id":76561198046237033,"connected_time":2489000000000,"state":"active","ping":83},{"user_id":213,"name":"Niplets","steam_id":76561198021229322,"connected_time":2255000000000,"state":"active","ping":91},{"user_id":243,"name":"playguy carter","steam_id":76561198080679337,"connected_time":452000000000,"state":"active","ping":54},{"user_id":238,"name":"Evenaris","steam_id":76561198087544319,"connected_time":819000000000,"state":"active","ping":90},{"user_id":218,"name":"P-21","steam_id":76561198057193908,"connected_time":2141000000000,"state":"active","ping":74},{"user_id":221,"name":"craxyt","steam_id":76561198050192689,"connected_time":2056000000000,"state":"active","ping":103}]},{"server_id":36,"name":"Uncletopia | Chicago | 5 | All Maps","name_short":"chi-5","host":"chi-2.us.uncletopia.com","port":27015,"enabled":true,"region":"us-central","cc":"us","latitude":41.881832,"longitude":-87.62318,"reserved":0,"last_update":"0001-01-01T00:00:00Z","name_a2s":"Uncletopia | Chicago | 5 | All Maps","protocol":17,"map":"pl_upward","folder":"tf","game":"Team Fortress","app_id":440,"player_count":24,"max_players":24,"Bots":0,"server_type":"Dedicated","server_os":"Linux","password":true,"vac":true,"version":"7757534","steam_id":85568392924866362,"keywords":["nocrits","nodmgspread","payload","uncletopia"],"game_id":440,"stv_port":27016,"stv_name":"Uncletopia | Chicago | 5 | All Maps | STV","players":[{"user_id":6,"name":"Bern","steam_id":76561198294032289,"connected_time":4541000000000,"state":"active","ping":46},{"user_id":7,"name":"ire","steam_id":76561198228984836,"connected_time":4491000000000,"state":"active","ping":76},{"user_id":8,"name":"Weal","steam_id":76561198353273478,"connected_time":4480000000000,"state":"active","ping":46},{"user_id":65,"name":"e","steam_id":76561198131245396,"connected_time":326000000000,"state":"active","ping":51},{"user_id":58,"name":"Need a femboy","steam_id":76561198283507975,"connected_time":814000000000,"state":"active","ping":76},{"user_id":68,"name":"‚ô• PsychicCellar ‚ô•","steam_id":76561198045923020,"connected_time":39000000000,"state":"active","ping":50},{"user_id":64,"name":"What The Hell","steam_id":76561198061103166,"connected_time":345000000000,"state":"active","ping":48},{"user_id":34,"name":"Wandering Conjuror","steam_id":76561198036444997,"connected_time":2222000000000,"state":"active","ping":78},{"user_id":50,"name":"jodie.blend","steam_id":76561198140701807,"connected_time":1807000000000,"state":"active","ping":71},{"user_id":66,"name":"Big Tony","steam_id":76561198086790000,"connected_time":326000000000,"state":"active","ping":101},{"user_id":52,"name":"fmell","steam_id":76561198111655570,"connected_time":1725000000000,"state":"active","ping":45},{"user_id":37,"name":"xXcLaImEd__ReApErXx [F2P]","steam_id":76561198067232540,"connected_time":2124000000000,"state":"active","ping":74},{"user_id":22,"name":"Rose","steam_id":76561198955581861,"connected_time":2825000000000,"state":"active","ping":114},{"user_id":49,"name":"R√∂ntgen","steam_id":76561197993492325,"connected_time":1815000000000,"state":"active","ping":98},{"user_id":39,"name":"Greasy Guavas","steam_id":76561198089650428,"connected_time":2081000000000,"state":"active","ping":84},{"user_id":55,"name":"wads","steam_id":76561198873422077,"connected_time":1407000000000,"state":"active","ping":70},{"user_id":41,"name":"Sky (‚åê‚ñ†_‚ñ†)","steam_id":76561198104953731,"connected_time":2046000000000,"state":"active","ping":94},{"user_id":63,"name":"jazaniac","steam_id":76561198059955588,"connected_time":364000000000,"state":"active","ping":87},{"user_id":43,"name":"jack34234","steam_id":76561198850387282,"connected_time":2034000000000,"state":"active","ping":76},{"user_id":51,"name":"poiuytrewqwqwqwqwqwqwqwqwqwqwqw","steam_id":76561199105253001,"connected_time":1790000000000,"state":"active","ping":69},{"user_id":67,"name":"frozenwasanokmovie","steam_id":76561198157407952,"connected_time":284000000000,"state":"active","ping":103},{"user_id":46,"name":"hud7on","steam_id":76561198185811389,"connected_time":2014000000000,"state":"active","ping":84},{"user_id":54,"name":"Speed Weed","steam_id":76561198007512620,"connected_time":1520000000000,"state":"active","ping":72},{"user_id":62,"name":"Phoysh","steam_id":76561198137111021,"connected_time":439000000000,"state":"active","ping":101}]},{"server_id":37,"name":"Uncletopia | Chicago | 6 | All Maps","name_short":"chi-6","host":"chi-2.us.uncletopia.com","port":27025,"enabled":true,"region":"us-central","cc":"us","latitude":41.881832,"longitude":-87.62318,"reserved":0,"last_update":"0001-01-01T00:00:00Z","name_a2s":"Uncletopia | Chicago | 6 | All Maps","protocol":17,"map":"koth_lakeside_final","folder":"tf","game":"Team Fortress","app_id":440,"player_count":0,"max_players":24,"Bots":0,"server_type":"Dedicated","server_os":"Linux","password":true,"vac":true,"version":"7757534","steam_id":85568392924866363,"keywords":["cp","nocrits","nodmgspread","uncletopia"],"game_id":440,"stv_port":27026,"stv_name":"Uncletopia | Chicago | 6 | All Maps | STV","players":null},{"server_id":38,"name":"Uncletopia | Chicago | 7 | Stopwatch Beta","name_short":"chi-7","host":"chi-2.us.uncletopia.com","port":27035,"enabled":true,"region":"us-central","cc":"us","latitude":41.881832,"longitude":-87.62318,"reserved":0,"last_update":"0001-01-01T00:00:00Z","name_a2s":"Uncletopia | Chicago | 7 | Stopwatch Beta","protocol":17,"map":"pl_barnblitz","folder":"tf","game":"Team Fortress","app_id":440,"player_count":0,"max_players":24,"Bots":0,"server_type":"Dedicated","server_os":"Linux","password":true,"vac":true,"version":"7757534","steam_id":85568392924866364,"keywords":["nocrits","nodmgspread","payload","uncletopia"],"game_id":440,"stv_port":27036,"stv_name":"Uncletopia | Chicago | 7 | Stopwatch Beta | STV","players":null},{"server_id":39,"name":"Uncletopia | Chicago | 8 | Community","name_short":"chi-8","host":"chi-2.us.uncletopia.com","port":27045,"enabled":true,"region":"us-central","cc":"us","latitude":41.881832,"longitude":-87.62318,"reserved":0,"last_update":"0001-01-01T00:00:00Z","name_a2s":"Uncletopia | Chicago | 8 | Community","protocol":17,"map":"koth_cascade","folder":"tf","game":"Team Fortress","app_id":440,"player_count":0,"max_players":24,"Bots":0,"server_type":"Dedicated","server_os":"Linux","password":true,"vac":true,"version":"7757534","steam_id":85568392924866365,"keywords":["cp","nocrits","nodmgspread","uncletopia"],"game_id":440,"stv_port":27046,"stv_name":"Uncletopia | Chicago | 8 | Community | STV","players":null},{"server_id":8,"name":"Uncletopia | Dallas | 1 | All Maps","name_short":"dal-1","host":"dal-1.us.uncletopia.com","port":27015,"enabled":true,"region":"us-central","cc":"us","latitude":32.779167,"longitude":-96.80889,"reserved":0,"last_update":"0001-01-01T00:00:00Z","name_a2s":"Uncletopia | Dallas | 1 | All Maps","protocol":17,"map":"pl_swiftwater_final1","folder":"tf","game":"Team Fortress","app_id":440,"player_count":24,"max_players":24,"Bots":0,"server_type":"Dedicated","server_os":"Linux","password":true,"vac":true,"version":"7757534","steam_id":85568392924469986,"keywords":["nocrits","nodmgspread","payload","uncletopia"],"game_id":440,"stv_port":27016,"stv_name":"Uncletopia | Dallas | 1 | All Maps | STV","players":[{"user_id":245,"name":"geoff","steam_id":76561198038448355,"connected_time":1236000000000,"state":"active","ping":61},{"user_id":262,"name":"Aerobro","steam_id":76561198033530996,"connected_time":300000000000,"state":"active","ping":62},{"user_id":246,"name":"Young, Hot, and Full of Grease","steam_id":76561198101092551,"connected_time":1022000000000,"state":"active","ping":77},{"user_id":250,"name":"Mcfighter2","steam_id":76561198168073956,"connected_time":958000000000,"state":"active","ping":85},{"user_id":231,"name":"momb","steam_id":76561198142234038,"connected_time":2395000000000,"state":"active","ping":83},{"user_id":242,"name":"sly","steam_id":76561198139240845,"connected_time":1731000000000,"state":"active","ping":88},{"user_id":253,"name":"Minus273C","steam_id":76561197967510404,"connected_time":642000000000,"state":"active","ping":76},{"user_id":247,"name":"Green/Black Weezer CD#36","steam_id":76561198851520459,"connected_time":1003000000000,"state":"active","ping":83},{"user_id":263,"name":"austintacious","steam_id":76561198054118061,"connected_time":243000000000,"state":"active","ping":70},{"user_id":249,"name":"VoyŒªger","steam_id":76561198025632081,"connected_time":990000000000,"state":"active","ping":85},{"user_id":213,"name":"box","steam_id":76561198985635309,"connected_time":3915000000000,"state":"active","ping":93},{"user_id":190,"name":"Suns","steam_id":76561198272323195,"connected_time":5305000000000,"state":"active","ping":84},{"user_id":251,"name":"Red/Blue Weezer CD#35","steam_id":76561199008044410,"connected_time":927000000000,"state":"active","ping":75},{"user_id":237,"name":"iaPK","steam_id":76561198056618642,"connected_time":2163000000000,"state":"active","ping":41},{"user_id":244,"name":"Apollo","steam_id":76561198162364702,"connected_time":1388000000000,"state":"active","ping":97},{"user_id":198,"name":"TurkeyJuice","steam_id":76561198193109422,"connected_time":5168000000000,"state":"active","ping":60},{"user_id":239,"name":"Nyatascha Gaming","steam_id":76561198400058665,"connected_time":2142000000000,"state":"active","ping":93},{"user_id":235,"name":"Lowvast","steam_id":76561198068455981,"connected_time":2259000000000,"state":"active","ping":70},{"user_id":217,"name":"ultraballin","steam_id":76561198397662124,"connected_time":3412000000000,"state":"active","ping":70},{"user_id":216,"name":"DarkSpooder","steam_id":76561198122018338,"connected_time":3821000000000,"state":"active","ping":79},{"user_id":254,"name":"Frenemy \u003e:D","steam_id":76561198011363677,"connected_time":579000000000,"state":"active","ping":68},{"user_id":261,"name":"WrenLightsaber","steam_id":76561199054971009,"connected_time":400000000000,"state":"active","ping":52},{"user_id":196,"name":"Zokie0","steam_id":76561198056035567,"connected_time":5251000000000,"state":"active","ping":89},{"user_id":227,"name":"Engineer Gaming","steam_id":76561198840761529,"connected_time":2612000000000,"state":"active","ping":60}]},{"server_id":108,"name":"Uncletopia | Dallas | 2 | All Maps","name_short":"dal-2","host":"dal-1.us.uncletopia.com","port":27025,"enabled":true,"region":"us-central","cc":"us","latitude":32.779167,"longitude":-96.80889,"reserved":0,"last_update":"0001-01-01T00:00:00Z","name_a2s":"Uncletopia | Dallas | 2 | All Maps","protocol":17,"map":"koth_viaduct","folder":"tf","game":"Team Fortress","app_id":440,"player_count":24,"max_players":24,"Bots":0,"server_type":"Dedicated","server_os":"Linux","password":true,"vac":true,"version":"7757534","steam_id":85568392924469988,"keywords":["cp","nocrits","nodmgspread","uncletopia"],"game_id":440,"stv_port":27026,"stv_name":"Uncletopia | Dallas | 2 | All Maps | STV","players":[{"user_id":146,"name":"Garden Rake Gaming","steam_id":76561198993470397,"connected_time":1394000000000,"state":"active","ping":95},{"user_id":161,"name":"Bacon Hoodie","steam_id":76561198843822629,"connected_time":859000000000,"state":"active","ping":60},{"user_id":155,"name":"Lightning Bolt-Action","steam_id":76561198099461216,"connected_time":1068000000000,"state":"active","ping":57},{"user_id":128,"name":"Gossamer","steam_id":76561198046948498,"connected_time":2436000000000,"state":"active","ping":64},{"user_id":138,"name":"Metal Mouse","steam_id":76561198271975696,"connected_time":1476000000000,"state":"active","ping":87},{"user_id":162,"name":"Bronze Age GRINDSET","steam_id":76561198859118263,"connected_time":716000000000,"state":"active","ping":80},{"user_id":174,"name":"POGTRONAS","steam_id":76561198061214216,"connected_time":50000000000,"state":"active","ping":89},{"user_id":172,"name":"The Entire Canadian Army","steam_id":76561198014636282,"connected_time":155000000000,"state":"active","ping":87},{"user_id":175,"name":"Meem Crates","steam_id":76561198410436994,"connected_time":19000000000,"state":"active","ping":79},{"user_id":145,"name":"Daggz","steam_id":76561198821879886,"connected_time":1414000000000,"state":"active","ping":91},{"user_id":102,"name":"darktheif54","steam_id":76561198043650119,"connected_time":4390000000000,"state":"active","ping":68},{"user_id":129,"name":"maddoxmomo","steam_id":76561198816228532,"connected_time":2380000000000,"state":"active","ping":62},{"user_id":167,"name":"neet","steam_id":76561197968115168,"connected_time":374000000000,"state":"active","ping":74},{"user_id":170,"name":"dan","steam_id":76561198061589465,"connected_time":302000000000,"state":"active","ping":88},{"user_id":171,"name":"Shinsinmysocks","steam_id":76561198078232148,"connected_time":196000000000,"state":"active","ping":69},{"user_id":168,"name":"Aeri","steam_id":76561197996522919,"connected_time":355000000000,"state":"active","ping":100},{"user_id":135,"name":"brewkey","steam_id":76561198057896324,"connected_time":1648000000000,"state":"active","ping":51},{"user_id":149,"name":"Quakedad","steam_id":76561198055811307,"connected_time":1218000000000,"state":"active","ping":128},{"user_id":169,"name":"swooce","steam_id":76561198156232484,"connected_time":345000000000,"state":"active","ping":79},{"user_id":134,"name":"Eins","steam_id":76561199030343810,"connected_time":2015000000000,"state":"active","ping":62},{"user_id":132,"name":"420blzItM8","steam_id":76561198137983285,"connected_time":2356000000000,"state":"active","ping":147},{"user_id":158,"name":"fazaness","steam_id":76561198851525394,"connected_time":960000000000,"state":"active","ping":99},{"user_id":152,"name":"Mengle","steam_id":76561198001953684,"connected_time":1157000000000,"state":"active","ping":85},{"user_id":154,"name":"Snapdragron","steam_id":76561198348485302,"connected_time":1135000000000,"state":"active","ping":100}]},{"server_id":5,"name":"Uncletopia | Frankfurt | 1 | All Maps","name_short":"frk-1","host":"frk-1.de.uncletopia.com","port":27015,"enabled":true,"region":"eu","cc":"de","latitude":50.110924,"longitude":8.682127,"reserved":0,"last_update":"0001-01-01T00:00:00Z","name_a2s":"Uncletopia | Frankfurt | 1 | All Maps","protocol":17,"map":"pl_thundermountain","folder":"tf","game":"Team Fortress","app_id":440,"player_count":24,"max_players":24,"Bots":0,"server_type":"Dedicated","server_os":"Linux","password":true,"vac":true,"version":"7757534","steam_id":85568392924469989,"keywords":["nocrits","nodmgspread","payload","uncletopia"],"game_id":440,"stv_port":27016,"stv_name":"Uncletopia | Frankfurt | 1 | All Maps | STV","players":[{"user_id":323,"name":"knees","steam_id":76561198005924647,"connected_time":5711000000000,"state":"active","ping":71},{"user_id":358,"name":"'Poli","steam_id":76561198058710244,"connected_time":1403000000000,"state":"active","ping":88},{"user_id":359,"name":"Carrot","steam_id":76561198119340863,"connected_time":1350000000000,"state":"active","ping":48},{"user_id":341,"name":"rebalint","steam_id":76561198283840674,"connected_time":2979000000000,"state":"active","ping":85},{"user_id":360,"name":"playing while wearing crocs.","steam_id":76561198139404261,"connected_time":1334000000000,"state":"active","ping":55},{"user_id":367,"name":"Thomas T. N.","steam_id":76561198204171871,"connected_time":970000000000,"state":"active","ping":94},{"user_id":373,"name":"Milfshake","steam_id":76561198208740557,"connected_time":149000000000,"state":"active","ping":47},{"user_id":332,"name":"quickfast","steam_id":76561199438900919,"connected_time":4275000000000,"state":"active","ping":58},{"user_id":346,"name":"[P-roc] Cmm Bert","steam_id":76561198016658674,"connected_time":2745000000000,"state":"active","ping":64},{"user_id":353,"name":"ultimatech","steam_id":76561198165843922,"connected_time":2388000000000,"state":"active","ping":96},{"user_id":309,"name":"Crunchips","steam_id":76561198004336818,"connected_time":6304000000000,"state":"active","ping":84},{"user_id":365,"name":"cl","steam_id":76561199436640904,"connected_time":1262000000000,"state":"active","ping":73},{"user_id":368,"name":"madman hesus","steam_id":76561198159702599,"connected_time":950000000000,"state":"active","ping":64},{"user_id":357,"name":"Rigby","steam_id":76561198021552128,"connected_time":1454000000000,"state":"active","ping":101},{"user_id":364,"name":"Tilty üë•","steam_id":76561198141834089,"connected_time":1294000000000,"state":"active","ping":60},{"user_id":366,"name":"Frozteen","steam_id":76561198280062997,"connected_time":1187000000000,"state":"active","ping":95},{"user_id":369,"name":"etc","steam_id":76561197998394797,"connected_time":916000000000,"state":"active","ping":60},{"user_id":370,"name":"sape","steam_id":76561198089322416,"connected_time":885000000000,"state":"active","ping":115},{"user_id":176,"name":"Miss.Sparklez","steam_id":76561198101745576,"connected_time":13771000000000,"state":"active","ping":68},{"user_id":290,"name":"astigmatic","steam_id":76561199103959197,"connected_time":6773000000000,"state":"active","ping":85},{"user_id":350,"name":"Lemon","steam_id":76561198188535947,"connected_time":2489000000000,"state":"active","ping":85},{"user_id":371,"name":"Raulca25","steam_id":76561199068256964,"connected_time":874000000000,"state":"active","ping":89},{"user_id":376,"name":"lol","steam_id":76561198322087870,"connected_time":20000000000,"state":"active","ping":107},{"user_id":327,"name":"dn4k","steam_id":76561199221755690,"connected_time":5658000000000,"state":"active","ping":79}]},{"server_id":110,"name":"Uncletopia | Frankfurt | 2 | All Maps","name_short":"frk-2","host":"frk-1.de.uncletopia.com","port":27025,"enabled":true,"region":"eu","cc":"de","latitude":50.110924,"longitude":8.682127,"reserved":0,"last_update":"0001-01-01T00:00:00Z","name_a2s":"Uncletopia | Frankfurt | 2 | All Maps","protocol":17,"map":"pl_frontier_final","folder":"tf","game":"Team Fortress","app_id":440,"player_count":24,"max_players":24,"Bots":0,"server_type":"Dedicated","server_os":"Linux","password":true,"vac":true,"version":"7757534","steam_id":85568392924469990,"keywords":["nocrits","nodmgspread","payload","uncletopia"],"game_id":440,"stv_port":27026,"stv_name":"Uncletopia | Frankfurt | 2 | All Maps | STV","players":[{"user_id":90,"name":"Chopkins","steam_id":76561199242605141,"connected_time":567000000000,"state":"active","ping":57},{"user_id":73,"name":"Vytuzas","steam_id":76561198012868436,"connected_time":1719000000000,"state":"active","ping":59},{"user_id":86,"name":"boolin'","steam_id":76561198088125671,"connected_time":684000000000,"state":"active","ping":75},{"user_id":101,"name":"Ben UFO","steam_id":76561198001648348,"connected_time":226000000000,"state":"active","ping":59},{"user_id":19,"name":"Jackie Chan","steam_id":76561199378865926,"connected_time":5454000000000,"state":"active","ping":76},{"user_id":83,"name":"bigdavie","steam_id":76561197972416815,"connected_time":886000000000,"state":"active","ping":70},{"user_id":102,"name":"Jampine","steam_id":76561198040419080,"connected_time":155000000000,"state":"active","ping":78},{"user_id":87,"name":"Noxu","steam_id":76561198156299821,"connected_time":681000000000,"state":"active","ping":62},{"user_id":103,"name":"small_boy","steam_id":76561199466836649,"connected_time":109000000000,"state":"active","ping":88},{"user_id":91,"name":"sillywilly","steam_id":76561199207982479,"connected_time":558000000000,"state":"active","ping":68},{"user_id":105,"name":"Mr. Gobling","steam_id":76561199096778623,"connected_time":96000000000,"state":"active","ping":62},{"user_id":89,"name":"Holy f stewie, I am sh√≠tting.","steam_id":76561198147173457,"connected_time":656000000000,"state":"active","ping":72},{"user_id":93,"name":"Lorelei","steam_id":76561198056341754,"connected_time":445000000000,"state":"active","ping":45},{"user_id":43,"name":"hbivnm","steam_id":76561197996468677,"connected_time":3379000000000,"state":"active","ping":46},{"user_id":44,"name":"üåº HugeE","steam_id":76561198245495152,"connected_time":3378000000000,"state":"active","ping":61},{"user_id":45,"name":"üå≠ 0mger","steam_id":76561198053615827,"connected_time":3344000000000,"state":"active","ping":69},{"user_id":94,"name":"Ecton","steam_id":76561198025103720,"connected_time":414000000000,"state":"active","ping":62},{"user_id":95,"name":"stawho","steam_id":76561198125989587,"connected_time":404000000000,"state":"active","ping":75},{"user_id":50,"name":"Sili Microwave","steam_id":76561198152547122,"connected_time":3258000000000,"state":"active","ping":48},{"user_id":71,"name":"KAKTyC","steam_id":76561198019296536,"connected_time":1784000000000,"state":"active","ping":94},{"user_id":106,"name":"the G MAN","steam_id":76561199266754351,"connected_time":85000000000,"state":"active","ping":115},{"user_id":98,"name":"Panellet","steam_id":76561198006920604,"connected_time":330000000000,"state":"active","ping":80},{"user_id":100,"name":"IONYCH","steam_id":76561198378350040,"connected_time":264000000000,"state":"active","ping":79},{"user_id":107,"name":"Juiceydough","steam_id":76561197997323419,"connected_time":84000000000,"state":"active","ping":90}]},{"server_id":308,"name":"Uncletopia | Frankfurt | 3 | All Maps","name_short":"frk-3","host":"frk-1.de.uncletopia.com","port":27035,"enabled":true,"region":"eu","cc":"de","latitude":50.110924,"longitude":8.682127,"reserved":0,"last_update":"0001-01-01T00:00:00Z","name_a2s":"Uncletopia | Frankfurt | 3 | All Maps","protocol":17,"map":"pl_pier","folder":"tf","game":"Team Fortress","app_id":440,"player_count":24,"max_players":24,"Bots":0,"server_type":"Dedicated","server_os":"Linux","password":true,"vac":true,"version":"7757534","steam_id":85568392924504274,"keywords":["nocrits","nodmgspread","payload","uncletopia"],"game_id":440,"stv_port":27036,"stv_name":"Uncletopia | Frankfurt | 3 | All Maps | STV","players":[{"user_id":602,"name":"LarsInABox","steam_id":76561198028329262,"connected_time":459000000000,"state":"active","ping":74},{"user_id":616,"name":"Max1m_KoT","steam_id":76561198271350885,"connected_time":209000000000,"state":"active","ping":81},{"user_id":603,"name":"Cul \u003c3","steam_id":76561198368067660,"connected_time":411000000000,"state":"active","ping":136},{"user_id":509,"name":"RT_ratatuj","steam_id":76561199149578671,"connected_time":6626000000000,"state":"active","ping":107},{"user_id":592,"name":"tallen","steam_id":76561198061708595,"connected_time":1848000000000,"state":"active","ping":75},{"user_id":600,"name":"Syll","steam_id":76561198040736202,"connected_time":794000000000,"state":"active","ping":88},{"user_id":587,"name":"truebosnianking","steam_id":76561199440060597,"connected_time":2208000000000,"state":"active","ping":80},{"user_id":618,"name":"cyclops","steam_id":76561197970370198,"connected_time":149000000000,"state":"active","ping":177},{"user_id":607,"name":"Deluxe Roast Beef Sandwich","steam_id":76561198277045662,"connected_time":310000000000,"state":"active","ping":67},{"user_id":608,"name":"kotamine","steam_id":76561198068907991,"connected_time":309000000000,"state":"active","ping":69},{"user_id":606,"name":"Brother Roga","steam_id":76561198029613515,"connected_time":363000000000,"state":"active","ping":62},{"user_id":609,"name":"strangedeath","steam_id":76561198154159297,"connected_time":295000000000,"state":"active","ping":162},{"user_id":601,"name":"kpn","steam_id":76561198063512694,"connected_time":622000000000,"state":"active","ping":143},{"user_id":610,"name":":)","steam_id":76561198977420882,"connected_time":293000000000,"state":"active","ping":58},{"user_id":596,"name":"Asia","steam_id":76561199029651285,"connected_time":1121000000000,"state":"active","ping":55},{"user_id":611,"name":"6700XT enjoyer","steam_id":76561198088591264,"connected_time":290000000000,"state":"active","ping":61},{"user_id":612,"name":"Omega","steam_id":76561198159125525,"connected_time":290000000000,"state":"active","ping":63},{"user_id":613,"name":"ulackhate","steam_id":76561198869437637,"connected_time":249000000000,"state":"active","ping":188},{"user_id":617,"name":"Moe Jama","steam_id":76561198021676997,"connected_time":168000000000,"state":"active","ping":80},{"user_id":555,"name":"jona3838","steam_id":76561199097658195,"connected_time":4564000000000,"state":"active","ping":105},{"user_id":615,"name":"Lukas","steam_id":76561198009118452,"connected_time":236000000000,"state":"active","ping":57},{"user_id":577,"name":"Psycho","steam_id":76561198084918608,"connected_time":3238000000000,"state":"active","ping":57},{"user_id":579,"name":"Engi-Nearing","steam_id":76561199221172552,"connected_time":3079000000000,"state":"active","ping":62},{"user_id":622,"name":"sleepydaytrader","steam_id":76561199122257777,"connected_time":23000000000,"state":"active","ping":198}]},{"server_id":309,"name":"Uncletopia | Frankfurt | 4 | All Maps","name_short":"frk-4","host":"frk-1.de.uncletopia.com","port":27045,"enabled":true,"region":"eu","cc":"de","latitude":50.110924,"longitude":8.682127,"reserved":0,"last_update":"0001-01-01T00:00:00Z","name_a2s":"Uncletopia | Frankfurt | 4 | All Maps","protocol":17,"map":"pl_upward","folder":"tf","game":"Team Fortress","app_id":440,"player_count":24,"max_players":24,"Bots":0,"server_type":"Dedicated","server_os":"Linux","password":true,"vac":true,"version":"7757534","steam_id":85568392924504275,"keywords":["nocrits","nodmgspread","payload","uncletopia"],"game_id":440,"stv_port":27046,"stv_name":"Uncletopia | Frankfurt | 4 | All Maps | STV","players":[{"user_id":80,"name":"_Starlight_","steam_id":76561197993885738,"connected_time":26000000000,"state":"active","ping":70},{"user_id":71,"name":"swallowed 10 pennies please hel","steam_id":76561198055816412,"connected_time":1115000000000,"state":"active","ping":60},{"user_id":54,"name":"Uno","steam_id":76561198023465646,"connected_time":2289000000000,"state":"active","ping":73},{"user_id":79,"name":"Mr. Mundy","steam_id":76561199479080253,"connected_time":59000000000,"state":"active","ping":62},{"user_id":67,"name":"heykikidom","steam_id":76561198267574417,"connected_time":1305000000000,"state":"active","ping":101},{"user_id":69,"name":"Kan0_","steam_id":76561198129596771,"connected_time":1250000000000,"state":"active","ping":56},{"user_id":63,"name":"Grillem Dafoe","steam_id":76561198306874574,"connected_time":1878000000000,"state":"active","ping":79},{"user_id":28,"name":"Balls","steam_id":76561198086400484,"connected_time":4164000000000,"state":"active","ping":76},{"user_id":78,"name":"Wiki","steam_id":76561198106666604,"connected_time":273000000000,"state":"active","ping":66},{"user_id":38,"name":"F","steam_id":76561199149462792,"connected_time":2786000000000,"state":"active","ping":67},{"user_id":81,"name":"JamesPepega","steam_id":76561198019156154,"connected_time":17000000000,"state":"active","ping":66},{"user_id":77,"name":"plepek","steam_id":76561198042959598,"connected_time":616000000000,"state":"active","ping":78},{"user_id":62,"name":"rob","steam_id":76561198122211848,"connected_time":2055000000000,"state":"active","ping":87},{"user_id":70,"name":"Koli","steam_id":76561197992428783,"connected_time":1240000000000,"state":"active","ping":50},{"user_id":66,"name":"√òpossum","steam_id":76561198056152479,"connected_time":1602000000000,"state":"active","ping":45},{"user_id":64,"name":"finbar","steam_id":76561198056812396,"connected_time":1807000000000,"state":"active","ping":75},{"user_id":48,"name":"Torttu","steam_id":76561198013980029,"connected_time":2433000000000,"state":"active","ping":61},{"user_id":49,"name":"nibsÓÑ∏","steam_id":76561198040099538,"connected_time":2394000000000,"state":"active","ping":77},{"user_id":51,"name":"myrlejon","steam_id":76561198092480015,"connected_time":2390000000000,"state":"active","ping":58},{"user_id":52,"name":"Daikon","steam_id":76561198044017083,"connected_time":2371000000000,"state":"active","ping":67},{"user_id":72,"name":"Gabys","steam_id":76561198282892553,"connected_time":1026000000000,"state":"active","ping":72},{"user_id":55,"name":"coffee","steam_id":76561198382387303,"connected_time":2289000000000,"state":"active","ping":89},{"user_id":56,"name":"zmbcclps","steam_id":76561198409725218,"connected_time":2283000000000,"state":"active","ping":53},{"user_id":76,"name":"‚òÖpoyo‚òÖ","steam_id":76561198150078959,"connected_time":703000000000,"state":"active","ping":63}]},{"server_id":310,"name":"Uncletopia | Frankfurt | 5 | All Maps","name_short":"frk-5","host":"frk-1.de.uncletopia.com","port":27055,"enabled":true,"region":"eu","cc":"de","latitude":50.110924,"longitude":8.682127,"reserved":0,"last_update":"0001-01-01T00:00:00Z","name_a2s":"Uncletopia | Frankfurt | 5 | All Maps","protocol":17,"map":"pl_pier","folder":"tf","game":"Team Fortress","app_id":440,"player_count":16,"max_players":24,"Bots":0,"server_type":"Dedicated","server_os":"Linux","password":true,"vac":true,"version":"7757534","steam_id":85568392924504277,"keywords":["nocrits","nodmgspread","payload","uncletopia"],"game_id":440,"stv_port":27056,"stv_name":"Uncletopia | Frankfurt | 5 | All Maps | STV","players":[{"user_id":514,"name":"CarrotFlowers","steam_id":76561198154714698,"connected_time":225000000000,"state":"active","ping":55},{"user_id":457,"name":"Oxy:*","steam_id":76561198275120049,"connected_time":3699000000000,"state":"active","ping":57},{"user_id":506,"name":"senko","steam_id":76561198002990168,"connected_time":837000000000,"state":"active","ping":58},{"user_id":466,"name":"Lessoz","steam_id":76561199211572036,"connected_time":3132000000000,"state":"active","ping":93},{"user_id":508,"name":"Combat Wombat","steam_id":76561197994720068,"connected_time":752000000000,"state":"active","ping":71},{"user_id":512,"name":"Anri Okita's Massive Milkers","steam_id":76561199186352720,"connected_time":309000000000,"state":"active","ping":71},{"user_id":499,"name":"powej","steam_id":76561198056381418,"connected_time":1006000000000,"state":"active","ping":56},{"user_id":476,"name":"ant753","steam_id":76561198103458889,"connected_time":2669000000000,"state":"active","ping":75},{"user_id":500,"name":"PEEPANTS","steam_id":76561198052088053,"connected_time":1003000000000,"state":"active","ping":66},{"user_id":468,"name":"CiVillain","steam_id":76561198059617732,"connected_time":2974000000000,"state":"active","ping":80},{"user_id":507,"name":"AWP Bodyshot :) ‚ù§","steam_id":76561198029928533,"connected_time":777000000000,"state":"active","ping":44},{"user_id":501,"name":"eeeeee","steam_id":76561198017786875,"connected_time":1000000000000,"state":"active","ping":60},{"user_id":483,"name":"AwterSix","steam_id":76561198042561678,"connected_time":1901000000000,"state":"active","ping":55},{"user_id":481,"name":"kbbq","steam_id":76561198346638308,"connected_time":2213000000000,"state":"active","ping":62},{"user_id":502,"name":"Carrotcracker","steam_id":76561198034862396,"connected_time":948000000000,"state":"active","ping":75},{"user_id":493,"name":"Mr Lidl","steam_id":76561198426522902,"connected_time":1466000000000,"state":"active","ping":82}]},{"server_id":311,"name":"Uncletopia | Frankfurt | 6 | All Maps","name_short":"frk-6","host":"frk-1.de.uncletopia.com","port":27065,"enabled":true,"region":"eu","cc":"de","latitude":50.110924,"longitude":8.682127,"reserved":0,"last_update":"0001-01-01T00:00:00Z","name_a2s":"Uncletopia | Frankfurt | 6 | All Maps","protocol":17,"map":"pl_swiftwater_final1","folder":"tf","game":"Team Fortress","app_id":440,"player_count":22,"max_players":24,"Bots":0,"server_type":"Dedicated","server_os":"Linux","password":true,"vac":true,"version":"7757534","steam_id":85568392924504278,"keywords":["nocrits","nodmgspread","payload","uncletopia"],"game_id":440,"stv_port":27066,"stv_name":"Uncletopia | Frankfurt | 6 | All Maps | STV","players":[{"user_id":659,"name":"X45Y","steam_id":76561198112534025,"connected_time":524000000000,"state":"active","ping":45},{"user_id":622,"name":"giclure :;","steam_id":76561197986362828,"connected_time":3465000000000,"state":"active","ping":65},{"user_id":664,"name":"Pancakes","steam_id":76561198196259989,"connected_time":89000000000,"state":"active","ping":59},{"user_id":665,"name":"Mlanky","steam_id":76561198047796778,"connected_time":76000000000,"state":"active","ping":49},{"user_id":642,"name":"GrzMik","steam_id":76561198061951968,"connected_time":1970000000000,"state":"active","ping":84},{"user_id":656,"name":"Boki","steam_id":76561198044553351,"connected_time":779000000000,"state":"active","ping":74},{"user_id":623,"name":"Alibi","steam_id":76561198061845595,"connected_time":3149000000000,"state":"active","ping":63},{"user_id":655,"name":"gwa≈Çt wƒÖtroby 0,7 i 5 piw","steam_id":76561199038973360,"connected_time":1043000000000,"state":"active","ping":114},{"user_id":640,"name":"emergency heelflip","steam_id":76561198030155915,"connected_time":2031000000000,"state":"active","ping":74},{"user_id":647,"name":"Blak San","steam_id":76561198000254111,"connected_time":1775000000000,"state":"active","ping":71},{"user_id":643,"name":"Mr_Pulse_","steam_id":76561198095001602,"connected_time":1928000000000,"state":"active","ping":92},{"user_id":660,"name":"MatarArg","steam_id":76561198280246498,"connected_time":489000000000,"state":"active","ping":109},{"user_id":644,"name":"Ostara","steam_id":76561198200054489,"connected_time":1906000000000,"state":"active","ping":82},{"user_id":663,"name":"Shromide","steam_id":76561198140382935,"connected_time":322000000000,"state":"active","ping":78},{"user_id":661,"name":"midlpsyzl47","steam_id":76561199475972637,"connected_time":473000000000,"state":"active","ping":74},{"user_id":638,"name":"***** ***","steam_id":76561198048037379,"connected_time":2042000000000,"state":"active","ping":91},{"user_id":639,"name":"DigyB","steam_id":76561198014442345,"connected_time":2040000000000,"state":"active","ping":63},{"user_id":648,"name":"skill","steam_id":76561198106012909,"connected_time":1769000000000,"state":"active","ping":67},{"user_id":540,"name":"Ooze","steam_id":76561198039642637,"connected_time":9761000000000,"state":"active","ping":75},{"user_id":662,"name":"we're running out of monster","steam_id":76561199065336628,"connected_time":402000000000,"state":"active","ping":82},{"user_id":645,"name":"Kelpy G gaming","steam_id":76561198056995633,"connected_time":1895000000000,"state":"active","ping":73},{"user_id":652,"name":"cursedbygod‚ô°","steam_id":76561198318291047,"connected_time":1479000000000,"state":"active","ping":116}]},{"server_id":23,"name":"Uncletopia | Frankfurt | 7 | Stopwatch Beta","name_short":"frk-7","host":"frk-1.de.uncletopia.com","port":27075,"enabled":true,"region":"eu","cc":"de","latitude":50.110924,"longitude":8.682127,"reserved":0,"last_update":"0001-01-01T00:00:00Z","name_a2s":"Uncletopia | Frankfurt | 7 | Stopwatch Beta","protocol":17,"map":"workshop/koth_clearcut_b15.ugc2107050255","folder":"tf","game":"Team Fortress","app_id":440,"player_count":0,"max_players":24,"Bots":0,"server_type":"Dedicated","server_os":"Linux","password":true,"vac":true,"version":"7757534","steam_id":85568392924742827,"keywords":["cp","nocrits","nodmgspread","uncletopia"],"game_id":440,"stv_port":27076,"stv_name":"Uncletopia | Frankfurt | 7 | Stopwatch Beta | STV","players":null},{"server_id":24,"name":"Uncletopia | Frankfurt | 8 | Community","name_short":"frk-8","host":"frk-1.de.uncletopia.com","port":27085,"enabled":true,"region":"eu","cc":"de","latitude":50.110924,"longitude":8.682127,"reserved":0,"last_update":"0001-01-01T00:00:00Z","name_a2s":"Uncletopia | Frankfurt | 8 | Community","protocol":17,"map":"workshop/cp_sulfur_rc2.ugc619869471","folder":"tf","game":"Team Fortress","app_id":440,"player_count":15,"max_players":24,"Bots":0,"server_type":"Dedicated","server_os":"Linux","password":true,"vac":true,"version":"7757534","steam_id":85568392924742828,"keywords":["cp","nocrits","nodmgspread","uncletopia"],"game_id":440,"stv_port":27086,"stv_name":"Uncletopia | Frankfurt | 8 | Community | STV","players":[{"user_id":181,"name":"SARCASMISH","steam_id":76561198370404546,"connected_time":153000000000,"state":"active","ping":65},{"user_id":171,"name":"Pink Cheese","steam_id":76561198972186436,"connected_time":1065000000000,"state":"active","ping":65},{"user_id":154,"name":"zak","steam_id":76561197998895428,"connected_time":2406000000000,"state":"active","ping":59},{"user_id":170,"name":"Exe_Red","steam_id":76561198154952759,"connected_time":1181000000000,"state":"active","ping":74},{"user_id":168,"name":"SFC Pump","steam_id":76561198129338259,"connected_time":1299000000000,"state":"active","ping":67},{"user_id":174,"name":"HOI","steam_id":76561198061182117,"connected_time":503000000000,"state":"active","ping":61},{"user_id":108,"name":"ASAP","steam_id":76561198322078500,"connected_time":5677000000000,"state":"active","ping":84},{"user_id":128,"name":"milk","steam_id":76561198080168182,"connected_time":3893000000000,"state":"active","ping":78},{"user_id":143,"name":"Moskvin","steam_id":76561198089170010,"connected_time":3293000000000,"state":"active","ping":56},{"user_id":176,"name":"hannes","steam_id":76561198202485645,"connected_time":451000000000,"state":"active","ping":74},{"user_id":152,"name":"wicked","steam_id":76561198164376035,"connected_time":2575000000000,"state":"active","ping":74},{"user_id":179,"name":"SomeWeeabooTrash","steam_id":76561198199092050,"connected_time":380000000000,"state":"active","ping":75},{"user_id":135,"name":"dotdotdot","steam_id":76561198057628751,"connected_time":3626000000000,"state":"active","ping":60},{"user_id":180,"name":"MiOn","steam_id":76561198220226331,"connected_time":376000000000,"state":"active","ping":116},{"user_id":109,"name":"Matael","steam_id":76561198452200894,"connected_time":5508000000000,"state":"active","ping":62}]},{"server_id":202,"name":"Uncletopia | Hong Kong | 1 | All Maps","name_short":"hgk-1","host":"hgk-1.hk.uncletopia.com","port":27015,"enabled":true,"region":"asia","cc":"hk","latitude":22.302711,"longitude":114.177216,"reserved":0,"last_update":"0001-01-01T00:00:00Z","name_a2s":"Uncletopia | Hong Kong | 1 | All Maps","protocol":17,"map":"ctf_2fort","folder":"tf","game":"Team Fortress","app_id":440,"player_count":0,"max_players":24,"Bots":0,"server_type":"Dedicated","server_os":"Linux","password":true,"vac":true,"version":"7757534","steam_id":85568392924494504,"keywords":["ctf","nocrits","nodmgspread","uncletopia"],"game_id":440,"stv_port":27016,"stv_name":"Uncletopia | Hong Kong | 1 | All Maps | STV","players":null},{"server_id":1,"name":"Uncletopia | Los Angeles | 1 | All Maps","name_short":"lax-1","host":"lax-1.us.uncletopia.com","port":27015,"enabled":true,"region":"us-west","cc":"us","latitude":33.94279,"longitude":-118.41004,"reserved":0,"last_update":"0001-01-01T00:00:00Z","name_a2s":"Uncletopia | Los Angeles | 1 | All Maps","protocol":17,"map":"koth_lakeside_final","folder":"tf","game":"Team Fortress","app_id":440,"player_count":0,"max_players":24,"Bots":0,"server_type":"Dedicated","server_os":"Linux","password":true,"vac":true,"version":"7757534","steam_id":85568392924469991,"keywords":["cp","nocrits","nodmgspread","uncletopia"],"game_id":440,"stv_port":27016,"stv_name":"Uncletopia | Los Angeles | 1 | All Maps | STV","players":null},{"server_id":112,"name":"Uncletopia | Los Angeles | 2 | All Maps","name_short":"lax-2","host":"lax-1.us.uncletopia.com","port":27025,"enabled":true,"region":"us-west","cc":"us","latitude":33.94279,"longitude":-118.41004,"reserved":0,"last_update":"0001-01-01T00:00:00Z","name_a2s":"Uncletopia | Los Angeles | 2 | All Maps","protocol":17,"map":"pl_snowycoast","folder":"tf","game":"Team Fortress","app_id":440,"player_count":0,"max_players":24,"Bots":0,"server_type":"Dedicated","server_os":"Linux","password":true,"vac":true,"version":"7757534","steam_id":85568392924469992,"keywords":["nocrits","nodmgspread","payload","uncletopia"],"game_id":440,"stv_port":27026,"stv_name":"Uncletopia | Los Angeles | 2 | All Maps | STV","players":null},{"server_id":324,"name":"Uncletopia | Los Angeles | 3 | All Maps","name_short":"lax-3","host":"lax-1.us.uncletopia.com","port":27035,"enabled":true,"region":"us-west","cc":"us","latitude":33.94279,"longitude":-118.41004,"reserved":0,"last_update":"0001-01-01T00:00:00Z","name_a2s":"Uncletopia | Los Angeles | 3 | All Maps","protocol":17,"map":"cp_mountainlab","folder":"tf","game":"Team Fortress","app_id":440,"player_count":0,"max_players":24,"Bots":0,"server_type":"Dedicated","server_os":"Linux","password":true,"vac":true,"version":"7757534","steam_id":85568392924510198,"keywords":["cp","nocrits","nodmgspread","uncletopia"],"game_id":440,"stv_port":27036,"stv_name":"Uncletopia | Los Angeles | 3 | All Maps | STV","players":null},{"server_id":25,"name":"Uncletopia | Los Angeles | 4 | Stopwatch Beta","name_short":"lax-4","host":"lax-1.us.uncletopia.com","port":27045,"enabled":true,"region":"us-west","cc":"us","latitude":33.94279,"longitude":-118.41004,"reserved":0,"last_update":"0001-01-01T00:00:00Z","name_a2s":"Uncletopia | Los Angeles | 4 | Stopwatch Beta","protocol":17,"map":"pl_swiftwater_final1","folder":"tf","game":"Team Fortress","app_id":440,"player_count":0,"max_players":24,"Bots":0,"server_type":"Dedicated","server_os":"Linux","password":true,"vac":true,"version":"7757534","steam_id":85568392924510199,"keywords":["nocrits","nodmgspread","payload","uncletopia"],"game_id":440,"stv_port":27046,"stv_name":"Uncletopia | Los Angeles | 4 | Stopwatch Beta | STV","players":null},{"server_id":11,"name":"Uncletopia | London | 1 | All Maps","name_short":"lon-1","host":"lon-1.uk.uncletopia.com","port":27015,"enabled":true,"region":"eu","cc":"gb","latitude":51.509865,"longitude":-0.118092,"reserved":0,"last_update":"0001-01-01T00:00:00Z","name_a2s":"Uncletopia | London | 1 | All Maps","protocol":17,"map":"pl_barnblitz","folder":"tf","game":"Team Fortress","app_id":440,"player_count":24,"max_players":24,"Bots":0,"server_type":"Dedicated","server_os":"Linux","password":true,"vac":true,"version":"7757534","steam_id":85568392924367362,"keywords":["nocrits","nodmgspread","payload","uncletopia"],"game_id":440,"stv_port":27016,"stv_name":"Uncletopia | London | 1 | All Maps | STV","players":[{"user_id":759,"name":"SOPHIIEE","steam_id":76561198443798981,"connected_time":856000000000,"state":"active","ping":57},{"user_id":738,"name":"Bricky Bob","steam_id":76561198048712030,"connected_time":2473000000000,"state":"active","ping":76},{"user_id":758,"name":"Relix18144","steam_id":76561199202454318,"connected_time":1036000000000,"state":"active","ping":95},{"user_id":732,"name":"Digio","steam_id":76561199065101964,"connected_time":2822000000000,"state":"active","ping":94},{"user_id":711,"name":"cyanic","steam_id":76561198047828651,"connected_time":4085000000000,"state":"active","ping":45},{"user_id":757,"name":"cris","steam_id":76561198047662200,"connected_time":1074000000000,"state":"active","ping":57},{"user_id":761,"name":"dec","steam_id":76561198009660168,"connected_time":680000000000,"state":"active","ping":52},{"user_id":712,"name":"BigZZZ","steam_id":76561197998461614,"connected_time":4075000000000,"state":"active","ping":60},{"user_id":695,"name":"Big Al","steam_id":76561198079585198,"connected_time":4692000000000,"state":"active","ping":53},{"user_id":762,"name":"Celdis","steam_id":76561198079741434,"connected_time":433000000000,"state":"active","ping":61},{"user_id":739,"name":"Sirzen","steam_id":76561198170155434,"connected_time":2448000000000,"state":"active","ping":47},{"user_id":763,"name":"Gorgeous George","steam_id":76561198144256544,"connected_time":175000000000,"state":"active","ping":46},{"user_id":731,"name":"Spliffendor","steam_id":76561198144020209,"connected_time":2891000000000,"state":"active","ping":48},{"user_id":755,"name":"Wedgeridoo","steam_id":76561198082813907,"connected_time":1304000000000,"state":"active","ping":131},{"user_id":752,"name":"Cosmetic brain","steam_id":76561198055936410,"connected_time":1449000000000,"state":"active","ping":83},{"user_id":747,"name":"lettuce at 58p","steam_id":76561199401283123,"connected_time":2045000000000,"state":"active","ping":50},{"user_id":726,"name":"Princess Fluffy Butt","steam_id":76561198060033696,"connected_time":3280000000000,"state":"active","ping":54},{"user_id":754,"name":"Spy","steam_id":76561198013757235,"connected_time":1330000000000,"state":"active","ping":71},{"user_id":699,"name":"JOHN GAMING (depressed)","steam_id":76561199085822219,"connected_time":4518000000000,"state":"active","ping":90},{"user_id":749,"name":"J3LLY","steam_id":76561198048453764,"connected_time":1859000000000,"state":"active","ping":47},{"user_id":737,"name":"Gaming on a Touchpad #RRC","steam_id":76561198352093354,"connected_time":2610000000000,"state":"active","ping":77},{"user_id":750,"name":"Woa","steam_id":76561198345683201,"connected_time":1518000000000,"state":"active","ping":74},{"user_id":760,"name":"Chloemew","steam_id":76561198042071762,"connected_time":798000000000,"state":"active","ping":43},{"user_id":640,"name":"Hoks","steam_id":76561198126442242,"connected_time":7883000000000,"state":"active","ping":130}]},{"server_id":114,"name":"Uncletopia | London | 2 | All Maps","name_short":"lon-2","host":"lon-1.uk.uncletopia.com","port":27025,"enabled":true,"region":"eu","cc":"gb","latitude":51.509865,"longitude":-0.118092,"reserved":0,"last_update":"0001-01-01T00:00:00Z","name_a2s":"Uncletopia | London | 2 | All Maps","protocol":17,"map":"cp_dustbowl","folder":"tf","game":"Team Fortress","app_id":440,"player_count":24,"max_players":24,"Bots":0,"server_type":"Dedicated","server_os":"Linux","password":true,"vac":true,"version":"7757534","steam_id":85568392924470941,"keywords":["cp","nocrits","nodmgspread","uncletopia"],"game_id":440,"stv_port":27026,"stv_name":"Uncletopia | London | 2 | All Maps | STV","players":[{"user_id":419,"name":"Benny the Ball","steam_id":76561198043104532,"connected_time":359000000000,"state":"active","ping":44},{"user_id":418,"name":"pedro","steam_id":76561199079459379,"connected_time":484000000000,"state":"active","ping":81},{"user_id":315,"name":"Grilled Feline","steam_id":76561198952154873,"connected_time":7462000000000,"state":"active","ping":66},{"user_id":378,"name":"Puro ‚ô•","steam_id":76561198039016765,"connected_time":3268000000000,"state":"active","ping":97},{"user_id":329,"name":"Random_proto(she/her)","steam_id":76561198375885264,"connected_time":6756000000000,"state":"active","ping":87},{"user_id":387,"name":"Screedle","steam_id":76561198004252281,"connected_time":2418000000000,"state":"active","ping":45},{"user_id":371,"name":"Ross from F.R.I.E.N.D.S.","steam_id":76561198008511665,"connected_time":3997000000000,"state":"active","ping":59},{"user_id":410,"name":"(TR) PiemanPeek","steam_id":76561198186832158,"connected_time":920000000000,"state":"active","ping":113},{"user_id":420,"name":"Sal Vulcano","steam_id":76561198016677665,"connected_time":328000000000,"state":"active","ping":154},{"user_id":390,"name":"he/him whimper","steam_id":76561198097175164,"connected_time":2259000000000,"state":"active","ping":144},{"user_id":352,"name":"Walle","steam_id":76561197995148937,"connected_time":5921000000000,"state":"active","ping":74},{"user_id":403,"name":"Bingus","steam_id":76561198334528186,"connected_time":1688000000000,"state":"active","ping":45},{"user_id":392,"name":"Laurie","steam_id":76561198082951750,"connected_time":2248000000000,"state":"active","ping":49},{"user_id":384,"name":"breedable","steam_id":76561198010300032,"connected_time":2774000000000,"state":"active","ping":75},{"user_id":414,"name":"Miwicks","steam_id":76561198866780803,"connected_time":610000000000,"state":"active","ping":143},{"user_id":425,"name":"CAMON ENGELAND","steam_id":76561198054301125,"connected_time":26000000000,"state":"active","ping":135},{"user_id":423,"name":"mesoni","steam_id":76561199141290973,"connected_time":260000000000,"state":"active","ping":92},{"user_id":354,"name":"Clovis","steam_id":76561198076881381,"connected_time":5728000000000,"state":"active","ping":79},{"user_id":348,"name":"Sn1perK1ng","steam_id":76561198128065329,"connected_time":6026000000000,"state":"active","ping":59},{"user_id":417,"name":"move like a human","steam_id":76561198043810656,"connected_time":526000000000,"state":"active","ping":77},{"user_id":413,"name":"Starach","steam_id":76561198084530972,"connected_time":627000000000,"state":"active","ping":57},{"user_id":424,"name":"Estamie","steam_id":76561198058527691,"connected_time":217000000000,"state":"active","ping":73},{"user_id":379,"name":"‚ú™ qua ‚ú™","steam_id":76561198066408333,"connected_time":3258000000000,"state":"active","ping":75},{"user_id":397,"name":"Jargo","steam_id":76561198064231790,"connected_time":2178000000000,"state":"active","ping":91}]},{"server_id":320,"name":"Uncletopia | London | 3 | All Maps","name_short":"lon-3","host":"lon-1.uk.uncletopia.com","port":27035,"enabled":true,"region":"eu","cc":"gb","latitude":51.509865,"longitude":-0.118092,"reserved":0,"last_update":"0001-01-01T00:00:00Z","name_a2s":"Uncletopia | London | 3 | All Maps","protocol":17,"map":"cp_dustbowl","folder":"tf","game":"Team Fortress","app_id":440,"player_count":0,"max_players":24,"Bots":0,"server_type":"Dedicated","server_os":"Linux","password":true,"vac":true,"version":"7757534","steam_id":85568392924510192,"keywords":["cp","nocrits","nodmgspread","uncletopia"],"game_id":440,"stv_port":27036,"stv_name":"Uncletopia | London | 3 | All Maps | STV","players":null},{"server_id":321,"name":"Uncletopia | London | 4 | All Maps","name_short":"lon-4","host":"lon-1.uk.uncletopia.com","port":27045,"enabled":true,"region":"eu","cc":"gb","latitude":51.509865,"longitude":-0.118092,"reserved":0,"last_update":"0001-01-01T00:00:00Z","name_a2s":"Uncletopia | London | 4 | All Maps","protocol":17,"map":"cp_foundry","folder":"tf","game":"Team Fortress","app_id":440,"player_count":24,"max_players":24,"Bots":0,"server_type":"Dedicated","server_os":"Linux","password":true,"vac":true,"version":"7757534","steam_id":85568392924510193,"keywords":["cp","nocrits","nodmgspread","uncletopia"],"game_id":440,"stv_port":27046,"stv_name":"Uncletopia | London | 4 | All Maps | STV","players":[{"user_id":520,"name":"Enda","steam_id":76561198202980164,"connected_time":3641000000000,"state":"active","ping":90},{"user_id":506,"name":"Udinese Dion","steam_id":76561198067931573,"connected_time":5464000000000,"state":"active","ping":64},{"user_id":550,"name":"lullers","steam_id":76561198119470669,"connected_time":239000000000,"state":"active","ping":56},{"user_id":543,"name":"SirSangoor","steam_id":76561198044462559,"connected_time":1782000000000,"state":"active","ping":117},{"user_id":496,"name":"akakez","steam_id":76561198095432821,"connected_time":6908000000000,"state":"active","ping":110},{"user_id":353,"name":"Topme","steam_id":76561198091734693,"connected_time":17809000000000,"state":"active","ping":63},{"user_id":536,"name":"Lowy","steam_id":76561198031470048,"connected_time":2093000000000,"state":"active","ping":59},{"user_id":479,"name":"‚ô• aura ‚ô•","steam_id":76561198066258544,"connected_time":8661000000000,"state":"active","ping":64},{"user_id":539,"name":"*chewing sounds*","steam_id":76561198820315117,"connected_time":1870000000000,"state":"active","ping":48},{"user_id":546,"name":"Mafew","steam_id":76561198119993886,"connected_time":413000000000,"state":"active","ping":59},{"user_id":480,"name":"Fat Pigeon","steam_id":76561198817940142,"connected_time":8518000000000,"state":"active","ping":46},{"user_id":545,"name":"player","steam_id":76561198054474684,"connected_time":691000000000,"state":"active","ping":88},{"user_id":547,"name":"sm0ke","steam_id":76561198198977226,"connected_time":315000000000,"state":"active","ping":82},{"user_id":524,"name":"Sky Tree","steam_id":76561198027103242,"connected_time":3468000000000,"state":"active","ping":105},{"user_id":492,"name":"whimsy.","steam_id":76561198878171763,"connected_time":7601000000000,"state":"active","ping":48},{"user_id":505,"name":"SKFBoge","steam_id":76561198269038278,"connected_time":5969000000000,"state":"active","ping":82},{"user_id":512,"name":"X-tis","steam_id":76561198043837480,"connected_time":4720000000000,"state":"active","ping":61},{"user_id":511,"name":"mt","steam_id":76561197961319303,"connected_time":4762000000000,"state":"active","ping":60},{"user_id":368,"name":"wasto-/-‚Ñ¢","steam_id":76561198102888038,"connected_time":16079000000000,"state":"active","ping":60},{"user_id":541,"name":"Denton","steam_id":76561198367991717,"connected_time":1851000000000,"state":"active","ping":79},{"user_id":527,"name":"Andy","steam_id":76561198046918834,"connected_time":3290000000000,"state":"active","ping":64},{"user_id":548,"name":"lawn","steam_id":76561198001243486,"connected_time":266000000000,"state":"active","ping":44},{"user_id":544,"name":"Welder","steam_id":76561198355300561,"connected_time":1089000000000,"state":"active","ping":75},{"user_id":551,"name":"Souris Marine","steam_id":76561199143334415,"connected_time":84000000000,"state":"active","ping":48}]},{"server_id":21,"name":"Uncletopia | London | 5 | All Maps","name_short":"lon-5","host":"lon-1.uk.uncletopia.com","port":27055,"enabled":true,"region":"eu","cc":"gb","latitude":51.509865,"longitude":-0.118092,"reserved":0,"last_update":"0001-01-01T00:00:00Z","name_a2s":"Uncletopia | London | 5 | All Maps","protocol":17,"map":"pl_badwater","folder":"tf","game":"Team Fortress","app_id":440,"player_count":24,"max_players":24,"Bots":0,"server_type":"Dedicated","server_os":"Linux","password":true,"vac":true,"version":"7757534","steam_id":85568392924742829,"keywords":["nocrits","nodmgspread","payload","uncletopia"],"game_id":440,"stv_port":27056,"stv_name":"Uncletopia | London | 5 | All Maps | STV","players":[{"user_id":127,"name":"TekkiShodanPL","steam_id":76561198047064015,"connected_time":1816000000000,"state":"active","ping":50},{"user_id":105,"name":"punchmypotatoes","steam_id":76561198091255731,"connected_time":2895000000000,"state":"active","ping":55},{"user_id":144,"name":"mespe","steam_id":76561198121530649,"connected_time":453000000000,"state":"active","ping":77},{"user_id":136,"name":"Constant K","steam_id":76561198037276390,"connected_time":970000000000,"state":"active","ping":47},{"user_id":80,"name":"Mad Cat Kivima","steam_id":76561198028959678,"connected_time":4147000000000,"state":"active","ping":97},{"user_id":81,"name":"schweppestr","steam_id":76561198037485644,"connected_time":4115000000000,"state":"active","ping":47},{"user_id":130,"name":"Teecho","steam_id":76561197995269610,"connected_time":1661000000000,"state":"active","ping":57},{"user_id":132,"name":"Loz405 (YouTube)","steam_id":76561198799315884,"connected_time":1151000000000,"state":"active","ping":81},{"user_id":138,"name":"ZetaKai1219 #SaveTF2","steam_id":76561198065844559,"connected_time":958000000000,"state":"active","ping":135},{"user_id":73,"name":"Dimitri_612","steam_id":76561199223984137,"connected_time":4411000000000,"state":"active","ping":55},{"user_id":142,"name":"Spotmonkey","steam_id":76561198003994092,"connected_time":878000000000,"state":"active","ping":57},{"user_id":131,"name":"Khazton","steam_id":76561197985241877,"connected_time":1330000000000,"state":"active","ping":112},{"user_id":145,"name":"vug","steam_id":76561198042227249,"connected_time":256000000000,"state":"active","ping":44},{"user_id":110,"name":"Ixsus\u003c3","steam_id":76561198094756869,"connected_time":2600000000000,"state":"active","ping":69},{"user_id":111,"name":"Pacanaz","steam_id":76561198011514552,"connected_time":2590000000000,"state":"active","ping":80},{"user_id":140,"name":"rolmos","steam_id":76561198024121853,"connected_time":947000000000,"state":"active","ping":74},{"user_id":143,"name":"Perci","steam_id":76561198097789669,"connected_time":877000000000,"state":"active","ping":69},{"user_id":133,"name":"twitch.tv/goatcanon","steam_id":76561198109415404,"connected_time":1107000000000,"state":"active","ping":59},{"user_id":96,"name":"Herothroughtime","steam_id":76561198104355231,"connected_time":3396000000000,"state":"active","ping":175},{"user_id":134,"name":"Zinnia_64","steam_id":76561199158994121,"connected_time":1094000000000,"state":"active","ping":176},{"user_id":99,"name":"-66th- Pvt. Drathuas5","steam_id":76561198202262611,"connected_time":3278000000000,"state":"active","ping":129},{"user_id":120,"name":"the uncle from uncle dane","steam_id":76561198326214068,"connected_time":2126000000000,"state":"active","ping":60},{"user_id":122,"name":"ü•ë Avocado ü•ë HM","steam_id":76561199007231261,"connected_time":2118000000000,"state":"active","ping":69},{"user_id":54,"name":"Mato","steam_id":76561198267114673,"connected_time":6284000000000,"state":"active","ping":63}]},{"server_id":22,"name":"Uncletopia | London | 6 | All Maps","name_short":"lon-6","host":"lon-1.uk.uncletopia.com","port":27065,"enabled":true,"region":"eu","cc":"gb","latitude":51.509865,"longitude":-0.118092,"reserved":0,"last_update":"0001-01-01T00:00:00Z","name_a2s":"Uncletopia | London | 6 | All Maps","protocol":17,"map":"cp_dustbowl","folder":"tf","game":"Team Fortress","app_id":440,"player_count":24,"max_players":24,"Bots":0,"server_type":"Dedicated","server_os":"Linux","password":true,"vac":true,"version":"7757534","steam_id":85568392924742830,"keywords":["cp","nocrits","nodmgspread","uncletopia"],"game_id":440,"stv_port":27066,"stv_name":"Uncletopia | London | 6 | All Maps | STV","players":[{"user_id":113,"name":"daanvanliempt05","steam_id":76561198355398948,"connected_time":3926000000000,"state":"active","ping":48},{"user_id":141,"name":"Shelly1052","steam_id":76561199043551053,"connected_time":859000000000,"state":"active","ping":43},{"user_id":142,"name":"Dr. Funkenstein","steam_id":76561197977816210,"connected_time":709000000000,"state":"active","ping":48},{"user_id":14,"name":"It's a me Malario","steam_id":76561198176546013,"connected_time":10861000000000,"state":"active","ping":45},{"user_id":128,"name":"Ohad","steam_id":76561198067989324,"connected_time":2515000000000,"state":"active","ping":111},{"user_id":124,"name":"Tort","steam_id":76561198329646769,"connected_time":2978000000000,"state":"active","ping":53},{"user_id":18,"name":"Soloman","steam_id":76561199212054667,"connected_time":10395000000000,"state":"active","ping":46},{"user_id":114,"name":"AsuX","steam_id":76561197990333289,"connected_time":3914000000000,"state":"active","ping":60},{"user_id":120,"name":"class1driller","steam_id":76561198029068574,"connected_time":3297000000000,"state":"active","ping":75},{"user_id":89,"name":"Mistress of the universe","steam_id":76561198115988477,"connected_time":5642000000000,"state":"active","ping":68},{"user_id":24,"name":"Shork","steam_id":76561198130195469,"connected_time":9801000000000,"state":"active","ping":86},{"user_id":83,"name":"Slim3rs","steam_id":76561199088010585,"connected_time":5960000000000,"state":"active","ping":186},{"user_id":135,"name":"spice things up","steam_id":76561197988085026,"connected_time":1477000000000,"state":"active","ping":70},{"user_id":76,"name":"DocTwoEight","steam_id":76561198153488940,"connected_time":6096000000000,"state":"active","ping":76},{"user_id":52,"name":"GoudAI","steam_id":76561198103391197,"connected_time":8089000000000,"state":"active","ping":99},{"user_id":100,"name":"Economic crisis","steam_id":76561198063562843,"connected_time":4753000000000,"state":"active","ping":62},{"user_id":136,"name":"r06u3 #SummerUpdate_Coming","steam_id":76561198254099253,"connected_time":1447000000000,"state":"active","ping":181},{"user_id":32,"name":"Butt Fangs Fetish","steam_id":76561198038130063,"connected_time":9154000000000,"state":"active","ping":89},{"user_id":33,"name":"Havelyn","steam_id":76561198036159862,"connected_time":9128000000000,"state":"active","ping":137},{"user_id":127,"name":"jj","steam_id":76561198079200985,"connected_time":2555000000000,"state":"active","ping":58},{"user_id":137,"name":"sAmasam","steam_id":76561198114953928,"connected_time":1335000000000,"state":"active","ping":62},{"user_id":93,"name":"Lil Ari","steam_id":76561198218178180,"connected_time":5539000000000,"state":"active","ping":84},{"user_id":138,"name":"Fanged Vagina Enjoyer","steam_id":76561198042593027,"connected_time":1315000000000,"state":"active","ping":103},{"user_id":140,"name":"nmm","steam_id":76561199128713772,"connected_time":1007000000000,"state":"active","ping":56}]},{"server_id":40,"name":"Uncletopia | London | 7 | No Payload","name_short":"lon-7","host":"lon-1.uk.uncletopia.com","port":27075,"enabled":true,"region":"eu","cc":"gb","latitude":51.509865,"longitude":-0.118092,"reserved":0,"last_update":"0001-01-01T00:00:00Z","name_a2s":"Uncletopia | London | 7 | No Payload","protocol":17,"map":"plr_hightower","folder":"tf","game":"Team Fortress","app_id":440,"player_count":5,"max_players":24,"Bots":0,"server_type":"Dedicated","server_os":"Linux","password":true,"vac":true,"version":"7757534","steam_id":85568392924964314,"keywords":["nocrits","nodmgspread","payload","uncletopia"],"game_id":440,"stv_port":27076,"stv_name":"Uncletopia | London | 7 | No Payload | STV","players":[{"user_id":28,"name":"IndigoJones","steam_id":76561198050284262,"connected_time":802000000000,"state":"active","ping":43},{"user_id":22,"name":"KatTheCookiCat","steam_id":76561199054643392,"connected_time":1826000000000,"state":"active","ping":60},{"user_id":23,"name":"ryan","steam_id":76561198074763279,"connected_time":1798000000000,"state":"active","ping":50},{"user_id":44,"name":"Glitch","steam_id":76561198309789756,"connected_time":108000000000,"state":"active","ping":73},{"user_id":32,"name":"Lag","steam_id":76561198159360376,"connected_time":618000000000,"state":"active","ping":68}]},{"server_id":41,"name":"Uncletopia | London | 8 | Community","name_short":"lon-8","host":"lon-1.uk.uncletopia.com","port":27085,"enabled":true,"region":"eu","cc":"gb","latitude":51.509865,"longitude":-0.118092,"reserved":0,"last_update":"0001-01-01T00:00:00Z","name_a2s":"Uncletopia | London | 8 | Community","protocol":17,"map":"workshop/cp_caldera_rc2.ugc2834196889","folder":"tf","game":"Team Fortress","app_id":440,"player_count":0,"max_players":24,"Bots":0,"server_type":"Dedicated","server_os":"Linux","password":true,"vac":true,"version":"7757534","steam_id":85568392924964315,"keywords":["cp","nocrits","nodmgspread","uncletopia"],"game_id":440,"stv_port":27086,"stv_name":"Uncletopia | London | 8 | Community | STV","players":null},{"server_id":300,"name":"Uncletopia | Montr√©al | 1 | All Maps","name_short":"mtl-1","host":"mtl-1.ca.uncletopia.com","port":27015,"enabled":true,"region":"us-east","cc":"ca","latitude":45.50889,"longitude":-73.56167,"reserved":0,"last_update":"0001-01-01T00:00:00Z","name_a2s":"Uncletopia | Montr√©al | 1 | All Maps","protocol":17,"map":"koth_viaduct","folder":"tf","game":"Team Fortress","app_id":440,"player_count":0,"max_players":24,"Bots":0,"server_type":"Dedicated","server_os":"Linux","password":true,"vac":true,"version":"7757534","steam_id":85568392924500087,"keywords":["cp","nocrits","nodmgspread","uncletopia"],"game_id":440,"stv_port":27016,"stv_name":"Uncletopia | Montr√©al | 1 | All Maps | STV","players":null},{"server_id":301,"name":"Uncletopia | Montr√©al | 2 | All Maps","name_short":"mtl-2","host":"mtl-1.ca.uncletopia.com","port":27025,"enabled":true,"region":"us-east","cc":"ca","latitude":45.50889,"longitude":-73.56167,"reserved":0,"last_update":"0001-01-01T00:00:00Z","name_a2s":"Uncletopia | Montr√©al | 2 | All Maps","protocol":17,"map":"pl_snowycoast","folder":"tf","game":"Team Fortress","app_id":440,"player_count":0,"max_players":24,"Bots":0,"server_type":"Dedicated","server_os":"Linux","password":true,"vac":true,"version":"7757534","steam_id":85568392924500088,"keywords":["nocrits","nodmgspread","payload","uncletopia"],"game_id":440,"stv_port":27026,"stv_name":"Uncletopia | Montr√©al | 2 | All Maps | STV","players":null},{"server_id":302,"name":"Uncletopia | Montr√©al | 3 | All Maps","name_short":"mtl-3","host":"mtl-1.ca.uncletopia.com","port":27035,"enabled":true,"region":"us-east","cc":"ca","latitude":45.50889,"longitude":-73.56167,"reserved":0,"last_update":"0001-01-01T00:00:00Z","name_a2s":"Uncletopia | Montr√©al | 3 | All Maps","protocol":17,"map":"pl_swiftwater_final1","folder":"tf","game":"Team Fortress","app_id":440,"player_count":0,"max_players":24,"Bots":0,"server_type":"Dedicated","server_os":"Linux","password":true,"vac":true,"version":"7757534","steam_id":85568392924500089,"keywords":["nocrits","nodmgspread","payload","uncletopia"],"game_id":440,"stv_port":27036,"stv_name":"Uncletopia | Montr√©al | 3 | All Maps | STV","players":null},{"server_id":303,"name":"Uncletopia | Montr√©al | 4 | No Payload","name_short":"mtl-4","host":"mtl-1.ca.uncletopia.com","port":27045,"enabled":true,"region":"us-east","cc":"ca","latitude":45.50889,"longitude":-73.56167,"reserved":0,"last_update":"0001-01-01T00:00:00Z","name_a2s":"Uncletopia | Montr√©al | 4 | No Payload","protocol":17,"map":"pl_pier","folder":"tf","game":"Team Fortress","app_id":440,"player_count":0,"max_players":24,"Bots":0,"server_type":"Dedicated","server_os":"Linux","password":true,"vac":true,"version":"7757534","steam_id":85568392924500090,"keywords":["nocrits","nodmgspread","payload","uncletopia"],"game_id":440,"stv_port":27046,"stv_name":"Uncletopia | Montr√©al | 4 | No Payload | STV","players":null},{"server_id":13,"name":"Uncletopia | New York City | 1 | All Maps","name_short":"nyc-1","host":"nyc-1.us.uncletopia.com","port":27015,"enabled":true,"region":"us-east","cc":"us","latitude":40.73061,"longitude":-73.93524,"reserved":0,"last_update":"0001-01-01T00:00:00Z","name_a2s":"Uncletopia | New York City | 1 | All Maps","protocol":17,"map":"pl_pier","folder":"tf","game":"Team Fortress","app_id":440,"player_count":18,"max_players":24,"Bots":0,"server_type":"Dedicated","server_os":"Linux","password":true,"vac":true,"version":"7757534","steam_id":85568392924469993,"keywords":["nocrits","nodmgspread","payload","uncletopia"],"game_id":440,"stv_port":27016,"stv_name":"Uncletopia | New York City | 1 | All Maps | STV","players":[{"user_id":27,"name":"Mochi","steam_id":76561199151314140,"connected_time":16661000000000,"state":"spawning","ping":141},{"user_id":215,"name":"L◊êRRY","steam_id":76561198355662980,"connected_time":2023000000000,"state":"spawning","ping":125},{"user_id":204,"name":"I dont wipe","steam_id":76561198825563040,"connected_time":2718000000000,"state":"spawning","ping":170},{"user_id":129,"name":"Hylic","steam_id":76561199051314589,"connected_time":7614000000000,"state":"spawning","ping":158},{"user_id":246,"name":"Crystallixed","steam_id":76561198072263515,"connected_time":102000000000,"state":"spawning","ping":215},{"user_id":143,"name":"Blitzy","steam_id":76561198149472890,"connected_time":6216000000000,"state":"spawning","ping":255},{"user_id":189,"name":"AdorableMew","steam_id":76561198186706405,"connected_time":3615000000000,"state":"spawning","ping":110},{"user_id":173,"name":"Deep Peepus","steam_id":76561198205395757,"connected_time":4529000000000,"state":"spawning","ping":220},{"user_id":118,"name":"r0zemary (she/her)","steam_id":76561198128494897,"connected_time":9299000000000,"state":"spawning","ping":217},{"user_id":231,"name":"DJ Absolute Garbage","steam_id":76561198068000747,"connected_time":970000000000,"state":"spawning","ping":117},{"user_id":192,"name":"ratie","steam_id":76561198059399661,"connected_time":3195000000000,"state":"spawning","ping":252},{"user_id":232,"name":"Monkey","steam_id":76561198031015186,"connected_time":943000000000,"state":"spawning","ping":130},{"user_id":241,"name":"PastelPinkPop","steam_id":76561198343179787,"connected_time":340000000000,"state":"spawning","ping":294},{"user_id":228,"name":"clack","steam_id":76561198966980576,"connected_time":1256000000000,"state":"spawning","ping":159},{"user_id":242,"name":"Sinny","steam_id":76561197999598422,"connected_time":336000000000,"state":"spawning","ping":236},{"user_id":225,"name":"Ian","steam_id":76561199078852180,"connected_time":1779000000000,"state":"spawning","ping":143},{"user_id":211,"name":"JelloMotion","steam_id":76561198045892038,"connected_time":2278000000000,"state":"spawning","ping":190},{"user_id":248,"name":"chiswola","steam_id":76561198046920142,"connected_time":50000000000,"state":"spawning","ping":131}]},{"server_id":14,"name":"Uncletopia | New York City | 2 | All Maps","name_short":"nyc-2","host":"nyc-1.us.uncletopia.com","port":27025,"enabled":true,"region":"us-east","cc":"us","latitude":40.73061,"longitude":-73.93524,"reserved":0,"last_update":"0001-01-01T00:00:00Z","name_a2s":"Uncletopia | New York City | 2 | All Maps","protocol":17,"map":"pl_upward","folder":"tf","game":"Team Fortress","app_id":440,"player_count":23,"max_players":24,"Bots":0,"server_type":"Dedicated","server_os":"Linux","password":true,"vac":true,"version":"7757534","steam_id":85568392924469994,"keywords":["nocrits","nodmgspread","payload","uncletopia"],"game_id":440,"stv_port":27026,"stv_name":"Uncletopia | New York City | 2 | All Maps | STV","players":[{"user_id":257,"name":"Cryshire","steam_id":76561198857908089,"connected_time":2880000000000,"state":"active","ping":71},{"user_id":229,"name":"Mediocre Gaming","steam_id":76561199230467980,"connected_time":5094000000000,"state":"active","ping":95},{"user_id":287,"name":"gallowsCalibrator","steam_id":76561198076388445,"connected_time":567000000000,"state":"active","ping":72},{"user_id":273,"name":"Bigtimefan5","steam_id":76561199047490167,"connected_time":2132000000000,"state":"active","ping":63},{"user_id":274,"name":"Craven_Canary","steam_id":76561198088191503,"connected_time":2127000000000,"state":"active","ping":63},{"user_id":255,"name":"Hotdog Goblin","steam_id":76561198004133638,"connected_time":2910000000000,"state":"active","ping":111},{"user_id":286,"name":"Drake the Pixel","steam_id":76561198131824401,"connected_time":1040000000000,"state":"active","ping":41},{"user_id":292,"name":"A Shiny Meat Bicycle","steam_id":76561198358757709,"connected_time":200000000000,"state":"active","ping":94},{"user_id":243,"name":"Filthy Acts at Reasonable Price","steam_id":76561198354615890,"connected_time":4260000000000,"state":"active","ping":72},{"user_id":293,"name":"suns","steam_id":76561198079583278,"connected_time":147000000000,"state":"active","ping":60},{"user_id":275,"name":"tyg","steam_id":76561198056246867,"connected_time":2119000000000,"state":"active","ping":58},{"user_id":279,"name":"–û–î–ù–ê –†–´–ë–ê –î–í–ï –†–´–ë","steam_id":76561199479427448,"connected_time":2061000000000,"state":"active","ping":48},{"user_id":283,"name":"Yorm","steam_id":76561198078459249,"connected_time":1759000000000,"state":"active","ping":76},{"user_id":294,"name":"ok","steam_id":76561198445140249,"connected_time":144000000000,"state":"active","ping":67},{"user_id":215,"name":"Blitz3k","steam_id":76561198055758741,"connected_time":5811000000000,"state":"active","ping":42},{"user_id":270,"name":"Gawr Gura Gaming","steam_id":76561198868819185,"connected_time":2419000000000,"state":"active","ping":94},{"user_id":239,"name":"Pacifist Œµ","steam_id":76561198094307112,"connected_time":4452000000000,"state":"active","ping":67},{"user_id":289,"name":"mashallah","steam_id":76561198075111427,"connected_time":462000000000,"state":"active","ping":76},{"user_id":291,"name":"Benpai","steam_id":76561198129143866,"connected_time":224000000000,"state":"active","ping":77},{"user_id":284,"name":"Vegerot","steam_id":76561197997843710,"connected_time":1743000000000,"state":"active","ping":44},{"user_id":240,"name":"Bolero snare","steam_id":76561198099475644,"connected_time":4441000000000,"state":"active","ping":87},{"user_id":285,"name":"Uwu Micster","steam_id":76561198843890616,"connected_time":1225000000000,"state":"active","ping":61},{"user_id":290,"name":"MurpAMurp","steam_id":76561198374437261,"connected_time":228000000000,"state":"active","ping":72}]},{"server_id":15,"name":"Uncletopia | New York City | 3 | Stopwatch Beta","name_short":"nyc-3","host":"nyc-1.us.uncletopia.com","port":27035,"enabled":true,"region":"us-east","cc":"us","latitude":40.73061,"longitude":-73.93524,"reserved":0,"last_update":"0001-01-01T00:00:00Z","name_a2s":"Uncletopia | New York City | 3 | Stopwatch Beta","protocol":17,"map":"pl_upward","folder":"tf","game":"Team Fortress","app_id":440,"player_count":0,"max_players":24,"Bots":0,"server_type":"Dedicated","server_os":"Linux","password":true,"vac":true,"version":"7757534","steam_id":85568392924742820,"keywords":["nocrits","nodmgspread","payload","uncletopia"],"game_id":440,"stv_port":27036,"stv_name":"Uncletopia | New York City | 3 | Stopwatch Beta | STV","players":null},{"server_id":16,"name":"Uncletopia | New York City | 4 | Community","name_short":"nyc-4","host":"nyc-1.us.uncletopia.com","port":27045,"enabled":true,"region":"us-east","cc":"us","latitude":40.73061,"longitude":-73.93524,"reserved":0,"last_update":"0001-01-01T00:00:00Z","name_a2s":"Uncletopia | New York City | 4 | Community","protocol":17,"map":"workshop/koth_trenchfoot_b1a.ugc731436616","folder":"tf","game":"Team Fortress","app_id":440,"player_count":0,"max_players":24,"Bots":0,"server_type":"Dedicated","server_os":"Linux","password":true,"vac":true,"version":"7757534","steam_id":85568392924742821,"keywords":["cp","nocrits","nodmgspread","uncletopia"],"game_id":440,"stv_port":27046,"stv_name":"Uncletopia | New York City | 4 | Community | STV","players":null},{"server_id":142,"name":"Uncletopia | S√£o Paulo | 1 | All Maps","name_short":"sao-1","host":"sao-1.br.uncletopia.com","port":27015,"enabled":true,"region":"sa","cc":"br","latitude":-23.533773,"longitude":-46.62529,"reserved":0,"last_update":"0001-01-01T00:00:00Z","name_a2s":"Uncletopia | S√£o Paulo | 1 | All Maps","protocol":17,"map":"pl_borneo","folder":"tf","game":"Team Fortress","app_id":440,"player_count":0,"max_players":24,"Bots":0,"server_type":"Dedicated","server_os":"Linux","password":true,"vac":true,"version":"7757534","steam_id":85568392924469996,"keywords":["nocrits","nodmgspread","payload","uncletopia"],"game_id":440,"stv_port":27016,"stv_name":"Uncletopia | S√£o Paulo | 1 | All Maps | STV","players":null},{"server_id":143,"name":"Uncletopia | S√£o Paulo | 2 | All Maps","name_short":"sao-2","host":"sao-2.br.uncletopia.com","port":27015,"enabled":true,"region":"sa","cc":"br","latitude":-23.533773,"longitude":-46.62529,"reserved":0,"last_update":"0001-01-01T00:00:00Z","name_a2s":"Uncletopia | S√£o Paulo | 2 | All Maps","protocol":17,"map":"koth_cascade","folder":"tf","game":"Team Fortress","app_id":440,"player_count":0,"max_players":24,"Bots":0,"server_type":"Dedicated","server_os":"Linux","password":true,"vac":true,"version":"7757534","steam_id":85568392924485349,"keywords":["cp","nocrits","nodmgspread","uncletopia"],"game_id":440,"stv_port":27016,"stv_name":"Uncletopia | S√£o Paulo | 2 | All Maps | STV","players":null},{"server_id":7,"name":"Uncletopia | Seattle | 1 | All Maps","name_short":"sea-1","host":"sea-1.us.uncletopia.com","port":27015,"enabled":true,"region":"us-west","cc":"us","latitude":47.608013,"longitude":-122.33517,"reserved":0,"last_update":"0001-01-01T00:00:00Z","name_a2s":"Uncletopia | Seattle | 1 | All Maps","protocol":17,"map":"pl_frontier_final","folder":"tf","game":"Team Fortress","app_id":440,"player_count":24,"max_players":24,"Bots":0,"server_type":"Dedicated","server_os":"Linux","password":true,"vac":true,"version":"7757534","steam_id":85568392924469997,"keywords":["nocrits","nodmgspread","payload","uncletopia"],"game_id":440,"stv_port":27016,"stv_name":"Uncletopia | Seattle | 1 | All Maps | STV","players":[{"user_id":351,"name":"Pyro410","steam_id":76561199241277109,"connected_time":1205000000000,"state":"active","ping":129},{"user_id":349,"name":"Drew","steam_id":76561198058893405,"connected_time":1240000000000,"state":"active","ping":91},{"user_id":337,"name":"dust | she/it","steam_id":76561198045218909,"connected_time":2462000000000,"state":"active","ping":44},{"user_id":106,"name":"Soozy420","steam_id":76561198809074422,"connected_time":20215000000000,"state":"active","ping":79},{"user_id":356,"name":"shiadyne","steam_id":76561198271939793,"connected_time":819000000000,"state":"active","ping":51},{"user_id":323,"name":"MisterManne","steam_id":76561198106598600,"connected_time":3992000000000,"state":"active","ping":55},{"user_id":321,"name":"Mediarch","steam_id":76561198050765729,"connected_time":4423000000000,"state":"active","ping":55},{"user_id":312,"name":"mike, freshly circed","steam_id":76561198225411004,"connected_time":5454000000000,"state":"active","ping":60},{"user_id":354,"name":"FI LO","steam_id":76561198976530881,"connected_time":1145000000000,"state":"active","ping":72},{"user_id":361,"name":"bobo","steam_id":76561198020268561,"connected_time":348000000000,"state":"active","ping":109},{"user_id":360,"name":"Mico (ENA Troublemaker)","steam_id":76561198125462953,"connected_time":352000000000,"state":"active","ping":43},{"user_id":363,"name":"lili spacedust ezili","steam_id":76561199391478575,"connected_time":70000000000,"state":"active","ping":74},{"user_id":326,"name":"weed lesbian","steam_id":76561197989933601,"connected_time":3532000000000,"state":"active","ping":53},{"user_id":329,"name":"Quintuple Triple","steam_id":76561198325557240,"connected_time":3522000000000,"state":"active","ping":66},{"user_id":343,"name":"jacix3 [gay wolfgirl]{she/it}","steam_id":76561198205004165,"connected_time":1705000000000,"state":"active","ping":60},{"user_id":362,"name":"Kafuka","steam_id":76561198014404374,"connected_time":341000000000,"state":"active","ping":33},{"user_id":313,"name":"Smile","steam_id":76561198110008786,"connected_time":5422000000000,"state":"active","ping":57},{"user_id":236,"name":"Level 99 Mudcrab","steam_id":76561198077452771,"connected_time":10755000000000,"state":"active","ping":52},{"user_id":364,"name":"my monitor is off","steam_id":76561198074499537,"connected_time":69000000000,"state":"active","ping":103},{"user_id":365,"name":"Lunacy","steam_id":76561199386273760,"connected_time":1000000000,"state":"spawning","ping":69},{"user_id":318,"name":"louie, an ally","steam_id":76561198168084763,"connected_time":4946000000000,"state":"active","ping":41},{"user_id":359,"name":"strbry","steam_id":76561198155133601,"connected_time":524000000000,"state":"active","ping":47},{"user_id":327,"name":"‚ô°a femboy‚ô°","steam_id":76561199212971864,"connected_time":3531000000000,"state":"active","ping":130},{"user_id":330,"name":"O","steam_id":76561198450073779,"connected_time":3522000000000,"state":"active","ping":48}]},{"server_id":119,"name":"Uncletopia | Seattle | 2 | All Maps","name_short":"sea-2","host":"sea-1.us.uncletopia.com","port":27025,"enabled":true,"region":"us-west","cc":"us","latitude":47.608013,"longitude":-122.33517,"reserved":0,"last_update":"0001-01-01T00:00:00Z","name_a2s":"Uncletopia | Seattle | 2 | All Maps","protocol":17,"map":"koth_viaduct","folder":"tf","game":"Team Fortress","app_id":440,"player_count":24,"max_players":24,"Bots":0,"server_type":"Dedicated","server_os":"Linux","password":true,"vac":true,"version":"7757534","steam_id":85568392924469998,"keywords":["cp","nocrits","nodmgspread","uncletopia"],"game_id":440,"stv_port":27026,"stv_name":"Uncletopia | Seattle | 2 | All Maps | STV","players":[{"user_id":29,"name":"Wormhole","steam_id":76561199008302939,"connected_time":1707000000000,"state":"active","ping":47},{"user_id":52,"name":"think of the bag","steam_id":76561198125261443,"connected_time":626000000000,"state":"active","ping":61},{"user_id":57,"name":"Strikerbolt","steam_id":76561199095622897,"connected_time":415000000000,"state":"active","ping":86},{"user_id":30,"name":"cubecode","steam_id":76561198315944726,"connected_time":1601000000000,"state":"active","ping":97},{"user_id":71,"name":"14 INCH TGIRL SCHLONG","steam_id":76561198122059018,"connected_time":68000000000,"state":"active","ping":109},{"user_id":32,"name":"Pot Head Pixie","steam_id":76561198083024504,"connected_time":1474000000000,"state":"active","ping":105},{"user_id":36,"name":"sniper tf2","steam_id":76561199070853177,"connected_time":1040000000000,"state":"active","ping":95},{"user_id":59,"name":"rinkl","steam_id":76561198965756070,"connected_time":339000000000,"state":"active","ping":59},{"user_id":64,"name":"squash","steam_id":76561198150281353,"connected_time":234000000000,"state":"active","ping":54},{"user_id":66,"name":"Muffin","steam_id":76561198359568579,"connected_time":168000000000,"state":"active","ping":59},{"user_id":41,"name":"full of pilk","steam_id":76561198092716651,"connected_time":796000000000,"state":"active","ping":79},{"user_id":67,"name":"3","steam_id":76561199276894516,"connected_time":158000000000,"state":"active","ping":59},{"user_id":62,"name":"shart","steam_id":76561198039002838,"connected_time":279000000000,"state":"active","ping":125},{"user_id":44,"name":"YellowShade","steam_id":76561198200828527,"connected_time":776000000000,"state":"active","ping":88},{"user_id":73,"name":"Sola-Rola","steam_id":76561198064736584,"connected_time":28000000000,"state":"active","ping":254},{"user_id":65,"name":"dAiLyGrInD","steam_id":76561198163531915,"connected_time":198000000000,"state":"active","ping":121},{"user_id":47,"name":"alcoHollis","steam_id":76561198069797453,"connected_time":726000000000,"state":"active","ping":58},{"user_id":74,"name":"Nougat","steam_id":76561198168882307,"connected_time":6000000000,"state":"spawning","ping":61},{"user_id":49,"name":"Niacin","steam_id":76561197983903096,"connected_time":685000000000,"state":"active","ping":40},{"user_id":70,"name":"Knight","steam_id":76561198154529952,"connected_time":90000000000,"state":"active","ping":320},{"user_id":51,"name":"Velocircopter","steam_id":76561198847582048,"connected_time":644000000000,"state":"active","ping":82},{"user_id":55,"name":"PPFitzenreit","steam_id":76561199381005210,"connected_time":603000000000,"state":"active","ping":87},{"user_id":72,"name":"Natalie","steam_id":76561198048848289,"connected_time":65000000000,"state":"active","ping":84},{"user_id":63,"name":"big dog status","steam_id":76561198179192579,"connected_time":271000000000,"state":"active","ping":143}]},{"server_id":406,"name":"Uncletopia | Seattle | 3 | Stopwatch Beta","name_short":"sea-3","host":"sea-1.us.uncletopia.com","port":27035,"enabled":true,"region":"us-west","cc":"us","latitude":47.608013,"longitude":-122.33517,"reserved":0,"last_update":"0001-01-01T00:00:00Z","name_a2s":"Uncletopia | Seattle | 3 | Stopwatch Beta","protocol":17,"map":"workshop/pl_vigil_rc9.ugc1266210012","folder":"tf","game":"Team Fortress","app_id":440,"player_count":0,"max_players":24,"Bots":0,"server_type":"Dedicated","server_os":"Linux","password":true,"vac":true,"version":"7757534","steam_id":85568392924515217,"keywords":["nocrits","nodmgspread","payload","uncletopia"],"game_id":440,"stv_port":27036,"stv_name":"Uncletopia | Seattle | 3 | Stopwatch Beta | STV","players":null},{"server_id":17,"name":"Uncletopia | San Francisco | 1 | All Maps","name_short":"sfo-1","host":"sfo-1.us.uncletopia.com","port":27015,"enabled":true,"region":"us-west","cc":"us","latitude":37.77397,"longitude":-122.4313,"reserved":0,"last_update":"0001-01-01T00:00:00Z","name_a2s":"Uncletopia | San Francisco | 1 | All Maps","protocol":17,"map":"pl_frontier_final","folder":"tf","game":"Team Fortress","app_id":440,"player_count":24,"max_players":24,"Bots":0,"server_type":"Dedicated","server_os":"Linux","password":true,"vac":true,"version":"7757534","steam_id":85568392924469999,"keywords":["nocrits","nodmgspread","payload","uncletopia"],"game_id":440,"stv_port":27016,"stv_name":"Uncletopia | San Francisco | 1 | All Maps | STV","players":[{"user_id":243,"name":"Matt","steam_id":76561199122703238,"connected_time":1042000000000,"state":"active","ping":71},{"user_id":258,"name":"O'brien","steam_id":76561198289339403,"connected_time":39000000000,"state":"active","ping":116},{"user_id":234,"name":"BBL Sponsor","steam_id":76561199093733603,"connected_time":1560000000000,"state":"active","ping":60},{"user_id":249,"name":"sauce090","steam_id":76561199388018444,"connected_time":493000000000,"state":"active","ping":61},{"user_id":216,"name":"Dietrich","steam_id":76561198028163840,"connected_time":2980000000000,"state":"active","ping":65},{"user_id":230,"name":"MRVN","steam_id":76561199103120314,"connected_time":2029000000000,"state":"active","ping":65},{"user_id":257,"name":"Dr. PP","steam_id":76561199018184096,"connected_time":100000000000,"state":"active","ping":76},{"user_id":228,"name":"cactus eater","steam_id":76561199107499844,"connected_time":2394000000000,"state":"active","ping":67},{"user_id":237,"name":"MAK","steam_id":76561198089361823,"connected_time":1339000000000,"state":"active","ping":103},{"user_id":233,"name":"girlthing","steam_id":76561198799922000,"connected_time":1668000000000,"state":"active","ping":63},{"user_id":246,"name":"Bandanadee","steam_id":76561199014194373,"connected_time":932000000000,"state":"active","ping":132},{"user_id":153,"name":"TheArachnidGamer","steam_id":76561198304986752,"connected_time":6377000000000,"state":"active","ping":75},{"user_id":251,"name":".pngmafia","steam_id":76561199090492261,"connected_time":391000000000,"state":"active","ping":53},{"user_id":253,"name":"K2f","steam_id":76561198049600563,"connected_time":274000000000,"state":"active","ping":55},{"user_id":254,"name":"Galalendon","steam_id":76561198055771198,"connected_time":269000000000,"state":"active","ping":84},{"user_id":221,"name":"Dandelo","steam_id":76561197960363656,"connected_time":2854000000000,"state":"active","ping":115},{"user_id":209,"name":"DededeMain | trade.tf","steam_id":76561198310951632,"connected_time":3440000000000,"state":"active","ping":150},{"user_id":213,"name":"Milkman‚Ñ¢","steam_id":76561198061638747,"connected_time":3045000000000,"state":"active","ping":114},{"user_id":255,"name":"StatesideSnake","steam_id":76561198272957048,"connected_time":265000000000,"state":"active","ping":107},{"user_id":256,"name":"The Pestilence","steam_id":76561199081252282,"connected_time":261000000000,"state":"active","ping":115},{"user_id":247,"name":"grub no. III","steam_id":76561198829492245,"connected_time":626000000000,"state":"active","ping":62},{"user_id":210,"name":"Mugen","steam_id":76561198411174773,"connected_time":3414000000000,"state":"active","ping":63},{"user_id":229,"name":"Vorpas Jabwak","steam_id":76561198112186064,"connected_time":2136000000000,"state":"active","ping":86},{"user_id":232,"name":"howard hamlin (attorney)","steam_id":76561198296847821,"connected_time":1855000000000,"state":"active","ping":55}]},{"server_id":18,"name":"Uncletopia | San Francisco | 2 | All Maps","name_short":"sfo-2","host":"sfo-1.us.uncletopia.com","port":27025,"enabled":true,"region":"us-west","cc":"us","latitude":37.77397,"longitude":-122.4313,"reserved":0,"last_update":"0001-01-01T00:00:00Z","name_a2s":"Uncletopia | San Francisco | 2 | All Maps","protocol":17,"map":"cp_dustbowl","folder":"tf","game":"Team Fortress","app_id":440,"player_count":24,"max_players":24,"Bots":0,"server_type":"Dedicated","server_os":"Linux","password":true,"vac":true,"version":"7757534","steam_id":85568392924470000,"keywords":["cp","nocrits","nodmgspread","uncletopia"],"game_id":440,"stv_port":27026,"stv_name":"Uncletopia | San Francisco | 2 | All Maps | STV","players":[{"user_id":112,"name":"roanoke‚Ä∫","steam_id":76561198048007844,"connected_time":1153000000000,"state":"active","ping":58},{"user_id":102,"name":"BMoney","steam_id":76561198799389030,"connected_time":1858000000000,"state":"active","ping":71},{"user_id":28,"name":"muffinman12126","steam_id":76561199471924109,"connected_time":5891000000000,"state":"active","ping":45},{"user_id":119,"name":"GreyVoice","steam_id":76561198028100463,"connected_time":726000000000,"state":"active","ping":115},{"user_id":31,"name":"Overmeme","steam_id":76561199455124144,"connected_time":5731000000000,"state":"active","ping":87},{"user_id":97,"name":"Big Jon","steam_id":76561198402285099,"connected_time":2160000000000,"state":"active","ping":61},{"user_id":48,"name":"crumblejon","steam_id":76561198111273302,"connected_time":4910000000000,"state":"active","ping":63},{"user_id":98,"name":"Kiilys","steam_id":76561198326068377,"connected_time":2052000000000,"state":"active","ping":76},{"user_id":122,"name":"Herdez Hot Salsa","steam_id":76561197991740906,"connected_time":418000000000,"state":"active","ping":127},{"user_id":121,"name":"Highphin","steam_id":76561198986584680,"connected_time":554000000000,"state":"active","ping":121},{"user_id":123,"name":"neurotic","steam_id":76561198081545480,"connected_time":387000000000,"state":"active","ping":124},{"user_id":109,"name":"veryscaryreaper","steam_id":76561198380018244,"connected_time":1549000000000,"state":"active","ping":97},{"user_id":113,"name":"‚§£RASCAL","steam_id":76561198269038647,"connected_time":1014000000000,"state":"active","ping":50},{"user_id":120,"name":"complete and utter fool","steam_id":76561199476364315,"connected_time":683000000000,"state":"active","ping":50},{"user_id":89,"name":"Uta","steam_id":76561198271964253,"connected_time":2575000000000,"state":"active","ping":82},{"user_id":88,"name":"aqua","steam_id":76561198800365464,"connected_time":2616000000000,"state":"active","ping":94},{"user_id":92,"name":"big booty birtha","steam_id":76561198996674933,"connected_time":2322000000000,"state":"active","ping":77},{"user_id":108,"name":"ChromeOwl","steam_id":76561198953786715,"connected_time":1647000000000,"state":"active","ping":79},{"user_id":74,"name":"snub","steam_id":76561198312106312,"connected_time":3919000000000,"state":"active","ping":78},{"user_id":57,"name":"Zero","steam_id":76561199383267408,"connected_time":4833000000000,"state":"active","ping":92},{"user_id":116,"name":"Large Charles","steam_id":76561197999663001,"connected_time":878000000000,"state":"active","ping":74},{"user_id":87,"name":"WalkinMan","steam_id":76561198047941142,"connected_time":2632000000000,"state":"active","ping":41},{"user_id":66,"name":"weenie hut jr","steam_id":76561198206922028,"connected_time":4607000000000,"state":"active","ping":57},{"user_id":105,"name":"Rat","steam_id":76561198146558552,"connected_time":1811000000000,"state":"active","ping":74}]},{"server_id":19,"name":"Uncletopia | San Francisco | 3 | Stopwatch Beta","name_short":"sfo-3","host":"sfo-1.us.uncletopia.com","port":27035,"enabled":true,"region":"us-west","cc":"us","latitude":37.77397,"longitude":-122.4313,"reserved":0,"last_update":"0001-01-01T00:00:00Z","name_a2s":"Uncletopia | San Francisco | 3 | Stopwatch Beta","protocol":17,"map":"koth_lakeside_final","folder":"tf","game":"Team Fortress","app_id":440,"player_count":0,"max_players":24,"Bots":0,"server_type":"Dedicated","server_os":"Linux","password":true,"vac":true,"version":"7757534","steam_id":85568392924742824,"keywords":["cp","nocrits","nodmgspread","uncletopia"],"game_id":440,"stv_port":27036,"stv_name":"Uncletopia | San Francisco | 3 | Stopwatch Beta | STV","players":null},{"server_id":20,"name":"Uncletopia | San Francisco | 4 | Community","name_short":"sfo-4","host":"sfo-1.us.uncletopia.com","port":27045,"enabled":true,"region":"us-west","cc":"us","latitude":37.77397,"longitude":-122.4313,"reserved":0,"last_update":"0001-01-01T00:00:00Z","name_a2s":"Uncletopia | San Francisco | 4 | Community","protocol":17,"map":"workshop/cp_mannbase_rc2a.ugc1900737467","folder":"tf","game":"Team Fortress","app_id":440,"player_count":0,"max_players":24,"Bots":0,"server_type":"Dedicated","server_os":"Linux","password":true,"vac":true,"version":"7757534","steam_id":85568392924742826,"keywords":["cp","nocrits","nodmgspread","uncletopia"],"game_id":440,"stv_port":27046,"stv_name":"Uncletopia | San Francisco | 4 | Community | STV","players":null},{"server_id":141,"name":"Uncletopia | Sydney | 1 | All Maps","name_short":"syd-1","host":"syd-1.au.uncletopia.com","port":27015,"enabled":true,"region":"au","cc":"au","latitude":-33.865143,"longitude":151.2099,"reserved":0,"last_update":"0001-01-01T00:00:00Z","name_a2s":"Uncletopia | Sydney | 1 | All Maps","protocol":17,"map":"koth_viaduct","folder":"tf","game":"Team Fortress","app_id":440,"player_count":0,"max_players":24,"Bots":0,"server_type":"Dedicated","server_os":"Linux","password":true,"vac":true,"version":"7757534","steam_id":85568392924470001,"keywords":["cp","nocrits","nodmgspread","uncletopia"],"game_id":440,"stv_port":27016,"stv_name":"Uncletopia | Sydney | 1 | All Maps | STV","players":null},{"server_id":123,"name":"Uncletopia | Sydney | 2 | All Maps","name_short":"syd-2","host":"syd-1.au.uncletopia.com","port":27025,"enabled":true,"region":"au","cc":"au","latitude":-33.865143,"longitude":151.2099,"reserved":0,"last_update":"0001-01-01T00:00:00Z","name_a2s":"Uncletopia | Sydney | 2 | All Maps","protocol":17,"map":"cp_process_final","folder":"tf","game":"Team Fortress","app_id":440,"player_count":0,"max_players":24,"Bots":0,"server_type":"Dedicated","server_os":"Linux","password":true,"vac":true,"version":"7757534","steam_id":85568392924470002,"keywords":["cp","nocrits","nodmgspread","uncletopia"],"game_id":440,"stv_port":27026,"stv_name":"Uncletopia | Sydney | 2 | All Maps | STV","players":null},{"server_id":395,"name":"Uncletopia | Sydney | 3 | All Maps","name_short":"syd-3","host":"syd-1.au.uncletopia.com","port":27035,"enabled":true,"region":"au","cc":"au","latitude":-33.865143,"longitude":151.2099,"reserved":0,"last_update":"0001-01-01T00:00:00Z","name_a2s":"Uncletopia | Sydney | 3 | All Maps","protocol":17,"map":"pl_swiftwater_final1","folder":"tf","game":"Team Fortress","app_id":440,"player_count":0,"max_players":24,"Bots":0,"server_type":"Dedicated","server_os":"Linux","password":true,"vac":true,"version":"7757534","steam_id":85568392925194467,"keywords":["nocrits","nodmgspread","payload","uncletopia"],"game_id":440,"stv_port":27036,"stv_name":"Uncletopia | Sydney | 3 | All Maps | STV","players":null},{"server_id":396,"name":"Uncletopia | Sydney | 4 | All Maps","name_short":"syd-4","host":"syd-1.au.uncletopia.com","port":27045,"enabled":true,"region":"au","cc":"au","latitude":-33.865143,"longitude":151.2099,"reserved":0,"last_update":"0001-01-01T00:00:00Z","name_a2s":"Uncletopia | Sydney | 4 | All Maps","protocol":17,"map":"koth_highpass","folder":"tf","game":"Team Fortress","app_id":440,"player_count":0,"max_players":24,"Bots":0,"server_type":"Dedicated","server_os":"Linux","password":true,"vac":true,"version":"7757534","steam_id":85568392925397958,"keywords":["cp","nocrits","nodmgspread","uncletopia"],"game_id":440,"stv_port":27046,"stv_name":"Uncletopia | Sydney | 4 | All Maps | STV","players":null},{"server_id":58,"name":"Uncletopia | Sydney | 5 | Stopwatch Beta","name_short":"syd-5","host":"syd-1.au.uncletopia.com","port":27055,"enabled":true,"region":"au","cc":"au","latitude":-33.865143,"longitude":151.2099,"reserved":0,"last_update":"0001-01-01T00:00:00Z","name_a2s":"Uncletopia | Sydney | 5 | Stopwatch Beta","protocol":17,"map":"koth_cascade","folder":"tf","game":"Team Fortress","app_id":440,"player_count":0,"max_players":24,"Bots":0,"server_type":"Dedicated","server_os":"Linux","password":true,"vac":true,"version":"7757534","steam_id":85568392925397959,"keywords":["cp","nocrits","nodmgspread","uncletopia"],"game_id":440,"stv_port":27056,"stv_name":"Uncletopia | Sydney | 5 | Stopwatch Beta | STV","players":null},{"server_id":59,"name":"Uncletopia | Sydney | 6 | Community","name_short":"syd-6","host":"syd-1.au.uncletopia.com","port":27065,"enabled":true,"region":"au","cc":"au","latitude":-33.865143,"longitude":151.2099,"reserved":0,"last_update":"0001-01-01T00:00:00Z","name_a2s":"Uncletopia | Sydney | 6 | Community","protocol":17,"map":"cp_snakewater_final1","folder":"tf","game":"Team Fortress","app_id":440,"player_count":0,"max_players":24,"Bots":0,"server_type":"Dedicated","server_os":"Linux","password":true,"vac":true,"version":"7757534","steam_id":85568392925397960,"keywords":["cp","nocrits","nodmgspread","uncletopia"],"game_id":440,"stv_port":27066,"stv_name":"Uncletopia | Sydney | 6 | Community | STV","players":null},{"server_id":49,"name":"Uncletopia | Warsaw | 1 | All Maps","name_short":"waw-1","host":"waw-1.pl.uncletopia.com","port":27015,"enabled":true,"region":"eu","cc":"pl","latitude":52.2297,"longitude":21.017532,"reserved":0,"last_update":"0001-01-01T00:00:00Z","name_a2s":"","protocol":0,"map":"","folder":"","game":"","app_id":0,"player_count":0,"max_players":0,"Bots":0,"server_type":"","server_os":"","password":false,"vac":false,"version":"","steam_id":0,"keywords":null,"game_id":0,"stv_port":0,"stv_name":"","players":null},{"server_id":50,"name":"Uncletopia | Warsaw | 2 | All Maps","name_short":"waw-2","host":"waw-1.pl.uncletopia.com","port":27025,"enabled":true,"region":"eu","cc":"pl","latitude":52.2297,"longitude":21.017532,"reserved":0,"last_update":"0001-01-01T00:00:00Z","name_a2s":"Uncletopia | Warsaw | 2 | All Maps","protocol":17,"map":"cp_altitude","folder":"tf","game":"Team Fortress","app_id":440,"player_count":0,"max_players":24,"Bots":0,"server_type":"Dedicated","server_os":"Linux","password":true,"vac":true,"version":"7757534","steam_id":85568392925397851,"keywords":["cp","nocrits","nodmgspread","uncletopia"],"game_id":440,"stv_port":27026,"stv_name":"Uncletopia | Warsaw | 2 | All Maps | STV","players":null},{"server_id":51,"name":"Uncletopia | Warsaw | 3 | All Maps","name_short":"waw-3","host":"waw-1.pl.uncletopia.com","port":27035,"enabled":true,"region":"eu","cc":"pl","latitude":52.2297,"longitude":21.017532,"reserved":0,"last_update":"0001-01-01T00:00:00Z","name_a2s":"Uncletopia | Warsaw | 3 | All Maps","protocol":17,"map":"cp_snakewater_final1","folder":"tf","game":"Team Fortress","app_id":440,"player_count":0,"max_players":24,"Bots":0,"server_type":"Dedicated","server_os":"Linux","password":true,"vac":true,"version":"7757534","steam_id":85568392925397852,"keywords":["cp","nocrits","nodmgspread","uncletopia"],"game_id":440,"stv_port":27036,"stv_name":"Uncletopia | Warsaw | 3 | All Maps | STV","players":null},{"server_id":52,"name":"Uncletopia | Warsaw | 4 | All Maps","name_short":"waw-4","host":"waw-1.pl.uncletopia.com","port":27045,"enabled":true,"region":"eu","cc":"pl","latitude":52.2297,"longitude":21.017532,"reserved":0,"last_update":"0001-01-01T00:00:00Z","name_a2s":"Uncletopia | Warsaw | 4 | All Maps","protocol":17,"map":"koth_lakeside_final","folder":"tf","game":"Team Fortress","app_id":440,"player_count":0,"max_players":24,"Bots":0,"server_type":"Dedicated","server_os":"Linux","password":true,"vac":true,"version":"7757534","steam_id":85568392925397853,"keywords":["cp","nocrits","nodmgspread","uncletopia"],"game_id":440,"stv_port":27046,"stv_name":"Uncletopia | Warsaw | 4 | All Maps | STV","players":null},{"server_id":53,"name":"Uncletopia | Warsaw | 5 | Stopwatch Beta","name_short":"waw-5","host":"waw-1.pl.uncletopia.com","port":27055,"enabled":true,"region":"eu","cc":"pl","latitude":52.2297,"longitude":21.017532,"reserved":0,"last_update":"0001-01-01T00:00:00Z","name_a2s":"Uncletopia | Warsaw | 5 | Stopwatch Beta","protocol":17,"map":"pl_borneo","folder":"tf","game":"Team Fortress","app_id":440,"player_count":0,"max_players":24,"Bots":0,"server_type":"Dedicated","server_os":"Linux","password":true,"vac":true,"version":"7757534","steam_id":85568392925397854,"keywords":["nocrits","nodmgspread","payload","uncletopia"],"game_id":440,"stv_port":27056,"stv_name":"Uncletopia | Warsaw | 5 | Stopwatch Beta | STV","players":null},{"server_id":54,"name":"Uncletopia | Warsaw | 6 | Community","name_short":"waw-6","host":"waw-1.pl.uncletopia.com","port":27065,"enabled":true,"region":"eu","cc":"pl","latitude":52.2297,"longitude":21.017532,"reserved":0,"last_update":"0001-01-01T00:00:00Z","name_a2s":"Uncletopia | Warsaw | 6 | Community","protocol":17,"map":"workshop/cp_indulge.ugc528106646","folder":"tf","game":"Team Fortress","app_id":440,"player_count":0,"max_players":24,"Bots":0,"server_type":"Dedicated","server_os":"Linux","password":true,"vac":true,"version":"7757534","steam_id":85568392925397856,"keywords":["cp","nocrits","nodmgspread","uncletopia"],"game_id":440,"stv_port":27066,"stv_name":"Uncletopia | Warsaw | 6 | Community | STV","players":null}]}