{"status":true,"message":"","result":[{"server_id":9,"name":"Uncletopia | Atlanta | 1 | All Maps","name_short":"atl-1","host":"atl-1.us.uncletopia.com","port":27015,"enabled":true,"region":"us-east","cc":"us","latitude":33.753746,"longitude":-84.38633,"reserved":0,"last_update":"0001-01-01T00:00:00Z","name_a2s":"Uncletopia | Atlanta | 1 | All Maps","protocol":17,"map":"pl_borneo","folder":"tf","game":"Team Fortress","app_id":440,"player_count":24,"max_players":24,"Bots":0,"server_type":"Dedicated","server_os":"Linux","password":true,"vac":true,"version":"7757534","steam_id":85568392924469982,"keywords":["nocrits","nodmgspread","payload","uncletopia"],"game_id":440,"stv_port":27016,"stv_name":"Uncletopia | Atlanta | 1 | All Maps | STV","players":[{"user_id":491,"name":"Biosock Infiknit","steam_id":76561198072693794,"connected_time":747000000000,"state":"active","ping":74},{"user_id":465,"name":"Dr. drippenstein","steam_id":76561198209380493,"connected_time":2098000000000,"state":"active","ping":63},{"user_id":454,"name":"great value le4n","steam_id":76561198079416036,"connected_time":2535000000000,"state":"active","ping":76},{"user_id":479,"name":"dustbowl","steam_id":76561198050220225,"connected_time":995000000000,"state":"active","ping":65},{"user_id":381,"name":"DoomoPelota","steam_id":76561198326462587,"connected_time":8577000000000,"state":"active","ping":90},{"user_id":467,"name":"The Notorious RBG","steam_id":76561198014275148,"connected_time":2050000000000,"state":"active","ping":85},{"user_id":483,"name":"tyg","steam_id":76561198056246867,"connected_time":951000000000,"state":"active","ping":61},{"user_id":472,"name":"mayhem","steam_id":76561199246637881,"connected_time":1831000000000,"state":"active","ping":52},{"user_id":499,"name":"ATL1 | Pango","steam_id":76561198069811545,"connected_time":57000000000,"state":"active","ping":35},{"user_id":478,"name":"GKEmperor","steam_id":76561197995187011,"connected_time":998000000000,"state":"active","ping":77},{"user_id":484,"name":"Pyrology","steam_id":76561198838757422,"connected_time":918000000000,"state":"active","ping":85},{"user_id":498,"name":"O'Keearns","steam_id":76561198042213797,"connected_time":286000000000,"state":"active","ping":46},{"user_id":492,"name":"Jona2180","steam_id":76561198807012900,"connected_time":746000000000,"state":"active","ping":65},{"user_id":487,"name":"Cheeki","steam_id":76561198024375176,"connected_time":911000000000,"state":"active","ping":58},{"user_id":461,"name":"Kuddly Kay (She/Her)","steam_id":76561198353432576,"connected_time":2189000000000,"state":"active","ping":91},{"user_id":488,"name":"BIG HOG","steam_id":76561198079923652,"connected_time":883000000000,"state":"active","ping":64},{"user_id":441,"name":"jazztree14","steam_id":76561199239395356,"connected_time":3406000000000,"state":"active","ping":76},{"user_id":497,"name":"Comfy Monkey","steam_id":76561197998434936,"connected_time":484000000000,"state":"active","ping":47},{"user_id":473,"name":"Lovedaddy","steam_id":76561198006569710,"connected_time":1680000000000,"state":"active","ping":90},{"user_id":494,"name":"hack fraud","steam_id":76561198015036066,"connected_time":739000000000,"state":"active","ping":90},{"user_id":495,"name":"themadlad67","steam_id":76561199309554436,"connected_time":730000000000,"state":"active","ping":128},{"user_id":447,"name":"Brown_Dream","steam_id":76561198975766145,"connected_time":2981000000000,"state":"active","ping":70},{"user_id":423,"name":"SparkStorm","steam_id":76561198095817025,"connected_time":4875000000000,"state":"active","ping":37},{"user_id":477,"name":"‚ô•Bunny‚ô•Slut‚ô•","steam_id":76561198206376851,"connected_time":1253000000000,"state":"active","ping":99}]},{"server_id":104,"name":"Uncletopia | Atlanta | 2 | All Maps","name_short":"atl-2","host":"atl-1.us.uncletopia.com","port":27025,"enabled":true,"region":"us-east","cc":"us","latitude":33.753746,"longitude":-84.38633,"reserved":0,"last_update":"0001-01-01T00:00:00Z","name_a2s":"Uncletopia | Atlanta | 2 | All Maps","protocol":17,"map":"pl_upward","folder":"tf","game":"Team Fortress","app_id":440,"player_count":24,"max_players":24,"Bots":0,"server_type":"Dedicated","server_os":"Linux","password":true,"vac":true,"version":"7757534","steam_id":85568392924469983,"keywords":["nocrits","nodmgspread","payload","uncletopia"],"game_id":440,"stv_port":27026,"stv_name":"Uncletopia | Atlanta | 2 | All Maps | STV","players":[{"user_id":128,"name":"sentience","steam_id":76561198098781227,"connected_time":1880000000000,"state":"active","ping":81},{"user_id":134,"name":"kametro4","steam_id":76561198835430429,"connected_time":1441000000000,"state":"active","ping":101},{"user_id":151,"name":"Cassius","steam_id":76561198146163328,"connected_time":123000000000,"state":"active","ping":91},{"user_id":138,"name":"poiuytrewqwqwqwqwqwqwqwqwqwqwqw","steam_id":76561199105253001,"connected_time":762000000000,"state":"active","ping":77},{"user_id":129,"name":"tsaide","steam_id":76561198384120999,"connected_time":1877000000000,"state":"active","ping":77},{"user_id":139,"name":"OttoDogX","steam_id":76561198042007578,"connected_time":746000000000,"state":"active","ping":106},{"user_id":30,"name":"Mister","steam_id":76561198097164652,"connected_time":8522000000000,"state":"active","ping":73},{"user_id":135,"name":"Wumbologist","steam_id":76561198188729514,"connected_time":1241000000000,"state":"active","ping":48},{"user_id":122,"name":"Borat Voice My Wife","steam_id":76561198020474727,"connected_time":2478000000000,"state":"active","ping":66},{"user_id":89,"name":"Icaras","steam_id":76561198416724843,"connected_time":5281000000000,"state":"active","ping":127},{"user_id":99,"name":"mylomalopi","steam_id":76561198354990729,"connected_time":4405000000000,"state":"active","ping":77},{"user_id":143,"name":"playguy carter","steam_id":76561198080679337,"connected_time":540000000000,"state":"active","ping":74},{"user_id":146,"name":"god(real)","steam_id":76561198231361800,"connected_time":481000000000,"state":"active","ping":69},{"user_id":131,"name":"Cosmic stupid beam","steam_id":76561198085815757,"connected_time":1697000000000,"state":"active","ping":77},{"user_id":56,"name":"Highground","steam_id":76561199197544789,"connected_time":7281000000000,"state":"active","ping":131},{"user_id":152,"name":"Pie","steam_id":76561198020132112,"connected_time":101000000000,"state":"active","ping":102},{"user_id":150,"name":"ConiferCarver(#SaveTF2)","steam_id":76561198195875845,"connected_time":147000000000,"state":"active","ping":107},{"user_id":82,"name":"Jghost","steam_id":76561198079520603,"connected_time":5678000000000,"state":"active","ping":102},{"user_id":142,"name":"conscripted monk","steam_id":76561199029246232,"connected_time":723000000000,"state":"active","ping":64},{"user_id":100,"name":"El Bondin","steam_id":76561198820792434,"connected_time":4403000000000,"state":"active","ping":80},{"user_id":145,"name":"cheapdisplay","steam_id":76561199206448493,"connected_time":502000000000,"state":"active","ping":84},{"user_id":126,"name":"masked menace","steam_id":76561198015964359,"connected_time":2218000000000,"state":"active","ping":88},{"user_id":153,"name":"Bloo","steam_id":76561199015827567,"connected_time":52000000000,"state":"active","ping":81},{"user_id":148,"name":"Varveer","steam_id":76561198218897383,"connected_time":457000000000,"state":"active","ping":103}]},{"server_id":400,"name":"Uncletopia | Atlanta | 3 | Community","name_short":"atl-3","host":"atl-1.us.uncletopia.com","port":27035,"enabled":true,"region":"us-east","cc":"us","latitude":33.753746,"longitude":-84.38633,"reserved":0,"last_update":"0001-01-01T00:00:00Z","name_a2s":"Uncletopia | Atlanta | 3 | Community","protocol":17,"map":"workshop/pl_eruption_b9a.ugc2807898013","folder":"tf","game":"Team Fortress","app_id":440,"player_count":24,"max_players":24,"Bots":0,"server_type":"Dedicated","server_os":"Linux","password":true,"vac":true,"version":"7757534","steam_id":85568392924515187,"keywords":["nocrits","nodmgspread","payload","uncletopia"],"game_id":440,"stv_port":27036,"stv_name":"Uncletopia | Atlanta | 3 | Community | STV","players":[{"user_id":82,"name":"Universe Man","steam_id":76561197997710655,"connected_time":67000000000,"state":"active","ping":70},{"user_id":12,"name":"William Wallace","steam_id":76561199343316814,"connected_time":5797000000000,"state":"active","ping":59},{"user_id":29,"name":"Kyatoru","steam_id":76561198360597965,"connected_time":3628000000000,"state":"active","ping":139},{"user_id":74,"name":"kt","steam_id":76561198946374858,"connected_time":405000000000,"state":"active","ping":81},{"user_id":16,"name":"Yoru","steam_id":76561198119698950,"connected_time":4328000000000,"state":"active","ping":115},{"user_id":58,"name":"Lively Ivy","steam_id":76561198318235567,"connected_time":1886000000000,"state":"active","ping":97},{"user_id":34,"name":"paloma","steam_id":76561198066076086,"connected_time":3521000000000,"state":"active","ping":129},{"user_id":79,"name":"Wagemage","steam_id":76561198013625580,"connected_time":119000000000,"state":"active","ping":69},{"user_id":37,"name":"Mr_Frosty","steam_id":76561199380389079,"connected_time":3466000000000,"state":"active","ping":87},{"user_id":54,"name":"Punished Kong","steam_id":76561198973620882,"connected_time":2076000000000,"state":"active","ping":91},{"user_id":66,"name":"SR388","steam_id":76561199172178689,"connected_time":690000000000,"state":"active","ping":69},{"user_id":81,"name":"Krog","steam_id":76561198871105696,"connected_time":71000000000,"state":"active","ping":69},{"user_id":30,"name":"Shoe","steam_id":76561198951926312,"connected_time":3626000000000,"state":"active","ping":79},{"user_id":31,"name":"Patty Jameson Mcaulay","steam_id":76561199006744807,"connected_time":3612000000000,"state":"active","ping":100},{"user_id":59,"name":"PingableUsername","steam_id":76561198138760165,"connected_time":1866000000000,"state":"active","ping":89},{"user_id":33,"name":"Tamalito109","steam_id":76561198310531554,"connected_time":3563000000000,"state":"active","ping":93},{"user_id":35,"name":"Broadsword","steam_id":76561198011160411,"connected_time":3510000000000,"state":"active","ping":55},{"user_id":45,"name":"username","steam_id":76561198130826890,"connected_time":3318000000000,"state":"active","ping":62},{"user_id":64,"name":"SIGMA [BS]","steam_id":76561197962604879,"connected_time":1101000000000,"state":"active","ping":65},{"user_id":77,"name":"aisu","steam_id":76561198043768507,"connected_time":207000000000,"state":"active","ping":97},{"user_id":40,"name":"supermarioben2","steam_id":76561198171090445,"connected_time":3402000000000,"state":"active","ping":109},{"user_id":73,"name":"trilobita","steam_id":76561198428215606,"connected_time":478000000000,"state":"active","ping":70},{"user_id":60,"name":"PageBoiSkull","steam_id":76561198237353578,"connected_time":1865000000000,"state":"active","ping":112},{"user_id":84,"name":"Beansniffer94","steam_id":76561198815600865,"connected_time":45000000000,"state":"active","ping":100}]},{"server_id":401,"name":"Uncletopia | Atlanta | 4 | No Payload","name_short":"atl-4","host":"atl-1.us.uncletopia.com","port":27045,"enabled":true,"region":"us-east","cc":"us","latitude":33.753746,"longitude":-84.38633,"reserved":0,"last_update":"0001-01-01T00:00:00Z","name_a2s":"","protocol":0,"map":"","folder":"","game":"","app_id":0,"player_count":0,"max_players":0,"Bots":0,"server_type":"","server_os":"","password":false,"vac":false,"version":"","steam_id":0,"keywords":null,"game_id":0,"stv_port":0,"stv_name":"","players":null},{"server_id":2,"name":"Uncletopia | Chicago | 1 | All Maps","name_short":"chi-1","host":"chi-1.us.uncletopia.com","port":27015,"enabled":true,"region":"us-central","cc":"us","latitude":41.881832,"longitude":-87.62318,"reserved":0,"last_update":"0001-01-01T00:00:00Z","name_a2s":"Uncletopia | Chicago | 1 | All Maps","protocol":17,"map":"pl_swiftwater_final1","folder":"tf","game":"Team Fortress","app_id":440,"player_count":24,"max_players":24,"Bots":0,"server_type":"Dedicated","server_os":"Linux","password":true,"vac":true,"version":"7757534","steam_id":85568392924469984,"keywords":["nocrits","nodmgspread","payload","uncletopia"],"game_id":440,"stv_port":27016,"stv_name":"Uncletopia | Chicago | 1 | All Maps | STV","players":[{"user_id":437,"name":"CFG Ponder","steam_id":76561198127039453,"connected_time":1186000000000,"state":"active","ping":95},{"user_id":408,"name":"Usman","steam_id":76561198430295625,"connected_time":3231000000000,"state":"active","ping":73},{"user_id":433,"name":"TeeTree","steam_id":76561198862307874,"connected_time":1205000000000,"state":"active","ping":60},{"user_id":442,"name":"Shmebulock","steam_id":76561198046941925,"connected_time":1156000000000,"state":"active","ping":59},{"user_id":431,"name":"Big Phonius","steam_id":76561199092395311,"connected_time":1592000000000,"state":"active","ping":63},{"user_id":447,"name":"Sentry Gun (American)","steam_id":76561198313770809,"connected_time":918000000000,"state":"active","ping":58},{"user_id":438,"name":"GoldtoothFour","steam_id":76561198055529332,"connected_time":1182000000000,"state":"active","ping":55},{"user_id":411,"name":"jdt631","steam_id":76561198271999934,"connected_time":3184000000000,"state":"active","ping":89},{"user_id":451,"name":"blakejack226","steam_id":76561199128917566,"connected_time":545000000000,"state":"active","ping":82},{"user_id":440,"name":"Kickpuncher","steam_id":76561198121528357,"connected_time":1169000000000,"state":"active","ping":79},{"user_id":455,"name":"Wolbey","steam_id":76561198042148095,"connected_time":311000000000,"state":"active","ping":47},{"user_id":436,"name":"Jbomb","steam_id":76561199197866625,"connected_time":1197000000000,"state":"active","ping":83},{"user_id":454,"name":"Texas Man","steam_id":76561198353412986,"connected_time":325000000000,"state":"active","ping":81},{"user_id":453,"name":"SKForm","steam_id":76561198381500437,"connected_time":485000000000,"state":"active","ping":52},{"user_id":414,"name":"AlphaScout","steam_id":76561198047797890,"connected_time":3136000000000,"state":"active","ping":62},{"user_id":415,"name":"Sagoogoo","steam_id":76561198176061614,"connected_time":3128000000000,"state":"active","ping":94},{"user_id":441,"name":"BarrowBaron","steam_id":76561198013633236,"connected_time":1163000000000,"state":"active","ping":70},{"user_id":386,"name":"Sinklefink","steam_id":76561199220662103,"connected_time":4390000000000,"state":"active","ping":79},{"user_id":432,"name":"StrandedDonnie","steam_id":76561198273529989,"connected_time":1546000000000,"state":"active","ping":103},{"user_id":444,"name":"lego star wars on the psp","steam_id":76561198148014773,"connected_time":1125000000000,"state":"active","ping":78},{"user_id":366,"name":"Zoot","steam_id":76561198121944243,"connected_time":5403000000000,"state":"active","ping":78},{"user_id":420,"name":"koompa_stomp","steam_id":76561198073081735,"connected_time":3087000000000,"state":"active","ping":102},{"user_id":448,"name":"ZeN","steam_id":76561199098746585,"connected_time":732000000000,"state":"active","ping":63},{"user_id":450,"name":"Spygie","steam_id":76561198218573049,"connected_time":731000000000,"state":"active","ping":57}]},{"server_id":106,"name":"Uncletopia | Chicago | 2 | All Maps","name_short":"chi-2","host":"chi-1.us.uncletopia.com","port":27025,"enabled":true,"region":"us-central","cc":"us","latitude":41.881832,"longitude":-87.62318,"reserved":0,"last_update":"0001-01-01T00:00:00Z","name_a2s":"Uncletopia | Chicago | 2 | All Maps","protocol":17,"map":"cp_gorge","folder":"tf","game":"Team Fortress","app_id":440,"player_count":24,"max_players":24,"Bots":0,"server_type":"Dedicated","server_os":"Linux","password":true,"vac":true,"version":"7757534","steam_id":85568392924469985,"keywords":["cp","nocrits","nodmgspread","uncletopia"],"game_id":440,"stv_port":27026,"stv_name":"Uncletopia | Chicago | 2 | All Maps | STV","players":[{"user_id":317,"name":"asbestos","steam_id":76561198079178866,"connected_time":7989000000000,"state":"active","ping":63},{"user_id":372,"name":"caberknight tf2","steam_id":76561199273882768,"connected_time":2558000000000,"state":"active","ping":69},{"user_id":369,"name":"local medic main","steam_id":76561198886157874,"connected_time":2651000000000,"state":"active","ping":74},{"user_id":365,"name":"xerro","steam_id":76561198323340524,"connected_time":2751000000000,"state":"active","ping":143},{"user_id":366,"name":"‚ù§Breadshot (She)‚ù§","steam_id":76561199005756738,"connected_time":2729000000000,"state":"active","ping":59},{"user_id":376,"name":"Mr. Cheesey","steam_id":76561198153462183,"connected_time":2344000000000,"state":"active","ping":59},{"user_id":253,"name":"Jack The Racc","steam_id":76561198044762365,"connected_time":12687000000000,"state":"active","ping":47},{"user_id":373,"name":"Honolulu","steam_id":76561198106381764,"connected_time":2557000000000,"state":"active","ping":52},{"user_id":401,"name":"‚í∑‚ìõ‚ìê‚ìí‚ìö‚íº‚ì§‚ì®‚ë†‚ë•","steam_id":76561198121581363,"connected_time":2000000000,"state":"spawning","ping":49},{"user_id":370,"name":"Wahooka","steam_id":76561197962240925,"connected_time":2600000000000,"state":"active","ping":60},{"user_id":380,"name":"toho","steam_id":76561198117747254,"connected_time":1868000000000,"state":"active","ping":61},{"user_id":338,"name":"popfulmail","steam_id":76561198865971290,"connected_time":5587000000000,"state":"active","ping":84},{"user_id":393,"name":"Vem","steam_id":76561198117273112,"connected_time":699000000000,"state":"active","ping":72},{"user_id":392,"name":"Ajax","steam_id":76561197962240140,"connected_time":713000000000,"state":"active","ping":69},{"user_id":394,"name":"CherriKat (She/Her)","steam_id":76561198821297512,"connected_time":661000000000,"state":"active","ping":105},{"user_id":395,"name":"Griffin","steam_id":76561198159339442,"connected_time":638000000000,"state":"active","ping":65},{"user_id":400,"name":"Jeugh","steam_id":76561198073498865,"connected_time":149000000000,"state":"active","ping":87},{"user_id":374,"name":"Prec1sioN","steam_id":76561198931137867,"connected_time":2537000000000,"state":"active","ping":51},{"user_id":384,"name":"ConfettiCannon","steam_id":76561198062946700,"connected_time":1660000000000,"state":"active","ping":48},{"user_id":383,"name":"Large Man","steam_id":76561198880396651,"connected_time":1725000000000,"state":"active","ping":86},{"user_id":399,"name":"xbox record that","steam_id":76561198040912048,"connected_time":338000000000,"state":"active","ping":45},{"user_id":397,"name":"General Patton","steam_id":76561198414328479,"connected_time":513000000000,"state":"active","ping":49},{"user_id":396,"name":"he/him whimper","steam_id":76561198097175164,"connected_time":628000000000,"state":"active","ping":80},{"user_id":389,"name":"4d4","steam_id":76561198402360789,"connected_time":814000000000,"state":"active","ping":70}]},{"server_id":402,"name":"Uncletopia | Chicago | 3 | All Maps","name_short":"chi-3","host":"chi-1.us.uncletopia.com","port":27035,"enabled":true,"region":"us-central","cc":"us","latitude":41.881832,"longitude":-87.62318,"reserved":0,"last_update":"0001-01-01T00:00:00Z","name_a2s":"Uncletopia | Chicago | 3 | All Maps","protocol":17,"map":"pl_snowycoast","folder":"tf","game":"Team Fortress","app_id":440,"player_count":24,"max_players":24,"Bots":0,"server_type":"Dedicated","server_os":"Linux","password":true,"vac":true,"version":"7757534","steam_id":85568392924515191,"keywords":["nocrits","nodmgspread","payload","uncletopia"],"game_id":440,"stv_port":27036,"stv_name":"Uncletopia | Chicago | 3 | All Maps | STV","players":[{"user_id":70,"name":"superstar*‚ú©‚Äß‚ÇäÀö","steam_id":76561198078395002,"connected_time":1626000000000,"state":"active","ping":65},{"user_id":48,"name":"full of pilk","steam_id":76561198092716651,"connected_time":4083000000000,"state":"active","ping":71},{"user_id":80,"name":"Skab","steam_id":76561199126112357,"connected_time":439000000000,"state":"active","ping":78},{"user_id":52,"name":"nix","steam_id":76561199058146645,"connected_time":3917000000000,"state":"active","ping":152},{"user_id":63,"name":"Schlebecke","steam_id":76561199044752122,"connected_time":2705000000000,"state":"active","ping":59},{"user_id":22,"name":"custodian","steam_id":76561198058793778,"connected_time":4900000000000,"state":"active","ping":78},{"user_id":74,"name":"puke","steam_id":76561197999279693,"connected_time":598000000000,"state":"active","ping":78},{"user_id":72,"name":"‚ä∞Aero‚ä±","steam_id":76561198084648457,"connected_time":703000000000,"state":"active","ping":58},{"user_id":49,"name":"drdoofus123","steam_id":76561198016826181,"connected_time":4062000000000,"state":"active","ping":76},{"user_id":29,"name":"Cat","steam_id":76561198027383284,"connected_time":4591000000000,"state":"active","ping":156},{"user_id":30,"name":"wuddles","steam_id":76561198025782349,"connected_time":4571000000000,"state":"active","ping":105},{"user_id":71,"name":"theRainyMute","steam_id":76561198127625760,"connected_time":1185000000000,"state":"active","ping":67},{"user_id":32,"name":"Mosi ‚òæ","steam_id":76561198015281553,"connected_time":4547000000000,"state":"active","ping":86},{"user_id":33,"name":"doc","steam_id":76561197997949711,"connected_time":4540000000000,"state":"active","ping":63},{"user_id":81,"name":"footoftheday","steam_id":76561198052712449,"connected_time":258000000000,"state":"active","ping":78},{"user_id":35,"name":"i really like this dog :)","steam_id":76561198882404753,"connected_time":4481000000000,"state":"active","ping":75},{"user_id":53,"name":"soup","steam_id":76561198077790130,"connected_time":3327000000000,"state":"active","ping":58},{"user_id":76,"name":"Sex on the peach","steam_id":76561198002353326,"connected_time":571000000000,"state":"active","ping":100},{"user_id":57,"name":"LukeLeal","steam_id":76561198049822995,"connected_time":2986000000000,"state":"active","ping":175},{"user_id":65,"name":"phone","steam_id":76561198029268743,"connected_time":2653000000000,"state":"active","ping":60},{"user_id":41,"name":"The Dokkan Dance","steam_id":76561198855935442,"connected_time":4329000000000,"state":"active","ping":75},{"user_id":79,"name":"Baker","steam_id":76561198055196430,"connected_time":489000000000,"state":"active","ping":80},{"user_id":78,"name":"Engineer Gaming","steam_id":76561198840761529,"connected_time":546000000000,"state":"active","ping":60},{"user_id":67,"name":"MEATBALL","steam_id":76561198028499312,"connected_time":1866000000000,"state":"active","ping":61}]},{"server_id":403,"name":"Uncletopia | Chicago | 4 | All Maps","name_short":"chi-4","host":"chi-1.us.uncletopia.com","port":27045,"enabled":true,"region":"us-central","cc":"us","latitude":41.881832,"longitude":-87.62318,"reserved":0,"last_update":"0001-01-01T00:00:00Z","name_a2s":"Uncletopia | Chicago | 4 | All Maps","protocol":17,"map":"pl_badwater","folder":"tf","game":"Team Fortress","app_id":440,"player_count":24,"max_players":24,"Bots":0,"server_type":"Dedicated","server_os":"Linux","password":true,"vac":true,"version":"7757534","steam_id":85568392924515193,"keywords":["nocrits","nodmgspread","payload","uncletopia"],"game_id":440,"stv_port":27046,"stv_name":"Uncletopia | Chicago | 4 | All Maps | STV","players":[{"user_id":292,"name":"Quark","steam_id":76561198328155605,"connected_time":875000000000,"state":"active","ping":54},{"user_id":297,"name":"gorilla","steam_id":76561199103766971,"connected_time":606000000000,"state":"active","ping":88},{"user_id":291,"name":"Coupon","steam_id":76561198111947598,"connected_time":1090000000000,"state":"active","ping":77},{"user_id":271,"name":"sky_guy","steam_id":76561198058668342,"connected_time":2244000000000,"state":"active","ping":61},{"user_id":312,"name":"Cancer Patient","steam_id":76561198078578085,"connected_time":32000000000,"state":"spawning","ping":110},{"user_id":304,"name":"PurplePond","steam_id":76561199062421006,"connected_time":527000000000,"state":"active","ping":53},{"user_id":250,"name":"Cerabond","steam_id":76561199230915333,"connected_time":4268000000000,"state":"active","ping":84},{"user_id":299,"name":"EmeraldCola","steam_id":76561198066663687,"connected_time":573000000000,"state":"active","ping":65},{"user_id":197,"name":"Xen","steam_id":76561198025311844,"connected_time":6951000000000,"state":"active","ping":84},{"user_id":209,"name":"chimb","steam_id":76561197993795544,"connected_time":6680000000000,"state":"active","ping":94},{"user_id":285,"name":"Mister Stabbeh","steam_id":76561197999776492,"connected_time":1593000000000,"state":"active","ping":75},{"user_id":308,"name":"barbara","steam_id":76561198072417792,"connected_time":75000000000,"state":"active","ping":115},{"user_id":302,"name":"Rcmdr","steam_id":76561198446151354,"connected_time":547000000000,"state":"active","ping":77},{"user_id":309,"name":"hoboways","steam_id":76561198168035195,"connected_time":73000000000,"state":"active","ping":79},{"user_id":313,"name":"RyInc","steam_id":76561198874261643,"connected_time":27000000000,"state":"active","ping":50},{"user_id":236,"name":"Yosh","steam_id":76561198027078899,"connected_time":5123000000000,"state":"active","ping":75},{"user_id":270,"name":"volta","steam_id":76561199214283884,"connected_time":2257000000000,"state":"active","ping":102},{"user_id":311,"name":"Roberto Del Fuego","steam_id":76561198043458554,"connected_time":55000000000,"state":"active","ping":48},{"user_id":204,"name":"David Rainbowie","steam_id":76561198046237033,"connected_time":6727000000000,"state":"active","ping":83},{"user_id":213,"name":"Niplets","steam_id":76561198021229322,"connected_time":6494000000000,"state":"active","ping":103},{"user_id":301,"name":"Mr.Cool","steam_id":76561198132105194,"connected_time":564000000000,"state":"active","ping":182},{"user_id":306,"name":"¬•EN","steam_id":76561199027555268,"connected_time":254000000000,"state":"active","ping":75},{"user_id":276,"name":"Yume","steam_id":76561198018060136,"connected_time":2225000000000,"state":"active","ping":77},{"user_id":279,"name":"ziaa","steam_id":76561198072411295,"connected_time":2141000000000,"state":"active","ping":47}]},{"server_id":36,"name":"Uncletopia | Chicago | 5 | All Maps","name_short":"chi-5","host":"chi-2.us.uncletopia.com","port":27015,"enabled":true,"region":"us-central","cc":"us","latitude":41.881832,"longitude":-87.62318,"reserved":0,"last_update":"0001-01-01T00:00:00Z","name_a2s":"Uncletopia | Chicago | 5 | All Maps","protocol":17,"map":"pl_frontier_final","folder":"tf","game":"Team Fortress","app_id":440,"player_count":24,"max_players":24,"Bots":0,"server_type":"Dedicated","server_os":"Linux","password":true,"vac":true,"version":"7757534","steam_id":85568392924866362,"keywords":["nocrits","nodmgspread","payload","uncletopia"],"game_id":440,"stv_port":27016,"stv_name":"Uncletopia | Chicago | 5 | All Maps | STV","players":[{"user_id":120,"name":"Highjinks","steam_id":76561198150560137,"connected_time":768000000000,"state":"active","ping":145},{"user_id":118,"name":"liquidnads","steam_id":76561198153748839,"connected_time":850000000000,"state":"active","ping":58},{"user_id":102,"name":"maS","steam_id":76561198033846407,"connected_time":1324000000000,"state":"active","ping":63},{"user_id":130,"name":"Celeste Pro-Gamer","steam_id":76561198987908003,"connected_time":367000000000,"state":"active","ping":110},{"user_id":123,"name":"Slowboat","steam_id":76561198012544524,"connected_time":535000000000,"state":"active","ping":57},{"user_id":99,"name":"Assitins","steam_id":76561198041572892,"connected_time":1483000000000,"state":"active","ping":84},{"user_id":64,"name":"What The Hell","steam_id":76561198061103166,"connected_time":4576000000000,"state":"active","ping":55},{"user_id":137,"name":"chaffy","steam_id":76561198021754567,"connected_time":86000000000,"state":"active","ping":60},{"user_id":135,"name":"_SDM","steam_id":76561198050136796,"connected_time":223000000000,"state":"active","ping":90},{"user_id":117,"name":"snail","steam_id":76561197974493959,"connected_time":880000000000,"state":"active","ping":86},{"user_id":136,"name":"Mikael_01","steam_id":76561199080253129,"connected_time":198000000000,"state":"active","ping":185},{"user_id":127,"name":"Petrivus","steam_id":76561198202152453,"connected_time":459000000000,"state":"active","ping":101},{"user_id":134,"name":"Chimpish","steam_id":76561199263493270,"connected_time":283000000000,"state":"active","ping":92},{"user_id":82,"name":"pedestal boy","steam_id":76561198165567310,"connected_time":2682000000000,"state":"active","ping":59},{"user_id":83,"name":"TheCheeseWizard","steam_id":76561198058931315,"connected_time":2681000000000,"state":"active","ping":55},{"user_id":70,"name":"nines","steam_id":76561198078992548,"connected_time":3446000000000,"state":"active","ping":76},{"user_id":113,"name":"R33se","steam_id":76561198296531992,"connected_time":952000000000,"state":"active","ping":73},{"user_id":92,"name":"Y2K","steam_id":76561199191855486,"connected_time":2213000000000,"state":"active","ping":88},{"user_id":129,"name":"carp","steam_id":76561198042865147,"connected_time":424000000000,"state":"active","ping":48},{"user_id":115,"name":"lilxgray","steam_id":76561198357492189,"connected_time":913000000000,"state":"active","ping":83},{"user_id":131,"name":"KayBee","steam_id":76561198968917827,"connected_time":366000000000,"state":"active","ping":86},{"user_id":132,"name":"Jill the Owl","steam_id":76561197999210583,"connected_time":351000000000,"state":"active","ping":80},{"user_id":54,"name":"Speed Weed","steam_id":76561198007512620,"connected_time":5752000000000,"state":"active","ping":78},{"user_id":133,"name":"Mr. Dry Lips","steam_id":76561198028157625,"connected_time":342000000000,"state":"active","ping":86}]},{"server_id":37,"name":"Uncletopia | Chicago | 6 | All Maps","name_short":"chi-6","host":"chi-2.us.uncletopia.com","port":27025,"enabled":true,"region":"us-central","cc":"us","latitude":41.881832,"longitude":-87.62318,"reserved":0,"last_update":"0001-01-01T00:00:00Z","name_a2s":"Uncletopia | Chicago | 6 | All Maps","protocol":17,"map":"koth_lakeside_final","folder":"tf","game":"Team Fortress","app_id":440,"player_count":22,"max_players":24,"Bots":0,"server_type":"Dedicated","server_os":"Linux","password":true,"vac":true,"version":"7757534","steam_id":85568392924866363,"keywords":["cp","nocrits","nodmgspread","uncletopia"],"game_id":440,"stv_port":27026,"stv_name":"Uncletopia | Chicago | 6 | All Maps | STV","players":[{"user_id":29,"name":"I dont wipe","steam_id":76561198825563040,"connected_time":1722000000000,"state":"active","ping":86},{"user_id":62,"name":"King Oshawott","steam_id":76561198837009928,"connected_time":8000000000,"state":"spawning","ping":65},{"user_id":55,"name":"Yenchnik","steam_id":76561198123205888,"connected_time":442000000000,"state":"active","ping":69},{"user_id":33,"name":"bachphong760","steam_id":76561199433780443,"connected_time":1042000000000,"state":"active","ping":87},{"user_id":27,"name":"\u003c3Elise\u003c3","steam_id":76561198146435005,"connected_time":2163000000000,"state":"active","ping":80},{"user_id":56,"name":"917-258-3609","steam_id":76561198174436329,"connected_time":439000000000,"state":"active","ping":68},{"user_id":35,"name":"Kumatora","steam_id":76561198137748378,"connected_time":971000000000,"state":"active","ping":52},{"user_id":36,"name":"poe","steam_id":76561198155720118,"connected_time":936000000000,"state":"active","ping":44},{"user_id":39,"name":"ProjectForAwesome.com","steam_id":76561198122377121,"connected_time":902000000000,"state":"active","ping":123},{"user_id":40,"name":"NanootFES","steam_id":76561198067773031,"connected_time":850000000000,"state":"active","ping":72},{"user_id":41,"name":"Bajatsune Miku Blast","steam_id":76561198360184510,"connected_time":844000000000,"state":"active","ping":56},{"user_id":57,"name":"Kraul","steam_id":76561198043682060,"connected_time":380000000000,"state":"active","ping":101},{"user_id":63,"name":"sock","steam_id":76561199117597830,"connected_time":6000000000,"state":"spawning","ping":73},{"user_id":47,"name":"Grill.","steam_id":76561198084040844,"connected_time":752000000000,"state":"active","ping":82},{"user_id":49,"name":"DrCoeloCephalo","steam_id":76561198102666293,"connected_time":722000000000,"state":"active","ping":75},{"user_id":51,"name":"Yumyumyaz","steam_id":76561198142866179,"connected_time":704000000000,"state":"active","ping":94},{"user_id":58,"name":"JJc","steam_id":76561198021164742,"connected_time":261000000000,"state":"active","ping":45},{"user_id":54,"name":"Gavil√°n","steam_id":76561198285212453,"connected_time":602000000000,"state":"active","ping":103},{"user_id":59,"name":"AnotherCrusader","steam_id":76561199263562904,"connected_time":228000000000,"state":"active","ping":52},{"user_id":61,"name":"The Crybaby","steam_id":76561198817913190,"connected_time":143000000000,"state":"active","ping":77},{"user_id":64,"name":"R√∂ntgen","steam_id":76561197993492325,"connected_time":4000000000,"state":"spawning","ping":103},{"user_id":65,"name":"SchmitySchmit","steam_id":76561198127024448,"connected_time":4000000000,"state":"spawning","ping":100}]},{"server_id":38,"name":"Uncletopia | Chicago | 7 | Stopwatch Beta","name_short":"chi-7","host":"chi-2.us.uncletopia.com","port":27035,"enabled":true,"region":"us-central","cc":"us","latitude":41.881832,"longitude":-87.62318,"reserved":0,"last_update":"0001-01-01T00:00:00Z","name_a2s":"Uncletopia | Chicago | 7 | Stopwatch Beta","protocol":17,"map":"pl_barnblitz","folder":"tf","game":"Team Fortress","app_id":440,"player_count":0,"max_players":24,"Bots":0,"server_type":"Dedicated","server_os":"Linux","password":true,"vac":true,"version":"7757534","steam_id":85568392924866364,"keywords":["nocrits","nodmgspread","payload","uncletopia"],"game_id":440,"stv_port":27036,"stv_name":"Uncletopia | Chicago | 7 | Stopwatch Beta | STV","players":null},{"server_id":39,"name":"Uncletopia | Chicago | 8 | Community","name_short":"chi-8","host":"chi-2.us.uncletopia.com","port":27045,"enabled":true,"region":"us-central","cc":"us","latitude":41.881832,"longitude":-87.62318,"reserved":0,"last_update":"0001-01-01T00:00:00Z","name_a2s":"Uncletopia | Chicago | 8 | Community","protocol":17,"map":"koth_cascade","folder":"tf","game":"Team Fortress","app_id":440,"player_count":4,"max_players":24,"Bots":0,"server_type":"Dedicated","server_os":"Linux","password":true,"vac":true,"version":"7757534","steam_id":85568392924866365,"keywords":["cp","nocrits","nodmgspread","uncletopia"],"game_id":440,"stv_port":27046,"stv_name":"Uncletopia | Chicago | 8 | Community | STV","players":[{"user_id":12,"name":"feenman","steam_id":76561199383834799,"connected_time":1127000000000,"state":"active","ping":96},{"user_id":13,"name":"idkwhattosayabouthis","steam_id":76561199354244162,"connected_time":1056000000000,"state":"active","ping":108},{"user_id":15,"name":"Shitty Hanzo","steam_id":76561198145431353,"connected_time":900000000000,"state":"active","ping":57},{"user_id":16,"name":"Mister Mystical Perfection","steam_id":76561198036444997,"connected_time":420000000000,"state":"active","ping":76}]},{"server_id":8,"name":"Uncletopia | Dallas | 1 | All Maps","name_short":"dal-1","host":"dal-1.us.uncletopia.com","port":27015,"enabled":true,"region":"us-central","cc":"us","latitude":32.779167,"longitude":-96.80889,"reserved":0,"last_update":"0001-01-01T00:00:00Z","name_a2s":"Uncletopia | Dallas | 1 | All Maps","protocol":17,"map":"pl_frontier_final","folder":"tf","game":"Team Fortress","app_id":440,"player_count":24,"max_players":24,"Bots":0,"server_type":"Dedicated","server_os":"Linux","password":true,"vac":true,"version":"7757534","steam_id":85568392924469986,"keywords":["nocrits","nodmgspread","payload","uncletopia"],"game_id":440,"stv_port":27016,"stv_name":"Uncletopia | Dallas | 1 | All Maps | STV","players":[{"user_id":317,"name":"warrior","steam_id":76561198074500319,"connected_time":1107000000000,"state":"active","ping":107},{"user_id":299,"name":"Fresh Lychee","steam_id":76561198045399559,"connected_time":2121000000000,"state":"active","ping":76},{"user_id":266,"name":"Imrgrim","steam_id":76561198135866481,"connected_time":3913000000000,"state":"active","ping":63},{"user_id":325,"name":"albert jones","steam_id":76561198404271005,"connected_time":179000000000,"state":"active","ping":63},{"user_id":285,"name":"Fox","steam_id":76561198063507627,"connected_time":2872000000000,"state":"active","ping":32},{"user_id":318,"name":"lamadre07","steam_id":76561198067337453,"connected_time":1067000000000,"state":"active","ping":76},{"user_id":311,"name":"Viper_Ray","steam_id":76561199068788737,"connected_time":1713000000000,"state":"active","ping":95},{"user_id":321,"name":"Kidzbopsicle","steam_id":76561198047660691,"connected_time":352000000000,"state":"active","ping":75},{"user_id":263,"name":"austintacious","steam_id":76561198054118061,"connected_time":4475000000000,"state":"active","ping":71},{"user_id":316,"name":"DMM","steam_id":76561198065426171,"connected_time":1217000000000,"state":"active","ping":57},{"user_id":324,"name":"TechnoBear2099","steam_id":76561198238863596,"connected_time":268000000000,"state":"active","ping":45},{"user_id":190,"name":"Suns","steam_id":76561198272323195,"connected_time":9536000000000,"state":"active","ping":70},{"user_id":309,"name":"Wayne Noodleman","steam_id":76561198046347398,"connected_time":1855000000000,"state":"active","ping":98},{"user_id":237,"name":"iaPK","steam_id":76561198056618642,"connected_time":6394000000000,"state":"active","ping":45},{"user_id":327,"name":"Fredrick","steam_id":76561197981419964,"connected_time":92000000000,"state":"active","ping":89},{"user_id":304,"name":"schizophrenic Stack stan","steam_id":76561198214370515,"connected_time":1990000000000,"state":"active","ping":75},{"user_id":282,"name":"LerN","steam_id":76561198083463877,"connected_time":3054000000000,"state":"active","ping":81},{"user_id":319,"name":"Bogey","steam_id":76561198096227944,"connected_time":517000000000,"state":"active","ping":45},{"user_id":315,"name":"Bad Rollout","steam_id":76561197971948876,"connected_time":1422000000000,"state":"active","ping":92},{"user_id":296,"name":"Derply","steam_id":76561198871211642,"connected_time":2170000000000,"state":"active","ping":72},{"user_id":284,"name":"The World's Softest Sandwich","steam_id":76561198015577707,"connected_time":2875000000000,"state":"active","ping":76},{"user_id":323,"name":"Ultimate Talking Master","steam_id":76561198366241090,"connected_time":328000000000,"state":"active","ping":122},{"user_id":320,"name":"Apollo","steam_id":76561198162364702,"connected_time":470000000000,"state":"active","ping":98},{"user_id":326,"name":"Woozy","steam_id":76561198008220735,"connected_time":129000000000,"state":"active","ping":75}]},{"server_id":108,"name":"Uncletopia | Dallas | 2 | All Maps","name_short":"dal-2","host":"dal-1.us.uncletopia.com","port":27025,"enabled":true,"region":"us-central","cc":"us","latitude":32.779167,"longitude":-96.80889,"reserved":0,"last_update":"0001-01-01T00:00:00Z","name_a2s":"Uncletopia | Dallas | 2 | All Maps","protocol":17,"map":"pl_badwater","folder":"tf","game":"Team Fortress","app_id":440,"player_count":24,"max_players":24,"Bots":0,"server_type":"Dedicated","server_os":"Linux","password":true,"vac":true,"version":"7757534","steam_id":85568392924469988,"keywords":["nocrits","nodmgspread","payload","uncletopia"],"game_id":440,"stv_port":27026,"stv_name":"Uncletopia | Dallas | 2 | All Maps | STV","players":[{"user_id":235,"name":"Chief Diggery K.","steam_id":76561198066629137,"connected_time":692000000000,"state":"active","ping":107},{"user_id":234,"name":"Lowvast","steam_id":76561198068455981,"connected_time":706000000000,"state":"active","ping":64},{"user_id":188,"name":"James","steam_id":76561198081313916,"connected_time":3352000000000,"state":"active","ping":71},{"user_id":225,"name":"wolf_71","steam_id":76561198963570945,"connected_time":1376000000000,"state":"active","ping":44},{"user_id":221,"name":"Peter McKay","steam_id":76561198842221188,"connected_time":1774000000000,"state":"active","ping":81},{"user_id":241,"name":"Big Jack Horner","steam_id":76561198847690613,"connected_time":329000000000,"state":"active","ping":97},{"user_id":243,"name":"Rhutebeer","steam_id":76561198018302761,"connected_time":164000000000,"state":"active","ping":84},{"user_id":247,"name":"TimeCalm","steam_id":76561197991345488,"connected_time":39000000000,"state":"active","ping":84},{"user_id":226,"name":"poke_ravi","steam_id":76561198006619886,"connected_time":1361000000000,"state":"active","ping":89},{"user_id":244,"name":"Lenny","steam_id":76561198183943137,"connected_time":148000000000,"state":"active","ping":79},{"user_id":218,"name":"Idiotden","steam_id":76561199340950135,"connected_time":1814000000000,"state":"active","ping":76},{"user_id":210,"name":"Mike577352","steam_id":76561198041859545,"connected_time":2086000000000,"state":"active","ping":95},{"user_id":238,"name":"Gelliterate","steam_id":76561198107233070,"connected_time":616000000000,"state":"active","ping":59},{"user_id":245,"name":"radiation","steam_id":76561198001157602,"connected_time":102000000000,"state":"active","ping":70},{"user_id":232,"name":"Colonel Salt","steam_id":76561198207009563,"connected_time":756000000000,"state":"active","ping":60},{"user_id":242,"name":"cosmic","steam_id":76561198201496826,"connected_time":271000000000,"state":"active","ping":87},{"user_id":212,"name":"COOK","steam_id":76561198149929885,"connected_time":1990000000000,"state":"active","ping":76},{"user_id":233,"name":"CaptainKn1ght","steam_id":76561198018979695,"connected_time":746000000000,"state":"active","ping":85},{"user_id":185,"name":"The Dead Weight","steam_id":76561198056694098,"connected_time":3545000000000,"state":"active","ping":68},{"user_id":217,"name":"bencw2020","steam_id":76561199444758049,"connected_time":1933000000000,"state":"active","ping":95},{"user_id":246,"name":"|-HyperCube-|","steam_id":76561198167133597,"connected_time":97000000000,"state":"active","ping":57},{"user_id":158,"name":"fazaness","steam_id":76561198851525394,"connected_time":5190000000000,"state":"active","ping":98},{"user_id":213,"name":"a bucket of chicken","steam_id":76561198023710042,"connected_time":1989000000000,"state":"active","ping":47},{"user_id":230,"name":"antoniov00gaming","steam_id":76561198364632073,"connected_time":955000000000,"state":"active","ping":84}]},{"server_id":5,"name":"Uncletopia | Frankfurt | 1 | All Maps","name_short":"frk-1","host":"frk-1.de.uncletopia.com","port":27015,"enabled":true,"region":"eu","cc":"de","latitude":50.110924,"longitude":8.682127,"reserved":0,"last_update":"0001-01-01T00:00:00Z","name_a2s":"Uncletopia | Frankfurt | 1 | All Maps","protocol":17,"map":"koth_viaduct","folder":"tf","game":"Team Fortress","app_id":440,"player_count":24,"max_players":24,"Bots":0,"server_type":"Dedicated","server_os":"Linux","password":true,"vac":true,"version":"7757534","steam_id":85568392924469989,"keywords":["cp","nocrits","nodmgspread","uncletopia"],"game_id":440,"stv_port":27016,"stv_name":"Uncletopia | Frankfurt | 1 | All Maps | STV","players":[{"user_id":395,"name":"Malai","steam_id":76561198062537014,"connected_time":2767000000000,"state":"active","ping":61},{"user_id":377,"name":"Ralfsman11","steam_id":76561198133827569,"connected_time":3845000000000,"state":"active","ping":72},{"user_id":421,"name":"Oscarma01","steam_id":76561198031686091,"connected_time":605000000000,"state":"active","ping":80},{"user_id":416,"name":"tallen","steam_id":76561198061708595,"connected_time":1074000000000,"state":"active","ping":80},{"user_id":422,"name":"Nifi","steam_id":76561198102682566,"connected_time":497000000000,"state":"active","ping":60},{"user_id":430,"name":"midlpsyzl47","steam_id":76561199475972637,"connected_time":15000000000,"state":"active","ping":74},{"user_id":393,"name":"Somb","steam_id":76561198101672735,"connected_time":2805000000000,"state":"active","ping":68},{"user_id":423,"name":"1000 Gibibit","steam_id":76561197993654796,"connected_time":462000000000,"state":"active","ping":54},{"user_id":394,"name":"Diamhair","steam_id":76561198109020178,"connected_time":2793000000000,"state":"active","ping":82},{"user_id":409,"name":"[102nd] Lineon","steam_id":76561198170020311,"connected_time":2209000000000,"state":"active","ping":85},{"user_id":401,"name":"OrwellianDungeon","steam_id":76561198402220078,"connected_time":2688000000000,"state":"active","ping":74},{"user_id":424,"name":"Cabbch","steam_id":76561198045955679,"connected_time":442000000000,"state":"active","ping":59},{"user_id":419,"name":"Pigarus","steam_id":76561198094577136,"connected_time":1037000000000,"state":"active","ping":125},{"user_id":412,"name":"‚ú™ qua ‚ú™","steam_id":76561198066408333,"connected_time":1976000000000,"state":"active","ping":65},{"user_id":364,"name":"Tilty üë•","steam_id":76561198141834089,"connected_time":5544000000000,"state":"active","ping":59},{"user_id":413,"name":"skai","steam_id":76561198184881255,"connected_time":1833000000000,"state":"active","ping":74},{"user_id":425,"name":"Economic crisis","steam_id":76561198063562843,"connected_time":356000000000,"state":"active","ping":52},{"user_id":414,"name":"19$ Regirock","steam_id":76561198142584465,"connected_time":1378000000000,"state":"active","ping":75},{"user_id":415,"name":"venomantas","steam_id":76561198067932545,"connected_time":1346000000000,"state":"active","ping":104},{"user_id":404,"name":"The","steam_id":76561198359311605,"connected_time":2634000000000,"state":"active","ping":73},{"user_id":426,"name":"Star in a pond","steam_id":76561198205501279,"connected_time":285000000000,"state":"active","ping":99},{"user_id":427,"name":"kotamine","steam_id":76561198068907991,"connected_time":183000000000,"state":"active","ping":62},{"user_id":376,"name":"lol","steam_id":76561198322087870,"connected_time":4270000000000,"state":"active","ping":108},{"user_id":428,"name":"Kvicha Kvaratskhelia","steam_id":76561198179339326,"connected_time":161000000000,"state":"active","ping":76}]},{"server_id":110,"name":"Uncletopia | Frankfurt | 2 | All Maps","name_short":"frk-2","host":"frk-1.de.uncletopia.com","port":27025,"enabled":true,"region":"eu","cc":"de","latitude":50.110924,"longitude":8.682127,"reserved":0,"last_update":"0001-01-01T00:00:00Z","name_a2s":"Uncletopia | Frankfurt | 2 | All Maps","protocol":17,"map":"pl_pier","folder":"tf","game":"Team Fortress","app_id":440,"player_count":22,"max_players":24,"Bots":0,"server_type":"Dedicated","server_os":"Linux","password":true,"vac":true,"version":"7757534","steam_id":85568392924469990,"keywords":["nocrits","nodmgspread","payload","uncletopia"],"game_id":440,"stv_port":27026,"stv_name":"Uncletopia | Frankfurt | 2 | All Maps | STV","players":[{"user_id":155,"name":"ant753","steam_id":76561198103458889,"connected_time":468000000000,"state":"active","ping":63},{"user_id":132,"name":"hbivnm","steam_id":76561197996468677,"connected_time":2474000000000,"state":"active","ping":45},{"user_id":86,"name":"boolin'","steam_id":76561198088125671,"connected_time":4935000000000,"state":"active","ping":75},{"user_id":163,"name":"Backup","steam_id":76561197999557567,"connected_time":7000000000,"state":"spawning","ping":44},{"user_id":142,"name":"Brown","steam_id":76561197998350954,"connected_time":2063000000000,"state":"active","ping":78},{"user_id":130,"name":"Soyboy","steam_id":76561198053885716,"connected_time":2552000000000,"state":"active","ping":87},{"user_id":115,"name":"TheBeardedM1G","steam_id":76561198040208946,"connected_time":3405000000000,"state":"active","ping":59},{"user_id":118,"name":"Nunez Enjoyer","steam_id":76561198138558005,"connected_time":3194000000000,"state":"active","ping":74},{"user_id":137,"name":"Pepe The Rarest","steam_id":76561197991810107,"connected_time":2209000000000,"state":"active","ping":52},{"user_id":149,"name":"enesven","steam_id":76561199466839845,"connected_time":933000000000,"state":"active","ping":99},{"user_id":145,"name":"Vandy","steam_id":76561197963070244,"connected_time":1797000000000,"state":"active","ping":67},{"user_id":154,"name":"Vitamin Weee","steam_id":76561199183937747,"connected_time":563000000000,"state":"active","ping":80},{"user_id":44,"name":"üåº HugeE","steam_id":76561198245495152,"connected_time":7629000000000,"state":"active","ping":60},{"user_id":45,"name":"üå≠ 0mger","steam_id":76561198053615827,"connected_time":7595000000000,"state":"active","ping":69},{"user_id":139,"name":"Stray","steam_id":76561197978319784,"connected_time":2177000000000,"state":"active","ping":72},{"user_id":158,"name":"2ka","steam_id":76561198343747394,"connected_time":392000000000,"state":"active","ping":60},{"user_id":143,"name":"Fanged Vagina Enjoyer","steam_id":76561198042593027,"connected_time":1998000000000,"state":"active","ping":81},{"user_id":159,"name":"Boki","steam_id":76561198044553351,"connected_time":379000000000,"state":"active","ping":76},{"user_id":140,"name":"TrashVerN","steam_id":76561197977444051,"connected_time":2171000000000,"state":"active","ping":68},{"user_id":151,"name":"gdd","steam_id":76561198080260566,"connected_time":682000000000,"state":"active","ping":92},{"user_id":162,"name":"Meeseeran","steam_id":76561198283416769,"connected_time":66000000000,"state":"active","ping":75},{"user_id":119,"name":"Arentrir KING.LBJ.6","steam_id":76561198334126785,"connected_time":3188000000000,"state":"active","ping":62}]},{"server_id":308,"name":"Uncletopia | Frankfurt | 3 | All Maps","name_short":"frk-3","host":"frk-1.de.uncletopia.com","port":27035,"enabled":true,"region":"eu","cc":"de","latitude":50.110924,"longitude":8.682127,"reserved":0,"last_update":"0001-01-01T00:00:00Z","name_a2s":"Uncletopia | Frankfurt | 3 | All Maps","protocol":17,"map":"koth_viaduct","folder":"tf","game":"Team Fortress","app_id":440,"player_count":19,"max_players":24,"Bots":0,"server_type":"Dedicated","server_os":"Linux","password":true,"vac":true,"version":"7757534","steam_id":85568392924504274,"keywords":["cp","nocrits","nodmgspread","uncletopia"],"game_id":440,"stv_port":27036,"stv_name":"Uncletopia | Frankfurt | 3 | All Maps | STV","players":[{"user_id":602,"name":"LarsInABox","steam_id":76561198028329262,"connected_time":4713000000000,"state":"active","ping":75},{"user_id":644,"name":"Rigby","steam_id":76561198021552128,"connected_time":2240000000000,"state":"active","ping":97},{"user_id":647,"name":"Mach","steam_id":76561198952487564,"connected_time":1257000000000,"state":"active","ping":151},{"user_id":650,"name":"Spy Gaming","steam_id":76561198257225296,"connected_time":799000000000,"state":"active","ping":75},{"user_id":640,"name":"Wattoz","steam_id":76561198127779511,"connected_time":3147000000000,"state":"active","ping":68},{"user_id":660,"name":"Sh1n","steam_id":76561199012155377,"connected_time":216000000000,"state":"active","ping":44},{"user_id":653,"name":"Happy Little Accidents","steam_id":76561198153810367,"connected_time":715000000000,"state":"active","ping":63},{"user_id":655,"name":"rhost","steam_id":76561199230709660,"connected_time":627000000000,"state":"active","ping":53},{"user_id":654,"name":"Aeglos","steam_id":76561198248698294,"connected_time":679000000000,"state":"active","ping":65},{"user_id":609,"name":"strangedeath","steam_id":76561198154159297,"connected_time":4549000000000,"state":"active","ping":164},{"user_id":656,"name":"Giggen","steam_id":76561198070986689,"connected_time":584000000000,"state":"active","ping":87},{"user_id":659,"name":"Aesthetic Alcoholism","steam_id":76561198044418968,"connected_time":255000000000,"state":"active","ping":50},{"user_id":658,"name":"Garoiop","steam_id":76561198082326459,"connected_time":451000000000,"state":"active","ping":37},{"user_id":661,"name":"MovingIsOverRated","steam_id":76561198385633292,"connected_time":135000000000,"state":"active","ping":82},{"user_id":662,"name":"Denton","steam_id":76561198367991717,"connected_time":110000000000,"state":"active","ping":74},{"user_id":631,"name":"elsuedi","steam_id":76561198074722832,"connected_time":3599000000000,"state":"active","ping":51},{"user_id":636,"name":"Djingis Khan","steam_id":76561197967864460,"connected_time":3369000000000,"state":"active","ping":49},{"user_id":641,"name":"mud","steam_id":76561198141497461,"connected_time":3118000000000,"state":"active","ping":62},{"user_id":642,"name":"dum","steam_id":76561198053386482,"connected_time":3105000000000,"state":"active","ping":163}]},{"server_id":309,"name":"Uncletopia | Frankfurt | 4 | All Maps","name_short":"frk-4","host":"frk-1.de.uncletopia.com","port":27045,"enabled":true,"region":"eu","cc":"de","latitude":50.110924,"longitude":8.682127,"reserved":0,"last_update":"0001-01-01T00:00:00Z","name_a2s":"Uncletopia | Frankfurt | 4 | All Maps","protocol":17,"map":"koth_suijin","folder":"tf","game":"Team Fortress","app_id":440,"player_count":17,"max_players":24,"Bots":0,"server_type":"Dedicated","server_os":"Linux","password":true,"vac":true,"version":"7757534","steam_id":85568392924504275,"keywords":["cp","nocrits","nodmgspread","uncletopia"],"game_id":440,"stv_port":27046,"stv_name":"Uncletopia | Frankfurt | 4 | All Maps | STV","players":[{"user_id":112,"name":"3d printed 3d printer","steam_id":76561198170609049,"connected_time":929000000000,"state":"active","ping":75},{"user_id":121,"name":"Glenn Quagmire","steam_id":76561199348527880,"connected_time":67000000000,"state":"active","ping":82},{"user_id":122,"name":"Ostara","steam_id":76561198200054489,"connected_time":62000000000,"state":"active","ping":66},{"user_id":114,"name":"into a vampire","steam_id":76561198097507847,"connected_time":882000000000,"state":"active","ping":73},{"user_id":115,"name":"Being a vampire!?","steam_id":76561198067204908,"connected_time":706000000000,"state":"active","ping":68},{"user_id":120,"name":"Laax","steam_id":76561198938409558,"connected_time":372000000000,"state":"active","ping":103},{"user_id":63,"name":"Grillem Dafoe","steam_id":76561198306874574,"connected_time":6130000000000,"state":"active","ping":68},{"user_id":28,"name":"Balls","steam_id":76561198086400484,"connected_time":8417000000000,"state":"active","ping":73},{"user_id":78,"name":"Wiki","steam_id":76561198106666604,"connected_time":4526000000000,"state":"active","ping":64},{"user_id":119,"name":"Moe Jama","steam_id":76561198021676997,"connected_time":464000000000,"state":"active","ping":74},{"user_id":95,"name":"Hello Nephew","steam_id":76561198430111607,"connected_time":3069000000000,"state":"active","ping":135},{"user_id":77,"name":"plepek","steam_id":76561198042959598,"connected_time":4869000000000,"state":"active","ping":80},{"user_id":123,"name":"Shromide","steam_id":76561198140382935,"connected_time":47000000000,"state":"active","ping":72},{"user_id":124,"name":"Kelpy G gaming","steam_id":76561198056995633,"connected_time":47000000000,"state":"active","ping":71},{"user_id":100,"name":"Dr. No Name","steam_id":76561198058656869,"connected_time":2908000000000,"state":"active","ping":143},{"user_id":101,"name":"HOI","steam_id":76561198061182117,"connected_time":2904000000000,"state":"active","ping":62},{"user_id":102,"name":"hannes","steam_id":76561198202485645,"connected_time":2776000000000,"state":"active","ping":60}]},{"server_id":310,"name":"Uncletopia | Frankfurt | 5 | All Maps","name_short":"frk-5","host":"frk-1.de.uncletopia.com","port":27055,"enabled":true,"region":"eu","cc":"de","latitude":50.110924,"longitude":8.682127,"reserved":0,"last_update":"0001-01-01T00:00:00Z","name_a2s":"Uncletopia | Frankfurt | 5 | All Maps","protocol":17,"map":"pl_upward","folder":"tf","game":"Team Fortress","app_id":440,"player_count":24,"max_players":24,"Bots":0,"server_type":"Dedicated","server_os":"Linux","password":true,"vac":true,"version":"7757534","steam_id":85568392924504277,"keywords":["nocrits","nodmgspread","payload","uncletopia"],"game_id":440,"stv_port":27056,"stv_name":"Uncletopia | Frankfurt | 5 | All Maps | STV","players":[{"user_id":555,"name":"Kestrel","steam_id":76561198144033005,"connected_time":344000000000,"state":"active","ping":61},{"user_id":554,"name":"Bromoneto","steam_id":76561198876695014,"connected_time":359000000000,"state":"active","ping":58},{"user_id":545,"name":"Ibilesfighter247","steam_id":76561198880673705,"connected_time":1299000000000,"state":"active","ping":67},{"user_id":556,"name":"Demonic Cipher","steam_id":76561198066082088,"connected_time":326000000000,"state":"active","ping":153},{"user_id":533,"name":"Aaron Cahill","steam_id":76561198132831088,"connected_time":2904000000000,"state":"active","ping":79},{"user_id":521,"name":"kektuse","steam_id":76561198088426580,"connected_time":4073000000000,"state":"active","ping":59},{"user_id":522,"name":"Bisago!","steam_id":76561198181794353,"connected_time":4040000000000,"state":"active","ping":60},{"user_id":536,"name":"Lux","steam_id":76561198060417740,"connected_time":2501000000000,"state":"active","ping":46},{"user_id":546,"name":"Lewan","steam_id":76561198281175098,"connected_time":1280000000000,"state":"active","ping":50},{"user_id":512,"name":"Anri Okita's Massive Milkers","steam_id":76561199186352720,"connected_time":4560000000000,"state":"active","ping":79},{"user_id":551,"name":"smrk","steam_id":76561198066926098,"connected_time":838000000000,"state":"active","ping":51},{"user_id":523,"name":"Daga","steam_id":76561198055450219,"connected_time":4029000000000,"state":"active","ping":57},{"user_id":553,"name":"PEEPANTS","steam_id":76561198052088053,"connected_time":380000000000,"state":"active","ping":72},{"user_id":468,"name":"CiVillain","steam_id":76561198059617732,"connected_time":7226000000000,"state":"active","ping":61},{"user_id":557,"name":"dEzZe „ÉÑ","steam_id":76561197960291106,"connected_time":311000000000,"state":"active","ping":50},{"user_id":501,"name":"eeeeee","steam_id":76561198017786875,"connected_time":5251000000000,"state":"active","ping":64},{"user_id":483,"name":"AwterSix","steam_id":76561198042561678,"connected_time":6153000000000,"state":"active","ping":60},{"user_id":525,"name":"honneur aux pauvres","steam_id":76561198048741472,"connected_time":3960000000000,"state":"active","ping":59},{"user_id":548,"name":"addicted","steam_id":76561199129801006,"connected_time":1266000000000,"state":"active","ping":45},{"user_id":549,"name":"Cornmac","steam_id":76561198104780569,"connected_time":1263000000000,"state":"active","ping":81},{"user_id":502,"name":"Carrotcracker","steam_id":76561198034862396,"connected_time":5200000000000,"state":"active","ping":77},{"user_id":493,"name":"Mr Lidl","steam_id":76561198426522902,"connected_time":5717000000000,"state":"active","ping":64},{"user_id":552,"name":"Syll","steam_id":76561198040736202,"connected_time":421000000000,"state":"active","ping":103},{"user_id":550,"name":"Fames","steam_id":76561198050374123,"connected_time":1194000000000,"state":"active","ping":57}]},{"server_id":311,"name":"Uncletopia | Frankfurt | 6 | All Maps","name_short":"frk-6","host":"frk-1.de.uncletopia.com","port":27065,"enabled":true,"region":"eu","cc":"de","latitude":50.110924,"longitude":8.682127,"reserved":0,"last_update":"0001-01-01T00:00:00Z","name_a2s":"Uncletopia | Frankfurt | 6 | All Maps","protocol":17,"map":"koth_highpass","folder":"tf","game":"Team Fortress","app_id":440,"player_count":4,"max_players":24,"Bots":0,"server_type":"Dedicated","server_os":"Linux","password":true,"vac":true,"version":"7757534","steam_id":85568392924504278,"keywords":["cp","nocrits","nodmgspread","uncletopia"],"game_id":440,"stv_port":27066,"stv_name":"Uncletopia | Frankfurt | 6 | All Maps | STV","players":[{"user_id":689,"name":"El Sex Haver","steam_id":76561198053207411,"connected_time":1773000000000,"state":"active","ping":184},{"user_id":690,"name":"Kati","steam_id":76561198007231088,"connected_time":1677000000000,"state":"active","ping":52},{"user_id":707,"name":"Duckman","steam_id":76561199075764806,"connected_time":223000000000,"state":"active","ping":150},{"user_id":694,"name":"TH3 V1CT0R","steam_id":76561198007025172,"connected_time":1435000000000,"state":"active","ping":70}]},{"server_id":23,"name":"Uncletopia | Frankfurt | 7 | Stopwatch Beta","name_short":"frk-7","host":"frk-1.de.uncletopia.com","port":27075,"enabled":true,"region":"eu","cc":"de","latitude":50.110924,"longitude":8.682127,"reserved":0,"last_update":"0001-01-01T00:00:00Z","name_a2s":"Uncletopia | Frankfurt | 7 | Stopwatch Beta","protocol":17,"map":"workshop/koth_clearcut_b15.ugc2107050255","folder":"tf","game":"Team Fortress","app_id":440,"player_count":0,"max_players":24,"Bots":0,"server_type":"Dedicated","server_os":"Linux","password":true,"vac":true,"version":"7757534","steam_id":85568392924742827,"keywords":["cp","nocrits","nodmgspread","uncletopia"],"game_id":440,"stv_port":27076,"stv_name":"Uncletopia | Frankfurt | 7 | Stopwatch Beta | STV","players":null},{"server_id":24,"name":"Uncletopia | Frankfurt | 8 | Community","name_short":"frk-8","host":"frk-1.de.uncletopia.com","port":27085,"enabled":true,"region":"eu","cc":"de","latitude":50.110924,"longitude":8.682127,"reserved":0,"last_update":"0001-01-01T00:00:00Z","name_a2s":"Uncletopia | Frankfurt | 8 | Community","protocol":17,"map":"workshop/pl_emerge_rc2.ugc888027758","folder":"tf","game":"Team Fortress","app_id":440,"player_count":22,"max_players":24,"Bots":0,"server_type":"Dedicated","server_os":"Linux","password":true,"vac":true,"version":"7757534","steam_id":85568392924742828,"keywords":["nocrits","nodmgspread","payload","uncletopia"],"game_id":440,"stv_port":27086,"stv_name":"Uncletopia | Frankfurt | 8 | Community | STV","players":[{"user_id":182,"name":"SomeWeeabooTrash","steam_id":76561198199092050,"connected_time":4132000000000,"state":"active","ping":75},{"user_id":204,"name":"Marvin311","steam_id":76561199172141066,"connected_time":2979000000000,"state":"active","ping":112},{"user_id":247,"name":"peterpootis203 [B] Stragnes","steam_id":76561198087377610,"connected_time":667000000000,"state":"active","ping":86},{"user_id":154,"name":"zak","steam_id":76561197998895428,"connected_time":6652000000000,"state":"active","ping":58},{"user_id":211,"name":"FunkyFish","steam_id":76561199061893308,"connected_time":2471000000000,"state":"active","ping":106},{"user_id":231,"name":"Vexion","steam_id":76561198355319335,"connected_time":1157000000000,"state":"active","ping":184},{"user_id":240,"name":"chima","steam_id":76561198827495435,"connected_time":829000000000,"state":"active","ping":64},{"user_id":241,"name":"tone","steam_id":76561197975301462,"connected_time":822000000000,"state":"active","ping":77},{"user_id":244,"name":"DigyB","steam_id":76561198014442345,"connected_time":719000000000,"state":"active","ping":60},{"user_id":128,"name":"milk","steam_id":76561198080168182,"connected_time":8139000000000,"state":"active","ping":77},{"user_id":245,"name":"ParryThat","steam_id":76561198044465881,"connected_time":709000000000,"state":"active","ping":63},{"user_id":252,"name":"Dario","steam_id":76561198138558896,"connected_time":30000000000,"state":"active","ping":44},{"user_id":250,"name":"bENtO","steam_id":76561198082076676,"connected_time":297000000000,"state":"active","ping":50},{"user_id":246,"name":"emergency heelflip","steam_id":76561198030155915,"connected_time":705000000000,"state":"active","ping":71},{"user_id":253,"name":"yaldabaoth","steam_id":76561198084606869,"connected_time":4000000000,"state":"spawning","ping":147},{"user_id":135,"name":"dotdotdot","steam_id":76561198057628751,"connected_time":7873000000000,"state":"active","ping":60},{"user_id":180,"name":"MiOn","steam_id":76561198220226331,"connected_time":4622000000000,"state":"active","ping":111},{"user_id":223,"name":"Mari Christmas","steam_id":76561197997020707,"connected_time":1846000000000,"state":"active","ping":62},{"user_id":238,"name":"r4s1","steam_id":76561198024034917,"connected_time":879000000000,"state":"active","ping":60},{"user_id":249,"name":"Tobleroney","steam_id":76561198154402655,"connected_time":512000000000,"state":"active","ping":68},{"user_id":203,"name":"God's Goofiest Goober","steam_id":76561198103175187,"connected_time":3015000000000,"state":"active","ping":64},{"user_id":210,"name":"Envy","steam_id":76561198132723219,"connected_time":2696000000000,"state":"active","ping":87}]},{"server_id":202,"name":"Uncletopia | Hong Kong | 1 | All Maps","name_short":"hgk-1","host":"hgk-1.hk.uncletopia.com","port":27015,"enabled":true,"region":"asia","cc":"hk","latitude":22.302711,"longitude":114.177216,"reserved":0,"last_update":"0001-01-01T00:00:00Z","name_a2s":"Uncletopia | Hong Kong | 1 | All Maps","protocol":17,"map":"pl_borneo","folder":"tf","game":"Team Fortress","app_id":440,"player_count":0,"max_players":24,"Bots":0,"server_type":"Dedicated","server_os":"Linux","password":true,"vac":true,"version":"7757534","steam_id":85568392924494504,"keywords":["nocrits","nodmgspread","payload","uncletopia"],"game_id":440,"stv_port":27016,"stv_name":"Uncletopia | Hong Kong | 1 | All Maps | STV","players":null},{"server_id":1,"name":"Uncletopia | Los Angeles | 1 | All Maps","name_short":"lax-1","host":"lax-1.us.uncletopia.com","port":27015,"enabled":true,"region":"us-west","cc":"us","latitude":33.94279,"longitude":-118.41004,"reserved":0,"last_update":"0001-01-01T00:00:00Z","name_a2s":"Uncletopia | Los Angeles | 1 | All Maps","protocol":17,"map":"koth_lakeside_final","folder":"tf","game":"Team Fortress","app_id":440,"player_count":0,"max_players":24,"Bots":0,"server_type":"Dedicated","server_os":"Linux","password":true,"vac":true,"version":"7757534","steam_id":85568392924469991,"keywords":["cp","nocrits","nodmgspread","uncletopia"],"game_id":440,"stv_port":27016,"stv_name":"Uncletopia | Los Angeles | 1 | All Maps | STV","players":null},{"server_id":112,"name":"Uncletopia | Los Angeles | 2 | All Maps","name_short":"lax-2","host":"lax-1.us.uncletopia.com","port":27025,"enabled":true,"region":"us-west","cc":"us","latitude":33.94279,"longitude":-118.41004,"reserved":0,"last_update":"0001-01-01T00:00:00Z","name_a2s":"Uncletopia | Los Angeles | 2 | All Maps","protocol":17,"map":"pl_snowycoast","folder":"tf","game":"Team Fortress","app_id":440,"player_count":0,"max_players":24,"Bots":0,"server_type":"Dedicated","server_os":"Linux","password":true,"vac":true,"version":"7757534","steam_id":85568392924469992,"keywords":["nocrits","nodmgspread","payload","uncletopia"],"game_id":440,"stv_port":27026,"stv_name":"Uncletopia | Los Angeles | 2 | All Maps | STV","players":null},{"server_id":324,"name":"Uncletopia | Los Angeles | 3 | All Maps","name_short":"lax-3","host":"lax-1.us.uncletopia.com","port":27035,"enabled":true,"region":"us-west","cc":"us","latitude":33.94279,"longitude":-118.41004,"reserved":0,"last_update":"0001-01-01T00:00:00Z","name_a2s":"Uncletopia | Los Angeles | 3 | All Maps","protocol":17,"map":"koth_highpass","folder":"tf","game":"Team Fortress","app_id":440,"player_count":0,"max_players":24,"Bots":0,"server_type":"Dedicated","server_os":"Linux","password":true,"vac":true,"version":"7757534","steam_id":85568392924510198,"keywords":["cp","nocrits","nodmgspread","uncletopia"],"game_id":440,"stv_port":27036,"stv_name":"Uncletopia | Los Angeles | 3 | All Maps | STV","players":null},{"server_id":25,"name":"Uncletopia | Los Angeles | 4 | Stopwatch Beta","name_short":"lax-4","host":"lax-1.us.uncletopia.com","port":27045,"enabled":true,"region":"us-west","cc":"us","latitude":33.94279,"longitude":-118.41004,"reserved":0,"last_update":"0001-01-01T00:00:00Z","name_a2s":"Uncletopia | Los Angeles | 4 | Stopwatch Beta","protocol":17,"map":"pl_swiftwater_final1","folder":"tf","game":"Team Fortress","app_id":440,"player_count":0,"max_players":24,"Bots":0,"server_type":"Dedicated","server_os":"Linux","password":true,"vac":true,"version":"7757534","steam_id":85568392924510199,"keywords":["nocrits","nodmgspread","payload","uncletopia"],"game_id":440,"stv_port":27046,"stv_name":"Uncletopia | Los Angeles | 4 | Stopwatch Beta | STV","players":null},{"server_id":11,"name":"Uncletopia | London | 1 | All Maps","name_short":"lon-1","host":"lon-1.uk.uncletopia.com","port":27015,"enabled":true,"region":"eu","cc":"gb","latitude":51.509865,"longitude":-0.118092,"reserved":0,"last_update":"0001-01-01T00:00:00Z","name_a2s":"Uncletopia | London | 1 | All Maps","protocol":17,"map":"pl_badwater","folder":"tf","game":"Team Fortress","app_id":440,"player_count":24,"max_players":24,"Bots":0,"server_type":"Dedicated","server_os":"Linux","password":true,"vac":true,"version":"7757534","steam_id":85568392924367362,"keywords":["nocrits","nodmgspread","payload","uncletopia"],"game_id":440,"stv_port":27016,"stv_name":"Uncletopia | London | 1 | All Maps | STV","players":[{"user_id":789,"name":"whimsy.","steam_id":76561198878171763,"connected_time":1392000000000,"state":"active","ping":48},{"user_id":770,"name":"Gorgeous George","steam_id":76561198144256544,"connected_time":3778000000000,"state":"active","ping":47},{"user_id":758,"name":"Relix18144","steam_id":76561199202454318,"connected_time":5286000000000,"state":"active","ping":80},{"user_id":788,"name":"washed up","steam_id":76561198275742101,"connected_time":1492000000000,"state":"active","ping":70},{"user_id":771,"name":"Roger Slippers","steam_id":76561198188642265,"connected_time":3738000000000,"state":"active","ping":64},{"user_id":784,"name":"KPhii","steam_id":76561198970587061,"connected_time":2582000000000,"state":"active","ping":63},{"user_id":761,"name":"dec","steam_id":76561198009660168,"connected_time":4930000000000,"state":"active","ping":46},{"user_id":798,"name":"Robe Iniesta","steam_id":76561199047081427,"connected_time":597000000000,"state":"active","ping":96},{"user_id":774,"name":"BreadBubbles","steam_id":76561198174332826,"connected_time":3711000000000,"state":"active","ping":59},{"user_id":796,"name":"jimmy bob","steam_id":76561198319583692,"connected_time":770000000000,"state":"active","ping":61},{"user_id":739,"name":"Sirzen","steam_id":76561198170155434,"connected_time":6698000000000,"state":"active","ping":49},{"user_id":768,"name":"gofdrey","steam_id":76561198121941052,"connected_time":3822000000000,"state":"active","ping":64},{"user_id":799,"name":"Aaron","steam_id":76561197990046953,"connected_time":594000000000,"state":"active","ping":66},{"user_id":755,"name":"Wedgeridoo","steam_id":76561198082813907,"connected_time":5553000000000,"state":"active","ping":136},{"user_id":782,"name":"Femboy Portal Radio Uncompresse","steam_id":76561198072320671,"connected_time":2605000000000,"state":"active","ping":33},{"user_id":790,"name":"‚ô• aura ‚ô•","steam_id":76561198066258544,"connected_time":1392000000000,"state":"active","ping":60},{"user_id":764,"name":"big t","steam_id":76561198067179454,"connected_time":4218000000000,"state":"active","ping":41},{"user_id":776,"name":"Edgebug Earl","steam_id":76561197970114051,"connected_time":3693000000000,"state":"active","ping":46},{"user_id":777,"name":"Yelowchy","steam_id":76561198199416121,"connected_time":3685000000000,"state":"active","ping":71},{"user_id":800,"name":"sora","steam_id":76561198096547662,"connected_time":9000000000,"state":"active","ping":93},{"user_id":795,"name":"Piteras","steam_id":76561198858532207,"connected_time":831000000000,"state":"active","ping":88},{"user_id":750,"name":"Woa","steam_id":76561198345683201,"connected_time":5768000000000,"state":"active","ping":54},{"user_id":640,"name":"Hoks","steam_id":76561198126442242,"connected_time":12133000000000,"state":"active","ping":124},{"user_id":781,"name":"SuperBob103","steam_id":76561199175360012,"connected_time":2701000000000,"state":"active","ping":51}]},{"server_id":114,"name":"Uncletopia | London | 2 | All Maps","name_short":"lon-2","host":"lon-1.uk.uncletopia.com","port":27025,"enabled":true,"region":"eu","cc":"gb","latitude":51.509865,"longitude":-0.118092,"reserved":0,"last_update":"0001-01-01T00:00:00Z","name_a2s":"Uncletopia | London | 2 | All Maps","protocol":17,"map":"koth_viaduct","folder":"tf","game":"Team Fortress","app_id":440,"player_count":24,"max_players":24,"Bots":0,"server_type":"Dedicated","server_os":"Linux","password":true,"vac":true,"version":"7757534","steam_id":85568392924470941,"keywords":["cp","nocrits","nodmgspread","uncletopia"],"game_id":440,"stv_port":27026,"stv_name":"Uncletopia | London | 2 | All Maps | STV","players":[{"user_id":479,"name":"bird (trans rights)","steam_id":76561198393596975,"connected_time":100000000000,"state":"active","ping":47},{"user_id":462,"name":"SOPHIIEE","steam_id":76561198443798981,"connected_time":1394000000000,"state":"active","ping":56},{"user_id":463,"name":"Chloemew","steam_id":76561198042071762,"connected_time":1346000000000,"state":"active","ping":44},{"user_id":474,"name":"Tekky","steam_id":76561197990987315,"connected_time":569000000000,"state":"active","ping":41},{"user_id":439,"name":"Piratmission","steam_id":76561197972165728,"connected_time":2382000000000,"state":"active","ping":98},{"user_id":475,"name":"Raingnome @SaveTF2","steam_id":76561198007394958,"connected_time":541000000000,"state":"active","ping":58},{"user_id":371,"name":"Ross from F.R.I.E.N.D.S.","steam_id":76561198008511665,"connected_time":8251000000000,"state":"active","ping":55},{"user_id":428,"name":"hmscole09","steam_id":76561198811362788,"connected_time":3533000000000,"state":"active","ping":57},{"user_id":466,"name":"Superiumentarius","steam_id":76561198081642249,"connected_time":1080000000000,"state":"active","ping":59},{"user_id":467,"name":"DarthPaul8181","steam_id":76561198373050455,"connected_time":1074000000000,"state":"active","ping":46},{"user_id":443,"name":"tapeworms!","steam_id":76561198069649097,"connected_time":2134000000000,"state":"active","ping":48},{"user_id":450,"name":"IndigoJones","steam_id":76561198050284262,"connected_time":1805000000000,"state":"active","ping":50},{"user_id":468,"name":"Yuzu","steam_id":76561198121694613,"connected_time":1017000000000,"state":"active","ping":49},{"user_id":449,"name":"coo coo coo cha","steam_id":76561198007792525,"connected_time":1951000000000,"state":"active","ping":43},{"user_id":476,"name":"pizza time","steam_id":76561199015899793,"connected_time":526000000000,"state":"active","ping":48},{"user_id":452,"name":"The Last Username Left","steam_id":76561198121432981,"connected_time":1772000000000,"state":"active","ping":52},{"user_id":471,"name":"8 Ball","steam_id":76561197960988736,"connected_time":585000000000,"state":"active","ping":48},{"user_id":459,"name":"ChameLi0N","steam_id":76561197993701003,"connected_time":1474000000000,"state":"active","ping":170},{"user_id":348,"name":"Sn1perK1ng","steam_id":76561198128065329,"connected_time":10280000000000,"state":"active","ping":56},{"user_id":477,"name":"Kan0_","steam_id":76561198129596771,"connected_time":512000000000,"state":"active","ping":63},{"user_id":472,"name":"speedylagoz","steam_id":76561199475596186,"connected_time":583000000000,"state":"active","ping":124},{"user_id":457,"name":"Laam","steam_id":76561198050031998,"connected_time":1578000000000,"state":"active","ping":45},{"user_id":458,"name":"Loz405 (YouTube)","steam_id":76561198799315884,"connected_time":1562000000000,"state":"active","ping":57},{"user_id":470,"name":"Well, off to hang myself","steam_id":76561198053374944,"connected_time":736000000000,"state":"active","ping":69}]},{"server_id":320,"name":"Uncletopia | London | 3 | All Maps","name_short":"lon-3","host":"lon-1.uk.uncletopia.com","port":27035,"enabled":true,"region":"eu","cc":"gb","latitude":51.509865,"longitude":-0.118092,"reserved":0,"last_update":"0001-01-01T00:00:00Z","name_a2s":"Uncletopia | London | 3 | All Maps","protocol":17,"map":"cp_dustbowl","folder":"tf","game":"Team Fortress","app_id":440,"player_count":0,"max_players":24,"Bots":0,"server_type":"Dedicated","server_os":"Linux","password":true,"vac":true,"version":"7757534","steam_id":85568392924510192,"keywords":["cp","nocrits","nodmgspread","uncletopia"],"game_id":440,"stv_port":27036,"stv_name":"Uncletopia | London | 3 | All Maps | STV","players":null},{"server_id":321,"name":"Uncletopia | London | 4 | All Maps","name_short":"lon-4","host":"lon-1.uk.uncletopia.com","port":27045,"enabled":true,"region":"eu","cc":"gb","latitude":51.509865,"longitude":-0.118092,"reserved":0,"last_update":"0001-01-01T00:00:00Z","name_a2s":"Uncletopia | London | 4 | All Maps","protocol":17,"map":"cp_badlands","folder":"tf","game":"Team Fortress","app_id":440,"player_count":24,"max_players":24,"Bots":0,"server_type":"Dedicated","server_os":"Linux","password":true,"vac":true,"version":"7757534","steam_id":85568392924510193,"keywords":["cp","nocrits","nodmgspread","uncletopia"],"game_id":440,"stv_port":27046,"stv_name":"Uncletopia | London | 4 | All Maps | STV","players":[{"user_id":587,"name":"nutlube","steam_id":76561198128831131,"connected_time":756000000000,"state":"active","ping":60},{"user_id":585,"name":"JC","steam_id":76561198029213352,"connected_time":774000000000,"state":"active","ping":31},{"user_id":598,"name":"tralalaOuiOui","steam_id":76561197963471507,"connected_time":153000000000,"state":"spawning","ping":48},{"user_id":586,"name":"Not Adam","steam_id":76561198859771189,"connected_time":763000000000,"state":"active","ping":54},{"user_id":561,"name":"E-Girls or I-Ladies?","steam_id":76561198012351470,"connected_time":2632000000000,"state":"active","ping":31},{"user_id":597,"name":"Dictatorial Karelian","steam_id":76561198196736457,"connected_time":349000000000,"state":"active","ping":77},{"user_id":536,"name":"Lowy","steam_id":76561198031470048,"connected_time":6346000000000,"state":"active","ping":46},{"user_id":584,"name":"ike","steam_id":76561198039845647,"connected_time":926000000000,"state":"active","ping":54},{"user_id":563,"name":"Baki ‡∂û","steam_id":76561198193615529,"connected_time":2420000000000,"state":"active","ping":62},{"user_id":599,"name":"Robbie","steam_id":76561198017504503,"connected_time":71000000000,"state":"active","ping":53},{"user_id":480,"name":"Fat Pigeon","steam_id":76561198817940142,"connected_time":12771000000000,"state":"active","ping":45},{"user_id":545,"name":"player","steam_id":76561198054474684,"connected_time":4944000000000,"state":"active","ping":82},{"user_id":589,"name":"Domestic_Terrorism_Gamming","steam_id":76561199465207725,"connected_time":661000000000,"state":"active","ping":69},{"user_id":524,"name":"Sky Tree","steam_id":76561198027103242,"connected_time":7721000000000,"state":"active","ping":104},{"user_id":595,"name":"Miss Bari","steam_id":76561198365286092,"connected_time":482000000000,"state":"active","ping":38},{"user_id":576,"name":"PizzaPete123","steam_id":76561198089478290,"connected_time":1364000000000,"state":"active","ping":41},{"user_id":590,"name":"An albino alsatian","steam_id":76561198073769916,"connected_time":622000000000,"state":"active","ping":55},{"user_id":581,"name":"Robbie Rotten","steam_id":76561198070210945,"connected_time":1169000000000,"state":"active","ping":55},{"user_id":591,"name":"DelaNo","steam_id":76561199125086655,"connected_time":612000000000,"state":"active","ping":48},{"user_id":593,"name":"YOUR MOM GAMING","steam_id":76561199429562693,"connected_time":564000000000,"state":"active","ping":77},{"user_id":527,"name":"Andy","steam_id":76561198046918834,"connected_time":7543000000000,"state":"active","ping":61},{"user_id":582,"name":"Literally a Trans Woman","steam_id":76561198054639925,"connected_time":1096000000000,"state":"active","ping":123},{"user_id":544,"name":"Welder","steam_id":76561198355300561,"connected_time":5342000000000,"state":"active","ping":73},{"user_id":594,"name":"Jan.","steam_id":76561197974066329,"connected_time":506000000000,"state":"active","ping":60}]},{"server_id":21,"name":"Uncletopia | London | 5 | All Maps","name_short":"lon-5","host":"lon-1.uk.uncletopia.com","port":27055,"enabled":true,"region":"eu","cc":"gb","latitude":51.509865,"longitude":-0.118092,"reserved":0,"last_update":"0001-01-01T00:00:00Z","name_a2s":"Uncletopia | London | 5 | All Maps","protocol":17,"map":"pl_upward","folder":"tf","game":"Team Fortress","app_id":440,"player_count":24,"max_players":24,"Bots":0,"server_type":"Dedicated","server_os":"Linux","password":true,"vac":true,"version":"7757534","steam_id":85568392924742829,"keywords":["nocrits","nodmgspread","payload","uncletopia"],"game_id":440,"stv_port":27056,"stv_name":"Uncletopia | London | 5 | All Maps | STV","players":[{"user_id":127,"name":"TekkiShodanPL","steam_id":76561198047064015,"connected_time":6068000000000,"state":"active","ping":50},{"user_id":164,"name":"MedicMania","steam_id":76561199013190566,"connected_time":2995000000000,"state":"active","ping":52},{"user_id":194,"name":"Latgaul","steam_id":76561199009145544,"connected_time":1171000000000,"state":"active","ping":106},{"user_id":169,"name":"moon","steam_id":76561199006635865,"connected_time":2691000000000,"state":"active","ping":170},{"user_id":165,"name":"hi","steam_id":76561198147277460,"connected_time":2889000000000,"state":"active","ping":60},{"user_id":191,"name":"Endi","steam_id":76561198914938199,"connected_time":1458000000000,"state":"active","ping":101},{"user_id":192,"name":"Macro","steam_id":76561199442846226,"connected_time":1338000000000,"state":"active","ping":161},{"user_id":181,"name":"that fat croc from donkey kong","steam_id":76561198159172495,"connected_time":2253000000000,"state":"active","ping":77},{"user_id":195,"name":"0_Dan","steam_id":76561199006567387,"connected_time":1165000000000,"state":"active","ping":54},{"user_id":186,"name":"Officer Big Mac","steam_id":76561197972008326,"connected_time":1635000000000,"state":"active","ping":71},{"user_id":184,"name":"Edla","steam_id":76561198062815315,"connected_time":1928000000000,"state":"active","ping":101},{"user_id":166,"name":"johnny dorito","steam_id":76561198148074472,"connected_time":2888000000000,"state":"active","ping":45},{"user_id":176,"name":"A Wild Ferrothorn","steam_id":76561198042261828,"connected_time":2454000000000,"state":"active","ping":59},{"user_id":170,"name":"gabagool","steam_id":76561198307111838,"connected_time":2666000000000,"state":"active","ping":27},{"user_id":197,"name":"Zulutron1800","steam_id":76561199169607968,"connected_time":1123000000000,"state":"active","ping":53},{"user_id":198,"name":"Booty Bandit","steam_id":76561198449470807,"connected_time":1080000000000,"state":"active","ping":85},{"user_id":172,"name":"Spliffendor","steam_id":76561198144020209,"connected_time":2604000000000,"state":"active","ping":54},{"user_id":173,"name":"Big Al","steam_id":76561198079585198,"connected_time":2547000000000,"state":"active","ping":56},{"user_id":203,"name":"Ooze","steam_id":76561198039642637,"connected_time":587000000000,"state":"active","ping":89},{"user_id":175,"name":"zoinks!","steam_id":76561198068645362,"connected_time":2500000000000,"state":"active","ping":42},{"user_id":178,"name":"s a i","steam_id":76561197970379754,"connected_time":2398000000000,"state":"active","ping":60},{"user_id":204,"name":"cherry powder","steam_id":76561199006915718,"connected_time":584000000000,"state":"active","ping":64},{"user_id":199,"name":"makiverem","steam_id":76561198425866216,"connected_time":1055000000000,"state":"active","ping":83},{"user_id":206,"name":"ÊôÇ„ÇíÊ≠¢„Åæ„Çå","steam_id":76561198023211417,"connected_time":267000000000,"state":"active","ping":96}]},{"server_id":22,"name":"Uncletopia | London | 6 | All Maps","name_short":"lon-6","host":"lon-1.uk.uncletopia.com","port":27065,"enabled":true,"region":"eu","cc":"gb","latitude":51.509865,"longitude":-0.118092,"reserved":0,"last_update":"0001-01-01T00:00:00Z","name_a2s":"Uncletopia | London | 6 | All Maps","protocol":17,"map":"pl_upward","folder":"tf","game":"Team Fortress","app_id":440,"player_count":24,"max_players":24,"Bots":0,"server_type":"Dedicated","server_os":"Linux","password":true,"vac":true,"version":"7757534","steam_id":85568392924742830,"keywords":["nocrits","nodmgspread","payload","uncletopia"],"game_id":440,"stv_port":27066,"stv_name":"Uncletopia | London | 6 | All Maps | STV","players":[{"user_id":210,"name":"SpilledMilk","steam_id":76561198174123971,"connected_time":286000000000,"state":"active","ping":67},{"user_id":193,"name":"Youssef S Ahmed","steam_id":76561199435139103,"connected_time":793000000000,"state":"active","ping":132},{"user_id":181,"name":"Casaleia Sallet","steam_id":76561198264064253,"connected_time":1459000000000,"state":"active","ping":57},{"user_id":179,"name":"Holy f stewie, I am sh√≠tting.","steam_id":76561198147173457,"connected_time":1566000000000,"state":"active","ping":77},{"user_id":165,"name":"Ham‚Ñ¢","steam_id":76561198057808379,"connected_time":2033000000000,"state":"active","ping":71},{"user_id":194,"name":"Spotmonkey","steam_id":76561198003994092,"connected_time":786000000000,"state":"active","ping":55},{"user_id":171,"name":"Mr_Pulse_","steam_id":76561198095001602,"connected_time":1858000000000,"state":"active","ping":99},{"user_id":214,"name":"After8","steam_id":76561198090750865,"connected_time":58000000000,"state":"active","ping":73},{"user_id":114,"name":"AsuX","steam_id":76561197990333289,"connected_time":8167000000000,"state":"active","ping":60},{"user_id":213,"name":"LiterallyRyanGosling","steam_id":76561199017856691,"connected_time":138000000000,"state":"active","ping":54},{"user_id":198,"name":"spice things up","steam_id":76561197988085026,"connected_time":741000000000,"state":"active","ping":73},{"user_id":203,"name":"Net_Nut","steam_id":76561198089985485,"connected_time":572000000000,"state":"active","ping":66},{"user_id":211,"name":"CrankShaft","steam_id":76561197970750813,"connected_time":222000000000,"state":"active","ping":130},{"user_id":199,"name":"Kohbold","steam_id":76561198996480140,"connected_time":726000000000,"state":"active","ping":154},{"user_id":189,"name":"Gryoss","steam_id":76561197999837111,"connected_time":961000000000,"state":"active","ping":115},{"user_id":212,"name":"Choirboy (He/Hymn)","steam_id":76561198183949987,"connected_time":169000000000,"state":"active","ping":55},{"user_id":216,"name":"Dragul","steam_id":76561198032885938,"connected_time":2000000000,"state":"spawning","ping":66},{"user_id":200,"name":"Wyodu","steam_id":76561198406237593,"connected_time":709000000000,"state":"active","ping":92},{"user_id":169,"name":"Apple Store Veteran","steam_id":76561198369879971,"connected_time":1995000000000,"state":"active","ping":54},{"user_id":170,"name":"TuffaxVEVO","steam_id":76561198079558729,"connected_time":1977000000000,"state":"active","ping":63},{"user_id":184,"name":"Up.Loader","steam_id":76561198040360693,"connected_time":1398000000000,"state":"active","ping":87},{"user_id":206,"name":"I AM DOT","steam_id":76561198354118090,"connected_time":424000000000,"state":"active","ping":86},{"user_id":93,"name":"Lil Ari","steam_id":76561198218178180,"connected_time":9792000000000,"state":"active","ping":84},{"user_id":201,"name":"GoatLord1","steam_id":76561198157964544,"connected_time":694000000000,"state":"active","ping":51}]},{"server_id":40,"name":"Uncletopia | London | 7 | No Payload","name_short":"lon-7","host":"lon-1.uk.uncletopia.com","port":27075,"enabled":true,"region":"eu","cc":"gb","latitude":51.509865,"longitude":-0.118092,"reserved":0,"last_update":"0001-01-01T00:00:00Z","name_a2s":"Uncletopia | London | 7 | No Payload","protocol":17,"map":"koth_harvest_final","folder":"tf","game":"Team Fortress","app_id":440,"player_count":0,"max_players":24,"Bots":0,"server_type":"Dedicated","server_os":"Linux","password":true,"vac":true,"version":"7757534","steam_id":85568392924964314,"keywords":["cp","nocrits","nodmgspread","uncletopia"],"game_id":440,"stv_port":27076,"stv_name":"Uncletopia | London | 7 | No Payload | STV","players":null},{"server_id":41,"name":"Uncletopia | London | 8 | Community","name_short":"lon-8","host":"lon-1.uk.uncletopia.com","port":27085,"enabled":true,"region":"eu","cc":"gb","latitude":51.509865,"longitude":-0.118092,"reserved":0,"last_update":"0001-01-01T00:00:00Z","name_a2s":"Uncletopia | London | 8 | Community","protocol":17,"map":"workshop/cp_caldera_rc2.ugc2834196889","folder":"tf","game":"Team Fortress","app_id":440,"player_count":0,"max_players":24,"Bots":0,"server_type":"Dedicated","server_os":"Linux","password":true,"vac":true,"version":"7757534","steam_id":85568392924964315,"keywords":["cp","nocrits","nodmgspread","uncletopia"],"game_id":440,"stv_port":27086,"stv_name":"Uncletopia | London | 8 | Community | STV","players":null},{"server_id":300,"name":"Uncletopia | Montr√©al | 1 | All Maps","name_short":"mtl-1","host":"mtl-1.ca.uncletopia.com","port":27015,"enabled":true,"region":"us-east","cc":"ca","latitude":45.50889,"longitude":-73.56167,"reserved":0,"last_update":"0001-01-01T00:00:00Z","name_a2s":"Uncletopia | Montr√©al | 1 | All Maps","protocol":17,"map":"koth_viaduct","folder":"tf","game":"Team Fortress","app_id":440,"player_count":0,"max_players":24,"Bots":0,"server_type":"Dedicated","server_os":"Linux","password":true,"vac":true,"version":"7757534","steam_id":85568392924500087,"keywords":["cp","nocrits","nodmgspread","uncletopia"],"game_id":440,"stv_port":27016,"stv_name":"Uncletopia | Montr√©al | 1 | All Maps | STV","players":null},{"server_id":301,"name":"Uncletopia | Montr√©al | 2 | All Maps","name_short":"mtl-2","host":"mtl-1.ca.uncletopia.com","port":27025,"enabled":true,"region":"us-east","cc":"ca","latitude":45.50889,"longitude":-73.56167,"reserved":0,"last_update":"0001-01-01T00:00:00Z","name_a2s":"Uncletopia | Montr√©al | 2 | All Maps","protocol":17,"map":"pl_snowycoast","folder":"tf","game":"Team Fortress","app_id":440,"player_count":0,"max_players":24,"Bots":0,"server_type":"Dedicated","server_os":"Linux","password":true,"vac":true,"version":"7757534","steam_id":85568392924500088,"keywords":["nocrits","nodmgspread","payload","uncletopia"],"game_id":440,"stv_port":27026,"stv_name":"Uncletopia | Montr√©al | 2 | All Maps | STV","players":null},{"server_id":302,"name":"Uncletopia | Montr√©al | 3 | All Maps","name_short":"mtl-3","host":"mtl-1.ca.uncletopia.com","port":27035,"enabled":true,"region":"us-east","cc":"ca","latitude":45.50889,"longitude":-73.56167,"reserved":0,"last_update":"0001-01-01T00:00:00Z","name_a2s":"Uncletopia | Montr√©al | 3 | All Maps","protocol":17,"map":"pl_swiftwater_final1","folder":"tf","game":"Team Fortress","app_id":440,"player_count":0,"max_players":24,"Bots":0,"server_type":"Dedicated","server_os":"Linux","password":true,"vac":true,"version":"7757534","steam_id":85568392924500089,"keywords":["nocrits","nodmgspread","payload","uncletopia"],"game_id":440,"stv_port":27036,"stv_name":"Uncletopia | Montr√©al | 3 | All Maps | STV","players":null},{"server_id":303,"name":"Uncletopia | Montr√©al | 4 | No Payload","name_short":"mtl-4","host":"mtl-1.ca.uncletopia.com","port":27045,"enabled":true,"region":"us-east","cc":"ca","latitude":45.50889,"longitude":-73.56167,"reserved":0,"last_update":"0001-01-01T00:00:00Z","name_a2s":"Uncletopia | Montr√©al | 4 | No Payload","protocol":17,"map":"pl_pier","folder":"tf","game":"Team Fortress","app_id":440,"player_count":0,"max_players":24,"Bots":0,"server_type":"Dedicated","server_os":"Linux","password":true,"vac":true,"version":"7757534","steam_id":85568392924500090,"keywords":["nocrits","nodmgspread","payload","uncletopia"],"game_id":440,"stv_port":27046,"stv_name":"Uncletopia | Montr√©al | 4 | No Payload | STV","players":null},{"server_id":13,"name":"Uncletopia | New York City | 1 | All Maps","name_short":"nyc-1","host":"nyc-1.us.uncletopia.com","port":27015,"enabled":true,"region":"us-east","cc":"us","latitude":40.73061,"longitude":-73.93524,"reserved":0,"last_update":"0001-01-01T00:00:00Z","name_a2s":"Uncletopia | New York City | 1 | All Maps","protocol":17,"map":"koth_viaduct","folder":"tf","game":"Team Fortress","app_id":440,"player_count":24,"max_players":24,"Bots":0,"server_type":"Dedicated","server_os":"Linux","password":true,"vac":true,"version":"7757534","steam_id":85568392924469993,"keywords":["cp","nocrits","nodmgspread","uncletopia"],"game_id":440,"stv_port":27016,"stv_name":"Uncletopia | New York City | 1 | All Maps | STV","players":[{"user_id":27,"name":"Mochi","steam_id":76561199151314140,"connected_time":20908000000000,"state":"active","ping":37},{"user_id":279,"name":"Senpa1","steam_id":76561198140297250,"connected_time":2050000000000,"state":"active","ping":45},{"user_id":272,"name":"rice white","steam_id":76561198320732910,"connected_time":2508000000000,"state":"active","ping":62},{"user_id":262,"name":"Butters495","steam_id":76561197998689042,"connected_time":3580000000000,"state":"active","ping":68},{"user_id":292,"name":"doodlenoodles","steam_id":76561199345823430,"connected_time":409000000000,"state":"active","ping":42},{"user_id":287,"name":"Bother","steam_id":76561198336750909,"connected_time":874000000000,"state":"active","ping":34},{"user_id":143,"name":"Blitzy","steam_id":76561198149472890,"connected_time":10463000000000,"state":"active","ping":92},{"user_id":265,"name":"ùô¥ ùö° ùöå ùöé ùöï ùöï \ufffd","steam_id":76561198011887958,"connected_time":3446000000000,"state":"active","ping":54},{"user_id":291,"name":"Drake the Pixel","steam_id":76561198131824401,"connected_time":602000000000,"state":"active","ping":41},{"user_id":295,"name":"tesagi","steam_id":76561198026664629,"connected_time":23000000000,"state":"active","ping":50},{"user_id":258,"name":"Superman123389","steam_id":76561198267472539,"connected_time":3858000000000,"state":"active","ping":102},{"user_id":118,"name":"r0zemary (she/her)","steam_id":76561198128494897,"connected_time":13546000000000,"state":"active","ping":80},{"user_id":284,"name":"PRAYTOGARFIELD","steam_id":76561199047858865,"connected_time":1011000000000,"state":"active","ping":75},{"user_id":280,"name":"AIDS GIRAFFE","steam_id":76561198010525744,"connected_time":1763000000000,"state":"active","ping":58},{"user_id":192,"name":"ratie","steam_id":76561198059399661,"connected_time":7443000000000,"state":"active","ping":102},{"user_id":296,"name":"Sir Iasis","steam_id":76561198035666760,"connected_time":22000000000,"state":"active","ping":96},{"user_id":293,"name":"FUSION","steam_id":76561197972659738,"connected_time":363000000000,"state":"active","ping":39},{"user_id":294,"name":"plsplsplslol","steam_id":76561198868084626,"connected_time":142000000000,"state":"active","ping":131},{"user_id":285,"name":"THE SYSTEM!","steam_id":76561198138723795,"connected_time":907000000000,"state":"active","ping":48},{"user_id":286,"name":"Jmciano24","steam_id":76561198050723212,"connected_time":887000000000,"state":"active","ping":55},{"user_id":288,"name":"JustLooking","steam_id":76561198207877387,"connected_time":826000000000,"state":"active","ping":52},{"user_id":269,"name":"Bridge the fridge","steam_id":76561199078390050,"connected_time":2710000000000,"state":"active","ping":61},{"user_id":248,"name":"chiswola","steam_id":76561198046920142,"connected_time":4298000000000,"state":"active","ping":97},{"user_id":277,"name":"Pluto","steam_id":76561198338593690,"connected_time":2350000000000,"state":"active","ping":87}]},{"server_id":14,"name":"Uncletopia | New York City | 2 | All Maps","name_short":"nyc-2","host":"nyc-1.us.uncletopia.com","port":27025,"enabled":true,"region":"us-east","cc":"us","latitude":40.73061,"longitude":-73.93524,"reserved":0,"last_update":"0001-01-01T00:00:00Z","name_a2s":"Uncletopia | New York City | 2 | All Maps","protocol":17,"map":"koth_harvest_final","folder":"tf","game":"Team Fortress","app_id":440,"player_count":24,"max_players":24,"Bots":0,"server_type":"Dedicated","server_os":"Linux","password":true,"vac":true,"version":"7757534","steam_id":85568392924469994,"keywords":["cp","nocrits","nodmgspread","uncletopia"],"game_id":440,"stv_port":27026,"stv_name":"Uncletopia | New York City | 2 | All Maps | STV","players":[{"user_id":335,"name":"Timon's high on crack cocaine!","steam_id":76561198180396430,"connected_time":350000000000,"state":"active","ping":55},{"user_id":326,"name":"captain red","steam_id":76561198191587983,"connected_time":2089000000000,"state":"active","ping":101},{"user_id":333,"name":"Kitt(eh) ‚àë:3","steam_id":76561198110858518,"connected_time":467000000000,"state":"active","ping":48},{"user_id":298,"name":"Baron von Whoopsie","steam_id":76561197996691013,"connected_time":3873000000000,"state":"active","ping":62},{"user_id":341,"name":"Terminator69","steam_id":76561198809283651,"connected_time":1000000000,"state":"spawning","ping":28},{"user_id":255,"name":"Hotdog Goblin","steam_id":76561198004133638,"connected_time":7150000000000,"state":"active","ping":108},{"user_id":330,"name":"Pancreas Enjoyer","steam_id":76561199438598904,"connected_time":1369000000000,"state":"active","ping":96},{"user_id":292,"name":"A Shiny Meat Bicycle","steam_id":76561198358757709,"connected_time":4440000000000,"state":"active","ping":86},{"user_id":334,"name":"duesmacheinuts","steam_id":76561199072907445,"connected_time":450000000000,"state":"active","ping":104},{"user_id":318,"name":"Asher","steam_id":76561198218499636,"connected_time":2513000000000,"state":"active","ping":45},{"user_id":336,"name":"watchfull","steam_id":76561198433266742,"connected_time":325000000000,"state":"active","ping":114},{"user_id":327,"name":"pie","steam_id":76561199411517965,"connected_time":1887000000000,"state":"active","ping":133},{"user_id":337,"name":"Loafus","steam_id":76561198154561111,"connected_time":323000000000,"state":"active","ping":61},{"user_id":324,"name":"Tony Pajamas","steam_id":76561198102299438,"connected_time":2278000000000,"state":"active","ping":70},{"user_id":320,"name":"Wiener Hole Paper Cut","steam_id":76561198000808203,"connected_time":2473000000000,"state":"active","ping":61},{"user_id":338,"name":"Raptortastico","steam_id":76561198105613110,"connected_time":293000000000,"state":"active","ping":60},{"user_id":332,"name":"Godmode","steam_id":76561198076240365,"connected_time":478000000000,"state":"active","ping":64},{"user_id":313,"name":"LazyKoala99","steam_id":76561199183623672,"connected_time":2730000000000,"state":"active","ping":125},{"user_id":303,"name":"QwilfishFan22","steam_id":76561198078565975,"connected_time":3186000000000,"state":"active","ping":46},{"user_id":321,"name":"will uber light classes","steam_id":76561198117033273,"connected_time":2435000000000,"state":"active","ping":120},{"user_id":339,"name":"Hakn","steam_id":76561198051068084,"connected_time":254000000000,"state":"active","ping":45},{"user_id":316,"name":"Poodwecker","steam_id":76561198344264859,"connected_time":2691000000000,"state":"active","ping":96},{"user_id":285,"name":"Uwu Micster","steam_id":76561198843890616,"connected_time":5465000000000,"state":"active","ping":79},{"user_id":331,"name":"Huntpk","steam_id":76561198340591674,"connected_time":1240000000000,"state":"active","ping":70}]},{"server_id":15,"name":"Uncletopia | New York City | 3 | Stopwatch Beta","name_short":"nyc-3","host":"nyc-1.us.uncletopia.com","port":27035,"enabled":true,"region":"us-east","cc":"us","latitude":40.73061,"longitude":-73.93524,"reserved":0,"last_update":"0001-01-01T00:00:00Z","name_a2s":"Uncletopia | New York City | 3 | Stopwatch Beta","protocol":17,"map":"pl_upward","folder":"tf","game":"Team Fortress","app_id":440,"player_count":0,"max_players":24,"Bots":0,"server_type":"Dedicated","server_os":"Linux","password":true,"vac":true,"version":"7757534","steam_id":85568392924742820,"keywords":["nocrits","nodmgspread","payload","uncletopia"],"game_id":440,"stv_port":27036,"stv_name":"Uncletopia | New York City | 3 | Stopwatch Beta | STV","players":null},{"server_id":16,"name":"Uncletopia | New York City | 4 | Community","name_short":"nyc-4","host":"nyc-1.us.uncletopia.com","port":27045,"enabled":true,"region":"us-east","cc":"us","latitude":40.73061,"longitude":-73.93524,"reserved":0,"last_update":"0001-01-01T00:00:00Z","name_a2s":"Uncletopia | New York City | 4 | Community","protocol":17,"map":"workshop/koth_trenchfoot_b1a.ugc731436616","folder":"tf","game":"Team Fortress","app_id":440,"player_count":3,"max_players":24,"Bots":0,"server_type":"Dedicated","server_os":"Linux","password":true,"vac":true,"version":"7757534","steam_id":85568392924742821,"keywords":["cp","nocrits","nodmgspread","uncletopia"],"game_id":440,"stv_port":27046,"stv_name":"Uncletopia | New York City | 4 | Community | STV","players":[{"user_id":23,"name":"RedPenguin_55 [Soldier main]","steam_id":76561199330977723,"connected_time":609000000000,"state":"active","ping":87},{"user_id":24,"name":"Heavy Gaming(Gaming)[Gaming]","steam_id":76561199366955312,"connected_time":596000000000,"state":"active","ping":86},{"user_id":25,"name":"Soundwave Gaming","steam_id":76561199013299586,"connected_time":455000000000,"state":"active","ping":50}]},{"server_id":142,"name":"Uncletopia | S√£o Paulo | 1 | All Maps","name_short":"sao-1","host":"sao-1.br.uncletopia.com","port":27015,"enabled":true,"region":"sa","cc":"br","latitude":-23.533773,"longitude":-46.62529,"reserved":0,"last_update":"0001-01-01T00:00:00Z","name_a2s":"Uncletopia | S√£o Paulo | 1 | All Maps","protocol":17,"map":"pl_borneo","folder":"tf","game":"Team Fortress","app_id":440,"player_count":0,"max_players":24,"Bots":0,"server_type":"Dedicated","server_os":"Linux","password":true,"vac":true,"version":"7757534","steam_id":85568392924469996,"keywords":["nocrits","nodmgspread","payload","uncletopia"],"game_id":440,"stv_port":27016,"stv_name":"Uncletopia | S√£o Paulo | 1 | All Maps | STV","players":null},{"server_id":143,"name":"Uncletopia | S√£o Paulo | 2 | All Maps","name_short":"sao-2","host":"sao-2.br.uncletopia.com","port":27015,"enabled":true,"region":"sa","cc":"br","latitude":-23.533773,"longitude":-46.62529,"reserved":0,"last_update":"0001-01-01T00:00:00Z","name_a2s":"Uncletopia | S√£o Paulo | 2 | All Maps","protocol":17,"map":"koth_lakeside_final","folder":"tf","game":"Team Fortress","app_id":440,"player_count":3,"max_players":24,"Bots":0,"server_type":"Dedicated","server_os":"Linux","password":true,"vac":true,"version":"7757534","steam_id":85568392924485349,"keywords":["cp","nocrits","nodmgspread","uncletopia"],"game_id":440,"stv_port":27016,"stv_name":"Uncletopia | S√£o Paulo | 2 | All Maps | STV","players":[{"user_id":16,"name":"Haunted Panic","steam_id":76561199021526970,"connected_time":1214000000000,"state":"active","ping":198},{"user_id":19,"name":"Kaos","steam_id":76561199068230966,"connected_time":491000000000,"state":"active","ping":50},{"user_id":18,"name":"stuwpid pyo maim","steam_id":76561199246901712,"connected_time":509000000000,"state":"active","ping":44}]},{"server_id":7,"name":"Uncletopia | Seattle | 1 | All Maps","name_short":"sea-1","host":"sea-1.us.uncletopia.com","port":27015,"enabled":true,"region":"us-west","cc":"us","latitude":47.608013,"longitude":-122.33517,"reserved":0,"last_update":"0001-01-01T00:00:00Z","name_a2s":"Uncletopia | Seattle | 1 | All Maps","protocol":17,"map":"koth_harvest_final","folder":"tf","game":"Team Fortress","app_id":440,"player_count":24,"max_players":24,"Bots":0,"server_type":"Dedicated","server_os":"Linux","password":true,"vac":true,"version":"7757534","steam_id":85568392924469997,"keywords":["cp","nocrits","nodmgspread","uncletopia"],"game_id":440,"stv_port":27016,"stv_name":"Uncletopia | Seattle | 1 | All Maps | STV","players":[{"user_id":377,"name":"my monitor is off","steam_id":76561198074499537,"connected_time":3399000000000,"state":"active","ping":94},{"user_id":349,"name":"Drew","steam_id":76561198058893405,"connected_time":5470000000000,"state":"active","ping":86},{"user_id":378,"name":"[TrC] Dackstrus","steam_id":76561197973518509,"connected_time":3089000000000,"state":"active","ping":57},{"user_id":106,"name":"Soozy420","steam_id":76561198809074422,"connected_time":24446000000000,"state":"active","ping":75},{"user_id":393,"name":"leaderlenny","steam_id":76561199182747781,"connected_time":877000000000,"state":"active","ping":52},{"user_id":384,"name":"ITSPICE","steam_id":76561198173274042,"connected_time":2006000000000,"state":"active","ping":52},{"user_id":321,"name":"Mediarch","steam_id":76561198050765729,"connected_time":8654000000000,"state":"active","ping":46},{"user_id":398,"name":"tarasbulba2305","steam_id":76561199223624161,"connected_time":127000000000,"state":"active","ping":114},{"user_id":370,"name":"HiFivr","steam_id":76561198285190162,"connected_time":3869000000000,"state":"active","ping":60},{"user_id":397,"name":"TikoTF2","steam_id":76561199066864469,"connected_time":176000000000,"state":"active","ping":62},{"user_id":391,"name":"Zxyes","steam_id":76561199079299173,"connected_time":1264000000000,"state":"active","ping":157},{"user_id":383,"name":"resting neutral face","steam_id":76561197999259502,"connected_time":2212000000000,"state":"active","ping":57},{"user_id":399,"name":"Google","steam_id":76561198857237473,"connected_time":125000000000,"state":"active","ping":49},{"user_id":329,"name":"Quintuple Triple","steam_id":76561198325557240,"connected_time":7753000000000,"state":"active","ping":71},{"user_id":343,"name":"jacix3 [gay wolfgirl]{she/it}","steam_id":76561198205004165,"connected_time":5936000000000,"state":"active","ping":63},{"user_id":389,"name":"Hank the Tank","steam_id":76561198424853684,"connected_time":1465000000000,"state":"active","ping":140},{"user_id":394,"name":"HaphazardHazel","steam_id":76561198316812693,"connected_time":638000000000,"state":"active","ping":133},{"user_id":236,"name":"Level 99 Mudcrab","steam_id":76561198077452771,"connected_time":14985000000000,"state":"active","ping":57},{"user_id":387,"name":"shy guy","steam_id":76561198151246059,"connected_time":1541000000000,"state":"active","ping":65},{"user_id":392,"name":"Mcfighter2","steam_id":76561198168073956,"connected_time":1168000000000,"state":"active","ping":105},{"user_id":318,"name":"louie, an ally","steam_id":76561198168084763,"connected_time":9176000000000,"state":"active","ping":44},{"user_id":390,"name":"h","steam_id":76561198868164815,"connected_time":1365000000000,"state":"active","ping":53},{"user_id":381,"name":"Boyaredeen","steam_id":76561198880492636,"connected_time":2727000000000,"state":"active","ping":55},{"user_id":396,"name":"https://en.wikipedia.org/","steam_id":76561198261326806,"connected_time":309000000000,"state":"active","ping":71}]},{"server_id":119,"name":"Uncletopia | Seattle | 2 | All Maps","name_short":"sea-2","host":"sea-1.us.uncletopia.com","port":27025,"enabled":true,"region":"us-west","cc":"us","latitude":47.608013,"longitude":-122.33517,"reserved":0,"last_update":"0001-01-01T00:00:00Z","name_a2s":"Uncletopia | Seattle | 2 | All Maps","protocol":17,"map":"koth_cascade","folder":"tf","game":"Team Fortress","app_id":440,"player_count":19,"max_players":24,"Bots":0,"server_type":"Dedicated","server_os":"Linux","password":true,"vac":true,"version":"7757534","steam_id":85568392924469998,"keywords":["cp","nocrits","nodmgspread","uncletopia"],"game_id":440,"stv_port":27026,"stv_name":"Uncletopia | Seattle | 2 | All Maps | STV","players":[{"user_id":88,"name":"CrystalClear","steam_id":76561198344276579,"connected_time":3356000000000,"state":"active","ping":91},{"user_id":52,"name":"think of the bag","steam_id":76561198125261443,"connected_time":4848000000000,"state":"active","ping":62},{"user_id":115,"name":"Beebons","steam_id":76561198170091433,"connected_time":986000000000,"state":"active","ping":75},{"user_id":87,"name":"C.C.C.O.","steam_id":76561198053967778,"connected_time":3520000000000,"state":"active","ping":137},{"user_id":122,"name":"Strikerbolt","steam_id":76561199095622897,"connected_time":172000000000,"state":"active","ping":81},{"user_id":32,"name":"Pot Head Pixie","steam_id":76561198083024504,"connected_time":5696000000000,"state":"active","ping":105},{"user_id":104,"name":"BLACK MAN FROM JOJO","steam_id":76561198272948471,"connected_time":2240000000000,"state":"active","ping":121},{"user_id":117,"name":"Cheeseoid","steam_id":76561198073836524,"connected_time":616000000000,"state":"active","ping":101},{"user_id":64,"name":"squash","steam_id":76561198150281353,"connected_time":4457000000000,"state":"active","ping":55},{"user_id":106,"name":"Smile","steam_id":76561198110008786,"connected_time":1747000000000,"state":"active","ping":51},{"user_id":124,"name":"bing bing pharts","steam_id":76561198301019618,"connected_time":88000000000,"state":"active","ping":73},{"user_id":127,"name":"BMoney","steam_id":76561198799389030,"connected_time":62000000000,"state":"active","ping":93},{"user_id":108,"name":"certified cinderace slayer","steam_id":76561198421913648,"connected_time":1744000000000,"state":"active","ping":46},{"user_id":125,"name":"Yoyo-Wo","steam_id":76561198880520205,"connected_time":70000000000,"state":"active","ping":87},{"user_id":126,"name":"MRC00KIECRUMBLE","steam_id":76561199123384619,"connected_time":68000000000,"state":"active","ping":63},{"user_id":47,"name":"alcoHollis","steam_id":76561198069797453,"connected_time":4948000000000,"state":"active","ping":49},{"user_id":116,"name":"tailorturtle","steam_id":76561198107481127,"connected_time":944000000000,"state":"active","ping":121},{"user_id":78,"name":"Quality Gundam","steam_id":76561198029853893,"connected_time":4106000000000,"state":"active","ping":94},{"user_id":72,"name":"Natalie","steam_id":76561198048848289,"connected_time":4287000000000,"state":"active","ping":84}]},{"server_id":406,"name":"Uncletopia | Seattle | 3 | Stopwatch Beta","name_short":"sea-3","host":"sea-1.us.uncletopia.com","port":27035,"enabled":true,"region":"us-west","cc":"us","latitude":47.608013,"longitude":-122.33517,"reserved":0,"last_update":"0001-01-01T00:00:00Z","name_a2s":"Uncletopia | Seattle | 3 | Stopwatch Beta","protocol":17,"map":"workshop/pl_vigil_rc9.ugc1266210012","folder":"tf","game":"Team Fortress","app_id":440,"player_count":0,"max_players":24,"Bots":0,"server_type":"Dedicated","server_os":"Linux","password":true,"vac":true,"version":"7757534","steam_id":85568392924515217,"keywords":["nocrits","nodmgspread","payload","uncletopia"],"game_id":440,"stv_port":27036,"stv_name":"Uncletopia | Seattle | 3 | Stopwatch Beta | STV","players":null},{"server_id":17,"name":"Uncletopia | San Francisco | 1 | All Maps","name_short":"sfo-1","host":"sfo-1.us.uncletopia.com","port":27015,"enabled":true,"region":"us-west","cc":"us","latitude":37.77397,"longitude":-122.4313,"reserved":0,"last_update":"0001-01-01T00:00:00Z","name_a2s":"Uncletopia | San Francisco | 1 | All Maps","protocol":17,"map":"pl_badwater","folder":"tf","game":"Team Fortress","app_id":440,"player_count":24,"max_players":24,"Bots":0,"server_type":"Dedicated","server_os":"Linux","password":true,"vac":true,"version":"7757534","steam_id":85568392924469999,"keywords":["nocrits","nodmgspread","payload","uncletopia"],"game_id":440,"stv_port":27016,"stv_name":"Uncletopia | San Francisco | 1 | All Maps | STV","players":[{"user_id":243,"name":"Matt","steam_id":76561199122703238,"connected_time":5280000000000,"state":"active","ping":79},{"user_id":281,"name":"Prototype1642","steam_id":76561199304113982,"connected_time":1407000000000,"state":"active","ping":67},{"user_id":284,"name":"Tyler\u0026Fingers","steam_id":76561198085154485,"connected_time":1194000000000,"state":"active","ping":123},{"user_id":291,"name":"amagicowl","steam_id":76561199060487814,"connected_time":467000000000,"state":"active","ping":67},{"user_id":292,"name":"Mondo","steam_id":76561198292307127,"connected_time":461000000000,"state":"active","ping":90},{"user_id":230,"name":"MRVN","steam_id":76561199103120314,"connected_time":6267000000000,"state":"active","ping":59},{"user_id":290,"name":"Dr. PP","steam_id":76561199018184096,"connected_time":927000000000,"state":"active","ping":77},{"user_id":228,"name":"cactus eater","steam_id":76561199107499844,"connected_time":6633000000000,"state":"active","ping":71},{"user_id":293,"name":"BonkerChoy350","steam_id":76561198403492747,"connected_time":427000000000,"state":"active","ping":82},{"user_id":260,"name":"Livin' Like Larry","steam_id":76561198313360974,"connected_time":4005000000000,"state":"active","ping":40},{"user_id":246,"name":"Bandanadee","steam_id":76561199014194373,"connected_time":5170000000000,"state":"active","ping":136},{"user_id":294,"name":"CollDragon","steam_id":76561198067534450,"connected_time":423000000000,"state":"active","ping":117},{"user_id":295,"name":"dunnydunjo","steam_id":76561198069605283,"connected_time":422000000000,"state":"active","ping":60},{"user_id":296,"name":"Big tiddy goth medic gf","steam_id":76561198836316052,"connected_time":417000000000,"state":"active","ping":70},{"user_id":271,"name":"Toad :)","steam_id":76561198163008022,"connected_time":2403000000000,"state":"active","ping":64},{"user_id":288,"name":"goblino","steam_id":76561198068260422,"connected_time":1137000000000,"state":"active","ping":113},{"user_id":275,"name":"The Ace","steam_id":76561198330288109,"connected_time":2317000000000,"state":"active","ping":79},{"user_id":289,"name":"Lane","steam_id":76561197965828506,"connected_time":1135000000000,"state":"active","ping":80},{"user_id":278,"name":"hoopswoop9","steam_id":76561199203050556,"connected_time":1807000000000,"state":"active","ping":70},{"user_id":256,"name":"The Pestilence","steam_id":76561199081252282,"connected_time":4499000000000,"state":"active","ping":116},{"user_id":297,"name":"AquaWolf","steam_id":76561198199025790,"connected_time":412000000000,"state":"active","ping":93},{"user_id":277,"name":"BANGARANG","steam_id":76561198816597453,"connected_time":2279000000000,"state":"active","ping":116},{"user_id":229,"name":"Vorpas Jabwak","steam_id":76561198112186064,"connected_time":6374000000000,"state":"active","ping":86},{"user_id":298,"name":"DoctorVoid","steam_id":76561198154715380,"connected_time":411000000000,"state":"active","ping":84}]},{"server_id":18,"name":"Uncletopia | San Francisco | 2 | All Maps","name_short":"sfo-2","host":"sfo-1.us.uncletopia.com","port":27025,"enabled":true,"region":"us-west","cc":"us","latitude":37.77397,"longitude":-122.4313,"reserved":0,"last_update":"0001-01-01T00:00:00Z","name_a2s":"Uncletopia | San Francisco | 2 | All Maps","protocol":17,"map":"cp_process_final","folder":"tf","game":"Team Fortress","app_id":440,"player_count":24,"max_players":24,"Bots":0,"server_type":"Dedicated","server_os":"Linux","password":true,"vac":true,"version":"7757534","steam_id":85568392924470000,"keywords":["cp","nocrits","nodmgspread","uncletopia"],"game_id":440,"stv_port":27026,"stv_name":"Uncletopia | San Francisco | 2 | All Maps | STV","players":[{"user_id":112,"name":"roanoke‚Ä∫","steam_id":76561198048007844,"connected_time":5399000000000,"state":"active","ping":52},{"user_id":152,"name":"no vc no c","steam_id":76561197989503095,"connected_time":2574000000000,"state":"active","ping":143},{"user_id":164,"name":"Buswolley","steam_id":76561197995205571,"connected_time":1802000000000,"state":"active","ping":54},{"user_id":182,"name":"420blzItM8","steam_id":76561198137983285,"connected_time":509000000000,"state":"active","ping":101},{"user_id":31,"name":"Overmeme","steam_id":76561199455124144,"connected_time":9977000000000,"state":"active","ping":83},{"user_id":151,"name":"Saddam","steam_id":76561197985725267,"connected_time":2730000000000,"state":"active","ping":80},{"user_id":48,"name":"crumblejon","steam_id":76561198111273302,"connected_time":9156000000000,"state":"active","ping":74},{"user_id":176,"name":"james may","steam_id":76561198043857339,"connected_time":1031000000000,"state":"active","ping":58},{"user_id":166,"name":"b3afy","steam_id":76561198084208649,"connected_time":1733000000000,"state":"active","ping":64},{"user_id":180,"name":"noellehound","steam_id":76561198108844158,"connected_time":522000000000,"state":"active","ping":68},{"user_id":188,"name":"Reb","steam_id":76561198144756713,"connected_time":211000000000,"state":"active","ping":89},{"user_id":167,"name":"Bluerazzberrygames","steam_id":76561199055743155,"connected_time":1702000000000,"state":"active","ping":73},{"user_id":168,"name":"MF Johno","steam_id":76561199231993886,"connected_time":1676000000000,"state":"active","ping":58},{"user_id":155,"name":"Fremond Games","steam_id":76561198847910046,"connected_time":2517000000000,"state":"active","ping":93},{"user_id":181,"name":"crouton.net","steam_id":76561198068374646,"connected_time":512000000000,"state":"active","ping":53},{"user_id":183,"name":"FI LO","steam_id":76561198976530881,"connected_time":481000000000,"state":"active","ping":45},{"user_id":178,"name":"RaixaR","steam_id":76561198025289430,"connected_time":688000000000,"state":"active","ping":79},{"user_id":147,"name":"8 raw papers","steam_id":76561198424248616,"connected_time":2823000000000,"state":"active","ping":97},{"user_id":187,"name":"ApplesMate","steam_id":76561198832763278,"connected_time":380000000000,"state":"active","ping":60},{"user_id":57,"name":"Zero","steam_id":76561199383267408,"connected_time":9079000000000,"state":"active","ping":91},{"user_id":161,"name":"Mickmissi√≥n","steam_id":76561199133527421,"connected_time":1957000000000,"state":"active","ping":67},{"user_id":189,"name":"Wendall555","steam_id":76561198985637603,"connected_time":209000000000,"state":"active","ping":60},{"user_id":184,"name":"defcon","steam_id":76561198100656328,"connected_time":468000000000,"state":"active","ping":123},{"user_id":186,"name":"boulder","steam_id":76561198347225801,"connected_time":428000000000,"state":"active","ping":65}]},{"server_id":19,"name":"Uncletopia | San Francisco | 3 | Stopwatch Beta","name_short":"sfo-3","host":"sfo-1.us.uncletopia.com","port":27035,"enabled":true,"region":"us-west","cc":"us","latitude":37.77397,"longitude":-122.4313,"reserved":0,"last_update":"0001-01-01T00:00:00Z","name_a2s":"Uncletopia | San Francisco | 3 | Stopwatch Beta","protocol":17,"map":"workshop/koth_ramjam_rc1.ugc459778887","folder":"tf","game":"Team Fortress","app_id":440,"player_count":0,"max_players":24,"Bots":0,"server_type":"Dedicated","server_os":"Linux","password":true,"vac":true,"version":"7757534","steam_id":85568392924742824,"keywords":["cp","nocrits","nodmgspread","uncletopia"],"game_id":440,"stv_port":27036,"stv_name":"Uncletopia | San Francisco | 3 | Stopwatch Beta | STV","players":null},{"server_id":20,"name":"Uncletopia | San Francisco | 4 | Community","name_short":"sfo-4","host":"sfo-1.us.uncletopia.com","port":27045,"enabled":true,"region":"us-west","cc":"us","latitude":37.77397,"longitude":-122.4313,"reserved":0,"last_update":"0001-01-01T00:00:00Z","name_a2s":"Uncletopia | San Francisco | 4 | Community","protocol":17,"map":"workshop/cp_reckoner_rc6.ugc674719999","folder":"tf","game":"Team Fortress","app_id":440,"player_count":0,"max_players":24,"Bots":0,"server_type":"Dedicated","server_os":"Linux","password":true,"vac":true,"version":"7757534","steam_id":85568392924742826,"keywords":["cp","nocrits","nodmgspread","uncletopia"],"game_id":440,"stv_port":27046,"stv_name":"Uncletopia | San Francisco | 4 | Community | STV","players":null},{"server_id":141,"name":"Uncletopia | Sydney | 1 | All Maps","name_short":"syd-1","host":"syd-1.au.uncletopia.com","port":27015,"enabled":true,"region":"au","cc":"au","latitude":-33.865143,"longitude":151.2099,"reserved":0,"last_update":"0001-01-01T00:00:00Z","name_a2s":"Uncletopia | Sydney | 1 | All Maps","protocol":17,"map":"pl_swiftwater_final1","folder":"tf","game":"Team Fortress","app_id":440,"player_count":0,"max_players":24,"Bots":0,"server_type":"Dedicated","server_os":"Linux","password":true,"vac":true,"version":"7757534","steam_id":85568392924470001,"keywords":["nocrits","nodmgspread","payload","uncletopia"],"game_id":440,"stv_port":27016,"stv_name":"Uncletopia | Sydney | 1 | All Maps | STV","players":null},{"server_id":123,"name":"Uncletopia | Sydney | 2 | All Maps","name_short":"syd-2","host":"syd-1.au.uncletopia.com","port":27025,"enabled":true,"region":"au","cc":"au","latitude":-33.865143,"longitude":151.2099,"reserved":0,"last_update":"0001-01-01T00:00:00Z","name_a2s":"Uncletopia | Sydney | 2 | All Maps","protocol":17,"map":"cp_process_final","folder":"tf","game":"Team Fortress","app_id":440,"player_count":0,"max_players":24,"Bots":0,"server_type":"Dedicated","server_os":"Linux","password":true,"vac":true,"version":"7757534","steam_id":85568392924470002,"keywords":["cp","nocrits","nodmgspread","uncletopia"],"game_id":440,"stv_port":27026,"stv_name":"Uncletopia | Sydney | 2 | All Maps | STV","players":null},{"server_id":395,"name":"Uncletopia | Sydney | 3 | All Maps","name_short":"syd-3","host":"syd-1.au.uncletopia.com","port":27035,"enabled":true,"region":"au","cc":"au","latitude":-33.865143,"longitude":151.2099,"reserved":0,"last_update":"0001-01-01T00:00:00Z","name_a2s":"Uncletopia | Sydney | 3 | All Maps","protocol":17,"map":"cp_process_final","folder":"tf","game":"Team Fortress","app_id":440,"player_count":0,"max_players":24,"Bots":0,"server_type":"Dedicated","server_os":"Linux","password":true,"vac":true,"version":"7757534","steam_id":85568392925194467,"keywords":["cp","nocrits","nodmgspread","uncletopia"],"game_id":440,"stv_port":27036,"stv_name":"Uncletopia | Sydney | 3 | All Maps | STV","players":null},{"server_id":396,"name":"Uncletopia | Sydney | 4 | All Maps","name_short":"syd-4","host":"syd-1.au.uncletopia.com","port":27045,"enabled":true,"region":"au","cc":"au","latitude":-33.865143,"longitude":151.2099,"reserved":0,"last_update":"0001-01-01T00:00:00Z","name_a2s":"Uncletopia | Sydney | 4 | All Maps","protocol":17,"map":"koth_highpass","folder":"tf","game":"Team Fortress","app_id":440,"player_count":4,"max_players":24,"Bots":0,"server_type":"Dedicated","server_os":"Linux","password":true,"vac":true,"version":"7757534","steam_id":85568392925397958,"keywords":["cp","nocrits","nodmgspread","uncletopia"],"game_id":440,"stv_port":27046,"stv_name":"Uncletopia | Sydney | 4 | All Maps | STV","players":[{"user_id":4,"name":"FrostBite AZZA","steam_id":76561198239240130,"connected_time":796000000000,"state":"active","ping":37},{"user_id":5,"name":"ShadowSkullsz","steam_id":76561198157032105,"connected_time":740000000000,"state":"active","ping":52},{"user_id":6,"name":"RK8Deluxe‚≠ê","steam_id":76561198334247439,"connected_time":171000000000,"state":"active","ping":41},{"user_id":7,"name":"Gregory","steam_id":76561199028542666,"connected_time":61000000000,"state":"active","ping":39}]},{"server_id":58,"name":"Uncletopia | Sydney | 5 | Stopwatch Beta","name_short":"syd-5","host":"syd-1.au.uncletopia.com","port":27055,"enabled":true,"region":"au","cc":"au","latitude":-33.865143,"longitude":151.2099,"reserved":0,"last_update":"0001-01-01T00:00:00Z","name_a2s":"Uncletopia | Sydney | 5 | Stopwatch Beta","protocol":17,"map":"koth_cascade","folder":"tf","game":"Team Fortress","app_id":440,"player_count":0,"max_players":24,"Bots":0,"server_type":"Dedicated","server_os":"Linux","password":true,"vac":true,"version":"7757534","steam_id":85568392925397959,"keywords":["cp","nocrits","nodmgspread","uncletopia"],"game_id":440,"stv_port":27056,"stv_name":"Uncletopia | Sydney | 5 | Stopwatch Beta | STV","players":null},{"server_id":59,"name":"Uncletopia | Sydney | 6 | Community","name_short":"syd-6","host":"syd-1.au.uncletopia.com","port":27065,"enabled":true,"region":"au","cc":"au","latitude":-33.865143,"longitude":151.2099,"reserved":0,"last_update":"0001-01-01T00:00:00Z","name_a2s":"Uncletopia | Sydney | 6 | Community","protocol":17,"map":"workshop/cp_snowbase_b18.ugc2081770490","folder":"tf","game":"Team Fortress","app_id":440,"player_count":0,"max_players":24,"Bots":0,"server_type":"Dedicated","server_os":"Linux","password":true,"vac":true,"version":"7757534","steam_id":85568392925397960,"keywords":["cp","nocrits","nodmgspread","uncletopia"],"game_id":440,"stv_port":27066,"stv_name":"Uncletopia | Sydney | 6 | Community | STV","players":null},{"server_id":49,"name":"Uncletopia | Warsaw | 1 | All Maps","name_short":"waw-1","host":"waw-1.pl.uncletopia.com","port":27015,"enabled":true,"region":"eu","cc":"pl","latitude":52.2297,"longitude":21.017532,"reserved":0,"last_update":"0001-01-01T00:00:00Z","name_a2s":"","protocol":0,"map":"","folder":"","game":"","app_id":0,"player_count":0,"max_players":0,"Bots":0,"server_type":"","server_os":"","password":false,"vac":false,"version":"","steam_id":0,"keywords":null,"game_id":0,"stv_port":0,"stv_name":"","players":null},{"server_id":50,"name":"Uncletopia | Warsaw | 2 | All Maps","name_short":"waw-2","host":"waw-1.pl.uncletopia.com","port":27025,"enabled":true,"region":"eu","cc":"pl","latitude":52.2297,"longitude":21.017532,"reserved":0,"last_update":"0001-01-01T00:00:00Z","name_a2s":"Uncletopia | Warsaw | 2 | All Maps","protocol":17,"map":"cp_altitude","folder":"tf","game":"Team Fortress","app_id":440,"player_count":0,"max_players":24,"Bots":0,"server_type":"Dedicated","server_os":"Linux","password":true,"vac":true,"version":"7757534","steam_id":85568392925397851,"keywords":["cp","nocrits","nodmgspread","uncletopia"],"game_id":440,"stv_port":27026,"stv_name":"Uncletopia | Warsaw | 2 | All Maps | STV","players":null},{"server_id":51,"name":"Uncletopia | Warsaw | 3 | All Maps","name_short":"waw-3","host":"waw-1.pl.uncletopia.com","port":27035,"enabled":true,"region":"eu","cc":"pl","latitude":52.2297,"longitude":21.017532,"reserved":0,"last_update":"0001-01-01T00:00:00Z","name_a2s":"Uncletopia | Warsaw | 3 | All Maps","protocol":17,"map":"cp_snakewater_final1","folder":"tf","game":"Team Fortress","app_id":440,"player_count":0,"max_players":24,"Bots":0,"server_type":"Dedicated","server_os":"Linux","password":true,"vac":true,"version":"7757534","steam_id":85568392925397852,"keywords":["cp","nocrits","nodmgspread","uncletopia"],"game_id":440,"stv_port":27036,"stv_name":"Uncletopia | Warsaw | 3 | All Maps | STV","players":null},{"server_id":52,"name":"Uncletopia | Warsaw | 4 | All Maps","name_short":"waw-4","host":"waw-1.pl.uncletopia.com","port":27045,"enabled":true,"region":"eu","cc":"pl","latitude":52.2297,"longitude":21.017532,"reserved":0,"last_update":"0001-01-01T00:00:00Z","name_a2s":"Uncletopia | Warsaw | 4 | All Maps","protocol":17,"map":"koth_lakeside_final","folder":"tf","game":"Team Fortress","app_id":440,"player_count":0,"max_players":24,"Bots":0,"server_type":"Dedicated","server_os":"Linux","password":true,"vac":true,"version":"7757534","steam_id":85568392925397853,"keywords":["cp","nocrits","nodmgspread","uncletopia"],"game_id":440,"stv_port":27046,"stv_name":"Uncletopia | Warsaw | 4 | All Maps | STV","players":null},{"server_id":53,"name":"Uncletopia | Warsaw | 5 | Stopwatch Beta","name_short":"waw-5","host":"waw-1.pl.uncletopia.com","port":27055,"enabled":true,"region":"eu","cc":"pl","latitude":52.2297,"longitude":21.017532,"reserved":0,"last_update":"0001-01-01T00:00:00Z","name_a2s":"Uncletopia | Warsaw | 5 | Stopwatch Beta","protocol":17,"map":"pl_borneo","folder":"tf","game":"Team Fortress","app_id":440,"player_count":0,"max_players":24,"Bots":0,"server_type":"Dedicated","server_os":"Linux","password":true,"vac":true,"version":"7757534","steam_id":85568392925397854,"keywords":["nocrits","nodmgspread","payload","uncletopia"],"game_id":440,"stv_port":27056,"stv_name":"Uncletopia | Warsaw | 5 | Stopwatch Beta | STV","players":null},{"server_id":54,"name":"Uncletopia | Warsaw | 6 | Community","name_short":"waw-6","host":"waw-1.pl.uncletopia.com","port":27065,"enabled":true,"region":"eu","cc":"pl","latitude":52.2297,"longitude":21.017532,"reserved":0,"last_update":"0001-01-01T00:00:00Z","name_a2s":"Uncletopia | Warsaw | 6 | Community","protocol":17,"map":"workshop/cp_indulge.ugc528106646","folder":"tf","game":"Team Fortress","app_id":440,"player_count":0,"max_players":24,"Bots":0,"server_type":"Dedicated","server_os":"Linux","password":true,"vac":true,"version":"7757534","steam_id":85568392925397856,"keywords":["cp","nocrits","nodmgspread","uncletopia"],"game_id":440,"stv_port":27066,"stv_name":"Uncletopia | Warsaw | 6 | Community | STV","players":null}]}