{"status":true,"message":"","result":[{"server_id":9,"name":"Uncletopia | Atlanta | 1 | All Maps","name_short":"atl-1","host":"atl-1.us.uncletopia.com","port":27015,"enabled":true,"region":"us-east","cc":"us","latitude":33.753746,"longitude":-84.38633,"reserved":0,"last_update":"0001-01-01T00:00:00Z","name_a2s":"Uncletopia | Atlanta | 1 | All Maps","protocol":17,"map":"pl_pier","folder":"tf","game":"Team Fortress","app_id":440,"player_count":24,"max_players":24,"Bots":0,"server_type":"Dedicated","server_os":"Linux","password":true,"vac":true,"version":"7757534","steam_id":85568392924469982,"keywords":["nocrits","nodmgspread","payload","uncletopia"],"game_id":440,"stv_port":27016,"stv_name":"Uncletopia | Atlanta | 1 | All Maps | STV","players":[{"user_id":357,"name":"Womp","steam_id":76561198245103000,"connected_time":1823000000000,"state":"active","ping":67},{"user_id":288,"name":"Ashes!","steam_id":76561197998475441,"connected_time":7548000000000,"state":"active","ping":77},{"user_id":245,"name":"Deeply","steam_id":76561199000786530,"connected_time":9347000000000,"state":"active","ping":88},{"user_id":353,"name":"atl1icyy","steam_id":76561198968001329,"connected_time":1954000000000,"state":"active","ping":44},{"user_id":362,"name":"Metapod","steam_id":76561198008725465,"connected_time":1002000000000,"state":"active","ping":74},{"user_id":373,"name":"TaroJohn","steam_id":76561198264676545,"connected_time":131000000000,"state":"active","ping":128},{"user_id":335,"name":"lil hog","steam_id":76561199230929836,"connected_time":3748000000000,"state":"active","ping":86},{"user_id":351,"name":"luxin","steam_id":76561198399383047,"connected_time":2018000000000,"state":"active","ping":54},{"user_id":341,"name":"im with femboy","steam_id":76561198103496593,"connected_time":3433000000000,"state":"active","ping":46},{"user_id":274,"name":"im with stupid","steam_id":76561198406252824,"connected_time":8217000000000,"state":"active","ping":120},{"user_id":328,"name":"vv","steam_id":76561198134813102,"connected_time":4132000000000,"state":"active","ping":76},{"user_id":374,"name":"mayhem","steam_id":76561199246637881,"connected_time":101000000000,"state":"active","ping":59},{"user_id":329,"name":"Coffee with a Stranger","steam_id":76561198307422313,"connected_time":3975000000000,"state":"active","ping":65},{"user_id":345,"name":"schteewpid rat","steam_id":76561199262600666,"connected_time":3003000000000,"state":"active","ping":75},{"user_id":358,"name":"chubbbo","steam_id":76561198943598378,"connected_time":1764000000000,"state":"active","ping":41},{"user_id":368,"name":"suns","steam_id":76561198079583278,"connected_time":518000000000,"state":"active","ping":66},{"user_id":364,"name":"BIG HOG","steam_id":76561198079923652,"connected_time":580000000000,"state":"active","ping":71},{"user_id":365,"name":"rose","steam_id":76561198048882285,"connected_time":578000000000,"state":"active","ping":60},{"user_id":360,"name":"boi","steam_id":76561199213975119,"connected_time":1421000000000,"state":"active","ping":169},{"user_id":348,"name":"Constable","steam_id":76561198135578153,"connected_time":2032000000000,"state":"active","ping":74},{"user_id":343,"name":"Krampus","steam_id":76561198137530703,"connected_time":3397000000000,"state":"active","ping":72},{"user_id":359,"name":"saaz :)","steam_id":76561198298605136,"connected_time":1704000000000,"state":"active","ping":85},{"user_id":361,"name":"Albino Jellyfish","steam_id":76561198208561097,"connected_time":1279000000000,"state":"active","ping":70},{"user_id":349,"name":"NBA Youngboy","steam_id":76561199118797200,"connected_time":2032000000000,"state":"active","ping":67}]},{"server_id":104,"name":"Uncletopia | Atlanta | 2 | All Maps","name_short":"atl-2","host":"atl-1.us.uncletopia.com","port":27025,"enabled":true,"region":"us-east","cc":"us","latitude":33.753746,"longitude":-84.38633,"reserved":0,"last_update":"0001-01-01T00:00:00Z","name_a2s":"Uncletopia | Atlanta | 2 | All Maps","protocol":17,"map":"koth_badlands","folder":"tf","game":"Team Fortress","app_id":440,"player_count":0,"max_players":24,"Bots":0,"server_type":"Dedicated","server_os":"Linux","password":true,"vac":true,"version":"7757534","steam_id":85568392924469983,"keywords":["cp","nocrits","nodmgspread","uncletopia"],"game_id":440,"stv_port":27026,"stv_name":"Uncletopia | Atlanta | 2 | All Maps | STV","players":null},{"server_id":400,"name":"Uncletopia | Atlanta | 3 | Community","name_short":"atl-3","host":"atl-1.us.uncletopia.com","port":27035,"enabled":true,"region":"us-east","cc":"us","latitude":33.753746,"longitude":-84.38633,"reserved":0,"last_update":"0001-01-01T00:00:00Z","name_a2s":"Uncletopia | Atlanta | 3 | Community","protocol":17,"map":"workshop/koth_synthetic_rc6a.ugc1549817316","folder":"tf","game":"Team Fortress","app_id":440,"player_count":0,"max_players":24,"Bots":0,"server_type":"Dedicated","server_os":"Linux","password":true,"vac":true,"version":"7757534","steam_id":85568392924515187,"keywords":["cp","nocrits","nodmgspread","uncletopia"],"game_id":440,"stv_port":27036,"stv_name":"Uncletopia | Atlanta | 3 | Community | STV","players":null},{"server_id":401,"name":"Uncletopia | Atlanta | 4 | No Payload","name_short":"atl-4","host":"atl-1.us.uncletopia.com","port":27045,"enabled":true,"region":"us-east","cc":"us","latitude":33.753746,"longitude":-84.38633,"reserved":0,"last_update":"0001-01-01T00:00:00Z","name_a2s":"","protocol":0,"map":"","folder":"","game":"","app_id":0,"player_count":0,"max_players":0,"Bots":0,"server_type":"","server_os":"","password":false,"vac":false,"version":"","steam_id":0,"keywords":null,"game_id":0,"stv_port":0,"stv_name":"","players":null},{"server_id":2,"name":"Uncletopia | Chicago | 1 | All Maps","name_short":"chi-1","host":"chi-1.us.uncletopia.com","port":27015,"enabled":true,"region":"us-central","cc":"us","latitude":41.881832,"longitude":-87.62318,"reserved":0,"last_update":"0001-01-01T00:00:00Z","name_a2s":"Uncletopia | Chicago | 1 | All Maps","protocol":17,"map":"pl_badwater","folder":"tf","game":"Team Fortress","app_id":440,"player_count":19,"max_players":24,"Bots":0,"server_type":"Dedicated","server_os":"Linux","password":true,"vac":true,"version":"7757534","steam_id":85568392924469984,"keywords":["nocrits","nodmgspread","payload","uncletopia"],"game_id":440,"stv_port":27016,"stv_name":"Uncletopia | Chicago | 1 | All Maps | STV","players":[{"user_id":237,"name":"RiverEgg","steam_id":76561198888913405,"connected_time":4319000000000,"state":"active","ping":43},{"user_id":287,"name":"Mug Moment Gaming","steam_id":76561198233098136,"connected_time":839000000000,"state":"active","ping":51},{"user_id":292,"name":"Horrizan","steam_id":76561197965028480,"connected_time":75000000000,"state":"active","ping":76},{"user_id":277,"name":"Shoeshocker","steam_id":76561198174302467,"connected_time":1744000000000,"state":"active","ping":58},{"user_id":295,"name":"Inigo Montoya","steam_id":76561198010603881,"connected_time":0,"state":"spawning","ping":0},{"user_id":220,"name":"Glass Joe","steam_id":76561198317365741,"connected_time":5101000000000,"state":"active","ping":73},{"user_id":280,"name":"Lil Goober","steam_id":76561199199434668,"connected_time":1469000000000,"state":"active","ping":65},{"user_id":264,"name":"Killerdevil1055","steam_id":76561199007570946,"connected_time":2173000000000,"state":"active","ping":78},{"user_id":294,"name":"lwyr","steam_id":76561198007982579,"connected_time":42000000000,"state":"spawning","ping":59},{"user_id":289,"name":"∆ê’å—¥∆≥","steam_id":76561198099470277,"connected_time":401000000000,"state":"active","ping":79},{"user_id":293,"name":"bro","steam_id":76561198312153623,"connected_time":71000000000,"state":"active","ping":72},{"user_id":254,"name":"Trove","steam_id":76561198110970476,"connected_time":3026000000000,"state":"active","ping":46},{"user_id":283,"name":"boringluis","steam_id":76561199085185040,"connected_time":1250000000000,"state":"active","ping":68},{"user_id":281,"name":"Rornir","steam_id":76561198081829615,"connected_time":1270000000000,"state":"active","ping":41},{"user_id":284,"name":"tone","steam_id":76561198006505587,"connected_time":1238000000000,"state":"active","ping":86},{"user_id":244,"name":"hades","steam_id":76561199061380038,"connected_time":3564000000000,"state":"active","ping":65},{"user_id":275,"name":"WatchWill","steam_id":76561198157237945,"connected_time":1874000000000,"state":"active","ping":69},{"user_id":282,"name":"TEZOS","steam_id":76561197972656632,"connected_time":1264000000000,"state":"active","ping":50},{"user_id":291,"name":"Tlaloc","steam_id":76561198375215983,"connected_time":146000000000,"state":"active","ping":118}]},{"server_id":106,"name":"Uncletopia | Chicago | 2 | All Maps","name_short":"chi-2","host":"chi-1.us.uncletopia.com","port":27025,"enabled":true,"region":"us-central","cc":"us","latitude":41.881832,"longitude":-87.62318,"reserved":0,"last_update":"0001-01-01T00:00:00Z","name_a2s":"Uncletopia | Chicago | 2 | All Maps","protocol":17,"map":"pl_badwater","folder":"tf","game":"Team Fortress","app_id":440,"player_count":21,"max_players":24,"Bots":0,"server_type":"Dedicated","server_os":"Linux","password":true,"vac":true,"version":"7757534","steam_id":85568392924469985,"keywords":["cp","nocrits","nodmgspread","uncletopia"],"game_id":440,"stv_port":27026,"stv_name":"Uncletopia | Chicago | 2 | All Maps | STV","players":[{"user_id":297,"name":"Aurora","steam_id":76561198161316618,"connected_time":30000000000,"state":"connecting","ping":59},{"user_id":286,"name":"atlas","steam_id":76561198398383076,"connected_time":924000000000,"state":"connecting","ping":108},{"user_id":151,"name":"Kritzburgh","steam_id":76561198149466938,"connected_time":12427000000000,"state":"connecting","ping":83},{"user_id":298,"name":"Karl","steam_id":76561198115714484,"connected_time":7000000000,"state":"connecting","ping":356},{"user_id":279,"name":"ÔºîÔºê Ôº¶Ôº∞Ôº≥","steam_id":76561198272394965,"connected_time":1132000000000,"state":"connecting","ping":155},{"user_id":290,"name":"GaMeRbOi","steam_id":76561199094353617,"connected_time":693000000000,"state":"connecting","ping":117},{"user_id":253,"name":"Jack The Racc","steam_id":76561198044762365,"connected_time":3275000000000,"state":"connecting","ping":60},{"user_id":243,"name":"FortressGamer #SaveTF2","steam_id":76561198144049265,"connected_time":4855000000000,"state":"connecting","ping":86},{"user_id":216,"name":"Neon Inhaler","steam_id":76561198024881072,"connected_time":6755000000000,"state":"connecting","ping":77},{"user_id":291,"name":"Goodboi989","steam_id":76561199012797025,"connected_time":669000000000,"state":"connecting","ping":119},{"user_id":284,"name":"Xenon Snorter","steam_id":76561198232283600,"connected_time":1029000000000,"state":"connecting","ping":72},{"user_id":280,"name":"Koffy","steam_id":76561198184386039,"connected_time":1108000000000,"state":"connecting","ping":141},{"user_id":257,"name":"Peter Popoff","steam_id":76561198027171160,"connected_time":2264000000000,"state":"connecting","ping":44},{"user_id":266,"name":"Goober","steam_id":76561198988863807,"connected_time":1539000000000,"state":"connecting","ping":78},{"user_id":277,"name":"AkimboAoki","steam_id":76561198158323058,"connected_time":1331000000000,"state":"connecting","ping":116},{"user_id":295,"name":"MDD","steam_id":76561197998850659,"connected_time":493000000000,"state":"connecting","ping":88},{"user_id":98,"name":"Ajax","steam_id":76561197962240140,"connected_time":17265000000000,"state":"connecting","ping":75},{"user_id":237,"name":"Certified BigMan","steam_id":76561198095544632,"connected_time":5313000000000,"state":"connecting","ping":80},{"user_id":288,"name":"he drove a series ten cadillac","steam_id":76561198142756572,"connected_time":863000000000,"state":"connecting","ping":81},{"user_id":293,"name":"N0SNitro","steam_id":76561198026157327,"connected_time":662000000000,"state":"connecting","ping":73}]},{"server_id":402,"name":"Uncletopia | Chicago | 3 | All Maps","name_short":"chi-3","host":"chi-1.us.uncletopia.com","port":27035,"enabled":true,"region":"us-central","cc":"us","latitude":41.881832,"longitude":-87.62318,"reserved":0,"last_update":"0001-01-01T00:00:00Z","name_a2s":"Uncletopia | Chicago | 3 | All Maps","protocol":17,"map":"koth_cascade","folder":"tf","game":"Team Fortress","app_id":440,"player_count":0,"max_players":24,"Bots":0,"server_type":"Dedicated","server_os":"Linux","password":true,"vac":true,"version":"7757534","steam_id":85568392924515191,"keywords":["cp","nocrits","nodmgspread","uncletopia"],"game_id":440,"stv_port":27036,"stv_name":"Uncletopia | Chicago | 3 | All Maps | STV","players":null},{"server_id":403,"name":"Uncletopia | Chicago | 4 | All Maps","name_short":"chi-4","host":"chi-1.us.uncletopia.com","port":27045,"enabled":true,"region":"us-central","cc":"us","latitude":41.881832,"longitude":-87.62318,"reserved":0,"last_update":"0001-01-01T00:00:00Z","name_a2s":"Uncletopia | Chicago | 4 | All Maps","protocol":17,"map":"plr_hightower","folder":"tf","game":"Team Fortress","app_id":440,"player_count":22,"max_players":24,"Bots":0,"server_type":"Dedicated","server_os":"Linux","password":true,"vac":true,"version":"7757534","steam_id":85568392924515193,"keywords":["nocrits","nodmgspread","payload","uncletopia"],"game_id":440,"stv_port":27046,"stv_name":"Uncletopia | Chicago | 4 | All Maps | STV","players":[{"user_id":155,"name":"Cant you see the bullets?","steam_id":76561199476953503,"connected_time":523000000000,"state":"active","ping":172},{"user_id":156,"name":"Wibis428","steam_id":76561198058249141,"connected_time":190000000000,"state":"active","ping":55},{"user_id":114,"name":"Duck nut","steam_id":76561198355475831,"connected_time":2840000000000,"state":"active","ping":116},{"user_id":121,"name":"Shadowstone67","steam_id":76561198199459430,"connected_time":2368000000000,"state":"active","ping":67},{"user_id":141,"name":"Khallaria","steam_id":76561198000706490,"connected_time":914000000000,"state":"active","ping":113},{"user_id":135,"name":"d0ppelganger","steam_id":76561198144828405,"connected_time":1257000000000,"state":"active","ping":109},{"user_id":159,"name":"Se√±or Marrano","steam_id":76561198083952982,"connected_time":17000000000,"state":"spawning","ping":119},{"user_id":88,"name":"pipis","steam_id":76561198140971525,"connected_time":4290000000000,"state":"active","ping":61},{"user_id":130,"name":"Grify","steam_id":76561198012292317,"connected_time":1671000000000,"state":"active","ping":85},{"user_id":131,"name":"Ama","steam_id":76561198077883218,"connected_time":1668000000000,"state":"active","ping":38},{"user_id":123,"name":"Jaquaviontavious the III","steam_id":76561199267535506,"connected_time":2334000000000,"state":"active","ping":72},{"user_id":142,"name":"Fengo","steam_id":76561198139917991,"connected_time":910000000000,"state":"active","ping":109},{"user_id":122,"name":"Cheesi","steam_id":76561199417190840,"connected_time":2365000000000,"state":"active","ping":66},{"user_id":144,"name":"XBOX 360","steam_id":76561198066590783,"connected_time":888000000000,"state":"active","ping":71},{"user_id":157,"name":"neet","steam_id":76561197968115168,"connected_time":176000000000,"state":"active","ping":54},{"user_id":145,"name":"SkrubWrecker","steam_id":76561198044717015,"connected_time":873000000000,"state":"active","ping":63},{"user_id":137,"name":"ConiferCarver(#SaveTF2)","steam_id":76561198195875845,"connected_time":1034000000000,"state":"active","ping":92},{"user_id":134,"name":"(‚óî) Neville","steam_id":76561198025637970,"connected_time":1564000000000,"state":"active","ping":75},{"user_id":146,"name":"Seico Bass","steam_id":76561198123498500,"connected_time":869000000000,"state":"active","ping":85},{"user_id":138,"name":"‚ùÄTheFlyingSpaghettiMonster‚ùÄ","steam_id":76561198094145477,"connected_time":1030000000000,"state":"active","ping":44},{"user_id":149,"name":"relaxerfrog","steam_id":76561199149386444,"connected_time":812000000000,"state":"active","ping":82},{"user_id":151,"name":"St. Arnold of Soissons","steam_id":76561197974133892,"connected_time":792000000000,"state":"active","ping":75}]},{"server_id":36,"name":"Uncletopia | Chicago | 5 | All Maps","name_short":"chi-5","host":"chi-2.us.uncletopia.com","port":27015,"enabled":true,"region":"us-central","cc":"us","latitude":41.881832,"longitude":-87.62318,"reserved":0,"last_update":"0001-01-01T00:00:00Z","name_a2s":"Uncletopia | Chicago | 5 | All Maps","protocol":17,"map":"koth_cascade","folder":"tf","game":"Team Fortress","app_id":440,"player_count":0,"max_players":24,"Bots":0,"server_type":"Dedicated","server_os":"Linux","password":true,"vac":true,"version":"7757534","steam_id":85568392924866362,"keywords":["cp","nocrits","nodmgspread","uncletopia"],"game_id":440,"stv_port":27016,"stv_name":"Uncletopia | Chicago | 5 | All Maps | STV","players":null},{"server_id":37,"name":"Uncletopia | Chicago | 6 | All Maps","name_short":"chi-6","host":"chi-2.us.uncletopia.com","port":27025,"enabled":true,"region":"us-central","cc":"us","latitude":41.881832,"longitude":-87.62318,"reserved":0,"last_update":"0001-01-01T00:00:00Z","name_a2s":"Uncletopia | Chicago | 6 | All Maps","protocol":17,"map":"cp_dustbowl","folder":"tf","game":"Team Fortress","app_id":440,"player_count":0,"max_players":24,"Bots":0,"server_type":"Dedicated","server_os":"Linux","password":true,"vac":true,"version":"7757534","steam_id":85568392924866363,"keywords":["cp","nocrits","nodmgspread","uncletopia"],"game_id":440,"stv_port":27026,"stv_name":"Uncletopia | Chicago | 6 | All Maps | STV","players":null},{"server_id":38,"name":"Uncletopia | Chicago | 7 | Stopwatch Beta","name_short":"chi-7","host":"chi-2.us.uncletopia.com","port":27035,"enabled":true,"region":"us-central","cc":"us","latitude":41.881832,"longitude":-87.62318,"reserved":0,"last_update":"0001-01-01T00:00:00Z","name_a2s":"Uncletopia | Chicago | 7 | Stopwatch Beta","protocol":17,"map":"pl_barnblitz","folder":"tf","game":"Team Fortress","app_id":440,"player_count":0,"max_players":24,"Bots":0,"server_type":"Dedicated","server_os":"Linux","password":true,"vac":true,"version":"7757534","steam_id":85568392924866364,"keywords":["nocrits","nodmgspread","payload","uncletopia"],"game_id":440,"stv_port":27036,"stv_name":"Uncletopia | Chicago | 7 | Stopwatch Beta | STV","players":null},{"server_id":39,"name":"Uncletopia | Chicago | 8 | Community","name_short":"chi-8","host":"chi-2.us.uncletopia.com","port":27045,"enabled":true,"region":"us-central","cc":"us","latitude":41.881832,"longitude":-87.62318,"reserved":0,"last_update":"0001-01-01T00:00:00Z","name_a2s":"Uncletopia | Chicago | 8 | Community","protocol":17,"map":"koth_cascade","folder":"tf","game":"Team Fortress","app_id":440,"player_count":0,"max_players":24,"Bots":0,"server_type":"Dedicated","server_os":"Linux","password":true,"vac":true,"version":"7757534","steam_id":85568392924866365,"keywords":["cp","nocrits","nodmgspread","uncletopia"],"game_id":440,"stv_port":27046,"stv_name":"Uncletopia | Chicago | 8 | Community | STV","players":null},{"server_id":8,"name":"Uncletopia | Dallas | 1 | All Maps","name_short":"dal-1","host":"dal-1.us.uncletopia.com","port":27015,"enabled":true,"region":"us-central","cc":"us","latitude":32.779167,"longitude":-96.80889,"reserved":0,"last_update":"0001-01-01T00:00:00Z","name_a2s":"Uncletopia | Dallas | 1 | All Maps","protocol":17,"map":"pl_badwater","folder":"tf","game":"Team Fortress","app_id":440,"player_count":24,"max_players":24,"Bots":0,"server_type":"Dedicated","server_os":"Linux","password":true,"vac":true,"version":"7757534","steam_id":85568392924469986,"keywords":["nocrits","nodmgspread","payload","uncletopia"],"game_id":440,"stv_port":27016,"stv_name":"Uncletopia | Dallas | 1 | All Maps | STV","players":[{"user_id":188,"name":"Kid B8","steam_id":76561198086764710,"connected_time":164000000000,"state":"active","ping":73},{"user_id":181,"name":"Wylend","steam_id":76561198262268979,"connected_time":253000000000,"state":"active","ping":72},{"user_id":128,"name":"Ping","steam_id":76561199206514106,"connected_time":3857000000000,"state":"active","ping":76},{"user_id":134,"name":"Nyatascha Gaming","steam_id":76561198400058665,"connected_time":3538000000000,"state":"active","ping":86},{"user_id":187,"name":"Wock2Poland","steam_id":76561198043711386,"connected_time":167000000000,"state":"active","ping":76},{"user_id":189,"name":"SeaBass","steam_id":76561197982949108,"connected_time":147000000000,"state":"active","ping":74},{"user_id":176,"name":"Tokyo","steam_id":76561198131864950,"connected_time":867000000000,"state":"active","ping":75},{"user_id":171,"name":"DRI","steam_id":76561198157076858,"connected_time":1286000000000,"state":"active","ping":98},{"user_id":179,"name":"‚ô•Npenplz‚ô•","steam_id":76561197999605423,"connected_time":493000000000,"state":"active","ping":84},{"user_id":126,"name":"momb","steam_id":76561198142234038,"connected_time":4349000000000,"state":"active","ping":84},{"user_id":121,"name":"SoundSmith (real)","steam_id":76561198936412406,"connected_time":4922000000000,"state":"active","ping":74},{"user_id":190,"name":"Suns","steam_id":76561198272323195,"connected_time":144000000000,"state":"active","ping":70},{"user_id":175,"name":"TheDieeg","steam_id":76561199443116996,"connected_time":927000000000,"state":"active","ping":76},{"user_id":154,"name":"Superman123389","steam_id":76561198267472539,"connected_time":2653000000000,"state":"active","ping":90},{"user_id":193,"name":"FatCatz21","steam_id":76561198022721379,"connected_time":124000000000,"state":"active","ping":83},{"user_id":198,"name":"TurkeyJuice","steam_id":76561198193109422,"connected_time":7000000000,"state":"spawning","ping":60},{"user_id":185,"name":"Pinto","steam_id":76561199105386998,"connected_time":186000000000,"state":"active","ping":56},{"user_id":191,"name":"Petrivus","steam_id":76561198202152453,"connected_time":133000000000,"state":"active","ping":102},{"user_id":132,"name":"JamesSetRadio","steam_id":76561198444320809,"connected_time":3629000000000,"state":"active","ping":150},{"user_id":192,"name":"microwave gaming","steam_id":76561199137572898,"connected_time":130000000000,"state":"active","ping":65},{"user_id":197,"name":"because I'll never be ‚ú®him‚ú®","steam_id":76561198261007627,"connected_time":83000000000,"state":"active","ping":68},{"user_id":195,"name":"heimdall","steam_id":76561198069380992,"connected_time":98000000000,"state":"active","ping":59},{"user_id":178,"name":"Orca?","steam_id":76561198164341099,"connected_time":604000000000,"state":"active","ping":72},{"user_id":196,"name":"Zokie0","steam_id":76561198056035567,"connected_time":90000000000,"state":"active","ping":86}]},{"server_id":108,"name":"Uncletopia | Dallas | 2 | All Maps","name_short":"dal-2","host":"dal-1.us.uncletopia.com","port":27025,"enabled":true,"region":"us-central","cc":"us","latitude":32.779167,"longitude":-96.80889,"reserved":0,"last_update":"0001-01-01T00:00:00Z","name_a2s":"Uncletopia | Dallas | 2 | All Maps","protocol":17,"map":"pl_frontier_final","folder":"tf","game":"Team Fortress","app_id":440,"player_count":23,"max_players":24,"Bots":0,"server_type":"Dedicated","server_os":"Linux","password":true,"vac":true,"version":"7757534","steam_id":85568392924469988,"keywords":["nocrits","nodmgspread","payload","uncletopia"],"game_id":440,"stv_port":27026,"stv_name":"Uncletopia | Dallas | 2 | All Maps | STV","players":[{"user_id":21,"name":"Sup m8","steam_id":76561198081659121,"connected_time":4605000000000,"state":"active","ping":35},{"user_id":88,"name":"MrrPickle","steam_id":76561198122046514,"connected_time":876000000000,"state":"active","ping":87},{"user_id":48,"name":"SneekiCheekiQbone","steam_id":76561198045077980,"connected_time":2990000000000,"state":"active","ping":72},{"user_id":58,"name":"peachy_day","steam_id":76561198170698267,"connected_time":2475000000000,"state":"active","ping":52},{"user_id":54,"name":"dicksnip","steam_id":76561198356515396,"connected_time":2787000000000,"state":"active","ping":57},{"user_id":74,"name":"Flak Maniak","steam_id":76561198005653808,"connected_time":1444000000000,"state":"active","ping":89},{"user_id":28,"name":"tekan","steam_id":76561199077174231,"connected_time":3646000000000,"state":"active","ping":99},{"user_id":57,"name":"Yords","steam_id":76561198027925729,"connected_time":2491000000000,"state":"active","ping":53},{"user_id":93,"name":"Pol","steam_id":76561198232094892,"connected_time":531000000000,"state":"active","ping":72},{"user_id":83,"name":"Blud walked 0 miles üò≠üò≠\ufffd\ufffd\ufffd","steam_id":76561199285074344,"connected_time":1080000000000,"state":"active","ping":80},{"user_id":89,"name":"enemigo","steam_id":76561198392831119,"connected_time":837000000000,"state":"active","ping":114},{"user_id":87,"name":"None of that $9.99 bullshit","steam_id":76561198116169903,"connected_time":931000000000,"state":"active","ping":63},{"user_id":75,"name":"ShapedSilver","steam_id":76561199073305310,"connected_time":1405000000000,"state":"active","ping":36},{"user_id":90,"name":"Deep‚ôÇDark‚ôÇFantasies","steam_id":76561198083232624,"connected_time":602000000000,"state":"active","ping":91},{"user_id":92,"name":"Commissar","steam_id":76561198137223253,"connected_time":540000000000,"state":"active","ping":48},{"user_id":81,"name":"bendera","steam_id":76561197965486503,"connected_time":1179000000000,"state":"active","ping":88},{"user_id":70,"name":"UnkownGamerLOL","steam_id":76561198225902368,"connected_time":1725000000000,"state":"active","ping":68},{"user_id":94,"name":"Worst Scenario","steam_id":76561199052130229,"connected_time":466000000000,"state":"active","ping":96},{"user_id":41,"name":"Camfire007","steam_id":76561198077573375,"connected_time":3155000000000,"state":"active","ping":82},{"user_id":77,"name":"interp warrior","steam_id":76561198332698451,"connected_time":1390000000000,"state":"active","ping":92},{"user_id":78,"name":"think of the bag","steam_id":76561198125261443,"connected_time":1374000000000,"state":"active","ping":120},{"user_id":47,"name":"Fuzzycoco","steam_id":76561198154714679,"connected_time":3035000000000,"state":"active","ping":104},{"user_id":79,"name":"TheSmokingMan","steam_id":76561198032652995,"connected_time":1347000000000,"state":"active","ping":61}]},{"server_id":5,"name":"Uncletopia | Frankfurt | 1 | All Maps","name_short":"frk-1","host":"frk-1.de.uncletopia.com","port":27015,"enabled":true,"region":"eu","cc":"de","latitude":50.110924,"longitude":8.682127,"reserved":0,"last_update":"0001-01-01T00:00:00Z","name_a2s":"Uncletopia | Frankfurt | 1 | All Maps","protocol":17,"map":"pl_barnblitz","folder":"tf","game":"Team Fortress","app_id":440,"player_count":24,"max_players":24,"Bots":0,"server_type":"Dedicated","server_os":"Linux","password":true,"vac":true,"version":"7757534","steam_id":85568392924469989,"keywords":["nocrits","nodmgspread","payload","uncletopia"],"game_id":440,"stv_port":27016,"stv_name":"Uncletopia | Frankfurt | 1 | All Maps | STV","players":[{"user_id":323,"name":"knees","steam_id":76561198005924647,"connected_time":528000000000,"state":"active","ping":78},{"user_id":328,"name":"stole ur gender lol","steam_id":76561199474154775,"connected_time":435000000000,"state":"active","ping":56},{"user_id":305,"name":"Carrot","steam_id":76561198119340863,"connected_time":1195000000000,"state":"active","ping":50},{"user_id":306,"name":"thuurs","steam_id":76561198095850568,"connected_time":1147000000000,"state":"active","ping":48},{"user_id":329,"name":"playing while wearing crocs.","steam_id":76561198139404261,"connected_time":155000000000,"state":"active","ping":53},{"user_id":242,"name":"C.I.","steam_id":76561197972438196,"connected_time":5006000000000,"state":"active","ping":88},{"user_id":282,"name":"Omni","steam_id":76561197964320557,"connected_time":1861000000000,"state":"active","ping":65},{"user_id":302,"name":"Divine Pyro Fart Taunt","steam_id":76561198887626156,"connected_time":1214000000000,"state":"active","ping":208},{"user_id":320,"name":"nachtraaf","steam_id":76561197960473205,"connected_time":671000000000,"state":"active","ping":59},{"user_id":311,"name":"GoatLord1","steam_id":76561198157964544,"connected_time":1070000000000,"state":"active","ping":68},{"user_id":309,"name":"Crunchips","steam_id":76561198004336818,"connected_time":1121000000000,"state":"active","ping":164},{"user_id":326,"name":"FoOzTV","steam_id":76561197998636728,"connected_time":493000000000,"state":"active","ping":78},{"user_id":299,"name":"jD_x2r2","steam_id":76561198061001376,"connected_time":1286000000000,"state":"active","ping":68},{"user_id":244,"name":"–¥–∂–µ–≥–µ–º–∏ —Ö—ç–ø–∫–∏–Ω–≥—Å","steam_id":76561198131531394,"connected_time":4977000000000,"state":"active","ping":93},{"user_id":284,"name":"milan","steam_id":76561198858509678,"connected_time":1700000000000,"state":"active","ping":65},{"user_id":319,"name":"Kaek","steam_id":76561197960283484,"connected_time":766000000000,"state":"active","ping":68},{"user_id":281,"name":"Ecton","steam_id":76561198025103720,"connected_time":1910000000000,"state":"active","ping":64},{"user_id":318,"name":"W√ºstenfuchs","steam_id":76561198453885708,"connected_time":818000000000,"state":"active","ping":71},{"user_id":176,"name":"Miss.Sparklez","steam_id":76561198101745576,"connected_time":8587000000000,"state":"active","ping":70},{"user_id":290,"name":"astigmatic","steam_id":76561199103959197,"connected_time":1589000000000,"state":"active","ping":95},{"user_id":316,"name":"ObscureSherlock","steam_id":76561198068997253,"connected_time":837000000000,"state":"active","ping":83},{"user_id":322,"name":"Max","steam_id":76561198138959361,"connected_time":568000000000,"state":"active","ping":59},{"user_id":313,"name":"Dewotter","steam_id":76561198007653168,"connected_time":985000000000,"state":"active","ping":77},{"user_id":327,"name":"dn4k","steam_id":76561199221755690,"connected_time":475000000000,"state":"active","ping":83}]},{"server_id":110,"name":"Uncletopia | Frankfurt | 2 | All Maps","name_short":"frk-2","host":"frk-1.de.uncletopia.com","port":27025,"enabled":true,"region":"eu","cc":"de","latitude":50.110924,"longitude":8.682127,"reserved":0,"last_update":"0001-01-01T00:00:00Z","name_a2s":"Uncletopia | Frankfurt | 2 | All Maps","protocol":17,"map":"koth_lakeside_final","folder":"tf","game":"Team Fortress","app_id":440,"player_count":6,"max_players":24,"Bots":0,"server_type":"Dedicated","server_os":"Linux","password":true,"vac":true,"version":"7757534","steam_id":85568392924469990,"keywords":["cp","nocrits","nodmgspread","uncletopia"],"game_id":440,"stv_port":27026,"stv_name":"Uncletopia | Frankfurt | 2 | All Maps | STV","players":[{"user_id":12,"name":"Fog","steam_id":76561199063496038,"connected_time":1000000000000,"state":"active","ping":60},{"user_id":14,"name":"TheFlames","steam_id":76561198179314694,"connected_time":857000000000,"state":"active","ping":54},{"user_id":18,"name":"Une chevre B√®√®√®√®√®√®√®√®√®\ufffd","steam_id":76561198323576427,"connected_time":321000000000,"state":"active","ping":70},{"user_id":17,"name":"THE CIPHER","steam_id":76561198365946083,"connected_time":413000000000,"state":"active","ping":77},{"user_id":19,"name":"Jackie Chan","steam_id":76561199378865926,"connected_time":280000000000,"state":"active","ping":71},{"user_id":21,"name":"F","steam_id":76561199149462792,"connected_time":11000000000,"state":"active","ping":64}]},{"server_id":308,"name":"Uncletopia | Frankfurt | 3 | All Maps","name_short":"frk-3","host":"frk-1.de.uncletopia.com","port":27035,"enabled":true,"region":"eu","cc":"de","latitude":50.110924,"longitude":8.682127,"reserved":0,"last_update":"0001-01-01T00:00:00Z","name_a2s":"Uncletopia | Frankfurt | 3 | All Maps","protocol":17,"map":"koth_harvest_final","folder":"tf","game":"Team Fortress","app_id":440,"player_count":22,"max_players":24,"Bots":0,"server_type":"Dedicated","server_os":"Linux","password":true,"vac":true,"version":"7757534","steam_id":85568392924504274,"keywords":["cp","nocrits","nodmgspread","uncletopia"],"game_id":440,"stv_port":27036,"stv_name":"Uncletopia | Frankfurt | 3 | All Maps | STV","players":[{"user_id":485,"name":"Dozorce oblouku","steam_id":76561198048683488,"connected_time":2941000000000,"state":"active","ping":62},{"user_id":450,"name":"GZimmer","steam_id":76561198088794767,"connected_time":5614000000000,"state":"active","ping":45},{"user_id":525,"name":"Lil' Oil Spill","steam_id":76561198102361237,"connected_time":939000000000,"state":"active","ping":70},{"user_id":509,"name":"RT_ratatuj","steam_id":76561199149578671,"connected_time":1449000000000,"state":"active","ping":102},{"user_id":536,"name":"Vorge","steam_id":76561198411852459,"connected_time":14000000000,"state":"active","ping":427},{"user_id":487,"name":"Hamza Gaming","steam_id":76561198150448445,"connected_time":2929000000000,"state":"active","ping":55},{"user_id":482,"name":"speedy_vespa","steam_id":76561199092013231,"connected_time":3396000000000,"state":"active","ping":84},{"user_id":534,"name":"kpn","steam_id":76561198063512694,"connected_time":380000000000,"state":"active","ping":54},{"user_id":535,"name":"Professional farter","steam_id":76561198042593027,"connected_time":160000000000,"state":"active","ping":84},{"user_id":464,"name":"generic alias","steam_id":76561198271607226,"connected_time":4437000000000,"state":"active","ping":140},{"user_id":529,"name":"risan071","steam_id":76561198280690113,"connected_time":791000000000,"state":"active","ping":84},{"user_id":517,"name":"Soyboy","steam_id":76561198053885716,"connected_time":1101000000000,"state":"active","ping":87},{"user_id":515,"name":"Fish 'n' Chips","steam_id":76561198033476886,"connected_time":1246000000000,"state":"active","ping":45},{"user_id":526,"name":"Officer Big Mac","steam_id":76561197972008326,"connected_time":905000000000,"state":"active","ping":74},{"user_id":519,"name":"multiflex","steam_id":76561198049639319,"connected_time":1087000000000,"state":"active","ping":72},{"user_id":473,"name":"anders McFlanders","steam_id":76561198022811995,"connected_time":3862000000000,"state":"active","ping":67},{"user_id":533,"name":"BUREK od Sira","steam_id":76561198092589818,"connected_time":420000000000,"state":"active","ping":66},{"user_id":520,"name":"cloud","steam_id":76561198179768931,"connected_time":1059000000000,"state":"active","ping":61},{"user_id":521,"name":"easily pronounceable name","steam_id":76561198000092350,"connected_time":1054000000000,"state":"active","ping":72},{"user_id":532,"name":"tf2 snake","steam_id":76561198193971167,"connected_time":575000000000,"state":"active","ping":53},{"user_id":524,"name":"mkwii","steam_id":76561198062507768,"connected_time":999000000000,"state":"active","ping":56},{"user_id":471,"name":"Toops","steam_id":76561199060049863,"connected_time":4045000000000,"state":"active","ping":117}]},{"server_id":309,"name":"Uncletopia | Frankfurt | 4 | All Maps","name_short":"frk-4","host":"frk-1.de.uncletopia.com","port":27045,"enabled":true,"region":"eu","cc":"de","latitude":50.110924,"longitude":8.682127,"reserved":0,"last_update":"0001-01-01T00:00:00Z","name_a2s":"Uncletopia | Frankfurt | 4 | All Maps","protocol":17,"map":"koth_viaduct","folder":"tf","game":"Team Fortress","app_id":440,"player_count":3,"max_players":24,"Bots":0,"server_type":"Dedicated","server_os":"Linux","password":true,"vac":true,"version":"7757534","steam_id":85568392924504275,"keywords":["cp","nocrits","nodmgspread","uncletopia"],"game_id":440,"stv_port":27046,"stv_name":"Uncletopia | Frankfurt | 4 | All Maps | STV","players":[{"user_id":17,"name":"Suhar1k2005","steam_id":76561198870321581,"connected_time":279000000000,"state":"active","ping":83},{"user_id":18,"name":"-=Raiden=-","steam_id":76561198215069580,"connected_time":254000000000,"state":"active","ping":88},{"user_id":19,"name":"yevgeniy183","steam_id":76561198069634705,"connected_time":191000000000,"state":"active","ping":104}]},{"server_id":310,"name":"Uncletopia | Frankfurt | 5 | All Maps","name_short":"frk-5","host":"frk-1.de.uncletopia.com","port":27055,"enabled":true,"region":"eu","cc":"de","latitude":50.110924,"longitude":8.682127,"reserved":0,"last_update":"0001-01-01T00:00:00Z","name_a2s":"Uncletopia | Frankfurt | 5 | All Maps","protocol":17,"map":"cp_process_final","folder":"tf","game":"Team Fortress","app_id":440,"player_count":24,"max_players":24,"Bots":0,"server_type":"Dedicated","server_os":"Linux","password":true,"vac":true,"version":"7757534","steam_id":85568392924504277,"keywords":["cp","nocrits","nodmgspread","uncletopia"],"game_id":440,"stv_port":27056,"stv_name":"Uncletopia | Frankfurt | 5 | All Maps | STV","players":[{"user_id":417,"name":"BoxTrox Requiem","steam_id":76561199084781818,"connected_time":1021000000000,"state":"active","ping":161},{"user_id":433,"name":"Earthman","steam_id":76561198137424821,"connected_time":82000000000,"state":"active","ping":60},{"user_id":343,"name":"El Bondin","steam_id":76561198820792434,"connected_time":5101000000000,"state":"active","ping":190},{"user_id":420,"name":"Bill","steam_id":76561198293112566,"connected_time":919000000000,"state":"active","ping":100},{"user_id":424,"name":"Vidrox #savetf2","steam_id":76561199217854983,"connected_time":815000000000,"state":"active","ping":796},{"user_id":425,"name":"howabe","steam_id":76561197996486818,"connected_time":809000000000,"state":"active","ping":56},{"user_id":395,"name":"Danny","steam_id":76561198013086239,"connected_time":2314000000000,"state":"active","ping":89},{"user_id":401,"name":"jge","steam_id":76561198123186387,"connected_time":1888000000000,"state":"active","ping":55},{"user_id":387,"name":"Spanns","steam_id":76561197998349793,"connected_time":3035000000000,"state":"active","ping":72},{"user_id":375,"name":"Osmo","steam_id":76561199286764992,"connected_time":3572000000000,"state":"active","ping":75},{"user_id":431,"name":"Rosenmontag","steam_id":76561198079477964,"connected_time":394000000000,"state":"active","ping":45},{"user_id":414,"name":"fresh diaper :3","steam_id":76561198058012525,"connected_time":1132000000000,"state":"active","ping":76},{"user_id":384,"name":"kaelan","steam_id":76561198001425310,"connected_time":3158000000000,"state":"active","ping":82},{"user_id":376,"name":"biohazard.pt","steam_id":76561198088367808,"connected_time":3510000000000,"state":"active","ping":90},{"user_id":403,"name":"Ach Wheesht","steam_id":76561197996993222,"connected_time":1860000000000,"state":"active","ping":58},{"user_id":432,"name":"ducks","steam_id":76561198166148685,"connected_time":198000000000,"state":"active","ping":46},{"user_id":430,"name":"tobi ^Ô∏ø^","steam_id":76561198023388785,"connected_time":397000000000,"state":"active","ping":59},{"user_id":393,"name":"KingHasamala","steam_id":76561198298147876,"connected_time":2733000000000,"state":"active","ping":66},{"user_id":390,"name":"Zembis","steam_id":76561198008017918,"connected_time":2840000000000,"state":"active","ping":111},{"user_id":412,"name":"Cookies and Bakies","steam_id":76561198017442928,"connected_time":1293000000000,"state":"active","ping":61},{"user_id":413,"name":"Tea","steam_id":76561198799243030,"connected_time":1215000000000,"state":"active","ping":74},{"user_id":429,"name":"soup","steam_id":76561198386933065,"connected_time":719000000000,"state":"active","ping":63},{"user_id":406,"name":"Kvicha Kvaratskhelia","steam_id":76561198179339326,"connected_time":1772000000000,"state":"active","ping":80},{"user_id":415,"name":"Pilaarius","steam_id":76561198120273212,"connected_time":1106000000000,"state":"active","ping":102}]},{"server_id":311,"name":"Uncletopia | Frankfurt | 6 | All Maps","name_short":"frk-6","host":"frk-1.de.uncletopia.com","port":27065,"enabled":true,"region":"eu","cc":"de","latitude":50.110924,"longitude":8.682127,"reserved":0,"last_update":"0001-01-01T00:00:00Z","name_a2s":"Uncletopia | Frankfurt | 6 | All Maps","protocol":17,"map":"pl_upward","folder":"tf","game":"Team Fortress","app_id":440,"player_count":25,"max_players":24,"Bots":0,"server_type":"Dedicated","server_os":"Linux","password":true,"vac":true,"version":"7757534","steam_id":85568392924504278,"keywords":["nocrits","nodmgspread","payload","uncletopia"],"game_id":440,"stv_port":27066,"stv_name":"Uncletopia | Frankfurt | 6 | All Maps | STV","players":[{"user_id":610,"name":"Sinny","steam_id":76561197999598422,"connected_time":87000000000,"state":"active","ping":73},{"user_id":601,"name":"Kodutah","steam_id":76561198203405574,"connected_time":1256000000000,"state":"active","ping":81},{"user_id":595,"name":"silvanKING","steam_id":76561198415391988,"connected_time":1484000000000,"state":"active","ping":58},{"user_id":576,"name":"I I | #SaveTF2","steam_id":76561199101935057,"connected_time":2504000000000,"state":"active","ping":82},{"user_id":596,"name":"$n√òw","steam_id":76561198238781028,"connected_time":1373000000000,"state":"active","ping":105},{"user_id":593,"name":"XPullaHiiri","steam_id":76561198031652375,"connected_time":1642000000000,"state":"active","ping":91},{"user_id":574,"name":"Pancakes","steam_id":76561198196259989,"connected_time":2577000000000,"state":"active","ping":60},{"user_id":600,"name":"Carrot Arc","steam_id":76561198164957006,"connected_time":1274000000000,"state":"active","ping":86},{"user_id":570,"name":"lambrusco di sorbara","steam_id":76561198066071855,"connected_time":2940000000000,"state":"active","ping":57},{"user_id":602,"name":"midlpsyzl47","steam_id":76561199475972637,"connected_time":1195000000000,"state":"active","ping":68},{"user_id":606,"name":"Megapuncher","steam_id":76561198023536780,"connected_time":993000000000,"state":"active","ping":78},{"user_id":434,"name":"walluu","steam_id":76561198121830870,"connected_time":11758000000000,"state":"active","ping":75},{"user_id":545,"name":"ùî±ùî¥ùî≤ùîßùî∞ùî±ùîû\ufffd\ufffd\ufffd","steam_id":76561198155944450,"connected_time":4133000000000,"state":"active","ping":115},{"user_id":607,"name":"Ziltoid","steam_id":76561198020753675,"connected_time":508000000000,"state":"active","ping":72},{"user_id":609,"name":"Ziano","steam_id":76561199111746284,"connected_time":165000000000,"state":"active","ping":91},{"user_id":603,"name":"a Regurar Barroon","steam_id":76561198834913692,"connected_time":1192000000000,"state":"active","ping":67},{"user_id":564,"name":"Sticker Girl","steam_id":76561198086326874,"connected_time":3147000000000,"state":"active","ping":103},{"user_id":608,"name":"eon","steam_id":76561197971360276,"connected_time":175000000000,"state":"active","ping":88},{"user_id":516,"name":"Husk","steam_id":76561198271808519,"connected_time":6030000000000,"state":"active","ping":63},{"user_id":540,"name":"Ooze","steam_id":76561198039642637,"connected_time":4588000000000,"state":"active","ping":74},{"user_id":594,"name":"Mr Lidl","steam_id":76561198426522902,"connected_time":1614000000000,"state":"active","ping":68},{"user_id":567,"name":"halloou","steam_id":76561199099596168,"connected_time":3141000000000,"state":"active","ping":90},{"user_id":605,"name":"Vanilla","steam_id":76561198073933435,"connected_time":1165000000000,"state":"active","ping":79},{"user_id":568,"name":"Loki Beaker","steam_id":76561198048086250,"connected_time":3095000000000,"state":"active","ping":57},{"user_id":612,"name":"sareena","steam_id":76561198810194062,"connected_time":20000000000,"state":"active","ping":79}]},{"server_id":23,"name":"Uncletopia | Frankfurt | 7 | Stopwatch Beta","name_short":"frk-7","host":"frk-1.de.uncletopia.com","port":27075,"enabled":true,"region":"eu","cc":"de","latitude":50.110924,"longitude":8.682127,"reserved":0,"last_update":"0001-01-01T00:00:00Z","name_a2s":"Uncletopia | Frankfurt | 7 | Stopwatch Beta","protocol":17,"map":"workshop/koth_clearcut_b15.ugc2107050255","folder":"tf","game":"Team Fortress","app_id":440,"player_count":0,"max_players":24,"Bots":0,"server_type":"Dedicated","server_os":"Linux","password":true,"vac":true,"version":"7757534","steam_id":85568392924742827,"keywords":["cp","nocrits","nodmgspread","uncletopia"],"game_id":440,"stv_port":27076,"stv_name":"Uncletopia | Frankfurt | 7 | Stopwatch Beta | STV","players":null},{"server_id":24,"name":"Uncletopia | Frankfurt | 8 | Community","name_short":"frk-8","host":"frk-1.de.uncletopia.com","port":27085,"enabled":true,"region":"eu","cc":"de","latitude":50.110924,"longitude":8.682127,"reserved":0,"last_update":"0001-01-01T00:00:00Z","name_a2s":"Uncletopia | Frankfurt | 8 | Community","protocol":17,"map":"workshop/pl_divulgence_b4b.ugc2884808746","folder":"tf","game":"Team Fortress","app_id":440,"player_count":24,"max_players":24,"Bots":0,"server_type":"Dedicated","server_os":"Linux","password":true,"vac":true,"version":"7757534","steam_id":85568392924742828,"keywords":["nocrits","nodmgspread","payload","uncletopia"],"game_id":440,"stv_port":27086,"stv_name":"Uncletopia | Frankfurt | 8 | Community | STV","players":[{"user_id":75,"name":"Tomfool","steam_id":76561197993256481,"connected_time":2487000000000,"state":"active","ping":73},{"user_id":107,"name":"qualitykk | tfsource2.com","steam_id":76561198835895479,"connected_time":622000000000,"state":"active","ping":52},{"user_id":110,"name":"Glenn Quagmire","steam_id":76561199348527880,"connected_time":192000000000,"state":"active","ping":79},{"user_id":69,"name":"TSx* {Demon-Angel}","steam_id":76561198151486463,"connected_time":3148000000000,"state":"active","ping":84},{"user_id":25,"name":"TSx* Bargal","steam_id":76561198040266872,"connected_time":5746000000000,"state":"active","ping":69},{"user_id":98,"name":"Amon Gus","steam_id":76561199094540960,"connected_time":1086000000000,"state":"active","ping":67},{"user_id":111,"name":"Dorich","steam_id":76561198287126217,"connected_time":187000000000,"state":"active","ping":59},{"user_id":59,"name":"rG rG rG rG rG","steam_id":76561198125010818,"connected_time":3784000000000,"state":"active","ping":100},{"user_id":108,"name":"ASAP","steam_id":76561198322078500,"connected_time":502000000000,"state":"active","ping":93},{"user_id":112,"name":"Michael","steam_id":76561198003146906,"connected_time":131000000000,"state":"active","ping":60},{"user_id":84,"name":"david.barabas1963","steam_id":76561198075232017,"connected_time":1860000000000,"state":"active","ping":51},{"user_id":85,"name":"Marcin Gaye","steam_id":76561198402363748,"connected_time":1845000000000,"state":"active","ping":50},{"user_id":92,"name":"pfear","steam_id":76561197999207328,"connected_time":1348000000000,"state":"active","ping":78},{"user_id":88,"name":"klsz","steam_id":76561198167283985,"connected_time":1554000000000,"state":"active","ping":74},{"user_id":36,"name":"schmick h_stt 0","steam_id":76561198039537958,"connected_time":4875000000000,"state":"active","ping":60},{"user_id":65,"name":"Operunter","steam_id":76561198059937616,"connected_time":3453000000000,"state":"active","ping":70},{"user_id":105,"name":"Nugget","steam_id":76561198338916407,"connected_time":655000000000,"state":"active","ping":84},{"user_id":40,"name":"SPONGE","steam_id":76561198040933472,"connected_time":4743000000000,"state":"active","ping":60},{"user_id":53,"name":"Radegast the Brown","steam_id":76561198075489505,"connected_time":4208000000000,"state":"active","ping":68},{"user_id":102,"name":"YO MAMA(CZ)","steam_id":76561198057308825,"connected_time":740000000000,"state":"active","ping":61},{"user_id":73,"name":"player","steam_id":76561198054474684,"connected_time":2850000000000,"state":"active","ping":81},{"user_id":91,"name":"Average Strawberry","steam_id":76561199440451201,"connected_time":1398000000000,"state":"active","ping":86},{"user_id":109,"name":"Matael","steam_id":76561198452200894,"connected_time":333000000000,"state":"active","ping":66},{"user_id":96,"name":"rob","steam_id":76561198122211848,"connected_time":1219000000000,"state":"active","ping":88}]},{"server_id":202,"name":"Uncletopia | Hong Kong | 1 | All Maps","name_short":"hgk-1","host":"hgk-1.hk.uncletopia.com","port":27015,"enabled":true,"region":"asia","cc":"hk","latitude":22.302711,"longitude":114.177216,"reserved":0,"last_update":"0001-01-01T00:00:00Z","name_a2s":"Uncletopia | Hong Kong | 1 | All Maps","protocol":17,"map":"ctf_2fort","folder":"tf","game":"Team Fortress","app_id":440,"player_count":0,"max_players":24,"Bots":0,"server_type":"Dedicated","server_os":"Linux","password":true,"vac":true,"version":"7757534","steam_id":85568392924494504,"keywords":["ctf","nocrits","nodmgspread","uncletopia"],"game_id":440,"stv_port":27016,"stv_name":"Uncletopia | Hong Kong | 1 | All Maps | STV","players":null},{"server_id":1,"name":"Uncletopia | Los Angeles | 1 | All Maps","name_short":"lax-1","host":"lax-1.us.uncletopia.com","port":27015,"enabled":true,"region":"us-west","cc":"us","latitude":33.94279,"longitude":-118.41004,"reserved":0,"last_update":"0001-01-01T00:00:00Z","name_a2s":"Uncletopia | Los Angeles | 1 | All Maps","protocol":17,"map":"koth_lakeside_final","folder":"tf","game":"Team Fortress","app_id":440,"player_count":3,"max_players":24,"Bots":0,"server_type":"Dedicated","server_os":"Linux","password":true,"vac":true,"version":"7757534","steam_id":85568392924469991,"keywords":["cp","nocrits","nodmgspread","uncletopia"],"game_id":440,"stv_port":27016,"stv_name":"Uncletopia | Los Angeles | 1 | All Maps | STV","players":[{"user_id":10,"name":"taryn.cunningham21","steam_id":76561199094963925,"connected_time":331000000000,"state":"active","ping":46},{"user_id":11,"name":"MasterGoop","steam_id":76561198285594777,"connected_time":204000000000,"state":"active","ping":55},{"user_id":12,"name":"TTV/ChadMorningWood","steam_id":76561198139832291,"connected_time":33000000000,"state":"active","ping":50}]},{"server_id":112,"name":"Uncletopia | Los Angeles | 2 | All Maps","name_short":"lax-2","host":"lax-1.us.uncletopia.com","port":27025,"enabled":true,"region":"us-west","cc":"us","latitude":33.94279,"longitude":-118.41004,"reserved":0,"last_update":"0001-01-01T00:00:00Z","name_a2s":"Uncletopia | Los Angeles | 2 | All Maps","protocol":17,"map":"pl_frontier_final","folder":"tf","game":"Team Fortress","app_id":440,"player_count":0,"max_players":24,"Bots":0,"server_type":"Dedicated","server_os":"Linux","password":true,"vac":true,"version":"7757534","steam_id":85568392924469992,"keywords":["nocrits","nodmgspread","payload","uncletopia"],"game_id":440,"stv_port":27026,"stv_name":"Uncletopia | Los Angeles | 2 | All Maps | STV","players":null},{"server_id":324,"name":"Uncletopia | Los Angeles | 3 | All Maps","name_short":"lax-3","host":"lax-1.us.uncletopia.com","port":27035,"enabled":true,"region":"us-west","cc":"us","latitude":33.94279,"longitude":-118.41004,"reserved":0,"last_update":"0001-01-01T00:00:00Z","name_a2s":"Uncletopia | Los Angeles | 3 | All Maps","protocol":17,"map":"pl_borneo","folder":"tf","game":"Team Fortress","app_id":440,"player_count":0,"max_players":24,"Bots":0,"server_type":"Dedicated","server_os":"Linux","password":true,"vac":true,"version":"7757534","steam_id":85568392924510198,"keywords":["nocrits","nodmgspread","payload","uncletopia"],"game_id":440,"stv_port":27036,"stv_name":"Uncletopia | Los Angeles | 3 | All Maps | STV","players":null},{"server_id":25,"name":"Uncletopia | Los Angeles | 4 | Stopwatch Beta","name_short":"lax-4","host":"lax-1.us.uncletopia.com","port":27045,"enabled":true,"region":"us-west","cc":"us","latitude":33.94279,"longitude":-118.41004,"reserved":0,"last_update":"0001-01-01T00:00:00Z","name_a2s":"Uncletopia | Los Angeles | 4 | Stopwatch Beta","protocol":17,"map":"pl_swiftwater_final1","folder":"tf","game":"Team Fortress","app_id":440,"player_count":0,"max_players":24,"Bots":0,"server_type":"Dedicated","server_os":"Linux","password":true,"vac":true,"version":"7757534","steam_id":85568392924510199,"keywords":["nocrits","nodmgspread","payload","uncletopia"],"game_id":440,"stv_port":27046,"stv_name":"Uncletopia | Los Angeles | 4 | Stopwatch Beta | STV","players":null},{"server_id":11,"name":"Uncletopia | London | 1 | All Maps","name_short":"lon-1","host":"lon-1.uk.uncletopia.com","port":27015,"enabled":true,"region":"eu","cc":"gb","latitude":51.509865,"longitude":-0.118092,"reserved":0,"last_update":"0001-01-01T00:00:00Z","name_a2s":"Uncletopia | London | 1 | All Maps","protocol":17,"map":"plr_hightower","folder":"tf","game":"Team Fortress","app_id":440,"player_count":24,"max_players":24,"Bots":0,"server_type":"Dedicated","server_os":"Linux","password":true,"vac":true,"version":"7757534","steam_id":85568392924367362,"keywords":["nocrits","nodmgspread","payload","uncletopia"],"game_id":440,"stv_port":27016,"stv_name":"Uncletopia | London | 1 | All Maps | STV","players":[{"user_id":641,"name":"J3LLY","steam_id":76561198048453764,"connected_time":2534000000000,"state":"active","ping":49},{"user_id":664,"name":"Mad Cat Kivima","steam_id":76561198028959678,"connected_time":608000000000,"state":"active","ping":98},{"user_id":546,"name":"Anonymous47007","steam_id":76561199005211417,"connected_time":10303000000000,"state":"active","ping":82},{"user_id":673,"name":"RebelScum","steam_id":76561199231752872,"connected_time":411000000000,"state":"active","ping":154},{"user_id":656,"name":"anti","steam_id":76561198313440475,"connected_time":684000000000,"state":"active","ping":87},{"user_id":679,"name":"SlwoF√∏","steam_id":76561198049663931,"connected_time":281000000000,"state":"active","ping":60},{"user_id":684,"name":"debaditya","steam_id":76561199118249415,"connected_time":95000000000,"state":"active","ping":141},{"user_id":681,"name":"AsuX","steam_id":76561197990333289,"connected_time":186000000000,"state":"active","ping":60},{"user_id":667,"name":"Infinity","steam_id":76561199134919099,"connected_time":540000000000,"state":"active","ping":118},{"user_id":671,"name":"Civil Melon","steam_id":76561198988309618,"connected_time":459000000000,"state":"active","ping":85},{"user_id":598,"name":"jimmy bob","steam_id":76561198319583692,"connected_time":6228000000000,"state":"active","ping":59},{"user_id":663,"name":"Le Temps des Temp√™tes Audebile","steam_id":76561198819871606,"connected_time":625000000000,"state":"active","ping":102},{"user_id":648,"name":"Egor Pomidor","steam_id":76561199175688390,"connected_time":1895000000000,"state":"active","ping":89},{"user_id":649,"name":"Jesus Enjoyer","steam_id":76561198840259819,"connected_time":1553000000000,"state":"active","ping":57},{"user_id":665,"name":"schweppestr","steam_id":76561198037485644,"connected_time":589000000000,"state":"active","ping":45},{"user_id":666,"name":"FingerMan","steam_id":76561198004040091,"connected_time":563000000000,"state":"active","ping":56},{"user_id":686,"name":"Burger king foot lettuce","steam_id":76561198158457225,"connected_time":7000000000,"state":"spawning","ping":68},{"user_id":685,"name":"Th3Celestial","steam_id":76561198353312252,"connected_time":27000000000,"state":"spawning","ping":47},{"user_id":670,"name":"Xriasp","steam_id":76561198104721321,"connected_time":508000000000,"state":"active","ping":82},{"user_id":637,"name":"dec","steam_id":76561198009660168,"connected_time":3360000000000,"state":"active","ping":54},{"user_id":674,"name":"Wyro","steam_id":76561199176835169,"connected_time":399000000000,"state":"active","ping":53},{"user_id":676,"name":"Frannigan","steam_id":76561198029148030,"connected_time":381000000000,"state":"active","ping":75},{"user_id":638,"name":"a dollop of bird","steam_id":76561198089003514,"connected_time":2781000000000,"state":"active","ping":50},{"user_id":640,"name":"Hoks","steam_id":76561198126442242,"connected_time":2703000000000,"state":"active","ping":133}]},{"server_id":114,"name":"Uncletopia | London | 2 | All Maps","name_short":"lon-2","host":"lon-1.uk.uncletopia.com","port":27025,"enabled":true,"region":"eu","cc":"gb","latitude":51.509865,"longitude":-0.118092,"reserved":0,"last_update":"0001-01-01T00:00:00Z","name_a2s":"Uncletopia | London | 2 | All Maps","protocol":17,"map":"koth_harvest_final","folder":"tf","game":"Team Fortress","app_id":440,"player_count":24,"max_players":24,"Bots":0,"server_type":"Dedicated","server_os":"Linux","password":true,"vac":true,"version":"7757534","steam_id":85568392924470941,"keywords":["cp","nocrits","nodmgspread","uncletopia"],"game_id":440,"stv_port":27026,"stv_name":"Uncletopia | London | 2 | All Maps | STV","players":[{"user_id":341,"name":"Captain Samo","steam_id":76561198047224482,"connected_time":1003000000000,"state":"active","ping":71},{"user_id":328,"name":"Big Benn","steam_id":76561199024168373,"connected_time":1648000000000,"state":"active","ping":70},{"user_id":315,"name":"Grilled Feline","steam_id":76561198952154873,"connected_time":2282000000000,"state":"active","ping":62},{"user_id":293,"name":"spearfishNL","steam_id":76561199077022985,"connected_time":3596000000000,"state":"active","ping":60},{"user_id":329,"name":"Random_proto(she/her)","steam_id":76561198375885264,"connected_time":1576000000000,"state":"active","ping":88},{"user_id":310,"name":"Favi","steam_id":76561198013236935,"connected_time":2571000000000,"state":"active","ping":73},{"user_id":349,"name":"Halapatra","steam_id":76561199004923871,"connected_time":829000000000,"state":"active","ping":97},{"user_id":336,"name":"Mass","steam_id":76561198432195204,"connected_time":1282000000000,"state":"active","ping":59},{"user_id":346,"name":"Sneaky boi","steam_id":76561199195985387,"connected_time":848000000000,"state":"active","ping":90},{"user_id":355,"name":"tomo -∆í$-","steam_id":76561199015097595,"connected_time":329000000000,"state":"active","ping":45},{"user_id":352,"name":"Walle","steam_id":76561197995148937,"connected_time":741000000000,"state":"active","ping":74},{"user_id":317,"name":"Dr. Funkenstein","steam_id":76561197977816210,"connected_time":2274000000000,"state":"active","ping":47},{"user_id":356,"name":"swagsam","steam_id":76561199023747241,"connected_time":326000000000,"state":"active","ping":45},{"user_id":342,"name":"TheEventGuy","steam_id":76561197972797744,"connected_time":859000000000,"state":"active","ping":72},{"user_id":304,"name":"Kylul_","steam_id":76561198042981061,"connected_time":3042000000000,"state":"active","ping":41},{"user_id":343,"name":"boneez","steam_id":76561198186800982,"connected_time":859000000000,"state":"active","ping":64},{"user_id":257,"name":"Gnarville","steam_id":76561198006373329,"connected_time":5981000000000,"state":"active","ping":51},{"user_id":354,"name":"Clovis","steam_id":76561198076881381,"connected_time":548000000000,"state":"active","ping":77},{"user_id":348,"name":"Sn1perK1ng","steam_id":76561198128065329,"connected_time":847000000000,"state":"active","ping":57},{"user_id":322,"name":"men69","steam_id":76561198047359132,"connected_time":2180000000000,"state":"active","ping":75},{"user_id":323,"name":"Dooble donk man look at me donk","steam_id":76561198225523596,"connected_time":2077000000000,"state":"active","ping":58},{"user_id":344,"name":"Diktoulong","steam_id":76561198170613135,"connected_time":858000000000,"state":"active","ping":154},{"user_id":350,"name":"Mr.Schnittlauch","steam_id":76561198295868113,"connected_time":827000000000,"state":"active","ping":68},{"user_id":357,"name":"Luk3","steam_id":76561198340519063,"connected_time":292000000000,"state":"active","ping":64}]},{"server_id":320,"name":"Uncletopia | London | 3 | All Maps","name_short":"lon-3","host":"lon-1.uk.uncletopia.com","port":27035,"enabled":true,"region":"eu","cc":"gb","latitude":51.509865,"longitude":-0.118092,"reserved":0,"last_update":"0001-01-01T00:00:00Z","name_a2s":"Uncletopia | London | 3 | All Maps","protocol":17,"map":"pl_barnblitz","folder":"tf","game":"Team Fortress","app_id":440,"player_count":24,"max_players":24,"Bots":0,"server_type":"Dedicated","server_os":"Linux","password":true,"vac":true,"version":"7757534","steam_id":85568392924510192,"keywords":["nocrits","nodmgspread","payload","uncletopia"],"game_id":440,"stv_port":27036,"stv_name":"Uncletopia | London | 3 | All Maps | STV","players":[{"user_id":262,"name":"lettuce at 58p","steam_id":76561199401283123,"connected_time":1239000000000,"state":"active","ping":51},{"user_id":297,"name":"tone","steam_id":76561197975301462,"connected_time":674000000000,"state":"active","ping":68},{"user_id":301,"name":"Lessoz","steam_id":76561199211572036,"connected_time":651000000000,"state":"active","ping":89},{"user_id":292,"name":"Haha?","steam_id":76561198056882245,"connected_time":699000000000,"state":"active","ping":41},{"user_id":231,"name":"lomse_","steam_id":76561198146939162,"connected_time":2708000000000,"state":"active","ping":55},{"user_id":298,"name":"Somethingü§ô","steam_id":76561198375358222,"connected_time":673000000000,"state":"active","ping":45},{"user_id":240,"name":"Dewran‚Ñ§","steam_id":76561198113727224,"connected_time":1779000000000,"state":"active","ping":70},{"user_id":260,"name":"MatesThePlayer","steam_id":76561198066156449,"connected_time":1264000000000,"state":"active","ping":64},{"user_id":245,"name":"You slumber","steam_id":76561198344639692,"connected_time":1599000000000,"state":"active","ping":89},{"user_id":295,"name":"Matt","steam_id":76561198263644467,"connected_time":690000000000,"state":"active","ping":58},{"user_id":261,"name":"not a nihilist","steam_id":76561198004340466,"connected_time":1255000000000,"state":"active","ping":45},{"user_id":293,"name":"Oak","steam_id":76561198067315672,"connected_time":698000000000,"state":"active","ping":46},{"user_id":193,"name":"kim-il-sung","steam_id":76561199142566560,"connected_time":5382000000000,"state":"active","ping":30},{"user_id":246,"name":"blurst of times","steam_id":76561197972325640,"connected_time":1549000000000,"state":"active","ping":46},{"user_id":296,"name":"„Éñ„É≠„Éº„Éã„É£","steam_id":76561198037810091,"connected_time":690000000000,"state":"active","ping":109},{"user_id":300,"name":"CarBombEnthusiast","steam_id":76561199448185434,"connected_time":658000000000,"state":"active","ping":70},{"user_id":302,"name":"trite","steam_id":76561197983765323,"connected_time":634000000000,"state":"active","ping":51},{"user_id":305,"name":"Kan0_","steam_id":76561198129596771,"connected_time":558000000000,"state":"active","ping":61},{"user_id":330,"name":"mt","steam_id":76561197961319303,"connected_time":0,"state":"spawning","ping":18},{"user_id":321,"name":"MilkMan","steam_id":76561198178460097,"connected_time":183000000000,"state":"active","ping":135},{"user_id":258,"name":"–ù—ñ–∫—ñ—Ç—Ä–æ–Ω","steam_id":76561198044401080,"connected_time":1339000000000,"state":"active","ping":67},{"user_id":253,"name":"SynthBox3","steam_id":76561199094075745,"connected_time":1436000000000,"state":"active","ping":105},{"user_id":178,"name":"Poptart From Mars","steam_id":76561197979930960,"connected_time":5868000000000,"state":"active","ping":168},{"user_id":291,"name":"Siemens Desiro","steam_id":76561199203076508,"connected_time":710000000000,"state":"active","ping":67}]},{"server_id":321,"name":"Uncletopia | London | 4 | All Maps","name_short":"lon-4","host":"lon-1.uk.uncletopia.com","port":27045,"enabled":true,"region":"eu","cc":"gb","latitude":51.509865,"longitude":-0.118092,"reserved":0,"last_update":"0001-01-01T00:00:00Z","name_a2s":"Uncletopia | London | 4 | All Maps","protocol":17,"map":"cp_snakewater_final1","folder":"tf","game":"Team Fortress","app_id":440,"player_count":24,"max_players":24,"Bots":0,"server_type":"Dedicated","server_os":"Linux","password":true,"vac":true,"version":"7757534","steam_id":85568392924510193,"keywords":["cp","nocrits","nodmgspread","uncletopia"],"game_id":440,"stv_port":27046,"stv_name":"Uncletopia | London | 4 | All Maps | STV","players":[{"user_id":498,"name":"Mircoxi","steam_id":76561199407632710,"connected_time":1087000000000,"state":"active","ping":56},{"user_id":506,"name":"Udinese Dion","steam_id":76561198067931573,"connected_time":286000000000,"state":"active","ping":62},{"user_id":401,"name":"nutlube","steam_id":76561198128831131,"connected_time":8983000000000,"state":"active","ping":63},{"user_id":484,"name":"Aeglos","steam_id":76561198248698294,"connected_time":2974000000000,"state":"active","ping":45},{"user_id":496,"name":"akakez","steam_id":76561198095432821,"connected_time":1729000000000,"state":"active","ping":113},{"user_id":353,"name":"Topme","steam_id":76561198091734693,"connected_time":12631000000000,"state":"active","ping":60},{"user_id":491,"name":"Q","steam_id":76561198276440993,"connected_time":2645000000000,"state":"active","ping":43},{"user_id":479,"name":"‚ô• aura ‚ô•","steam_id":76561198066258544,"connected_time":3483000000000,"state":"active","ping":66},{"user_id":485,"name":"Egtu","steam_id":76561198013757235,"connected_time":2924000000000,"state":"active","ping":75},{"user_id":499,"name":"wouris","steam_id":76561198876188003,"connected_time":1083000000000,"state":"active","ping":60},{"user_id":480,"name":"Fat Pigeon","steam_id":76561198817940142,"connected_time":3340000000000,"state":"active","ping":46},{"user_id":500,"name":"One Shiny Boi‚Ñ¢","steam_id":76561198199193627,"connected_time":1083000000000,"state":"active","ping":66},{"user_id":490,"name":"Gardvord","steam_id":76561198120715753,"connected_time":2750000000000,"state":"active","ping":74},{"user_id":374,"name":"elsuedi","steam_id":76561198074722832,"connected_time":10557000000000,"state":"active","ping":62},{"user_id":492,"name":"whimsy.","steam_id":76561198878171763,"connected_time":2423000000000,"state":"active","ping":46},{"user_id":505,"name":"SKFBoge","steam_id":76561198269038278,"connected_time":791000000000,"state":"active","ping":83},{"user_id":477,"name":"Lordevelen","steam_id":76561197989421069,"connected_time":3650000000000,"state":"active","ping":80},{"user_id":501,"name":"C.H.E.R.E.P.","steam_id":76561198026938595,"connected_time":1074000000000,"state":"active","ping":75},{"user_id":368,"name":"wasto-/-‚Ñ¢","steam_id":76561198102888038,"connected_time":10901000000000,"state":"active","ping":60},{"user_id":481,"name":"Sandy","steam_id":76561197975088600,"connected_time":3194000000000,"state":"active","ping":83},{"user_id":424,"name":"Davey","steam_id":76561198256879107,"connected_time":7824000000000,"state":"active","ping":76},{"user_id":476,"name":"Vintage Nyan Cat","steam_id":76561198010719998,"connected_time":3719000000000,"state":"active","ping":69},{"user_id":503,"name":"Burpman","steam_id":76561198022897937,"connected_time":1068000000000,"state":"active","ping":48},{"user_id":486,"name":"Zerfesh","steam_id":76561198117534358,"connected_time":2876000000000,"state":"active","ping":103}]},{"server_id":21,"name":"Uncletopia | London | 5 | All Maps","name_short":"lon-5","host":"lon-1.uk.uncletopia.com","port":27055,"enabled":true,"region":"eu","cc":"gb","latitude":51.509865,"longitude":-0.118092,"reserved":0,"last_update":"0001-01-01T00:00:00Z","name_a2s":"Uncletopia | London | 5 | All Maps","protocol":17,"map":"koth_harvest_final","folder":"tf","game":"Team Fortress","app_id":440,"player_count":24,"max_players":24,"Bots":0,"server_type":"Dedicated","server_os":"Linux","password":true,"vac":true,"version":"7757534","steam_id":85568392924742829,"keywords":["cp","nocrits","nodmgspread","uncletopia"],"game_id":440,"stv_port":27056,"stv_name":"Uncletopia | London | 5 | All Maps | STV","players":[{"user_id":17,"name":"ran is running","steam_id":76561199443185667,"connected_time":3547000000000,"state":"active","ping":138},{"user_id":58,"name":"quickfast","steam_id":76561199438900919,"connected_time":99000000000,"state":"active","ping":39},{"user_id":50,"name":"dropkickas","steam_id":76561198105121641,"connected_time":1491000000000,"state":"active","ping":69},{"user_id":31,"name":"Garden Freeman","steam_id":76561199073314677,"connected_time":2228000000000,"state":"active","ping":75},{"user_id":55,"name":"ultimatech","steam_id":76561198165843922,"connected_time":541000000000,"state":"active","ping":101},{"user_id":32,"name":"Robbie","steam_id":76561198017504503,"connected_time":2140000000000,"state":"active","ping":48},{"user_id":52,"name":"Woa","steam_id":76561198345683201,"connected_time":1226000000000,"state":"active","ping":47},{"user_id":24,"name":"Saken","steam_id":76561198049075295,"connected_time":3055000000000,"state":"active","ping":57},{"user_id":25,"name":"lark","steam_id":76561198091724522,"connected_time":2919000000000,"state":"active","ping":56},{"user_id":40,"name":"Scab Collector","steam_id":76561198346425545,"connected_time":1873000000000,"state":"active","ping":137},{"user_id":27,"name":"cropping","steam_id":76561198026586456,"connected_time":2814000000000,"state":"active","ping":55},{"user_id":56,"name":"Kraiti","steam_id":76561198847296908,"connected_time":347000000000,"state":"active","ping":82},{"user_id":33,"name":"scrumpy","steam_id":76561198218787232,"connected_time":2122000000000,"state":"active","ping":48},{"user_id":34,"name":"Fus in Boots","steam_id":76561198053897722,"connected_time":2100000000000,"state":"active","ping":71},{"user_id":35,"name":"vadim_kotler","steam_id":76561199016634369,"connected_time":2094000000000,"state":"active","ping":114},{"user_id":43,"name":"Denzonian","steam_id":76561198445738614,"connected_time":1713000000000,"state":"active","ping":62},{"user_id":39,"name":"Gay Cat","steam_id":76561198436817109,"connected_time":1879000000000,"state":"active","ping":45},{"user_id":53,"name":"Knapka","steam_id":76561198090422767,"connected_time":1126000000000,"state":"active","ping":65},{"user_id":42,"name":"Bingus","steam_id":76561198334528186,"connected_time":1768000000000,"state":"active","ping":43},{"user_id":44,"name":"L1m3x","steam_id":76561198061031388,"connected_time":1693000000000,"state":"active","ping":1380},{"user_id":45,"name":"Pinkchup","steam_id":76561198106802803,"connected_time":1661000000000,"state":"active","ping":84},{"user_id":46,"name":"Minimi","steam_id":76561198873850443,"connected_time":1654000000000,"state":"active","ping":45},{"user_id":57,"name":"molly","steam_id":76561198029399151,"connected_time":329000000000,"state":"active","ping":68},{"user_id":54,"name":"Mato","steam_id":76561198267114673,"connected_time":1106000000000,"state":"active","ping":69}]},{"server_id":22,"name":"Uncletopia | London | 6 | All Maps","name_short":"lon-6","host":"lon-1.uk.uncletopia.com","port":27065,"enabled":true,"region":"eu","cc":"gb","latitude":51.509865,"longitude":-0.118092,"reserved":0,"last_update":"0001-01-01T00:00:00Z","name_a2s":"Uncletopia | London | 6 | All Maps","protocol":17,"map":"ctf_2fort","folder":"tf","game":"Team Fortress","app_id":440,"player_count":24,"max_players":24,"Bots":0,"server_type":"Dedicated","server_os":"Linux","password":true,"vac":true,"version":"7757534","steam_id":85568392924742830,"keywords":["ctf","nocrits","nodmgspread","uncletopia"],"game_id":440,"stv_port":27066,"stv_name":"Uncletopia | London | 6 | All Maps | STV","players":[{"user_id":68,"name":"daanvanliempt05","steam_id":76561198355398948,"connected_time":1160000000000,"state":"active","ping":54},{"user_id":10,"name":"Battery Acid Drinker","steam_id":76561198871136698,"connected_time":6073000000000,"state":"active","ping":39},{"user_id":11,"name":"The Coom Assassin","steam_id":76561198437070985,"connected_time":6022000000000,"state":"active","ping":53},{"user_id":57,"name":"DjinnKinn","steam_id":76561198029913860,"connected_time":2373000000000,"state":"active","ping":69},{"user_id":14,"name":"It's a me Malario","steam_id":76561198176546013,"connected_time":5677000000000,"state":"active","ping":46},{"user_id":92,"name":"NonProphet","steam_id":76561198280149820,"connected_time":360000000000,"state":"active","ping":69},{"user_id":90,"name":"t.tv/FamilyGuyFunnyMoments277","steam_id":76561198416047580,"connected_time":408000000000,"state":"active","ping":135},{"user_id":18,"name":"Soloman","steam_id":76561199212054667,"connected_time":5211000000000,"state":"active","ping":46},{"user_id":91,"name":"bAdmon","steam_id":76561197961785793,"connected_time":401000000000,"state":"active","ping":53},{"user_id":88,"name":"Sector-19","steam_id":76561199101441871,"connected_time":468000000000,"state":"active","ping":140},{"user_id":89,"name":"Mistress of the universe","steam_id":76561198115988477,"connected_time":458000000000,"state":"active","ping":66},{"user_id":24,"name":"Shork","steam_id":76561198130195469,"connected_time":4617000000000,"state":"active","ping":87},{"user_id":83,"name":"Slim3rs","steam_id":76561199088010585,"connected_time":776000000000,"state":"active","ping":184},{"user_id":84,"name":"var","steam_id":76561198886111917,"connected_time":751000000000,"state":"active","ping":67},{"user_id":76,"name":"DocTwoEight","steam_id":76561198153488940,"connected_time":912000000000,"state":"active","ping":75},{"user_id":52,"name":"GoudAI","steam_id":76561198103391197,"connected_time":2905000000000,"state":"active","ping":101},{"user_id":61,"name":"shop owner dr disrespects wife","steam_id":76561199028670732,"connected_time":2106000000000,"state":"active","ping":63},{"user_id":73,"name":"CYAN","steam_id":76561198147692877,"connected_time":1027000000000,"state":"active","ping":90},{"user_id":32,"name":"Butt Fangs Fetish","steam_id":76561198038130063,"connected_time":3970000000000,"state":"active","ping":81},{"user_id":33,"name":"Havelyn","steam_id":76561198036159862,"connected_time":3944000000000,"state":"active","ping":135},{"user_id":74,"name":"jerf(The jungle inferno update)","steam_id":76561199213901239,"connected_time":987000000000,"state":"active","ping":45},{"user_id":60,"name":"bigfutacock56","steam_id":76561198835619904,"connected_time":2287000000000,"state":"active","ping":117},{"user_id":93,"name":"Lil Ari","steam_id":76561198218178180,"connected_time":355000000000,"state":"active","ping":77},{"user_id":78,"name":"milk","steam_id":76561198080168182,"connected_time":907000000000,"state":"active","ping":94}]},{"server_id":40,"name":"Uncletopia | London | 7 | No Payload","name_short":"lon-7","host":"lon-1.uk.uncletopia.com","port":27075,"enabled":true,"region":"eu","cc":"gb","latitude":51.509865,"longitude":-0.118092,"reserved":0,"last_update":"0001-01-01T00:00:00Z","name_a2s":"Uncletopia | London | 7 | No Payload","protocol":17,"map":"cp_gullywash_final1","folder":"tf","game":"Team Fortress","app_id":440,"player_count":0,"max_players":24,"Bots":0,"server_type":"Dedicated","server_os":"Linux","password":true,"vac":true,"version":"7757534","steam_id":85568392924964314,"keywords":["cp","nocrits","nodmgspread","uncletopia"],"game_id":440,"stv_port":27076,"stv_name":"Uncletopia | London | 7 | No Payload | STV","players":null},{"server_id":41,"name":"Uncletopia | London | 8 | Community","name_short":"lon-8","host":"lon-1.uk.uncletopia.com","port":27085,"enabled":true,"region":"eu","cc":"gb","latitude":51.509865,"longitude":-0.118092,"reserved":0,"last_update":"0001-01-01T00:00:00Z","name_a2s":"Uncletopia | London | 8 | Community","protocol":17,"map":"workshop/cp_caldera_rc2.ugc2834196889","folder":"tf","game":"Team Fortress","app_id":440,"player_count":0,"max_players":24,"Bots":0,"server_type":"Dedicated","server_os":"Linux","password":true,"vac":true,"version":"7757534","steam_id":85568392924964315,"keywords":["cp","nocrits","nodmgspread","uncletopia"],"game_id":440,"stv_port":27086,"stv_name":"Uncletopia | London | 8 | Community | STV","players":null},{"server_id":300,"name":"Uncletopia | Montr√©al | 1 | All Maps","name_short":"mtl-1","host":"mtl-1.ca.uncletopia.com","port":27015,"enabled":true,"region":"us-east","cc":"ca","latitude":45.50889,"longitude":-73.56167,"reserved":0,"last_update":"0001-01-01T00:00:00Z","name_a2s":"Uncletopia | Montr√©al | 1 | All Maps","protocol":17,"map":"koth_viaduct","folder":"tf","game":"Team Fortress","app_id":440,"player_count":0,"max_players":24,"Bots":0,"server_type":"Dedicated","server_os":"Linux","password":true,"vac":true,"version":"7757534","steam_id":85568392924500087,"keywords":["cp","nocrits","nodmgspread","uncletopia"],"game_id":440,"stv_port":27016,"stv_name":"Uncletopia | Montr√©al | 1 | All Maps | STV","players":null},{"server_id":301,"name":"Uncletopia | Montr√©al | 2 | All Maps","name_short":"mtl-2","host":"mtl-1.ca.uncletopia.com","port":27025,"enabled":true,"region":"us-east","cc":"ca","latitude":45.50889,"longitude":-73.56167,"reserved":0,"last_update":"0001-01-01T00:00:00Z","name_a2s":"Uncletopia | Montr√©al | 2 | All Maps","protocol":17,"map":"pl_snowycoast","folder":"tf","game":"Team Fortress","app_id":440,"player_count":0,"max_players":24,"Bots":0,"server_type":"Dedicated","server_os":"Linux","password":true,"vac":true,"version":"7757534","steam_id":85568392924500088,"keywords":["nocrits","nodmgspread","payload","uncletopia"],"game_id":440,"stv_port":27026,"stv_name":"Uncletopia | Montr√©al | 2 | All Maps | STV","players":null},{"server_id":302,"name":"Uncletopia | Montr√©al | 3 | All Maps","name_short":"mtl-3","host":"mtl-1.ca.uncletopia.com","port":27035,"enabled":true,"region":"us-east","cc":"ca","latitude":45.50889,"longitude":-73.56167,"reserved":0,"last_update":"0001-01-01T00:00:00Z","name_a2s":"Uncletopia | Montr√©al | 3 | All Maps","protocol":17,"map":"pl_swiftwater_final1","folder":"tf","game":"Team Fortress","app_id":440,"player_count":0,"max_players":24,"Bots":0,"server_type":"Dedicated","server_os":"Linux","password":true,"vac":true,"version":"7757534","steam_id":85568392924500089,"keywords":["nocrits","nodmgspread","payload","uncletopia"],"game_id":440,"stv_port":27036,"stv_name":"Uncletopia | Montr√©al | 3 | All Maps | STV","players":null},{"server_id":303,"name":"Uncletopia | Montr√©al | 4 | No Payload","name_short":"mtl-4","host":"mtl-1.ca.uncletopia.com","port":27045,"enabled":true,"region":"us-east","cc":"ca","latitude":45.50889,"longitude":-73.56167,"reserved":0,"last_update":"0001-01-01T00:00:00Z","name_a2s":"Uncletopia | Montr√©al | 4 | No Payload","protocol":17,"map":"pl_pier","folder":"tf","game":"Team Fortress","app_id":440,"player_count":0,"max_players":24,"Bots":0,"server_type":"Dedicated","server_os":"Linux","password":true,"vac":true,"version":"7757534","steam_id":85568392924500090,"keywords":["nocrits","nodmgspread","payload","uncletopia"],"game_id":440,"stv_port":27046,"stv_name":"Uncletopia | Montr√©al | 4 | No Payload | STV","players":null},{"server_id":13,"name":"Uncletopia | New York City | 1 | All Maps","name_short":"nyc-1","host":"nyc-1.us.uncletopia.com","port":27015,"enabled":true,"region":"us-east","cc":"us","latitude":40.73061,"longitude":-73.93524,"reserved":0,"last_update":"0001-01-01T00:00:00Z","name_a2s":"Uncletopia | New York City | 1 | All Maps","protocol":17,"map":"pl_frontier_final","folder":"tf","game":"Team Fortress","app_id":440,"player_count":24,"max_players":24,"Bots":0,"server_type":"Dedicated","server_os":"Linux","password":true,"vac":true,"version":"7757534","steam_id":85568392924469993,"keywords":["nocrits","nodmgspread","payload","uncletopia"],"game_id":440,"stv_port":27016,"stv_name":"Uncletopia | New York City | 1 | All Maps | STV","players":[{"user_id":27,"name":"Mochi","steam_id":76561199151314140,"connected_time":11505000000000,"state":"active","ping":41},{"user_id":146,"name":"‚Ñã‚Ñá·ºÇ·πº‡¥¥","steam_id":76561199062259389,"connected_time":870000000000,"state":"active","ping":58},{"user_id":150,"name":"jema","steam_id":76561198276513608,"connected_time":423000000000,"state":"active","ping":156},{"user_id":132,"name":"[√úBER] Bunnyboy","steam_id":76561198298416058,"connected_time":2250000000000,"state":"active","ping":69},{"user_id":129,"name":"Hylic","steam_id":76561199051314589,"connected_time":2458000000000,"state":"active","ping":71},{"user_id":160,"name":"Mr. Oak","steam_id":76561198331315713,"connected_time":105000000000,"state":"active","ping":126},{"user_id":143,"name":"Blitzy","steam_id":76561198149472890,"connected_time":1060000000000,"state":"active","ping":91},{"user_id":151,"name":"vncnt","steam_id":76561198046113319,"connected_time":419000000000,"state":"active","ping":75},{"user_id":158,"name":"Broadsword","steam_id":76561198011160411,"connected_time":142000000000,"state":"active","ping":90},{"user_id":153,"name":"PS TRIPLE","steam_id":76561199161322235,"connected_time":344000000000,"state":"active","ping":79},{"user_id":125,"name":"Baron von Whoopsie","steam_id":76561197996691013,"connected_time":2717000000000,"state":"active","ping":54},{"user_id":118,"name":"r0zemary (she/her)","steam_id":76561198128494897,"connected_time":4142000000000,"state":"active","ping":85},{"user_id":128,"name":"Metagamer","steam_id":76561198298616689,"connected_time":2511000000000,"state":"active","ping":82},{"user_id":131,"name":"The Definition Of Fear","steam_id":76561198449656454,"connected_time":2351000000000,"state":"active","ping":52},{"user_id":145,"name":"ratie","steam_id":76561198059399661,"connected_time":933000000000,"state":"active","ping":96},{"user_id":124,"name":"The Land Admiral","steam_id":76561198159356609,"connected_time":2743000000000,"state":"active","ping":58},{"user_id":159,"name":"Louie Kahooie","steam_id":76561198419614877,"connected_time":128000000000,"state":"active","ping":78},{"user_id":161,"name":"Fetus in a paper bag","steam_id":76561199047286823,"connected_time":81000000000,"state":"active","ping":63},{"user_id":162,"name":"Not Markscavious","steam_id":76561199012205536,"connected_time":12000000000,"state":"active","ping":57},{"user_id":142,"name":"BearAteMahoney","steam_id":76561198020439356,"connected_time":1251000000000,"state":"active","ping":55},{"user_id":136,"name":"BasicPeaches","steam_id":76561198190890150,"connected_time":2126000000000,"state":"active","ping":62},{"user_id":155,"name":"CORGI.EXE","steam_id":76561198077093432,"connected_time":309000000000,"state":"active","ping":55},{"user_id":156,"name":"Jambi","steam_id":76561198846091685,"connected_time":302000000000,"state":"active","ping":78},{"user_id":138,"name":"RyInc","steam_id":76561198874261643,"connected_time":1796000000000,"state":"active","ping":59}]},{"server_id":14,"name":"Uncletopia | New York City | 2 | All Maps","name_short":"nyc-2","host":"nyc-1.us.uncletopia.com","port":27025,"enabled":true,"region":"us-east","cc":"us","latitude":40.73061,"longitude":-73.93524,"reserved":0,"last_update":"0001-01-01T00:00:00Z","name_a2s":"Uncletopia | New York City | 2 | All Maps","protocol":17,"map":"pl_snowycoast","folder":"tf","game":"Team Fortress","app_id":440,"player_count":24,"max_players":24,"Bots":0,"server_type":"Dedicated","server_os":"Linux","password":true,"vac":true,"version":"7757534","steam_id":85568392924469994,"keywords":["nocrits","nodmgspread","payload","uncletopia"],"game_id":440,"stv_port":27026,"stv_name":"Uncletopia | New York City | 2 | All Maps | STV","players":[{"user_id":201,"name":"DiscoTraveler","steam_id":76561199240168088,"connected_time":1662000000000,"state":"active","ping":61},{"user_id":196,"name":"freddo.","steam_id":76561198203171349,"connected_time":1908000000000,"state":"active","ping":50},{"user_id":217,"name":"squid","steam_id":76561198092509893,"connected_time":424000000000,"state":"active","ping":91},{"user_id":209,"name":"Duncan Idaho","steam_id":76561197988963861,"connected_time":1428000000000,"state":"active","ping":67},{"user_id":214,"name":"—Å—Å–∞—Ç—å –º—É–∂—á–∏–Ω–∞ 29","steam_id":76561199121542403,"connected_time":813000000000,"state":"active","ping":90},{"user_id":194,"name":"Poodwecker","steam_id":76561198344264859,"connected_time":2258000000000,"state":"active","ping":113},{"user_id":197,"name":"Soull","steam_id":76561199188088471,"connected_time":1823000000000,"state":"active","ping":88},{"user_id":218,"name":"bobbyreinman2009","steam_id":76561198804763186,"connected_time":420000000000,"state":"active","ping":43},{"user_id":219,"name":"cass","steam_id":76561198074502046,"connected_time":413000000000,"state":"active","ping":73},{"user_id":224,"name":"SeaBass","steam_id":76561198278914206,"connected_time":283000000000,"state":"active","ping":91},{"user_id":220,"name":"Lemonade Juice","steam_id":76561198402892608,"connected_time":362000000000,"state":"active","ping":101},{"user_id":222,"name":"bit","steam_id":76561198993740818,"connected_time":332000000000,"state":"active","ping":69},{"user_id":164,"name":"thomasdee725!!!!","steam_id":76561199189526173,"connected_time":4720000000000,"state":"active","ping":73},{"user_id":223,"name":"Chaotic Rushu","steam_id":76561198170054407,"connected_time":308000000000,"state":"active","ping":71},{"user_id":199,"name":"B0otstrut beel","steam_id":76561198202457221,"connected_time":1745000000000,"state":"active","ping":57},{"user_id":215,"name":"Blitz3k","steam_id":76561198055758741,"connected_time":649000000000,"state":"active","ping":49},{"user_id":225,"name":"Venezia","steam_id":76561197994107407,"connected_time":258000000000,"state":"active","ping":44},{"user_id":138,"name":"Wahooka","steam_id":76561197962240925,"connected_time":6271000000000,"state":"active","ping":58},{"user_id":208,"name":"ü§®","steam_id":76561199365672047,"connected_time":1472000000000,"state":"active","ping":69},{"user_id":228,"name":"yaldabaoth","steam_id":76561198084606869,"connected_time":178000000000,"state":"active","ping":60},{"user_id":226,"name":"Thr33boys","steam_id":76561198035639627,"connected_time":249000000000,"state":"active","ping":57},{"user_id":227,"name":"Clyde","steam_id":76561198158206236,"connected_time":249000000000,"state":"active","ping":122},{"user_id":216,"name":"l é…π…êS","steam_id":76561198320220765,"connected_time":491000000000,"state":"active","ping":140},{"user_id":205,"name":"VinnyGoomBatz","steam_id":76561199016443584,"connected_time":1568000000000,"state":"active","ping":66}]},{"server_id":15,"name":"Uncletopia | New York City | 3 | Stopwatch Beta","name_short":"nyc-3","host":"nyc-1.us.uncletopia.com","port":27035,"enabled":true,"region":"us-east","cc":"us","latitude":40.73061,"longitude":-73.93524,"reserved":0,"last_update":"0001-01-01T00:00:00Z","name_a2s":"Uncletopia | New York City | 3 | Stopwatch Beta","protocol":17,"map":"pl_upward","folder":"tf","game":"Team Fortress","app_id":440,"player_count":0,"max_players":24,"Bots":0,"server_type":"Dedicated","server_os":"Linux","password":true,"vac":true,"version":"7757534","steam_id":85568392924742820,"keywords":["nocrits","nodmgspread","payload","uncletopia"],"game_id":440,"stv_port":27036,"stv_name":"Uncletopia | New York City | 3 | Stopwatch Beta | STV","players":null},{"server_id":16,"name":"Uncletopia | New York City | 4 | Community","name_short":"nyc-4","host":"nyc-1.us.uncletopia.com","port":27045,"enabled":true,"region":"us-east","cc":"us","latitude":40.73061,"longitude":-73.93524,"reserved":0,"last_update":"0001-01-01T00:00:00Z","name_a2s":"Uncletopia | New York City | 4 | Community","protocol":17,"map":"workshop/cp_reckoner_rc6.ugc674719999","folder":"tf","game":"Team Fortress","app_id":440,"player_count":0,"max_players":24,"Bots":0,"server_type":"Dedicated","server_os":"Linux","password":true,"vac":true,"version":"7757534","steam_id":85568392924742821,"keywords":["cp","nocrits","nodmgspread","uncletopia"],"game_id":440,"stv_port":27046,"stv_name":"Uncletopia | New York City | 4 | Community | STV","players":null},{"server_id":142,"name":"Uncletopia | S√£o Paulo | 1 | All Maps","name_short":"sao-1","host":"sao-1.br.uncletopia.com","port":27015,"enabled":true,"region":"sa","cc":"br","latitude":-23.533773,"longitude":-46.62529,"reserved":0,"last_update":"0001-01-01T00:00:00Z","name_a2s":"Uncletopia | S√£o Paulo | 1 | All Maps","protocol":17,"map":"pl_borneo","folder":"tf","game":"Team Fortress","app_id":440,"player_count":0,"max_players":24,"Bots":0,"server_type":"Dedicated","server_os":"Linux","password":true,"vac":true,"version":"7757534","steam_id":85568392924469996,"keywords":["nocrits","nodmgspread","payload","uncletopia"],"game_id":440,"stv_port":27016,"stv_name":"Uncletopia | S√£o Paulo | 1 | All Maps | STV","players":null},{"server_id":143,"name":"Uncletopia | S√£o Paulo | 2 | All Maps","name_short":"sao-2","host":"sao-2.br.uncletopia.com","port":27015,"enabled":true,"region":"sa","cc":"br","latitude":-23.533773,"longitude":-46.62529,"reserved":0,"last_update":"0001-01-01T00:00:00Z","name_a2s":"Uncletopia | S√£o Paulo | 2 | All Maps","protocol":17,"map":"koth_cascade","folder":"tf","game":"Team Fortress","app_id":440,"player_count":0,"max_players":24,"Bots":0,"server_type":"Dedicated","server_os":"Linux","password":true,"vac":true,"version":"7757534","steam_id":85568392924485349,"keywords":["cp","nocrits","nodmgspread","uncletopia"],"game_id":440,"stv_port":27016,"stv_name":"Uncletopia | S√£o Paulo | 2 | All Maps | STV","players":null},{"server_id":7,"name":"Uncletopia | Seattle | 1 | All Maps","name_short":"sea-1","host":"sea-1.us.uncletopia.com","port":27015,"enabled":true,"region":"us-west","cc":"us","latitude":47.608013,"longitude":-122.33517,"reserved":0,"last_update":"0001-01-01T00:00:00Z","name_a2s":"Uncletopia | Seattle | 1 | All Maps","protocol":17,"map":"pl_badwater","folder":"tf","game":"Team Fortress","app_id":440,"player_count":24,"max_players":24,"Bots":0,"server_type":"Dedicated","server_os":"Linux","password":true,"vac":true,"version":"7757534","steam_id":85568392924469997,"keywords":["nocrits","nodmgspread","payload","uncletopia"],"game_id":440,"stv_port":27016,"stv_name":"Uncletopia | Seattle | 1 | All Maps | STV","players":[{"user_id":307,"name":"HappyCocoa","steam_id":76561198189001527,"connected_time":739000000000,"state":"active","ping":49},{"user_id":300,"name":"Saint Laurent Don","steam_id":76561198116820706,"connected_time":914000000000,"state":"active","ping":75},{"user_id":296,"name":"SeriousBread","steam_id":76561198043901577,"connected_time":959000000000,"state":"active","ping":56},{"user_id":106,"name":"Soozy420","steam_id":76561198809074422,"connected_time":15054000000000,"state":"active","ping":75},{"user_id":301,"name":"the bron jame","steam_id":76561198371235518,"connected_time":863000000000,"state":"active","ping":71},{"user_id":264,"name":"Rudolpho","steam_id":76561197971586420,"connected_time":3955000000000,"state":"active","ping":115},{"user_id":314,"name":"Greskrendtregk","steam_id":76561197969553142,"connected_time":219000000000,"state":"active","ping":52},{"user_id":312,"name":"mike, freshly circed","steam_id":76561198225411004,"connected_time":292000000000,"state":"active","ping":61},{"user_id":265,"name":"noellehound","steam_id":76561198108844158,"connected_time":3946000000000,"state":"active","ping":105},{"user_id":282,"name":"SibilantSerpent","steam_id":76561198154488754,"connected_time":1786000000000,"state":"active","ping":53},{"user_id":294,"name":"TheCowledWiz","steam_id":76561198016735868,"connected_time":1191000000000,"state":"active","ping":47},{"user_id":288,"name":"el muchacho","steam_id":76561198282632562,"connected_time":1418000000000,"state":"active","ping":107},{"user_id":289,"name":"a cat plushie","steam_id":76561198080046542,"connected_time":1413000000000,"state":"active","ping":48},{"user_id":270,"name":"Reb","steam_id":76561198144756713,"connected_time":3310000000000,"state":"active","ping":78},{"user_id":277,"name":"Smoky","steam_id":76561198041551259,"connected_time":2291000000000,"state":"active","ping":71},{"user_id":281,"name":"McSpazatron","steam_id":76561198955942148,"connected_time":1799000000000,"state":"active","ping":78},{"user_id":313,"name":"Smile","steam_id":76561198110008786,"connected_time":261000000000,"state":"active","ping":52},{"user_id":236,"name":"Level 99 Mudcrab","steam_id":76561198077452771,"connected_time":5594000000000,"state":"active","ping":57},{"user_id":49,"name":"Neo Kojiro","steam_id":76561198000967076,"connected_time":20415000000000,"state":"active","ping":141},{"user_id":317,"name":"mega","steam_id":76561198089520959,"connected_time":55000000000,"state":"active","ping":92},{"user_id":309,"name":"wuddles","steam_id":76561198025782349,"connected_time":637000000000,"state":"active","ping":68},{"user_id":306,"name":"beastierbeast","steam_id":76561199030645530,"connected_time":813000000000,"state":"active","ping":108},{"user_id":311,"name":"lovedivine","steam_id":76561198271418829,"connected_time":623000000000,"state":"active","ping":128},{"user_id":316,"name":"joe rippa","steam_id":76561198170402666,"connected_time":152000000000,"state":"active","ping":71}]},{"server_id":119,"name":"Uncletopia | Seattle | 2 | All Maps","name_short":"sea-2","host":"sea-1.us.uncletopia.com","port":27025,"enabled":true,"region":"us-west","cc":"us","latitude":47.608013,"longitude":-122.33517,"reserved":0,"last_update":"0001-01-01T00:00:00Z","name_a2s":"Uncletopia | Seattle | 2 | All Maps","protocol":17,"map":"cp_process_final","folder":"tf","game":"Team Fortress","app_id":440,"player_count":0,"max_players":24,"Bots":0,"server_type":"Dedicated","server_os":"Linux","password":true,"vac":true,"version":"7757534","steam_id":85568392924469998,"keywords":["cp","nocrits","nodmgspread","uncletopia"],"game_id":440,"stv_port":27026,"stv_name":"Uncletopia | Seattle | 2 | All Maps | STV","players":null},{"server_id":406,"name":"Uncletopia | Seattle | 3 | Stopwatch Beta","name_short":"sea-3","host":"sea-1.us.uncletopia.com","port":27035,"enabled":true,"region":"us-west","cc":"us","latitude":47.608013,"longitude":-122.33517,"reserved":0,"last_update":"0001-01-01T00:00:00Z","name_a2s":"Uncletopia | Seattle | 3 | Stopwatch Beta","protocol":17,"map":"workshop/pl_vigil_rc9.ugc1266210012","folder":"tf","game":"Team Fortress","app_id":440,"player_count":0,"max_players":24,"Bots":0,"server_type":"Dedicated","server_os":"Linux","password":true,"vac":true,"version":"7757534","steam_id":85568392924515217,"keywords":["nocrits","nodmgspread","payload","uncletopia"],"game_id":440,"stv_port":27036,"stv_name":"Uncletopia | Seattle | 3 | Stopwatch Beta | STV","players":null},{"server_id":17,"name":"Uncletopia | San Francisco | 1 | All Maps","name_short":"sfo-1","host":"sfo-1.us.uncletopia.com","port":27015,"enabled":true,"region":"us-west","cc":"us","latitude":37.77397,"longitude":-122.4313,"reserved":0,"last_update":"0001-01-01T00:00:00Z","name_a2s":"Uncletopia | San Francisco | 1 | All Maps","protocol":17,"map":"pl_badwater","folder":"tf","game":"Team Fortress","app_id":440,"player_count":24,"max_players":24,"Bots":0,"server_type":"Dedicated","server_os":"Linux","password":true,"vac":true,"version":"7757534","steam_id":85568392924469999,"keywords":["nocrits","nodmgspread","payload","uncletopia"],"game_id":440,"stv_port":27016,"stv_name":"Uncletopia | San Francisco | 1 | All Maps | STV","players":[{"user_id":156,"name":"darktheif54","steam_id":76561198043650119,"connected_time":1137000000000,"state":"active","ping":57},{"user_id":162,"name":"Shook","steam_id":76561198054064995,"connected_time":760000000000,"state":"active","ping":96},{"user_id":151,"name":"Anon","steam_id":76561198109740776,"connected_time":1264000000000,"state":"active","ping":68},{"user_id":168,"name":"June","steam_id":76561198141803658,"connected_time":22000000000,"state":"active","ping":163},{"user_id":135,"name":"Smiles","steam_id":76561198107197973,"connected_time":2312000000000,"state":"active","ping":105},{"user_id":141,"name":"weed","steam_id":76561198149929071,"connected_time":1772000000000,"state":"active","ping":67},{"user_id":113,"name":"Oktayey","steam_id":76561198143213426,"connected_time":3678000000000,"state":"active","ping":47},{"user_id":144,"name":"bear","steam_id":76561198909415646,"connected_time":1666000000000,"state":"active","ping":106},{"user_id":152,"name":"CaptainKn1ght","steam_id":76561198018979695,"connected_time":1249000000000,"state":"active","ping":106},{"user_id":143,"name":"Heavy","steam_id":76561198437794740,"connected_time":1713000000000,"state":"active","ping":54},{"user_id":110,"name":"Ferry gary","steam_id":76561198184698262,"connected_time":4038000000000,"state":"active","ping":67},{"user_id":153,"name":"TheArachnidGamer","steam_id":76561198304986752,"connected_time":1215000000000,"state":"active","ping":75},{"user_id":106,"name":"weenie hut jr","steam_id":76561198206922028,"connected_time":4182000000000,"state":"active","ping":59},{"user_id":132,"name":"Awenova","steam_id":76561198322928940,"connected_time":2501000000000,"state":"active","ping":108},{"user_id":154,"name":"Chief Diggery K.","steam_id":76561198066629137,"connected_time":1193000000000,"state":"active","ping":115},{"user_id":120,"name":"Nopro1134","steam_id":76561198272707734,"connected_time":3574000000000,"state":"active","ping":124},{"user_id":127,"name":"StarBrigade","steam_id":76561198150224428,"connected_time":3239000000000,"state":"active","ping":74},{"user_id":163,"name":"radiation","steam_id":76561198001157602,"connected_time":626000000000,"state":"active","ping":125},{"user_id":166,"name":"DoomoPelota","steam_id":76561198326462587,"connected_time":99000000000,"state":"active","ping":111},{"user_id":155,"name":"anchor","steam_id":76561198308071306,"connected_time":1172000000000,"state":"active","ping":57},{"user_id":99,"name":"ShredMaan","steam_id":76561198429982138,"connected_time":4472000000000,"state":"active","ping":64},{"user_id":157,"name":"A Glazed Donut","steam_id":76561198297536267,"connected_time":1133000000000,"state":"active","ping":55},{"user_id":145,"name":"u know i keep","steam_id":76561198094615739,"connected_time":1637000000000,"state":"active","ping":78},{"user_id":160,"name":"Boiba Fett","steam_id":76561198027511884,"connected_time":1100000000000,"state":"active","ping":112}]},{"server_id":18,"name":"Uncletopia | San Francisco | 2 | All Maps","name_short":"sfo-2","host":"sfo-1.us.uncletopia.com","port":27025,"enabled":true,"region":"us-west","cc":"us","latitude":37.77397,"longitude":-122.4313,"reserved":0,"last_update":"0001-01-01T00:00:00Z","name_a2s":"Uncletopia | San Francisco | 2 | All Maps","protocol":17,"map":"pl_badwater","folder":"tf","game":"Team Fortress","app_id":440,"player_count":9,"max_players":24,"Bots":0,"server_type":"Dedicated","server_os":"Linux","password":true,"vac":true,"version":"7757534","steam_id":85568392924470000,"keywords":["nocrits","nodmgspread","payload","uncletopia"],"game_id":440,"stv_port":27026,"stv_name":"Uncletopia | San Francisco | 2 | All Maps | STV","players":[{"user_id":39,"name":"the glooble","steam_id":76561199167035057,"connected_time":59000000000,"state":"active","ping":46},{"user_id":40,"name":"üÖúüÖîüÖîüÖöüÖ¢üÖ£üÖî\ufffd\ufffd\ufffd","steam_id":76561197999748343,"connected_time":27000000000,"state":"spawning","ping":114},{"user_id":28,"name":"muffinman12126","steam_id":76561199471924109,"connected_time":728000000000,"state":"active","ping":40},{"user_id":30,"name":"¬¶{‚àí‚àíD@t Sc√ú‚ãÇ‚ä§‚àí‚àí}\ufffd","steam_id":76561199218110014,"connected_time":648000000000,"state":"active","ping":105},{"user_id":31,"name":"Overmeme","steam_id":76561199455124144,"connected_time":568000000000,"state":"active","ping":82},{"user_id":34,"name":"Mikeonut","steam_id":76561198305752102,"connected_time":385000000000,"state":"active","ping":52},{"user_id":33,"name":"Barbatruc","steam_id":76561198119019916,"connected_time":423000000000,"state":"active","ping":204},{"user_id":35,"name":"Altruisticailuridae","steam_id":76561198335295596,"connected_time":359000000000,"state":"active","ping":74},{"user_id":37,"name":"Speed Weed","steam_id":76561198007512620,"connected_time":275000000000,"state":"active","ping":71}]},{"server_id":19,"name":"Uncletopia | San Francisco | 3 | Stopwatch Beta","name_short":"sfo-3","host":"sfo-1.us.uncletopia.com","port":27035,"enabled":true,"region":"us-west","cc":"us","latitude":37.77397,"longitude":-122.4313,"reserved":0,"last_update":"0001-01-01T00:00:00Z","name_a2s":"Uncletopia | San Francisco | 3 | Stopwatch Beta","protocol":17,"map":"koth_lakeside_final","folder":"tf","game":"Team Fortress","app_id":440,"player_count":0,"max_players":24,"Bots":0,"server_type":"Dedicated","server_os":"Linux","password":true,"vac":true,"version":"7757534","steam_id":85568392924742824,"keywords":["cp","nocrits","nodmgspread","uncletopia"],"game_id":440,"stv_port":27036,"stv_name":"Uncletopia | San Francisco | 3 | Stopwatch Beta | STV","players":null},{"server_id":20,"name":"Uncletopia | San Francisco | 4 | Community","name_short":"sfo-4","host":"sfo-1.us.uncletopia.com","port":27045,"enabled":true,"region":"us-west","cc":"us","latitude":37.77397,"longitude":-122.4313,"reserved":0,"last_update":"0001-01-01T00:00:00Z","name_a2s":"Uncletopia | San Francisco | 4 | Community","protocol":17,"map":"cp_altitude","folder":"tf","game":"Team Fortress","app_id":440,"player_count":0,"max_players":24,"Bots":0,"server_type":"Dedicated","server_os":"Linux","password":true,"vac":true,"version":"7757534","steam_id":85568392924742826,"keywords":["cp","nocrits","nodmgspread","uncletopia"],"game_id":440,"stv_port":27046,"stv_name":"Uncletopia | San Francisco | 4 | Community | STV","players":null},{"server_id":141,"name":"Uncletopia | Sydney | 1 | All Maps","name_short":"syd-1","host":"syd-1.au.uncletopia.com","port":27015,"enabled":true,"region":"au","cc":"au","latitude":-33.865143,"longitude":151.2099,"reserved":0,"last_update":"0001-01-01T00:00:00Z","name_a2s":"Uncletopia | Sydney | 1 | All Maps","protocol":17,"map":"koth_viaduct","folder":"tf","game":"Team Fortress","app_id":440,"player_count":0,"max_players":24,"Bots":0,"server_type":"Dedicated","server_os":"Linux","password":true,"vac":true,"version":"7757534","steam_id":85568392924470001,"keywords":["cp","nocrits","nodmgspread","uncletopia"],"game_id":440,"stv_port":27016,"stv_name":"Uncletopia | Sydney | 1 | All Maps | STV","players":null},{"server_id":123,"name":"Uncletopia | Sydney | 2 | All Maps","name_short":"syd-2","host":"syd-1.au.uncletopia.com","port":27025,"enabled":true,"region":"au","cc":"au","latitude":-33.865143,"longitude":151.2099,"reserved":0,"last_update":"0001-01-01T00:00:00Z","name_a2s":"Uncletopia | Sydney | 2 | All Maps","protocol":17,"map":"cp_process_final","folder":"tf","game":"Team Fortress","app_id":440,"player_count":0,"max_players":24,"Bots":0,"server_type":"Dedicated","server_os":"Linux","password":true,"vac":true,"version":"7757534","steam_id":85568392924470002,"keywords":["cp","nocrits","nodmgspread","uncletopia"],"game_id":440,"stv_port":27026,"stv_name":"Uncletopia | Sydney | 2 | All Maps | STV","players":null},{"server_id":395,"name":"Uncletopia | Sydney | 3 | All Maps","name_short":"syd-3","host":"syd-1.au.uncletopia.com","port":27035,"enabled":true,"region":"au","cc":"au","latitude":-33.865143,"longitude":151.2099,"reserved":0,"last_update":"0001-01-01T00:00:00Z","name_a2s":"Uncletopia | Sydney | 3 | All Maps","protocol":17,"map":"pl_swiftwater_final1","folder":"tf","game":"Team Fortress","app_id":440,"player_count":0,"max_players":24,"Bots":0,"server_type":"Dedicated","server_os":"Linux","password":true,"vac":true,"version":"7757534","steam_id":85568392925194467,"keywords":["nocrits","nodmgspread","payload","uncletopia"],"game_id":440,"stv_port":27036,"stv_name":"Uncletopia | Sydney | 3 | All Maps | STV","players":null},{"server_id":396,"name":"Uncletopia | Sydney | 4 | All Maps","name_short":"syd-4","host":"syd-1.au.uncletopia.com","port":27045,"enabled":true,"region":"au","cc":"au","latitude":-33.865143,"longitude":151.2099,"reserved":0,"last_update":"0001-01-01T00:00:00Z","name_a2s":"Uncletopia | Sydney | 4 | All Maps","protocol":17,"map":"koth_highpass","folder":"tf","game":"Team Fortress","app_id":440,"player_count":0,"max_players":24,"Bots":0,"server_type":"Dedicated","server_os":"Linux","password":true,"vac":true,"version":"7757534","steam_id":85568392925397958,"keywords":["cp","nocrits","nodmgspread","uncletopia"],"game_id":440,"stv_port":27046,"stv_name":"Uncletopia | Sydney | 4 | All Maps | STV","players":null},{"server_id":58,"name":"Uncletopia | Sydney | 5 | Stopwatch Beta","name_short":"syd-5","host":"syd-1.au.uncletopia.com","port":27055,"enabled":true,"region":"au","cc":"au","latitude":-33.865143,"longitude":151.2099,"reserved":0,"last_update":"0001-01-01T00:00:00Z","name_a2s":"Uncletopia | Sydney | 5 | Stopwatch Beta","protocol":17,"map":"koth_cascade","folder":"tf","game":"Team Fortress","app_id":440,"player_count":0,"max_players":24,"Bots":0,"server_type":"Dedicated","server_os":"Linux","password":true,"vac":true,"version":"7757534","steam_id":85568392925397959,"keywords":["cp","nocrits","nodmgspread","uncletopia"],"game_id":440,"stv_port":27056,"stv_name":"Uncletopia | Sydney | 5 | Stopwatch Beta | STV","players":null},{"server_id":59,"name":"Uncletopia | Sydney | 6 | Community","name_short":"syd-6","host":"syd-1.au.uncletopia.com","port":27065,"enabled":true,"region":"au","cc":"au","latitude":-33.865143,"longitude":151.2099,"reserved":0,"last_update":"0001-01-01T00:00:00Z","name_a2s":"Uncletopia | Sydney | 6 | Community","protocol":17,"map":"cp_snakewater_final1","folder":"tf","game":"Team Fortress","app_id":440,"player_count":0,"max_players":24,"Bots":0,"server_type":"Dedicated","server_os":"Linux","password":true,"vac":true,"version":"7757534","steam_id":85568392925397960,"keywords":["cp","nocrits","nodmgspread","uncletopia"],"game_id":440,"stv_port":27066,"stv_name":"Uncletopia | Sydney | 6 | Community | STV","players":null},{"server_id":49,"name":"Uncletopia | Warsaw | 1 | All Maps","name_short":"waw-1","host":"waw-1.pl.uncletopia.com","port":27015,"enabled":true,"region":"eu","cc":"pl","latitude":52.2297,"longitude":21.017532,"reserved":0,"last_update":"0001-01-01T00:00:00Z","name_a2s":"","protocol":0,"map":"","folder":"","game":"","app_id":0,"player_count":0,"max_players":0,"Bots":0,"server_type":"","server_os":"","password":false,"vac":false,"version":"","steam_id":0,"keywords":null,"game_id":0,"stv_port":0,"stv_name":"","players":null},{"server_id":50,"name":"Uncletopia | Warsaw | 2 | All Maps","name_short":"waw-2","host":"waw-1.pl.uncletopia.com","port":27025,"enabled":true,"region":"eu","cc":"pl","latitude":52.2297,"longitude":21.017532,"reserved":0,"last_update":"0001-01-01T00:00:00Z","name_a2s":"Uncletopia | Warsaw | 2 | All Maps","protocol":17,"map":"koth_viaduct","folder":"tf","game":"Team Fortress","app_id":440,"player_count":2,"max_players":24,"Bots":0,"server_type":"Dedicated","server_os":"Linux","password":true,"vac":true,"version":"7757534","steam_id":85568392925397851,"keywords":["cp","nocrits","nodmgspread","uncletopia"],"game_id":440,"stv_port":27026,"stv_name":"Uncletopia | Warsaw | 2 | All Maps | STV","players":[{"user_id":4,"name":"TarekInnit","steam_id":76561198298618127,"connected_time":242000000000,"state":"active","ping":66},{"user_id":5,"name":"TheGHGCraft","steam_id":76561199211317521,"connected_time":137000000000,"state":"active","ping":84}]},{"server_id":51,"name":"Uncletopia | Warsaw | 3 | All Maps","name_short":"waw-3","host":"waw-1.pl.uncletopia.com","port":27035,"enabled":true,"region":"eu","cc":"pl","latitude":52.2297,"longitude":21.017532,"reserved":0,"last_update":"0001-01-01T00:00:00Z","name_a2s":"Uncletopia | Warsaw | 3 | All Maps","protocol":17,"map":"cp_snakewater_final1","folder":"tf","game":"Team Fortress","app_id":440,"player_count":0,"max_players":24,"Bots":0,"server_type":"Dedicated","server_os":"Linux","password":true,"vac":true,"version":"7757534","steam_id":85568392925397852,"keywords":["cp","nocrits","nodmgspread","uncletopia"],"game_id":440,"stv_port":27036,"stv_name":"Uncletopia | Warsaw | 3 | All Maps | STV","players":null},{"server_id":52,"name":"Uncletopia | Warsaw | 4 | All Maps","name_short":"waw-4","host":"waw-1.pl.uncletopia.com","port":27045,"enabled":true,"region":"eu","cc":"pl","latitude":52.2297,"longitude":21.017532,"reserved":0,"last_update":"0001-01-01T00:00:00Z","name_a2s":"Uncletopia | Warsaw | 4 | All Maps","protocol":17,"map":"koth_lakeside_final","folder":"tf","game":"Team Fortress","app_id":440,"player_count":0,"max_players":24,"Bots":0,"server_type":"Dedicated","server_os":"Linux","password":true,"vac":true,"version":"7757534","steam_id":85568392925397853,"keywords":["cp","nocrits","nodmgspread","uncletopia"],"game_id":440,"stv_port":27046,"stv_name":"Uncletopia | Warsaw | 4 | All Maps | STV","players":null},{"server_id":53,"name":"Uncletopia | Warsaw | 5 | Stopwatch Beta","name_short":"waw-5","host":"waw-1.pl.uncletopia.com","port":27055,"enabled":true,"region":"eu","cc":"pl","latitude":52.2297,"longitude":21.017532,"reserved":0,"last_update":"0001-01-01T00:00:00Z","name_a2s":"Uncletopia | Warsaw | 5 | Stopwatch Beta","protocol":17,"map":"pl_borneo","folder":"tf","game":"Team Fortress","app_id":440,"player_count":0,"max_players":24,"Bots":0,"server_type":"Dedicated","server_os":"Linux","password":true,"vac":true,"version":"7757534","steam_id":85568392925397854,"keywords":["nocrits","nodmgspread","payload","uncletopia"],"game_id":440,"stv_port":27056,"stv_name":"Uncletopia | Warsaw | 5 | Stopwatch Beta | STV","players":null},{"server_id":54,"name":"Uncletopia | Warsaw | 6 | Community","name_short":"waw-6","host":"waw-1.pl.uncletopia.com","port":27065,"enabled":true,"region":"eu","cc":"pl","latitude":52.2297,"longitude":21.017532,"reserved":0,"last_update":"0001-01-01T00:00:00Z","name_a2s":"Uncletopia | Warsaw | 6 | Community","protocol":17,"map":"workshop/cp_indulge.ugc528106646","folder":"tf","game":"Team Fortress","app_id":440,"player_count":0,"max_players":24,"Bots":0,"server_type":"Dedicated","server_os":"Linux","password":true,"vac":true,"version":"7757534","steam_id":85568392925397856,"keywords":["cp","nocrits","nodmgspread","uncletopia"],"game_id":440,"stv_port":27066,"stv_name":"Uncletopia | Warsaw | 6 | Community | STV","players":null}]}