{"status":true,"message":"","result":[{"server_id":9,"name":"Uncletopia | Atlanta | 1 | All Maps","name_short":"atl-1","host":"atl-1.us.uncletopia.com","port":27015,"enabled":true,"region":"us-east","cc":"us","latitude":33.753746,"longitude":-84.38633,"reserved":0,"last_update":"0001-01-01T00:00:00Z","name_a2s":"Uncletopia | Atlanta | 1 | All Maps","protocol":17,"map":"pl_swiftwater_final1","folder":"tf","game":"Team Fortress","app_id":440,"player_count":26,"max_players":24,"Bots":0,"server_type":"Dedicated","server_os":"Linux","password":true,"vac":true,"version":"7757534","steam_id":85568392924469982,"keywords":["nocrits","nodmgspread","payload","uncletopia"],"game_id":440,"stv_port":27016,"stv_name":"Uncletopia | Atlanta | 1 | All Maps | STV","players":[{"user_id":180,"name":"Zen Skye","steam_id":76561198114452552,"connected_time":4603000000000,"state":"active","ping":86},{"user_id":283,"name":"ATL1 | Kramer","steam_id":76561198083595936,"connected_time":1707000000000,"state":"active","ping":71},{"user_id":291,"name":"Whizzo the Clown","steam_id":76561197995910627,"connected_time":1093000000000,"state":"active","ping":83},{"user_id":246,"name":"ÁÅ´Êòü | Marsy","steam_id":76561198014979892,"connected_time":3488000000000,"state":"active","ping":69},{"user_id":299,"name":"Troy","steam_id":76561198005572722,"connected_time":136000000000,"state":"active","ping":71},{"user_id":301,"name":"BLU1 Save your wifi","steam_id":76561198286147372,"connected_time":3000000000,"state":"spawning","ping":87},{"user_id":282,"name":"BLU1 | Shame","steam_id":76561198100490994,"connected_time":1790000000000,"state":"active","ping":60},{"user_id":183,"name":"Weerk","steam_id":76561199209543551,"connected_time":4565000000000,"state":"active","ping":70},{"user_id":293,"name":"RED1 | p4ka","steam_id":76561198315291317,"connected_time":1080000000000,"state":"active","ping":69},{"user_id":288,"name":"you should recycle","steam_id":76561198119478199,"connected_time":1115000000000,"state":"active","ping":44},{"user_id":285,"name":"Gimpy","steam_id":76561198981867692,"connected_time":1668000000000,"state":"active","ping":71},{"user_id":295,"name":"PerpetuaForever","steam_id":76561198347444353,"connected_time":1049000000000,"state":"active","ping":72},{"user_id":18,"name":"RED1 | eish","steam_id":76561198089463603,"connected_time":6697000000000,"state":"active","ping":123},{"user_id":296,"name":"Papyrus","steam_id":76561198133990817,"connected_time":1043000000000,"state":"active","ping":72},{"user_id":276,"name":"Karma","steam_id":76561198030565234,"connected_time":2813000000000,"state":"active","ping":70},{"user_id":302,"name":"Spoonful","steam_id":76561198927517471,"connected_time":3000000000,"state":"spawning","ping":70},{"user_id":290,"name":"melancholy","steam_id":76561198024301465,"connected_time":1104000000000,"state":"active","ping":45},{"user_id":229,"name":"BLU1 | cola","steam_id":76561198374390458,"connected_time":3845000000000,"state":"active","ping":48},{"user_id":298,"name":"‡∏∏","steam_id":76561198084134025,"connected_time":319000000000,"state":"active","ping":121},{"user_id":26,"name":"amazing","steam_id":76561198386233160,"connected_time":6679000000000,"state":"active","ping":89},{"user_id":292,"name":"BLU1 l Epifiny","steam_id":76561198027958086,"connected_time":1091000000000,"state":"active","ping":84},{"user_id":179,"name":"miraakz420","steam_id":76561199013850154,"connected_time":4631000000000,"state":"active","ping":77},{"user_id":278,"name":"RED1 | mayhem","steam_id":76561199246637881,"connected_time":2795000000000,"state":"active","ping":60},{"user_id":275,"name":"Jatt","steam_id":76561198822011219,"connected_time":2924000000000,"state":"active","ping":81},{"user_id":112,"name":"Atomic Waffles","steam_id":76561197970935570,"connected_time":5486000000000,"state":"active","ping":90},{"user_id":303,"name":"Admiral Catradora","steam_id":76561198017271944,"connected_time":3000000000,"state":"spawning","ping":72}]},{"server_id":400,"name":"Uncletopia | Atlanta | 3 | Community","name_short":"atl-3","host":"atl-1.us.uncletopia.com","port":27035,"enabled":true,"region":"us-east","cc":"us","latitude":33.753746,"longitude":-84.38633,"reserved":0,"last_update":"0001-01-01T00:00:00Z","name_a2s":"Uncletopia | Atlanta | 3 | Community","protocol":17,"map":"workshop/pl_highwood_b13.ugc1769496557","folder":"tf","game":"Team Fortress","app_id":440,"player_count":0,"max_players":24,"Bots":0,"server_type":"Dedicated","server_os":"Linux","password":true,"vac":true,"version":"7757534","steam_id":85568392924515187,"keywords":["nocrits","nodmgspread","payload","uncletopia"],"game_id":440,"stv_port":27036,"stv_name":"Uncletopia | Atlanta | 3 | Community | STV","players":null},{"server_id":401,"name":"Uncletopia | Atlanta | 4 | No Payload","name_short":"atl-4","host":"atl-1.us.uncletopia.com","port":27045,"enabled":true,"region":"us-east","cc":"us","latitude":33.753746,"longitude":-84.38633,"reserved":0,"last_update":"0001-01-01T00:00:00Z","name_a2s":"Uncletopia | Atlanta | 4 | No Payload","protocol":17,"map":"pl_pier","folder":"tf","game":"Team Fortress","app_id":440,"player_count":0,"max_players":24,"Bots":0,"server_type":"Dedicated","server_os":"Linux","password":true,"vac":true,"version":"7723704","steam_id":85568392924515188,"keywords":["nocrits","nodmgspread","payload","uncletopia"],"game_id":440,"stv_port":27046,"stv_name":"Uncletopia | Atlanta | 4 | No Payload | STV","players":null},{"server_id":2,"name":"Uncletopia | Chicago | 1 | All Maps","name_short":"chi-1","host":"chi-1.us.uncletopia.com","port":27015,"enabled":true,"region":"us-central","cc":"us","latitude":41.881832,"longitude":-87.62318,"reserved":0,"last_update":"0001-01-01T00:00:00Z","name_a2s":"Uncletopia | Chicago | 1 | All Maps","protocol":17,"map":"pl_thundermountain","folder":"tf","game":"Team Fortress","app_id":440,"player_count":24,"max_players":24,"Bots":0,"server_type":"Dedicated","server_os":"Linux","password":true,"vac":true,"version":"7757534","steam_id":85568392924469984,"keywords":["nocrits","nodmgspread","payload","uncletopia"],"game_id":440,"stv_port":27016,"stv_name":"Uncletopia | Chicago | 1 | All Maps | STV","players":[{"user_id":174,"name":"ProfessorCagan","steam_id":76561198141372356,"connected_time":4099000000000,"state":"active","ping":46},{"user_id":144,"name":"blob","steam_id":76561198122375328,"connected_time":6535000000000,"state":"active","ping":65},{"user_id":200,"name":"jrdoran","steam_id":76561197984753094,"connected_time":1589000000000,"state":"active","ping":54},{"user_id":186,"name":"Horse","steam_id":76561199112075552,"connected_time":3749000000000,"state":"active","ping":65},{"user_id":179,"name":"Sad Dent","steam_id":76561198103189993,"connected_time":3899000000000,"state":"active","ping":108},{"user_id":211,"name":"Big Phony","steam_id":76561199092395311,"connected_time":214000000000,"state":"active","ping":67},{"user_id":209,"name":"spring rolls","steam_id":76561198059409038,"connected_time":564000000000,"state":"active","ping":71},{"user_id":206,"name":"rocky","steam_id":76561198162392569,"connected_time":856000000000,"state":"active","ping":87},{"user_id":194,"name":"Genius Meme","steam_id":76561198162911254,"connected_time":3106000000000,"state":"active","ping":114},{"user_id":95,"name":"Supr","steam_id":76561198093790672,"connected_time":10307000000000,"state":"active","ping":62},{"user_id":160,"name":"Astoriae!","steam_id":76561199090168858,"connected_time":5378000000000,"state":"active","ping":68},{"user_id":193,"name":"NGsterson","steam_id":76561198162108154,"connected_time":3130000000000,"state":"active","ping":101},{"user_id":170,"name":".JIFF","steam_id":76561198045181760,"connected_time":4276000000000,"state":"active","ping":58},{"user_id":203,"name":"Monti","steam_id":76561198007141798,"connected_time":1397000000000,"state":"active","ping":41},{"user_id":180,"name":"mr. nine","steam_id":76561198097599414,"connected_time":3842000000000,"state":"active","ping":114},{"user_id":199,"name":"richard clock","steam_id":76561198048455671,"connected_time":1599000000000,"state":"active","ping":60},{"user_id":181,"name":"Fencer!","steam_id":76561198029081038,"connected_time":3838000000000,"state":"active","ping":71},{"user_id":182,"name":"RED1 | Lylith","steam_id":76561198386687546,"connected_time":3838000000000,"state":"active","ping":66},{"user_id":210,"name":"JA","steam_id":76561198308183330,"connected_time":486000000000,"state":"active","ping":131},{"user_id":190,"name":"t h e n a","steam_id":76561198169736062,"connected_time":3270000000000,"state":"active","ping":96},{"user_id":133,"name":"FiddyFoMike","steam_id":76561198057072581,"connected_time":7911000000000,"state":"active","ping":95},{"user_id":187,"name":"mark","steam_id":76561198223421912,"connected_time":3592000000000,"state":"active","ping":94},{"user_id":212,"name":"Nikocado Avocado","steam_id":76561198251142108,"connected_time":118000000000,"state":"active","ping":74},{"user_id":205,"name":"Man Time","steam_id":76561198151147218,"connected_time":991000000000,"state":"active","ping":85}]},{"server_id":106,"name":"Uncletopia | Chicago | 2 | All Maps","name_short":"chi-2","host":"chi-1.us.uncletopia.com","port":27025,"enabled":true,"region":"us-central","cc":"us","latitude":41.881832,"longitude":-87.62318,"reserved":0,"last_update":"0001-01-01T00:00:00Z","name_a2s":"Uncletopia | Chicago | 2 | All Maps","protocol":17,"map":"pl_snowycoast","folder":"tf","game":"Team Fortress","app_id":440,"player_count":24,"max_players":24,"Bots":0,"server_type":"Dedicated","server_os":"Linux","password":true,"vac":true,"version":"7757534","steam_id":85568392924469985,"keywords":["nocrits","nodmgspread","payload","uncletopia"],"game_id":440,"stv_port":27026,"stv_name":"Uncletopia | Chicago | 2 | All Maps | STV","players":[{"user_id":298,"name":"Space Cops","steam_id":76561198032414253,"connected_time":194000000000,"state":"active","ping":60},{"user_id":267,"name":"WhoIsFrosty","steam_id":76561198880588117,"connected_time":3376000000000,"state":"active","ping":77},{"user_id":256,"name":"Cyber Cylon","steam_id":76561198048972781,"connected_time":4395000000000,"state":"active","ping":58},{"user_id":280,"name":"Room","steam_id":76561199174579733,"connected_time":1287000000000,"state":"active","ping":81},{"user_id":258,"name":"randomusername","steam_id":76561199078214700,"connected_time":4278000000000,"state":"active","ping":72},{"user_id":292,"name":"backflipping trans woman","steam_id":76561198100189571,"connected_time":790000000000,"state":"active","ping":58},{"user_id":179,"name":"Kasane","steam_id":76561198209006780,"connected_time":7494000000000,"state":"active","ping":76},{"user_id":275,"name":"HollowMan","steam_id":76561198967266827,"connected_time":2891000000000,"state":"active","ping":90},{"user_id":299,"name":"killerdragon130","steam_id":76561198899790922,"connected_time":125000000000,"state":"active","ping":97},{"user_id":215,"name":"A Puppy","steam_id":76561198828184456,"connected_time":6339000000000,"state":"active","ping":59},{"user_id":237,"name":"SilentFootba11","steam_id":76561199006570947,"connected_time":4965000000000,"state":"active","ping":73},{"user_id":290,"name":"dtnk","steam_id":76561199007189876,"connected_time":949000000000,"state":"active","ping":69},{"user_id":282,"name":"I Lead MLB In \"Bats Eaten\"","steam_id":76561198034079853,"connected_time":1251000000000,"state":"active","ping":71},{"user_id":235,"name":"gristle","steam_id":76561198046815360,"connected_time":5045000000000,"state":"active","ping":92},{"user_id":279,"name":"c0wb0y","steam_id":76561199076182855,"connected_time":1835000000000,"state":"active","ping":72},{"user_id":276,"name":"Walter Motrin","steam_id":76561198139095697,"connected_time":2039000000000,"state":"active","ping":76},{"user_id":297,"name":"igotmail","steam_id":76561198070631899,"connected_time":296000000000,"state":"active","ping":67},{"user_id":272,"name":"WarpdriveEngineer","steam_id":76561198073530973,"connected_time":3069000000000,"state":"active","ping":65},{"user_id":291,"name":"InvaderAlex","steam_id":76561198039232451,"connected_time":818000000000,"state":"active","ping":89},{"user_id":293,"name":"toenail cordon bleu","steam_id":76561198073269122,"connected_time":762000000000,"state":"active","ping":76},{"user_id":296,"name":"trash beast","steam_id":76561198015792736,"connected_time":601000000000,"state":"active","ping":75},{"user_id":295,"name":"[DATS‚û°] Sugar Meowth","steam_id":76561197995251793,"connected_time":675000000000,"state":"active","ping":99},{"user_id":278,"name":"No Telefrag Plz","steam_id":76561198113931312,"connected_time":1929000000000,"state":"active","ping":77},{"user_id":294,"name":"RedBatman","steam_id":76561198064252016,"connected_time":750000000000,"state":"active","ping":88}]},{"server_id":402,"name":"Uncletopia | Chicago | 3 | All Maps","name_short":"chi-3","host":"chi-1.us.uncletopia.com","port":27035,"enabled":true,"region":"us-central","cc":"us","latitude":41.881832,"longitude":-87.62318,"reserved":0,"last_update":"0001-01-01T00:00:00Z","name_a2s":"Uncletopia | Chicago | 3 | All Maps","protocol":17,"map":"pl_swiftwater_final1","folder":"tf","game":"Team Fortress","app_id":440,"player_count":23,"max_players":24,"Bots":0,"server_type":"Dedicated","server_os":"Linux","password":true,"vac":true,"version":"7757534","steam_id":85568392924515191,"keywords":["nocrits","nodmgspread","payload","uncletopia"],"game_id":440,"stv_port":27036,"stv_name":"Uncletopia | Chicago | 3 | All Maps | STV","players":[{"user_id":228,"name":"Drake the Pixel","steam_id":76561198131824401,"connected_time":831000000000,"state":"active","ping":60},{"user_id":182,"name":"The Drunk Clown","steam_id":76561197986850426,"connected_time":3566000000000,"state":"active","ping":79},{"user_id":213,"name":"wheresgeorge","steam_id":76561198986281248,"connected_time":1273000000000,"state":"active","ping":80},{"user_id":189,"name":"Satan","steam_id":76561198049821475,"connected_time":3202000000000,"state":"active","ping":87},{"user_id":202,"name":"meth","steam_id":76561198103347094,"connected_time":2803000000000,"state":"active","ping":43},{"user_id":222,"name":"saltedbread","steam_id":76561197995410248,"connected_time":1084000000000,"state":"active","ping":67},{"user_id":197,"name":"WishedFuzzball","steam_id":76561198055642827,"connected_time":3033000000000,"state":"active","ping":71},{"user_id":203,"name":"Maik","steam_id":76561198045257088,"connected_time":2768000000000,"state":"active","ping":123},{"user_id":152,"name":"ZofoJackson","steam_id":76561197998366861,"connected_time":5609000000000,"state":"active","ping":60},{"user_id":209,"name":"Dispenser (Twan)","steam_id":76561197991064908,"connected_time":2014000000000,"state":"active","ping":60},{"user_id":153,"name":"Snoopy","steam_id":76561198273735974,"connected_time":5602000000000,"state":"active","ping":107},{"user_id":215,"name":"The_Skull_boy","steam_id":76561198227692664,"connected_time":1229000000000,"state":"active","ping":117},{"user_id":233,"name":"J1Hug","steam_id":76561198278432509,"connected_time":346000000000,"state":"active","ping":69},{"user_id":193,"name":"idiot normie","steam_id":76561198397662124,"connected_time":3105000000000,"state":"active","ping":89},{"user_id":230,"name":"MemeSupreme","steam_id":76561198112432629,"connected_time":814000000000,"state":"active","ping":42},{"user_id":217,"name":"Oneal","steam_id":76561198026564095,"connected_time":1207000000000,"state":"active","ping":59},{"user_id":147,"name":"MedRed‚Ñ¢ #IATAH","steam_id":76561198002962970,"connected_time":6101000000000,"state":"active","ping":99},{"user_id":218,"name":"Hunk‚Ñ¢","steam_id":76561198045287631,"connected_time":1166000000000,"state":"active","ping":73},{"user_id":201,"name":"Magik","steam_id":76561198200169706,"connected_time":2894000000000,"state":"active","ping":68},{"user_id":221,"name":"Jammburger","steam_id":76561198091716240,"connected_time":1108000000000,"state":"active","ping":84},{"user_id":224,"name":"mars (she/they)","steam_id":76561198127459772,"connected_time":1047000000000,"state":"active","ping":72},{"user_id":149,"name":"hej","steam_id":76561197996366940,"connected_time":5693000000000,"state":"active","ping":59},{"user_id":225,"name":"Triforce141","steam_id":76561198063896776,"connected_time":1043000000000,"state":"active","ping":71}]},{"server_id":403,"name":"Uncletopia | Chicago | 4 | All Maps","name_short":"chi-4","host":"chi-1.us.uncletopia.com","port":27045,"enabled":true,"region":"us-central","cc":"us","latitude":41.881832,"longitude":-87.62318,"reserved":0,"last_update":"0001-01-01T00:00:00Z","name_a2s":"Uncletopia | Chicago | 4 | All Maps","protocol":17,"map":"pl_upward","folder":"tf","game":"Team Fortress","app_id":440,"player_count":24,"max_players":24,"Bots":0,"server_type":"Dedicated","server_os":"Linux","password":true,"vac":true,"version":"7757534","steam_id":85568392924515193,"keywords":["nocrits","nodmgspread","payload","uncletopia"],"game_id":440,"stv_port":27046,"stv_name":"Uncletopia | Chicago | 4 | All Maps | STV","players":[{"user_id":215,"name":"Emperor Dankatine","steam_id":76561198044741086,"connected_time":2731000000000,"state":"active","ping":71},{"user_id":248,"name":"Scout from Team Fortress 2","steam_id":76561198865519822,"connected_time":924000000000,"state":"active","ping":76},{"user_id":209,"name":"RaPids","steam_id":76561198082496100,"connected_time":3249000000000,"state":"active","ping":74},{"user_id":250,"name":"Warzard","steam_id":76561199154051413,"connected_time":808000000000,"state":"active","ping":116},{"user_id":238,"name":"Vibey","steam_id":76561198342873474,"connected_time":1449000000000,"state":"active","ping":77},{"user_id":234,"name":"Makerbubu43","steam_id":76561199027173897,"connected_time":1560000000000,"state":"active","ping":49},{"user_id":241,"name":"Team Fortress 2","steam_id":76561198112388117,"connected_time":1322000000000,"state":"active","ping":73},{"user_id":239,"name":"Dr. Pleasant","steam_id":76561198111945101,"connected_time":1444000000000,"state":"active","ping":70},{"user_id":245,"name":"John Waffles Brown","steam_id":76561197989105786,"connected_time":1095000000000,"state":"active","ping":71},{"user_id":232,"name":"CalebDOTexe","steam_id":76561198042071293,"connected_time":1935000000000,"state":"active","ping":74},{"user_id":242,"name":"Marketable Plushie","steam_id":76561198901074112,"connected_time":1287000000000,"state":"active","ping":94},{"user_id":218,"name":"Mercenary Alpha | trade.tf","steam_id":76561198057047071,"connected_time":2722000000000,"state":"active","ping":65},{"user_id":243,"name":"erwebomio","steam_id":76561198071152924,"connected_time":1280000000000,"state":"active","ping":124},{"user_id":229,"name":"Cyberbrunk","steam_id":76561198034163103,"connected_time":1960000000000,"state":"active","ping":55},{"user_id":246,"name":"cheeseboi170","steam_id":76561199106974978,"connected_time":1074000000000,"state":"active","ping":99},{"user_id":231,"name":"Ace","steam_id":76561198309637160,"connected_time":1956000000000,"state":"active","ping":138},{"user_id":252,"name":"herman","steam_id":76561199013344690,"connected_time":687000000000,"state":"active","ping":83},{"user_id":208,"name":"Boomboombop","steam_id":76561198267531538,"connected_time":3304000000000,"state":"active","ping":79},{"user_id":255,"name":"Psychosis","steam_id":76561198078659070,"connected_time":143000000000,"state":"active","ping":155},{"user_id":253,"name":"poseidon","steam_id":76561199085441984,"connected_time":682000000000,"state":"active","ping":70},{"user_id":220,"name":"Vem","steam_id":76561198117273112,"connected_time":2716000000000,"state":"active","ping":77},{"user_id":249,"name":"tired","steam_id":76561198073153936,"connected_time":918000000000,"state":"active","ping":76},{"user_id":189,"name":"incompetentmedic","steam_id":76561199466073856,"connected_time":4703000000000,"state":"active","ping":66},{"user_id":223,"name":"creamgravy573","steam_id":76561198093308746,"connected_time":2693000000000,"state":"active","ping":75}]},{"server_id":36,"name":"Uncletopia | Chicago | 5 | All Maps","name_short":"chi-5","host":"chi-2.us.uncletopia.com","port":27015,"enabled":true,"region":"us-central","cc":"us","latitude":41.881832,"longitude":-87.62318,"reserved":0,"last_update":"0001-01-01T00:00:00Z","name_a2s":"Uncletopia | Chicago | 5 | All Maps","protocol":17,"map":"cp_process_final","folder":"tf","game":"Team Fortress","app_id":440,"player_count":24,"max_players":24,"Bots":0,"server_type":"Dedicated","server_os":"Linux","password":true,"vac":true,"version":"7757534","steam_id":85568392924866362,"keywords":["cp","nocrits","nodmgspread","uncletopia"],"game_id":440,"stv_port":27016,"stv_name":"Uncletopia | Chicago | 5 | All Maps | STV","players":[{"user_id":168,"name":"Xecco","steam_id":76561198200028290,"connected_time":3289000000000,"state":"active","ping":91},{"user_id":177,"name":"Wilhelmktx","steam_id":76561198158102295,"connected_time":2863000000000,"state":"active","ping":54},{"user_id":166,"name":"Red_Hatkins","steam_id":76561198214004105,"connected_time":3292000000000,"state":"active","ping":80},{"user_id":151,"name":"O'Keearns","steam_id":76561198042213797,"connected_time":3879000000000,"state":"active","ping":61},{"user_id":167,"name":"JayK","steam_id":76561198046277492,"connected_time":3292000000000,"state":"active","ping":60},{"user_id":194,"name":"Yimberly","steam_id":76561199206923109,"connected_time":899000000000,"state":"active","ping":84},{"user_id":169,"name":"anttheknee","steam_id":76561198061579682,"connected_time":3282000000000,"state":"active","ping":77},{"user_id":170,"name":"don't pursue lu bu","steam_id":76561198105515914,"connected_time":3256000000000,"state":"active","ping":55},{"user_id":198,"name":"UsingXbox360Controller","steam_id":76561198258253304,"connected_time":5000000000,"state":"spawning","ping":144},{"user_id":135,"name":"legowizdude","steam_id":76561198086688058,"connected_time":5125000000000,"state":"active","ping":61},{"user_id":190,"name":"Macko","steam_id":76561198452005461,"connected_time":1489000000000,"state":"active","ping":87},{"user_id":178,"name":"Buttons :)","steam_id":76561198139478534,"connected_time":2791000000000,"state":"active","ping":179},{"user_id":197,"name":"Luffy","steam_id":76561198120914343,"connected_time":40000000000,"state":"active","ping":63},{"user_id":120,"name":"Razz","steam_id":76561198158027533,"connected_time":6857000000000,"state":"active","ping":40},{"user_id":182,"name":"Rudy","steam_id":76561198013456828,"connected_time":1920000000000,"state":"active","ping":63},{"user_id":196,"name":"Grape Juice","steam_id":76561198380337568,"connected_time":108000000000,"state":"active","ping":73},{"user_id":97,"name":"Rex","steam_id":76561198138365053,"connected_time":8517000000000,"state":"active","ping":125},{"user_id":139,"name":"wacky slappers","steam_id":76561198061103166,"connected_time":5052000000000,"state":"active","ping":59},{"user_id":140,"name":"solitude freak","steam_id":76561198066585785,"connected_time":5044000000000,"state":"active","ping":75},{"user_id":180,"name":"Furrio","steam_id":76561198174104607,"connected_time":2636000000000,"state":"active","ping":80},{"user_id":191,"name":"Bee","steam_id":76561198074681324,"connected_time":1471000000000,"state":"active","ping":71},{"user_id":195,"name":"Pie‚Ñ¢","steam_id":76561198158312625,"connected_time":141000000000,"state":"active","ping":105},{"user_id":181,"name":"Mattron1","steam_id":76561198012270524,"connected_time":2106000000000,"state":"active","ping":162},{"user_id":185,"name":"Puke Skyfucker","steam_id":76561198012846213,"connected_time":1738000000000,"state":"active","ping":72}]},{"server_id":37,"name":"Uncletopia | Chicago | 6 | All Maps","name_short":"chi-6","host":"chi-2.us.uncletopia.com","port":27025,"enabled":true,"region":"us-central","cc":"us","latitude":41.881832,"longitude":-87.62318,"reserved":0,"last_update":"0001-01-01T00:00:00Z","name_a2s":"Uncletopia | Chicago | 6 | All Maps","protocol":17,"map":"pl_snowycoast","folder":"tf","game":"Team Fortress","app_id":440,"player_count":24,"max_players":24,"Bots":0,"server_type":"Dedicated","server_os":"Linux","password":true,"vac":true,"version":"7757534","steam_id":85568392924866363,"keywords":["nocrits","nodmgspread","payload","uncletopia"],"game_id":440,"stv_port":27026,"stv_name":"Uncletopia | Chicago | 6 | All Maps | STV","players":[{"user_id":190,"name":"wb98","steam_id":76561198048979801,"connected_time":1037000000000,"state":"active","ping":48},{"user_id":191,"name":"Landrow","steam_id":76561199156068210,"connected_time":1037000000000,"state":"active","ping":115},{"user_id":168,"name":"Cog","steam_id":76561198119812649,"connected_time":3101000000000,"state":"active","ping":58},{"user_id":212,"name":"MR\u003eP","steam_id":76561198942843544,"connected_time":166000000000,"state":"active","ping":109},{"user_id":206,"name":"Uncle Iroh","steam_id":76561198131467867,"connected_time":362000000000,"state":"active","ping":80},{"user_id":213,"name":"Electro Penguin","steam_id":76561199050197562,"connected_time":150000000000,"state":"active","ping":85},{"user_id":188,"name":"tyler","steam_id":76561198054260599,"connected_time":1169000000000,"state":"active","ping":70},{"user_id":192,"name":"Uhonlapjontetzika","steam_id":76561199431280503,"connected_time":999000000000,"state":"active","ping":74},{"user_id":178,"name":"MEATBALL","steam_id":76561198028499312,"connected_time":1871000000000,"state":"active","ping":60},{"user_id":182,"name":"Wso1123","steam_id":76561198048040111,"connected_time":1811000000000,"state":"active","ping":68},{"user_id":203,"name":"SL164","steam_id":76561197970800276,"connected_time":574000000000,"state":"active","ping":54},{"user_id":214,"name":"The Fortress From Team Fortress","steam_id":76561198081422503,"connected_time":150000000000,"state":"active","ping":73},{"user_id":201,"name":"THICC","steam_id":76561198273234133,"connected_time":648000000000,"state":"active","ping":85},{"user_id":215,"name":"WildMtnMonkey","steam_id":76561199106970995,"connected_time":134000000000,"state":"active","ping":70},{"user_id":204,"name":"WitchyD","steam_id":76561197997130535,"connected_time":567000000000,"state":"active","ping":63},{"user_id":195,"name":"RyanDCB [Real]","steam_id":76561198040138739,"connected_time":985000000000,"state":"active","ping":62},{"user_id":216,"name":"tinselorpheus66","steam_id":76561198828242297,"connected_time":123000000000,"state":"active","ping":110},{"user_id":217,"name":"Coolman3214","steam_id":76561198443366140,"connected_time":123000000000,"state":"active","ping":87},{"user_id":218,"name":"zokimane","steam_id":76561198010370396,"connected_time":98000000000,"state":"active","ping":46},{"user_id":52,"name":"glue790","steam_id":76561199215798445,"connected_time":9895000000000,"state":"active","ping":67},{"user_id":189,"name":"Demoman With One Joke","steam_id":76561197993467034,"connected_time":1107000000000,"state":"active","ping":49},{"user_id":106,"name":"your pants long for my pee","steam_id":76561198326083509,"connected_time":4833000000000,"state":"active","ping":80},{"user_id":198,"name":"phone","steam_id":76561198029268743,"connected_time":952000000000,"state":"active","ping":60},{"user_id":211,"name":"mcdoubble","steam_id":76561198089126832,"connected_time":244000000000,"state":"active","ping":158}]},{"server_id":38,"name":"Uncletopia | Chicago | 7 | Stopwatch Beta","name_short":"chi-7","host":"chi-2.us.uncletopia.com","port":27035,"enabled":true,"region":"us-central","cc":"us","latitude":41.881832,"longitude":-87.62318,"reserved":0,"last_update":"0001-01-01T00:00:00Z","name_a2s":"Uncletopia | Chicago | 7 | Stopwatch Beta","protocol":17,"map":"workshop/koth_bagel_rc5.ugc2514036946","folder":"tf","game":"Team Fortress","app_id":440,"player_count":4,"max_players":24,"Bots":0,"server_type":"Dedicated","server_os":"Linux","password":true,"vac":true,"version":"7757534","steam_id":85568392924866364,"keywords":["cp","nocrits","nodmgspread","uncletopia"],"game_id":440,"stv_port":27036,"stv_name":"Uncletopia | Chicago | 7 | Stopwatch Beta | STV","players":[{"user_id":30,"name":"TTV/Clawster98","steam_id":76561198345458783,"connected_time":239000000000,"state":"active","ping":70},{"user_id":27,"name":"Angry Ginger","steam_id":76561198256929349,"connected_time":619000000000,"state":"active","ping":63},{"user_id":28,"name":"Rad Dog","steam_id":76561198300703000,"connected_time":614000000000,"state":"active","ping":70},{"user_id":31,"name":"WHATISYOURNAME","steam_id":76561198342560783,"connected_time":190000000000,"state":"active","ping":82}]},{"server_id":39,"name":"Uncletopia | Chicago | 8 | Community","name_short":"chi-8","host":"chi-2.us.uncletopia.com","port":27045,"enabled":true,"region":"us-central","cc":"us","latitude":41.881832,"longitude":-87.62318,"reserved":0,"last_update":"0001-01-01T00:00:00Z","name_a2s":"Uncletopia | Chicago | 8 | Community","protocol":17,"map":"workshop/pl_vigil_rc9.ugc1266210012","folder":"tf","game":"Team Fortress","app_id":440,"player_count":24,"max_players":24,"Bots":0,"server_type":"Dedicated","server_os":"Linux","password":true,"vac":true,"version":"7757534","steam_id":85568392924866365,"keywords":["nocrits","nodmgspread","payload","uncletopia"],"game_id":440,"stv_port":27046,"stv_name":"Uncletopia | Chicago | 8 | Community | STV","players":[{"user_id":297,"name":"Your new boyfriend","steam_id":76561198166026932,"connected_time":1451000000000,"state":"active","ping":45},{"user_id":301,"name":"Cboogatron","steam_id":76561198439251724,"connected_time":1324000000000,"state":"active","ping":86},{"user_id":268,"name":"The vines üè≥‚öß‚ôÄ‚ô•‚ô•?","steam_id":76561199376578224,"connected_time":4012000000000,"state":"active","ping":116},{"user_id":298,"name":"Evan","steam_id":76561198081165364,"connected_time":1437000000000,"state":"active","ping":76},{"user_id":282,"name":"TrustworthyStranger","steam_id":76561198154105678,"connected_time":3006000000000,"state":"active","ping":82},{"user_id":306,"name":"Beans","steam_id":76561198169324480,"connected_time":1263000000000,"state":"active","ping":62},{"user_id":312,"name":"‚ú™ Hank","steam_id":76561198149253873,"connected_time":894000000000,"state":"active","ping":155},{"user_id":299,"name":"SKIN IS WHERE THE FLAVOR IS","steam_id":76561198115842661,"connected_time":1372000000000,"state":"active","ping":79},{"user_id":273,"name":"prdxninja","steam_id":76561198170081774,"connected_time":3557000000000,"state":"active","ping":45},{"user_id":308,"name":"AlphaScout","steam_id":76561198047797890,"connected_time":1204000000000,"state":"active","ping":57},{"user_id":287,"name":"Neophyte","steam_id":76561198027183394,"connected_time":2591000000000,"state":"active","ping":96},{"user_id":316,"name":"chrischrischris3018@yahoo.com","steam_id":76561198137316053,"connected_time":402000000000,"state":"active","ping":69},{"user_id":275,"name":"Silverio","steam_id":76561197999425381,"connected_time":3521000000000,"state":"active","ping":74},{"user_id":214,"name":"Zin","steam_id":76561199041369507,"connected_time":6526000000000,"state":"active","ping":78},{"user_id":289,"name":"truck freak [euclid]","steam_id":76561198062712676,"connected_time":2523000000000,"state":"active","ping":105},{"user_id":293,"name":"Ze_√úber_Nerd","steam_id":76561198091148675,"connected_time":2146000000000,"state":"active","ping":74},{"user_id":307,"name":"Timo49er","steam_id":76561198012856068,"connected_time":1251000000000,"state":"active","ping":93},{"user_id":305,"name":"Caretnose","steam_id":76561198021762583,"connected_time":1288000000000,"state":"active","ping":45},{"user_id":309,"name":"Okter","steam_id":76561198035908873,"connected_time":1133000000000,"state":"active","ping":81},{"user_id":314,"name":"Adawnby","steam_id":76561198103057295,"connected_time":735000000000,"state":"active","ping":78},{"user_id":295,"name":"cirkuu","steam_id":76561198053465042,"connected_time":2016000000000,"state":"active","ping":85},{"user_id":279,"name":"Snarkel","steam_id":76561198070688550,"connected_time":3351000000000,"state":"active","ping":57},{"user_id":313,"name":"donutbodega17","steam_id":76561199211254746,"connected_time":879000000000,"state":"active","ping":62},{"user_id":292,"name":"anipe10","steam_id":76561199084698417,"connected_time":2474000000000,"state":"active","ping":102}]},{"server_id":8,"name":"Uncletopia | Dallas | 1 | All Maps","name_short":"dal-1","host":"dal-1.us.uncletopia.com","port":27015,"enabled":true,"region":"us-central","cc":"us","latitude":32.779167,"longitude":-96.80889,"reserved":0,"last_update":"0001-01-01T00:00:00Z","name_a2s":"Uncletopia | Dallas | 1 | All Maps","protocol":17,"map":"pl_borneo","folder":"tf","game":"Team Fortress","app_id":440,"player_count":24,"max_players":24,"Bots":0,"server_type":"Dedicated","server_os":"Linux","password":true,"vac":true,"version":"7757534","steam_id":85568392924469986,"keywords":["nocrits","nodmgspread","payload","uncletopia"],"game_id":440,"stv_port":27016,"stv_name":"Uncletopia | Dallas | 1 | All Maps | STV","players":[{"user_id":211,"name":"Johnny Metrocop","steam_id":76561199068981957,"connected_time":431000000000,"state":"active","ping":55},{"user_id":215,"name":"Smittywerbenjager-manjenson","steam_id":76561198067060742,"connected_time":390000000000,"state":"active","ping":60},{"user_id":207,"name":"SPREAD CHRISTMAS CHEER AND JOY","steam_id":76561198800386026,"connected_time":1411000000000,"state":"active","ping":90},{"user_id":218,"name":"klaus","steam_id":76561199008634102,"connected_time":209000000000,"state":"active","ping":63},{"user_id":158,"name":"Pyro with long index finger","steam_id":76561198353789504,"connected_time":5872000000000,"state":"active","ping":74},{"user_id":209,"name":"webaline","steam_id":76561199052450127,"connected_time":902000000000,"state":"active","ping":78},{"user_id":161,"name":"vastrobotmax","steam_id":76561198417110724,"connected_time":5434000000000,"state":"active","ping":98},{"user_id":188,"name":"Pinetree w/ apples.","steam_id":76561198105411709,"connected_time":3304000000000,"state":"active","ping":106},{"user_id":121,"name":"Derply","steam_id":76561198871211642,"connected_time":7833000000000,"state":"active","ping":72},{"user_id":212,"name":"GLG.Liz","steam_id":76561198021957956,"connected_time":429000000000,"state":"active","ping":51},{"user_id":214,"name":"Zarya thighs enjoyer","steam_id":76561199077027954,"connected_time":399000000000,"state":"active","ping":64},{"user_id":180,"name":"Fishstall","steam_id":76561198038126034,"connected_time":4457000000000,"state":"active","ping":62},{"user_id":166,"name":"Winter the Witchie","steam_id":76561198151971178,"connected_time":5273000000000,"state":"active","ping":83},{"user_id":198,"name":"Captain_Eldeezee","steam_id":76561198301560834,"connected_time":2769000000000,"state":"active","ping":30},{"user_id":219,"name":"[12V] Marv","steam_id":76561198158638384,"connected_time":158000000000,"state":"active","ping":70},{"user_id":201,"name":"space creator","steam_id":76561198067773904,"connected_time":2235000000000,"state":"active","ping":59},{"user_id":186,"name":"Red","steam_id":76561198031865869,"connected_time":3575000000000,"state":"active","ping":60},{"user_id":206,"name":"TomTheF00l","steam_id":76561198829932650,"connected_time":2153000000000,"state":"active","ping":58},{"user_id":213,"name":"Krow","steam_id":76561198010392099,"connected_time":425000000000,"state":"active","ping":52},{"user_id":183,"name":"Moonflower ‚ú¶","steam_id":76561198191782483,"connected_time":4069000000000,"state":"active","ping":48},{"user_id":216,"name":"ghostedghost","steam_id":76561198111410905,"connected_time":383000000000,"state":"active","ping":103},{"user_id":208,"name":"GLG MUTT","steam_id":76561198147785541,"connected_time":1366000000000,"state":"active","ping":67},{"user_id":217,"name":"Hotsaucebauce","steam_id":76561199070938363,"connected_time":364000000000,"state":"active","ping":113},{"user_id":185,"name":"Tribute","steam_id":76561198081594043,"connected_time":3697000000000,"state":"active","ping":59}]},{"server_id":108,"name":"Uncletopia | Dallas | 2 | All Maps","name_short":"dal-2","host":"dal-1.us.uncletopia.com","port":27025,"enabled":true,"region":"us-central","cc":"us","latitude":32.779167,"longitude":-96.80889,"reserved":0,"last_update":"0001-01-01T00:00:00Z","name_a2s":"Uncletopia | Dallas | 2 | All Maps","protocol":17,"map":"cp_badlands","folder":"tf","game":"Team Fortress","app_id":440,"player_count":24,"max_players":24,"Bots":0,"server_type":"Dedicated","server_os":"Linux","password":true,"vac":true,"version":"7757534","steam_id":85568392924469988,"keywords":["cp","nocrits","nodmgspread","uncletopia"],"game_id":440,"stv_port":27026,"stv_name":"Uncletopia | Dallas | 2 | All Maps | STV","players":[{"user_id":232,"name":"Quaker Oats","steam_id":76561197992800293,"connected_time":694000000000,"state":"active","ping":81},{"user_id":238,"name":"Dat Franklin Pierce Do","steam_id":76561198027749453,"connected_time":32000000000,"state":"active","ping":84},{"user_id":236,"name":"( Õ°o Õú ñ Õ°o) Ginger","steam_id":76561198075287441,"connected_time":104000000000,"state":"active","ping":106},{"user_id":226,"name":"FellowGamer","steam_id":76561198089600392,"connected_time":747000000000,"state":"active","ping":89},{"user_id":217,"name":"Fluff","steam_id":76561198255399052,"connected_time":1226000000000,"state":"active","ping":75},{"user_id":227,"name":"MrLeftTurn","steam_id":76561198856743969,"connected_time":731000000000,"state":"active","ping":146},{"user_id":194,"name":"karbomb","steam_id":76561198120744480,"connected_time":2411000000000,"state":"active","ping":45},{"user_id":223,"name":"BROMBRE","steam_id":76561198011062026,"connected_time":773000000000,"state":"active","ping":50},{"user_id":228,"name":"mr bubs","steam_id":76561198125947844,"connected_time":729000000000,"state":"active","ping":89},{"user_id":233,"name":"plink","steam_id":76561198057829889,"connected_time":526000000000,"state":"active","ping":106},{"user_id":219,"name":"HoaroBatty","steam_id":76561198120361221,"connected_time":787000000000,"state":"active","ping":61},{"user_id":181,"name":"The Sydney Sleeper Itself","steam_id":76561198180251763,"connected_time":3866000000000,"state":"active","ping":88},{"user_id":191,"name":"Richard \"Waterhate'n\" Nixon","steam_id":76561198092161655,"connected_time":3257000000000,"state":"active","ping":71},{"user_id":78,"name":"Coosnut","steam_id":76561198061106216,"connected_time":11005000000000,"state":"active","ping":50},{"user_id":199,"name":"TrueSgt_FeS","steam_id":76561198010736356,"connected_time":2382000000000,"state":"active","ping":104},{"user_id":183,"name":"Teddy \"The Bear\" Roosevelt","steam_id":76561198022397601,"connected_time":3786000000000,"state":"active","ping":70},{"user_id":208,"name":"Chapter Master","steam_id":76561198799698323,"connected_time":2070000000000,"state":"active","ping":83},{"user_id":213,"name":"scrapheap","steam_id":76561198202407087,"connected_time":1525000000000,"state":"active","ping":99},{"user_id":229,"name":"Mortimer Khan","steam_id":76561197968829990,"connected_time":726000000000,"state":"active","ping":95},{"user_id":206,"name":"FearTheJynx","steam_id":76561198136487957,"connected_time":2113000000000,"state":"active","ping":62},{"user_id":235,"name":"Tannenbaum Trotsky","steam_id":76561199101638460,"connected_time":424000000000,"state":"active","ping":56},{"user_id":214,"name":"Tritium","steam_id":76561198043305626,"connected_time":1473000000000,"state":"active","ping":96},{"user_id":231,"name":"PileofPolygons","steam_id":76561199321343460,"connected_time":709000000000,"state":"active","ping":83},{"user_id":195,"name":"cup","steam_id":76561198121245586,"connected_time":2410000000000,"state":"active","ping":87}]},{"server_id":5,"name":"Uncletopia | Frankfurt | 1 | All Maps","name_short":"frk-1","host":"frk-1.de.uncletopia.com","port":27015,"enabled":true,"region":"eu","cc":"de","latitude":50.110924,"longitude":8.682127,"reserved":0,"last_update":"0001-01-01T00:00:00Z","name_a2s":"Uncletopia | Frankfurt | 1 | All Maps","protocol":17,"map":"pl_pier","folder":"tf","game":"Team Fortress","app_id":440,"player_count":0,"max_players":24,"Bots":0,"server_type":"Dedicated","server_os":"Linux","password":true,"vac":true,"version":"7757534","steam_id":85568392924469989,"keywords":["nocrits","nodmgspread","payload","uncletopia"],"game_id":440,"stv_port":27016,"stv_name":"Uncletopia | Frankfurt | 1 | All Maps | STV","players":null},{"server_id":110,"name":"Uncletopia | Frankfurt | 2 | All Maps","name_short":"frk-2","host":"frk-1.de.uncletopia.com","port":27025,"enabled":true,"region":"eu","cc":"de","latitude":50.110924,"longitude":8.682127,"reserved":0,"last_update":"0001-01-01T00:00:00Z","name_a2s":"Uncletopia | Frankfurt | 2 | All Maps","protocol":17,"map":"pl_pier","folder":"tf","game":"Team Fortress","app_id":440,"player_count":0,"max_players":24,"Bots":0,"server_type":"Dedicated","server_os":"Linux","password":true,"vac":true,"version":"7757534","steam_id":85568392924469990,"keywords":["nocrits","nodmgspread","payload","uncletopia"],"game_id":440,"stv_port":27026,"stv_name":"Uncletopia | Frankfurt | 2 | All Maps | STV","players":null},{"server_id":308,"name":"Uncletopia | Frankfurt | 3 | All Maps","name_short":"frk-3","host":"frk-1.de.uncletopia.com","port":27035,"enabled":true,"region":"eu","cc":"de","latitude":50.110924,"longitude":8.682127,"reserved":0,"last_update":"0001-01-01T00:00:00Z","name_a2s":"Uncletopia | Frankfurt | 3 | All Maps","protocol":17,"map":"cp_sunshine","folder":"tf","game":"Team Fortress","app_id":440,"player_count":0,"max_players":24,"Bots":0,"server_type":"Dedicated","server_os":"Linux","password":true,"vac":true,"version":"7757534","steam_id":85568392924504274,"keywords":["cp","nocrits","nodmgspread","uncletopia"],"game_id":440,"stv_port":27036,"stv_name":"Uncletopia | Frankfurt | 3 | All Maps | STV","players":null},{"server_id":309,"name":"Uncletopia | Frankfurt | 4 | All Maps","name_short":"frk-4","host":"frk-1.de.uncletopia.com","port":27045,"enabled":true,"region":"eu","cc":"de","latitude":50.110924,"longitude":8.682127,"reserved":0,"last_update":"0001-01-01T00:00:00Z","name_a2s":"Uncletopia | Frankfurt | 4 | All Maps","protocol":17,"map":"pl_upward","folder":"tf","game":"Team Fortress","app_id":440,"player_count":0,"max_players":24,"Bots":0,"server_type":"Dedicated","server_os":"Linux","password":true,"vac":true,"version":"7757534","steam_id":85568392924504275,"keywords":["nocrits","nodmgspread","payload","uncletopia"],"game_id":440,"stv_port":27046,"stv_name":"Uncletopia | Frankfurt | 4 | All Maps | STV","players":null},{"server_id":310,"name":"Uncletopia | Frankfurt | 5 | All Maps","name_short":"frk-5","host":"frk-1.de.uncletopia.com","port":27055,"enabled":true,"region":"eu","cc":"de","latitude":50.110924,"longitude":8.682127,"reserved":0,"last_update":"0001-01-01T00:00:00Z","name_a2s":"Uncletopia | Frankfurt | 5 | All Maps","protocol":17,"map":"ctf_2fort","folder":"tf","game":"Team Fortress","app_id":440,"player_count":7,"max_players":24,"Bots":0,"server_type":"Dedicated","server_os":"Linux","password":true,"vac":true,"version":"7757534","steam_id":85568392924504277,"keywords":["ctf","nocrits","nodmgspread","uncletopia"],"game_id":440,"stv_port":27056,"stv_name":"Uncletopia | Frankfurt | 5 | All Maps | STV","players":[{"user_id":144,"name":"Weakest Sniper Enjoyer","steam_id":76561198133597860,"connected_time":5017000000000,"state":"active","ping":83},{"user_id":146,"name":"ais ‡∂û","steam_id":76561198401473150,"connected_time":4744000000000,"state":"active","ping":180},{"user_id":148,"name":"sunny","steam_id":76561198194849578,"connected_time":3903000000000,"state":"active","ping":57},{"user_id":158,"name":"walking sentry","steam_id":76561199225363633,"connected_time":117000000000,"state":"active","ping":72},{"user_id":151,"name":"kbbq","steam_id":76561198346638308,"connected_time":1668000000000,"state":"active","ping":55},{"user_id":126,"name":"brkc_love","steam_id":76561198090152271,"connected_time":7935000000000,"state":"active","ping":46},{"user_id":132,"name":"Bowbius","steam_id":76561198262381355,"connected_time":7647000000000,"state":"active","ping":81}]},{"server_id":311,"name":"Uncletopia | Frankfurt | 6 | All Maps","name_short":"frk-6","host":"frk-1.de.uncletopia.com","port":27065,"enabled":true,"region":"eu","cc":"de","latitude":50.110924,"longitude":8.682127,"reserved":0,"last_update":"0001-01-01T00:00:00Z","name_a2s":"Uncletopia | Frankfurt | 6 | All Maps","protocol":17,"map":"koth_highpass","folder":"tf","game":"Team Fortress","app_id":440,"player_count":0,"max_players":24,"Bots":0,"server_type":"Dedicated","server_os":"Linux","password":true,"vac":true,"version":"7757534","steam_id":85568392924504278,"keywords":["cp","nocrits","nodmgspread","uncletopia"],"game_id":440,"stv_port":27066,"stv_name":"Uncletopia | Frankfurt | 6 | All Maps | STV","players":null},{"server_id":23,"name":"Uncletopia | Frankfurt | 7 | Stopwatch Beta","name_short":"frk-7","host":"frk-1.de.uncletopia.com","port":27075,"enabled":true,"region":"eu","cc":"de","latitude":50.110924,"longitude":8.682127,"reserved":0,"last_update":"0001-01-01T00:00:00Z","name_a2s":"Uncletopia | Frankfurt | 7 | Stopwatch Beta","protocol":17,"map":"pl_frontier_final","folder":"tf","game":"Team Fortress","app_id":440,"player_count":0,"max_players":24,"Bots":0,"server_type":"Dedicated","server_os":"Linux","password":true,"vac":true,"version":"7757534","steam_id":85568392924742827,"keywords":["nocrits","nodmgspread","payload","uncletopia"],"game_id":440,"stv_port":27076,"stv_name":"Uncletopia | Frankfurt | 7 | Stopwatch Beta | STV","players":null},{"server_id":24,"name":"Uncletopia | Frankfurt | 8 | Community","name_short":"frk-8","host":"frk-1.de.uncletopia.com","port":27085,"enabled":true,"region":"eu","cc":"de","latitude":50.110924,"longitude":8.682127,"reserved":0,"last_update":"0001-01-01T00:00:00Z","name_a2s":"Uncletopia | Frankfurt | 8 | Community","protocol":17,"map":"workshop/pl_barnblitz_pro7.ugc582280235","folder":"tf","game":"Team Fortress","app_id":440,"player_count":0,"max_players":24,"Bots":0,"server_type":"Dedicated","server_os":"Linux","password":true,"vac":true,"version":"7757534","steam_id":85568392924742828,"keywords":["nocrits","nodmgspread","payload","uncletopia"],"game_id":440,"stv_port":27086,"stv_name":"Uncletopia | Frankfurt | 8 | Community | STV","players":null},{"server_id":202,"name":"Uncletopia | Hong Kong | 1 | All Maps","name_short":"hgk-1","host":"hgk-1.hk.uncletopia.com","port":27015,"enabled":true,"region":"asia","cc":"hk","latitude":22.302711,"longitude":114.177216,"reserved":0,"last_update":"0001-01-01T00:00:00Z","name_a2s":"Uncletopia | Hong Kong | 1 | All Maps","protocol":17,"map":"cp_snakewater_final1","folder":"tf","game":"Team Fortress","app_id":440,"player_count":1,"max_players":24,"Bots":0,"server_type":"Dedicated","server_os":"Linux","password":true,"vac":true,"version":"7757534","steam_id":85568392924494504,"keywords":["cp","nocrits","nodmgspread","uncletopia"],"game_id":440,"stv_port":27016,"stv_name":"Uncletopia | Hong Kong | 1 | All Maps | STV","players":[{"user_id":13,"name":"Tember","steam_id":76561198369809493,"connected_time":58000000000,"state":"active","ping":96}]},{"server_id":1,"name":"Uncletopia | Los Angeles | 1 | All Maps","name_short":"lax-1","host":"lax-1.us.uncletopia.com","port":27015,"enabled":true,"region":"us-west","cc":"us","latitude":33.94279,"longitude":-118.41004,"reserved":0,"last_update":"0001-01-01T00:00:00Z","name_a2s":"Uncletopia | Los Angeles | 1 | All Maps","protocol":17,"map":"pl_swiftwater_final1","folder":"tf","game":"Team Fortress","app_id":440,"player_count":24,"max_players":24,"Bots":0,"server_type":"Dedicated","server_os":"Linux","password":true,"vac":true,"version":"7757534","steam_id":85568392924469991,"keywords":["nocrits","nodmgspread","payload","uncletopia"],"game_id":440,"stv_port":27016,"stv_name":"Uncletopia | Los Angeles | 1 | All Maps | STV","players":[{"user_id":276,"name":"Exidy","steam_id":76561198036216584,"connected_time":879000000000,"state":"active","ping":112},{"user_id":277,"name":"pathulhu","steam_id":76561198323941614,"connected_time":878000000000,"state":"active","ping":71},{"user_id":263,"name":"XX_gamer2001_XxX","steam_id":76561198105405869,"connected_time":1457000000000,"state":"active","ping":89},{"user_id":234,"name":"Batso","steam_id":76561198106589452,"connected_time":2824000000000,"state":"active","ping":50},{"user_id":226,"name":"Charaxx","steam_id":76561198982744071,"connected_time":3647000000000,"state":"active","ping":117},{"user_id":199,"name":"SneakyRocks","steam_id":76561198201694213,"connected_time":5340000000000,"state":"active","ping":50},{"user_id":136,"name":"Christocat","steam_id":76561198132817642,"connected_time":7149000000000,"state":"active","ping":124},{"user_id":248,"name":"alsignssayno","steam_id":76561198065646844,"connected_time":1960000000000,"state":"active","ping":55},{"user_id":227,"name":"Schnitz(Lost my Glasses)","steam_id":76561198265484253,"connected_time":3612000000000,"state":"active","ping":52},{"user_id":242,"name":"Noxus","steam_id":76561199009820852,"connected_time":2121000000000,"state":"active","ping":92},{"user_id":275,"name":"Inquisitor Emalleso_Ordo Malleu","steam_id":76561198043019922,"connected_time":931000000000,"state":"active","ping":115},{"user_id":228,"name":"bunceian","steam_id":76561198975662918,"connected_time":3596000000000,"state":"active","ping":124},{"user_id":278,"name":"xenTric","steam_id":76561198084612843,"connected_time":866000000000,"state":"active","ping":52},{"user_id":241,"name":"Attrition","steam_id":76561197969881916,"connected_time":2574000000000,"state":"active","ping":78},{"user_id":280,"name":"AGagagaga","steam_id":76561199008585183,"connected_time":626000000000,"state":"active","ping":107},{"user_id":218,"name":"Nibotshooter","steam_id":76561199284825579,"connected_time":4488000000000,"state":"active","ping":90},{"user_id":257,"name":"surrender to the void","steam_id":76561198055494039,"connected_time":1780000000000,"state":"active","ping":117},{"user_id":282,"name":"Sivinus","steam_id":76561198025589541,"connected_time":21000000000,"state":"active","ping":59},{"user_id":41,"name":"helloyes_123 medic BOT","steam_id":76561198115242460,"connected_time":12930000000000,"state":"active","ping":75},{"user_id":233,"name":"LogicalFurret","steam_id":76561198350604657,"connected_time":2835000000000,"state":"active","ping":48},{"user_id":253,"name":"Dangerous_Dave76","steam_id":76561199230056550,"connected_time":1898000000000,"state":"active","ping":64},{"user_id":230,"name":"Punk Leafeon","steam_id":76561199092607721,"connected_time":3561000000000,"state":"active","ping":114},{"user_id":232,"name":"TheBrocklobster","steam_id":76561198039682984,"connected_time":3458000000000,"state":"active","ping":64},{"user_id":237,"name":"Myravrax","steam_id":76561198138730061,"connected_time":2811000000000,"state":"active","ping":117}]},{"server_id":112,"name":"Uncletopia | Los Angeles | 2 | All Maps","name_short":"lax-2","host":"lax-1.us.uncletopia.com","port":27025,"enabled":true,"region":"us-west","cc":"us","latitude":33.94279,"longitude":-118.41004,"reserved":0,"last_update":"0001-01-01T00:00:00Z","name_a2s":"Uncletopia | Los Angeles | 2 | All Maps","protocol":17,"map":"cp_dustbowl","folder":"tf","game":"Team Fortress","app_id":440,"player_count":20,"max_players":24,"Bots":0,"server_type":"Dedicated","server_os":"Linux","password":true,"vac":true,"version":"7757534","steam_id":85568392924469992,"keywords":["cp","nocrits","nodmgspread","uncletopia"],"game_id":440,"stv_port":27026,"stv_name":"Uncletopia | Los Angeles | 2 | All Maps | STV","players":[{"user_id":137,"name":"Walmart Janitor","steam_id":76561199038467562,"connected_time":701000000000,"state":"active","ping":105},{"user_id":135,"name":"Bluebird","steam_id":76561199143106401,"connected_time":772000000000,"state":"active","ping":118},{"user_id":134,"name":"lukednoob","steam_id":76561199158872193,"connected_time":779000000000,"state":"active","ping":61},{"user_id":124,"name":"Zero","steam_id":76561199383267408,"connected_time":1494000000000,"state":"active","ping":114},{"user_id":125,"name":"Frazzer","steam_id":76561198088679707,"connected_time":1441000000000,"state":"active","ping":46},{"user_id":138,"name":"Meh","steam_id":76561198078187920,"connected_time":682000000000,"state":"active","ping":379},{"user_id":156,"name":"Asha'man","steam_id":76561198057913763,"connected_time":80000000000,"state":"active","ping":103},{"user_id":142,"name":"prodbyepic","steam_id":76561198853066534,"connected_time":634000000000,"state":"active","ping":126},{"user_id":155,"name":"An00bis","steam_id":76561198044084508,"connected_time":258000000000,"state":"active","ping":60},{"user_id":126,"name":"Delimeat","steam_id":76561198043824595,"connected_time":1436000000000,"state":"active","ping":50},{"user_id":116,"name":"BasedGod","steam_id":76561198061177973,"connected_time":2022000000000,"state":"active","ping":47},{"user_id":106,"name":"McNamJam","steam_id":76561198028128686,"connected_time":3074000000000,"state":"active","ping":57},{"user_id":117,"name":"Gundam Guy","steam_id":76561198178453993,"connected_time":2021000000000,"state":"active","ping":69},{"user_id":136,"name":"doobiebob","steam_id":76561198071963742,"connected_time":723000000000,"state":"active","ping":61},{"user_id":129,"name":"Sugary","steam_id":76561198088267265,"connected_time":1398000000000,"state":"active","ping":63},{"user_id":119,"name":"Tyguy546","steam_id":76561198968528145,"connected_time":1908000000000,"state":"active","ping":120},{"user_id":118,"name":"JustABoat","steam_id":76561198388599369,"connected_time":2021000000000,"state":"active","ping":159},{"user_id":130,"name":"ItsDonut","steam_id":76561198862163064,"connected_time":1353000000000,"state":"active","ping":94},{"user_id":69,"name":"b3afy","steam_id":76561198084208649,"connected_time":5299000000000,"state":"active","ping":84},{"user_id":145,"name":"Danzuniverse","steam_id":76561198179817943,"connected_time":549000000000,"state":"active","ping":86}]},{"server_id":324,"name":"Uncletopia | Los Angeles | 3 | All Maps","name_short":"lax-3","host":"lax-1.us.uncletopia.com","port":27035,"enabled":true,"region":"us-west","cc":"us","latitude":33.94279,"longitude":-118.41004,"reserved":0,"last_update":"0001-01-01T00:00:00Z","name_a2s":"Uncletopia | Los Angeles | 3 | All Maps","protocol":17,"map":"pl_upward","folder":"tf","game":"Team Fortress","app_id":440,"player_count":24,"max_players":24,"Bots":0,"server_type":"Dedicated","server_os":"Linux","password":true,"vac":true,"version":"7757534","steam_id":85568392924510198,"keywords":["nocrits","nodmgspread","payload","uncletopia"],"game_id":440,"stv_port":27036,"stv_name":"Uncletopia | Los Angeles | 3 | All Maps | STV","players":[{"user_id":243,"name":"sun sugar","steam_id":76561198385085005,"connected_time":354000000000,"state":"active","ping":65},{"user_id":194,"name":"a chicken","steam_id":76561198313121580,"connected_time":3690000000000,"state":"active","ping":56},{"user_id":174,"name":"Nani?","steam_id":76561198130982692,"connected_time":5143000000000,"state":"active","ping":101},{"user_id":244,"name":"K.A.R.M.A.","steam_id":76561198240750142,"connected_time":321000000000,"state":"active","ping":47},{"user_id":196,"name":"OH JIMMY I'M HOME #SaveTf2","steam_id":76561198396658806,"connected_time":3591000000000,"state":"active","ping":60},{"user_id":245,"name":"dandy","steam_id":76561197967362217,"connected_time":316000000000,"state":"active","ping":47},{"user_id":249,"name":"count","steam_id":76561198330473831,"connected_time":62000000000,"state":"active","ping":110},{"user_id":193,"name":"HAT-WEARING‚Ñ¢ Maggot Gamer Cat","steam_id":76561197973992705,"connected_time":3993000000000,"state":"active","ping":65},{"user_id":226,"name":"Hero Smasher","steam_id":76561198150681669,"connected_time":1803000000000,"state":"active","ping":54},{"user_id":179,"name":"Sparrow","steam_id":76561199122118959,"connected_time":4888000000000,"state":"active","ping":57},{"user_id":252,"name":"teh mummy","steam_id":76561198044123636,"connected_time":15000000000,"state":"active","ping":54},{"user_id":242,"name":"moe5x","steam_id":76561198316877833,"connected_time":428000000000,"state":"active","ping":115},{"user_id":246,"name":"choi","steam_id":76561198053669887,"connected_time":306000000000,"state":"active","ping":59},{"user_id":19,"name":"Oomitch","steam_id":76561198071702759,"connected_time":15341000000000,"state":"active","ping":81},{"user_id":240,"name":"jeromk611","steam_id":76561198864666859,"connected_time":1052000000000,"state":"active","ping":111},{"user_id":230,"name":"DRI","steam_id":76561198157076858,"connected_time":1660000000000,"state":"active","ping":71},{"user_id":138,"name":"gaming","steam_id":76561198338610196,"connected_time":7406000000000,"state":"active","ping":72},{"user_id":247,"name":"Shadow the Hedgehog","steam_id":76561198050034647,"connected_time":258000000000,"state":"active","ping":55},{"user_id":144,"name":"YourWishes","steam_id":76561198154414336,"connected_time":6850000000000,"state":"active","ping":53},{"user_id":251,"name":"Thequirka","steam_id":76561198968058652,"connected_time":52000000000,"state":"active","ping":72},{"user_id":231,"name":"RobotLord","steam_id":76561198322776364,"connected_time":1627000000000,"state":"active","ping":72},{"user_id":236,"name":"Bigfootjinx","steam_id":76561199128050459,"connected_time":1336000000000,"state":"active","ping":120},{"user_id":250,"name":"Hindmost","steam_id":76561199081837220,"connected_time":62000000000,"state":"active","ping":99},{"user_id":239,"name":"Ogre Commander","steam_id":76561198124066405,"connected_time":1131000000000,"state":"active","ping":50}]},{"server_id":25,"name":"Uncletopia | Los Angeles | 4 | Stopwatch Beta","name_short":"lax-4","host":"lax-1.us.uncletopia.com","port":27045,"enabled":true,"region":"us-west","cc":"us","latitude":33.94279,"longitude":-118.41004,"reserved":0,"last_update":"0001-01-01T00:00:00Z","name_a2s":"Uncletopia | Los Angeles | 4 | Stopwatch Beta","protocol":17,"map":"workshop/pl_summercoast_rc8e.ugc1761528829","folder":"tf","game":"Team Fortress","app_id":440,"player_count":0,"max_players":24,"Bots":0,"server_type":"Dedicated","server_os":"Linux","password":true,"vac":true,"version":"7757534","steam_id":85568392924510199,"keywords":["nocrits","nodmgspread","payload","uncletopia"],"game_id":440,"stv_port":27046,"stv_name":"Uncletopia | Los Angeles | 4 | Stopwatch Beta | STV","players":null},{"server_id":11,"name":"Uncletopia | London | 1 | All Maps","name_short":"lon-1","host":"lon-1.uk.uncletopia.com","port":27015,"enabled":true,"region":"eu","cc":"gb","latitude":51.509865,"longitude":-0.118092,"reserved":0,"last_update":"0001-01-01T00:00:00Z","name_a2s":"Uncletopia | London | 1 | All Maps","protocol":17,"map":"pl_swiftwater_final1","folder":"tf","game":"Team Fortress","app_id":440,"player_count":24,"max_players":24,"Bots":0,"server_type":"Dedicated","server_os":"Linux","password":true,"vac":true,"version":"7757534","steam_id":85568392924367362,"keywords":["nocrits","nodmgspread","payload","uncletopia"],"game_id":440,"stv_port":27016,"stv_name":"Uncletopia | London | 1 | All Maps | STV","players":[{"user_id":137,"name":"Metheus","steam_id":76561198051847106,"connected_time":4079000000000,"state":"active","ping":65},{"user_id":184,"name":"Sen4248","steam_id":76561198088573978,"connected_time":1106000000000,"state":"active","ping":68},{"user_id":188,"name":"Rave Robber","steam_id":76561199414716848,"connected_time":1020000000000,"state":"active","ping":74},{"user_id":151,"name":"New","steam_id":76561198402195911,"connected_time":3416000000000,"state":"active","ping":113},{"user_id":174,"name":"JOHN8172","steam_id":76561198890409949,"connected_time":2014000000000,"state":"active","ping":83},{"user_id":138,"name":"Johnny Cockroach","steam_id":76561198049648277,"connected_time":3637000000000,"state":"active","ping":102},{"user_id":140,"name":"Lord Maldimort","steam_id":76561198063150039,"connected_time":3634000000000,"state":"active","ping":58},{"user_id":179,"name":"SomeGamer","steam_id":76561199046743995,"connected_time":1514000000000,"state":"active","ping":137},{"user_id":191,"name":"frosty","steam_id":76561198094560834,"connected_time":98000000000,"state":"active","ping":45},{"user_id":178,"name":"Tsuruko","steam_id":76561198063618114,"connected_time":1550000000000,"state":"active","ping":69},{"user_id":173,"name":"aliquam.games","steam_id":76561198834270944,"connected_time":2083000000000,"state":"active","ping":76},{"user_id":192,"name":"Bell","steam_id":76561199454586928,"connected_time":94000000000,"state":"active","ping":123},{"user_id":181,"name":"Thalgorock","steam_id":76561198195315022,"connected_time":1468000000000,"state":"active","ping":70},{"user_id":18,"name":"Matomatic","steam_id":76561198063013603,"connected_time":15454000000000,"state":"active","ping":57},{"user_id":130,"name":"SuntanPikachu","steam_id":76561198121242476,"connected_time":5295000000000,"state":"active","ping":59},{"user_id":176,"name":"eon","steam_id":76561197971360276,"connected_time":1562000000000,"state":"active","ping":67},{"user_id":182,"name":"posht0 @_@","steam_id":76561198106182078,"connected_time":1465000000000,"state":"active","ping":106},{"user_id":141,"name":"barni","steam_id":76561198170420173,"connected_time":3634000000000,"state":"active","ping":74},{"user_id":166,"name":"BrainLacking","steam_id":76561198965574196,"connected_time":2476000000000,"state":"active","ping":52},{"user_id":185,"name":"Borat","steam_id":76561198122226417,"connected_time":1098000000000,"state":"active","ping":41},{"user_id":190,"name":"dootsuit","steam_id":76561198178298931,"connected_time":271000000000,"state":"active","ping":37},{"user_id":169,"name":"Podcast","steam_id":76561198531978435,"connected_time":2419000000000,"state":"active","ping":67},{"user_id":187,"name":"sabaka jebanoia","steam_id":76561198147249160,"connected_time":1050000000000,"state":"active","ping":105},{"user_id":144,"name":"invis","steam_id":76561198120668070,"connected_time":3620000000000,"state":"active","ping":70}]},{"server_id":114,"name":"Uncletopia | London | 2 | All Maps","name_short":"lon-2","host":"lon-1.uk.uncletopia.com","port":27025,"enabled":true,"region":"eu","cc":"gb","latitude":51.509865,"longitude":-0.118092,"reserved":0,"last_update":"0001-01-01T00:00:00Z","name_a2s":"Uncletopia | London | 2 | All Maps","protocol":17,"map":"cp_sunshine","folder":"tf","game":"Team Fortress","app_id":440,"player_count":0,"max_players":24,"Bots":0,"server_type":"Dedicated","server_os":"Linux","password":true,"vac":true,"version":"7757534","steam_id":85568392924470941,"keywords":["cp","nocrits","nodmgspread","uncletopia"],"game_id":440,"stv_port":27026,"stv_name":"Uncletopia | London | 2 | All Maps | STV","players":null},{"server_id":320,"name":"Uncletopia | London | 3 | All Maps","name_short":"lon-3","host":"lon-1.uk.uncletopia.com","port":27035,"enabled":true,"region":"eu","cc":"gb","latitude":51.509865,"longitude":-0.118092,"reserved":0,"last_update":"0001-01-01T00:00:00Z","name_a2s":"Uncletopia | London | 3 | All Maps","protocol":17,"map":"koth_viaduct","folder":"tf","game":"Team Fortress","app_id":440,"player_count":0,"max_players":24,"Bots":0,"server_type":"Dedicated","server_os":"Linux","password":true,"vac":true,"version":"7757534","steam_id":85568392924510192,"keywords":["cp","nocrits","nodmgspread","uncletopia"],"game_id":440,"stv_port":27036,"stv_name":"Uncletopia | London | 3 | All Maps | STV","players":null},{"server_id":321,"name":"Uncletopia | London | 4 | All Maps","name_short":"lon-4","host":"lon-1.uk.uncletopia.com","port":27045,"enabled":true,"region":"eu","cc":"gb","latitude":51.509865,"longitude":-0.118092,"reserved":0,"last_update":"0001-01-01T00:00:00Z","name_a2s":"Uncletopia | London | 4 | All Maps","protocol":17,"map":"koth_viaduct","folder":"tf","game":"Team Fortress","app_id":440,"player_count":0,"max_players":24,"Bots":0,"server_type":"Dedicated","server_os":"Linux","password":true,"vac":true,"version":"7757534","steam_id":85568392924510193,"keywords":["cp","nocrits","nodmgspread","uncletopia"],"game_id":440,"stv_port":27046,"stv_name":"Uncletopia | London | 4 | All Maps | STV","players":null},{"server_id":21,"name":"Uncletopia | London | 5 | All Maps","name_short":"lon-5","host":"lon-1.uk.uncletopia.com","port":27055,"enabled":true,"region":"eu","cc":"gb","latitude":51.509865,"longitude":-0.118092,"reserved":0,"last_update":"0001-01-01T00:00:00Z","name_a2s":"Uncletopia | London | 5 | All Maps","protocol":17,"map":"koth_viaduct","folder":"tf","game":"Team Fortress","app_id":440,"player_count":0,"max_players":24,"Bots":0,"server_type":"Dedicated","server_os":"Linux","password":true,"vac":true,"version":"7757534","steam_id":85568392924742829,"keywords":["cp","nocrits","nodmgspread","uncletopia"],"game_id":440,"stv_port":27056,"stv_name":"Uncletopia | London | 5 | All Maps | STV","players":null},{"server_id":22,"name":"Uncletopia | London | 6 | All Maps","name_short":"lon-6","host":"lon-1.uk.uncletopia.com","port":27065,"enabled":true,"region":"eu","cc":"gb","latitude":51.509865,"longitude":-0.118092,"reserved":0,"last_update":"0001-01-01T00:00:00Z","name_a2s":"Uncletopia | London | 6 | All Maps","protocol":17,"map":"koth_cascade","folder":"tf","game":"Team Fortress","app_id":440,"player_count":0,"max_players":24,"Bots":0,"server_type":"Dedicated","server_os":"Linux","password":true,"vac":true,"version":"7757534","steam_id":85568392924742830,"keywords":["cp","nocrits","nodmgspread","uncletopia"],"game_id":440,"stv_port":27066,"stv_name":"Uncletopia | London | 6 | All Maps | STV","players":null},{"server_id":40,"name":"Uncletopia | London | 7 | No Payload","name_short":"lon-7","host":"lon-1.uk.uncletopia.com","port":27075,"enabled":true,"region":"eu","cc":"gb","latitude":51.509865,"longitude":-0.118092,"reserved":0,"last_update":"0001-01-01T00:00:00Z","name_a2s":"Uncletopia | London | 7 | No Payload","protocol":17,"map":"koth_sawmill","folder":"tf","game":"Team Fortress","app_id":440,"player_count":0,"max_players":24,"Bots":0,"server_type":"Dedicated","server_os":"Linux","password":true,"vac":true,"version":"7757534","steam_id":85568392924964314,"keywords":["cp","nocrits","nodmgspread","uncletopia"],"game_id":440,"stv_port":27076,"stv_name":"Uncletopia | London | 7 | No Payload | STV","players":null},{"server_id":41,"name":"Uncletopia | London | 8 | Community","name_short":"lon-8","host":"lon-1.uk.uncletopia.com","port":27085,"enabled":true,"region":"eu","cc":"gb","latitude":51.509865,"longitude":-0.118092,"reserved":0,"last_update":"0001-01-01T00:00:00Z","name_a2s":"Uncletopia | London | 8 | Community","protocol":17,"map":"workshop/pl_barnblitz_pro7.ugc582280235","folder":"tf","game":"Team Fortress","app_id":440,"player_count":11,"max_players":24,"Bots":0,"server_type":"Dedicated","server_os":"Linux","password":true,"vac":true,"version":"7757534","steam_id":85568392924964315,"keywords":["nocrits","nodmgspread","payload","uncletopia"],"game_id":440,"stv_port":27086,"stv_name":"Uncletopia | London | 8 | Community | STV","players":[{"user_id":166,"name":"NOW","steam_id":76561198170942319,"connected_time":204000000000,"state":"active","ping":91},{"user_id":142,"name":"‚ù•Shinru","steam_id":76561198285951918,"connected_time":2585000000000,"state":"active","ping":88},{"user_id":148,"name":"{TD}Dominator{RS}","steam_id":76561197988205489,"connected_time":1665000000000,"state":"active","ping":149},{"user_id":149,"name":"InMyPants","steam_id":76561197987590780,"connected_time":1650000000000,"state":"active","ping":148},{"user_id":117,"name":"The Tomfooler","steam_id":76561198167986695,"connected_time":4054000000000,"state":"active","ping":49},{"user_id":159,"name":"Dr. Mantis Toboggan M.D","steam_id":76561198132400588,"connected_time":1180000000000,"state":"active","ping":55},{"user_id":165,"name":"karimqp387tf2","steam_id":76561199471095479,"connected_time":431000000000,"state":"active","ping":110},{"user_id":155,"name":"stepho","steam_id":76561199132035586,"connected_time":1333000000000,"state":"active","ping":146},{"user_id":137,"name":"Sickunt","steam_id":76561198032138958,"connected_time":2962000000000,"state":"active","ping":85},{"user_id":138,"name":"Hiran Shray","steam_id":76561198145022809,"connected_time":2941000000000,"state":"active","ping":84},{"user_id":141,"name":"In the flesh","steam_id":76561198061248547,"connected_time":2665000000000,"state":"active","ping":59}]},{"server_id":300,"name":"Uncletopia | Montr√©al | 1 | All Maps","name_short":"mtl-1","host":"mtl-1.ca.uncletopia.com","port":27015,"enabled":true,"region":"us-east","cc":"ca","latitude":45.50889,"longitude":-73.56167,"reserved":0,"last_update":"0001-01-01T00:00:00Z","name_a2s":"Uncletopia | Montr√©al | 1 | All Maps","protocol":17,"map":"koth_lakeside_final","folder":"tf","game":"Team Fortress","app_id":440,"player_count":0,"max_players":24,"Bots":0,"server_type":"Dedicated","server_os":"Linux","password":true,"vac":true,"version":"7757534","steam_id":85568392924500087,"keywords":["cp","nocrits","nodmgspread","uncletopia"],"game_id":440,"stv_port":27016,"stv_name":"Uncletopia | Montr√©al | 1 | All Maps | STV","players":null},{"server_id":301,"name":"Uncletopia | Montr√©al | 2 | All Maps","name_short":"mtl-2","host":"mtl-1.ca.uncletopia.com","port":27025,"enabled":true,"region":"us-east","cc":"ca","latitude":45.50889,"longitude":-73.56167,"reserved":0,"last_update":"0001-01-01T00:00:00Z","name_a2s":"Uncletopia | Montr√©al | 2 | All Maps","protocol":17,"map":"pl_snowycoast","folder":"tf","game":"Team Fortress","app_id":440,"player_count":0,"max_players":24,"Bots":0,"server_type":"Dedicated","server_os":"Linux","password":true,"vac":true,"version":"7757534","steam_id":85568392924500088,"keywords":["nocrits","nodmgspread","payload","uncletopia"],"game_id":440,"stv_port":27026,"stv_name":"Uncletopia | Montr√©al | 2 | All Maps | STV","players":null},{"server_id":302,"name":"Uncletopia | Montr√©al | 3 | All Maps","name_short":"mtl-3","host":"mtl-1.ca.uncletopia.com","port":27035,"enabled":true,"region":"us-east","cc":"ca","latitude":45.50889,"longitude":-73.56167,"reserved":0,"last_update":"0001-01-01T00:00:00Z","name_a2s":"Uncletopia | Montr√©al | 3 | All Maps","protocol":17,"map":"pl_borneo","folder":"tf","game":"Team Fortress","app_id":440,"player_count":2,"max_players":24,"Bots":0,"server_type":"Dedicated","server_os":"Linux","password":true,"vac":true,"version":"7757534","steam_id":85568392924500089,"keywords":["nocrits","nodmgspread","payload","uncletopia"],"game_id":440,"stv_port":27036,"stv_name":"Uncletopia | Montr√©al | 3 | All Maps | STV","players":[{"user_id":10,"name":"onionbagel4","steam_id":76561199134895220,"connected_time":4400000000000,"state":"active","ping":66},{"user_id":14,"name":"battlebot40","steam_id":76561198439930958,"connected_time":3375000000000,"state":"active","ping":83}]},{"server_id":303,"name":"Uncletopia | Montr√©al | 4 | No Payload","name_short":"mtl-4","host":"mtl-1.ca.uncletopia.com","port":27045,"enabled":true,"region":"us-east","cc":"ca","latitude":45.50889,"longitude":-73.56167,"reserved":0,"last_update":"0001-01-01T00:00:00Z","name_a2s":"Uncletopia | Montr√©al | 4 | No Payload","protocol":17,"map":"pl_borneo","folder":"tf","game":"Team Fortress","app_id":440,"player_count":0,"max_players":24,"Bots":0,"server_type":"Dedicated","server_os":"Linux","password":true,"vac":true,"version":"7757534","steam_id":85568392924500090,"keywords":["nocrits","nodmgspread","payload","uncletopia"],"game_id":440,"stv_port":27046,"stv_name":"Uncletopia | Montr√©al | 4 | No Payload | STV","players":null},{"server_id":13,"name":"Uncletopia | New York City | 1 | All Maps","name_short":"nyc-1","host":"nyc-1.us.uncletopia.com","port":27015,"enabled":true,"region":"us-east","cc":"us","latitude":40.73061,"longitude":-73.93524,"reserved":0,"last_update":"0001-01-01T00:00:00Z","name_a2s":"Uncletopia | New York City | 1 | All Maps","protocol":17,"map":"pl_hoodoo_final","folder":"tf","game":"Team Fortress","app_id":440,"player_count":24,"max_players":24,"Bots":0,"server_type":"Dedicated","server_os":"Linux","password":true,"vac":true,"version":"7757534","steam_id":85568392924469993,"keywords":["nocrits","nodmgspread","payload","uncletopia"],"game_id":440,"stv_port":27016,"stv_name":"Uncletopia | New York City | 1 | All Maps | STV","players":[{"user_id":128,"name":"tator171 (‚åê‚ñ†_‚ñ†)","steam_id":76561198047446121,"connected_time":8481000000000,"state":"active","ping":47},{"user_id":323,"name":"CapnKris22","steam_id":76561198049010994,"connected_time":413000000000,"state":"active","ping":66},{"user_id":106,"name":"JPMockMan","steam_id":76561198071370876,"connected_time":10580000000000,"state":"active","ping":85},{"user_id":316,"name":"Mally","steam_id":76561198025013765,"connected_time":1075000000000,"state":"active","ping":86},{"user_id":325,"name":"Polar","steam_id":76561198108010247,"connected_time":300000000000,"state":"active","ping":51},{"user_id":306,"name":"Sapphireblitz","steam_id":76561198272635379,"connected_time":1733000000000,"state":"active","ping":68},{"user_id":291,"name":"TrIcKiNgX3","steam_id":76561198243231748,"connected_time":3149000000000,"state":"active","ping":96},{"user_id":303,"name":"sauce","steam_id":76561198068430673,"connected_time":1914000000000,"state":"active","ping":68},{"user_id":317,"name":"The Walnut","steam_id":76561198080583044,"connected_time":820000000000,"state":"active","ping":68},{"user_id":271,"name":"-W3E- Tanner Jarring","steam_id":76561198172024365,"connected_time":5393000000000,"state":"active","ping":65},{"user_id":320,"name":"Wiener Hole Paper Cut","steam_id":76561198000808203,"connected_time":487000000000,"state":"active","ping":69},{"user_id":309,"name":"meinsword","steam_id":76561198272653535,"connected_time":1609000000000,"state":"active","ping":73},{"user_id":288,"name":"roman","steam_id":76561198170066797,"connected_time":3234000000000,"state":"active","ping":52},{"user_id":321,"name":"TacticalGlizzy","steam_id":76561198144786171,"connected_time":472000000000,"state":"active","ping":52},{"user_id":256,"name":"EvilCoopz","steam_id":76561198080014161,"connected_time":6115000000000,"state":"active","ping":96},{"user_id":324,"name":"[HF] Glitchboy18","steam_id":76561199006872357,"connected_time":346000000000,"state":"active","ping":85},{"user_id":192,"name":"Ballin \u0026 Can't Get Up","steam_id":76561198047394013,"connected_time":6679000000000,"state":"active","ping":61},{"user_id":326,"name":"LionHeart","steam_id":76561198075573693,"connected_time":216000000000,"state":"active","ping":72},{"user_id":310,"name":"A Duck Phone!?","steam_id":76561198044707749,"connected_time":1589000000000,"state":"active","ping":72},{"user_id":307,"name":"Dilbert","steam_id":76561198195613682,"connected_time":1729000000000,"state":"active","ping":75},{"user_id":289,"name":"Applesauce","steam_id":76561198252487758,"connected_time":3212000000000,"state":"active","ping":53},{"user_id":281,"name":"-W3E- grim10465","steam_id":76561198045698581,"connected_time":4671000000000,"state":"active","ping":45},{"user_id":313,"name":"inyanga!","steam_id":76561198354663927,"connected_time":1475000000000,"state":"active","ping":54},{"user_id":283,"name":"Turtle","steam_id":76561198262110064,"connected_time":4644000000000,"state":"active","ping":117}]},{"server_id":14,"name":"Uncletopia | New York City | 2 | All Maps","name_short":"nyc-2","host":"nyc-1.us.uncletopia.com","port":27025,"enabled":true,"region":"us-east","cc":"us","latitude":40.73061,"longitude":-73.93524,"reserved":0,"last_update":"0001-01-01T00:00:00Z","name_a2s":"Uncletopia | New York City | 2 | All Maps","protocol":17,"map":"pl_thundermountain","folder":"tf","game":"Team Fortress","app_id":440,"player_count":18,"max_players":24,"Bots":0,"server_type":"Dedicated","server_os":"Linux","password":true,"vac":true,"version":"7757534","steam_id":85568392924469994,"keywords":["nocrits","nodmgspread","payload","uncletopia"],"game_id":440,"stv_port":27026,"stv_name":"Uncletopia | New York City | 2 | All Maps | STV","players":[{"user_id":71,"name":"D9","steam_id":76561197999151357,"connected_time":3939000000000,"state":"active","ping":88},{"user_id":113,"name":"Crystall","steam_id":76561198346607700,"connected_time":211000000000,"state":"active","ping":65},{"user_id":108,"name":"ultra instinct cringe micheal","steam_id":76561198275625984,"connected_time":344000000000,"state":"active","ping":68},{"user_id":93,"name":"Angora","steam_id":76561198068520506,"connected_time":2253000000000,"state":"active","ping":87},{"user_id":114,"name":"Bad Hombre","steam_id":76561198046559176,"connected_time":170000000000,"state":"active","ping":60},{"user_id":79,"name":"The Gamer Chicken","steam_id":76561198058256094,"connected_time":3553000000000,"state":"active","ping":36},{"user_id":110,"name":"PastetheRabbit","steam_id":76561198152219815,"connected_time":324000000000,"state":"active","ping":71},{"user_id":115,"name":"Peepster","steam_id":76561198297854733,"connected_time":166000000000,"state":"active","ping":89},{"user_id":69,"name":"adios.","steam_id":76561198091381384,"connected_time":4142000000000,"state":"active","ping":57},{"user_id":94,"name":"Coup de Grass","steam_id":76561198011643226,"connected_time":2201000000000,"state":"active","ping":54},{"user_id":48,"name":"CRAZY engineer","steam_id":76561198887937902,"connected_time":5969000000000,"state":"active","ping":91},{"user_id":104,"name":"Pacifist Œµ","steam_id":76561198094307112,"connected_time":1237000000000,"state":"active","ping":69},{"user_id":66,"name":"IMPACT CPU","steam_id":76561198001344879,"connected_time":4889000000000,"state":"active","ping":60},{"user_id":102,"name":"Salixiola","steam_id":76561198042177809,"connected_time":1372000000000,"state":"active","ping":70},{"user_id":86,"name":"begolds8","steam_id":76561198841069098,"connected_time":2879000000000,"state":"active","ping":109},{"user_id":103,"name":"knightsarecool","steam_id":76561198099475644,"connected_time":1301000000000,"state":"active","ping":66},{"user_id":105,"name":"Antifa Alligator","steam_id":76561197988170816,"connected_time":636000000000,"state":"active","ping":84},{"user_id":111,"name":"bikerkid207","steam_id":76561198390782783,"connected_time":297000000000,"state":"active","ping":54}]},{"server_id":15,"name":"Uncletopia | New York City | 3 | Stopwatch Beta","name_short":"nyc-3","host":"nyc-1.us.uncletopia.com","port":27035,"enabled":true,"region":"us-east","cc":"us","latitude":40.73061,"longitude":-73.93524,"reserved":0,"last_update":"0001-01-01T00:00:00Z","name_a2s":"Uncletopia | New York City | 3 | Stopwatch Beta","protocol":17,"map":"workshop/koth_ramjam_rc1.ugc459778887","folder":"tf","game":"Team Fortress","app_id":440,"player_count":0,"max_players":24,"Bots":0,"server_type":"Dedicated","server_os":"Linux","password":true,"vac":true,"version":"7757534","steam_id":85568392924742820,"keywords":["cp","nocrits","nodmgspread","uncletopia"],"game_id":440,"stv_port":27036,"stv_name":"Uncletopia | New York City | 3 | Stopwatch Beta | STV","players":null},{"server_id":16,"name":"Uncletopia | New York City | 4 | Community","name_short":"nyc-4","host":"nyc-1.us.uncletopia.com","port":27045,"enabled":true,"region":"us-east","cc":"us","latitude":40.73061,"longitude":-73.93524,"reserved":0,"last_update":"0001-01-01T00:00:00Z","name_a2s":"Uncletopia | New York City | 4 | Community","protocol":17,"map":"workshop/pl_emerge_rc2.ugc888027758","folder":"tf","game":"Team Fortress","app_id":440,"player_count":0,"max_players":24,"Bots":0,"server_type":"Dedicated","server_os":"Linux","password":true,"vac":true,"version":"7757534","steam_id":85568392924742821,"keywords":["nocrits","nodmgspread","payload","uncletopia"],"game_id":440,"stv_port":27046,"stv_name":"Uncletopia | New York City | 4 | Community | STV","players":null},{"server_id":142,"name":"Uncletopia | S√£o Paulo | 1 | All Maps","name_short":"sao-1","host":"sao-1.br.uncletopia.com","port":27015,"enabled":true,"region":"sa","cc":"br","latitude":-23.533773,"longitude":-46.62529,"reserved":0,"last_update":"0001-01-01T00:00:00Z","name_a2s":"Uncletopia | S√£o Paulo | 1 | All Maps","protocol":17,"map":"pl_frontier_final","folder":"tf","game":"Team Fortress","app_id":440,"player_count":0,"max_players":24,"Bots":0,"server_type":"Dedicated","server_os":"Linux","password":true,"vac":true,"version":"7757534","steam_id":85568392924469996,"keywords":["nocrits","nodmgspread","payload","uncletopia"],"game_id":440,"stv_port":27016,"stv_name":"Uncletopia | S√£o Paulo | 1 | All Maps | STV","players":null},{"server_id":143,"name":"Uncletopia | S√£o Paulo | 2 | All Maps","name_short":"sao-2","host":"sao-2.br.uncletopia.com","port":27015,"enabled":true,"region":"sa","cc":"br","latitude":-23.533773,"longitude":-46.62529,"reserved":0,"last_update":"0001-01-01T00:00:00Z","name_a2s":"Uncletopia | S√£o Paulo | 2 | All Maps","protocol":17,"map":"pl_borneo","folder":"tf","game":"Team Fortress","app_id":440,"player_count":0,"max_players":24,"Bots":0,"server_type":"Dedicated","server_os":"Linux","password":true,"vac":true,"version":"7757534","steam_id":85568392924485349,"keywords":["nocrits","nodmgspread","payload","uncletopia"],"game_id":440,"stv_port":27016,"stv_name":"Uncletopia | S√£o Paulo | 2 | All Maps | STV","players":null},{"server_id":7,"name":"Uncletopia | Seattle | 1 | All Maps","name_short":"sea-1","host":"sea-1.us.uncletopia.com","port":27015,"enabled":true,"region":"us-west","cc":"us","latitude":47.608013,"longitude":-122.33517,"reserved":0,"last_update":"0001-01-01T00:00:00Z","name_a2s":"Uncletopia | Seattle | 1 | All Maps","protocol":17,"map":"pl_badwater","folder":"tf","game":"Team Fortress","app_id":440,"player_count":24,"max_players":24,"Bots":0,"server_type":"Dedicated","server_os":"Linux","password":true,"vac":true,"version":"7757534","steam_id":85568392924469997,"keywords":["nocrits","nodmgspread","payload","uncletopia"],"game_id":440,"stv_port":27016,"stv_name":"Uncletopia | Seattle | 1 | All Maps | STV","players":[{"user_id":155,"name":"Ôº≥Ôº¨Ôº∂Ôº¥Ôº£Ôº®Ôº°Ôº≠Ôº∞","steam_id":76561198883157736,"connected_time":3434000000000,"state":"active","ping":60},{"user_id":188,"name":"Mignyanne :3","steam_id":76561198048754056,"connected_time":464000000000,"state":"active","ping":64},{"user_id":171,"name":"egyptiangodcard","steam_id":76561198855935442,"connected_time":2450000000000,"state":"active","ping":60},{"user_id":187,"name":"AAAAAAAAAAAAAAAAAAAAAAAAAAAAAAA","steam_id":76561198817866879,"connected_time":633000000000,"state":"active","ping":130},{"user_id":189,"name":"strbry","steam_id":76561198155133601,"connected_time":463000000000,"state":"active","ping":53},{"user_id":183,"name":"Pig master","steam_id":76561199388075545,"connected_time":1379000000000,"state":"active","ping":61},{"user_id":175,"name":"snub","steam_id":76561198312106312,"connected_time":2152000000000,"state":"active","ping":61},{"user_id":162,"name":"The dreaded jar","steam_id":76561199087010656,"connected_time":3230000000000,"state":"active","ping":61},{"user_id":190,"name":"Phillip Jeffries","steam_id":76561198064052174,"connected_time":423000000000,"state":"active","ping":115},{"user_id":158,"name":"rat gets the cheese","steam_id":76561198031234032,"connected_time":3387000000000,"state":"active","ping":95},{"user_id":191,"name":"Julien","steam_id":76561199389584938,"connected_time":394000000000,"state":"active","ping":40},{"user_id":192,"name":"gangbangingjose.democrat","steam_id":76561198825658971,"connected_time":380000000000,"state":"active","ping":77},{"user_id":167,"name":"FANG","steam_id":76561199094739690,"connected_time":2623000000000,"state":"active","ping":88},{"user_id":144,"name":"RURU","steam_id":76561198039758987,"connected_time":4329000000000,"state":"active","ping":47},{"user_id":177,"name":"DevTheDumbass","steam_id":76561199066072449,"connected_time":1995000000000,"state":"active","ping":50},{"user_id":163,"name":"aon135","steam_id":76561197966931637,"connected_time":3138000000000,"state":"active","ping":63},{"user_id":86,"name":"jello","steam_id":76561198149683030,"connected_time":10133000000000,"state":"active","ping":64},{"user_id":193,"name":"l_teri","steam_id":76561198853507579,"connected_time":376000000000,"state":"active","ping":60},{"user_id":194,"name":"MyMonkeyBaby","steam_id":76561198046896670,"connected_time":208000000000,"state":"active","ping":57},{"user_id":142,"name":"AuraBraixen_4412","steam_id":76561198120668769,"connected_time":4665000000000,"state":"active","ping":102},{"user_id":179,"name":"BoioftheNile","steam_id":76561198834204114,"connected_time":1619000000000,"state":"active","ping":71},{"user_id":195,"name":"Peppy","steam_id":76561198866629645,"connected_time":151000000000,"state":"active","ping":105},{"user_id":169,"name":"flishko","steam_id":76561198326489802,"connected_time":2579000000000,"state":"active","ping":57},{"user_id":182,"name":"DASmallWorlds - Â§ßÂ≠∏‰∏≠","steam_id":76561198139546606,"connected_time":1551000000000,"state":"active","ping":58}]},{"server_id":119,"name":"Uncletopia | Seattle | 2 | All Maps","name_short":"sea-2","host":"sea-1.us.uncletopia.com","port":27025,"enabled":true,"region":"us-west","cc":"us","latitude":47.608013,"longitude":-122.33517,"reserved":0,"last_update":"0001-01-01T00:00:00Z","name_a2s":"Uncletopia | Seattle | 2 | All Maps","protocol":17,"map":"cp_dustbowl","folder":"tf","game":"Team Fortress","app_id":440,"player_count":24,"max_players":24,"Bots":0,"server_type":"Dedicated","server_os":"Linux","password":true,"vac":true,"version":"7757534","steam_id":85568392924469998,"keywords":["cp","nocrits","nodmgspread","uncletopia"],"game_id":440,"stv_port":27026,"stv_name":"Uncletopia | Seattle | 2 | All Maps | STV","players":[{"user_id":221,"name":"Mom","steam_id":76561198207936000,"connected_time":1180000000000,"state":"active","ping":59},{"user_id":182,"name":"That \"Spud\" Guy","steam_id":76561197997444126,"connected_time":2121000000000,"state":"active","ping":49},{"user_id":188,"name":"PoltergussyLordoftheAsstralVoid","steam_id":76561199195004708,"connected_time":2117000000000,"state":"active","ping":94},{"user_id":243,"name":"im pluckin the ol dental floss","steam_id":76561198110661425,"connected_time":581000000000,"state":"active","ping":47},{"user_id":190,"name":"Poltergeist","steam_id":76561198080353122,"connected_time":2117000000000,"state":"active","ping":88},{"user_id":246,"name":"North","steam_id":76561199173696836,"connected_time":297000000000,"state":"active","ping":73},{"user_id":240,"name":"Eggs","steam_id":76561199094378158,"connected_time":743000000000,"state":"active","ping":93},{"user_id":215,"name":"twitch.tv/ladyloki_ch","steam_id":76561198280150602,"connected_time":1506000000000,"state":"active","ping":64},{"user_id":214,"name":"AmiableNebula","steam_id":76561198094306627,"connected_time":1557000000000,"state":"active","ping":75},{"user_id":220,"name":"kaeru","steam_id":76561198043789098,"connected_time":1191000000000,"state":"active","ping":75},{"user_id":231,"name":"LF\u003eLEQT3.14GaymurGurlGFXDDDDDDD","steam_id":76561198040299384,"connected_time":856000000000,"state":"active","ping":78},{"user_id":232,"name":"Vevo","steam_id":76561198316753540,"connected_time":855000000000,"state":"active","ping":92},{"user_id":233,"name":"Honeybunch","steam_id":76561198014850580,"connected_time":850000000000,"state":"active","ping":41},{"user_id":195,"name":"bullet man","steam_id":76561198080058079,"connected_time":2117000000000,"state":"active","ping":47},{"user_id":226,"name":"Greskrendtregk","steam_id":76561197969553142,"connected_time":1005000000000,"state":"active","ping":54},{"user_id":197,"name":"Byton","steam_id":76561198006393870,"connected_time":2117000000000,"state":"active","ping":103},{"user_id":219,"name":"dongledog","steam_id":76561198050924003,"connected_time":1212000000000,"state":"active","ping":55},{"user_id":241,"name":"LalitoTV","steam_id":76561198334302951,"connected_time":731000000000,"state":"active","ping":138},{"user_id":247,"name":"pumba","steam_id":76561198207881077,"connected_time":8000000000,"state":"spawning","ping":101},{"user_id":201,"name":"Tintin","steam_id":76561198280361925,"connected_time":2117000000000,"state":"active","ping":144},{"user_id":234,"name":"itsgearfear","steam_id":76561198801849281,"connected_time":850000000000,"state":"active","ping":130},{"user_id":244,"name":"Isopentyl Ethanoate","steam_id":76561198116389072,"connected_time":580000000000,"state":"active","ping":63},{"user_id":237,"name":"therightbasher","steam_id":76561199084574397,"connected_time":802000000000,"state":"active","ping":67},{"user_id":205,"name":"Chepu","steam_id":76561198821873384,"connected_time":2113000000000,"state":"active","ping":50}]},{"server_id":406,"name":"Uncletopia | Seattle | 3 | Stopwatch Beta","name_short":"sea-3","host":"sea-1.us.uncletopia.com","port":27035,"enabled":true,"region":"us-west","cc":"us","latitude":47.608013,"longitude":-122.33517,"reserved":0,"last_update":"0001-01-01T00:00:00Z","name_a2s":"Uncletopia | Seattle | 3 | Stopwatch Beta","protocol":17,"map":"pl_borneo","folder":"tf","game":"Team Fortress","app_id":440,"player_count":0,"max_players":24,"Bots":0,"server_type":"Dedicated","server_os":"Linux","password":true,"vac":true,"version":"7757534","steam_id":85568392924515217,"keywords":["nocrits","nodmgspread","payload","uncletopia"],"game_id":440,"stv_port":27036,"stv_name":"Uncletopia | Seattle | 3 | Stopwatch Beta | STV","players":null},{"server_id":17,"name":"Uncletopia | San Francisco | 1 | All Maps","name_short":"sfo-1","host":"sfo-1.us.uncletopia.com","port":27015,"enabled":true,"region":"us-west","cc":"us","latitude":37.77397,"longitude":-122.4313,"reserved":0,"last_update":"0001-01-01T00:00:00Z","name_a2s":"Uncletopia | San Francisco | 1 | All Maps","protocol":17,"map":"pl_snowycoast","folder":"tf","game":"Team Fortress","app_id":440,"player_count":24,"max_players":24,"Bots":0,"server_type":"Dedicated","server_os":"Linux","password":true,"vac":true,"version":"7757534","steam_id":85568392924469999,"keywords":["nocrits","nodmgspread","payload","uncletopia"],"game_id":440,"stv_port":27016,"stv_name":"Uncletopia | San Francisco | 1 | All Maps | STV","players":[{"user_id":86,"name":"Super3D","steam_id":76561199297779078,"connected_time":1002000000000,"state":"active","ping":75},{"user_id":79,"name":"‚ù§ Ashley ‚ù§","steam_id":76561198056428303,"connected_time":1284000000000,"state":"active","ping":58},{"user_id":80,"name":"self sufficient kitten","steam_id":76561197960592612,"connected_time":1272000000000,"state":"active","ping":60},{"user_id":87,"name":"cold","steam_id":76561199017901552,"connected_time":918000000000,"state":"active","ping":89},{"user_id":89,"name":"Cricket Girl!","steam_id":76561198838054669,"connected_time":902000000000,"state":"active","ping":121},{"user_id":95,"name":"BreadGod","steam_id":76561198050665205,"connected_time":198000000000,"state":"active","ping":108},{"user_id":82,"name":"Minerkid2004","steam_id":76561198044262827,"connected_time":1253000000000,"state":"active","ping":48},{"user_id":22,"name":"Yeehaw Cousin","steam_id":76561198010819049,"connected_time":3471000000000,"state":"active","ping":122},{"user_id":23,"name":"NatCracken","steam_id":76561198103461530,"connected_time":3466000000000,"state":"active","ping":131},{"user_id":88,"name":"Blows","steam_id":76561198065349185,"connected_time":911000000000,"state":"active","ping":57},{"user_id":25,"name":"Source Enjoyer","steam_id":76561198105663173,"connected_time":3211000000000,"state":"active","ping":105},{"user_id":26,"name":"Holy Dwight","steam_id":76561198012334980,"connected_time":3203000000000,"state":"active","ping":129},{"user_id":90,"name":"Jebby","steam_id":76561198300150276,"connected_time":890000000000,"state":"active","ping":89},{"user_id":29,"name":"ShovelShaman","steam_id":76561198048119461,"connected_time":3154000000000,"state":"active","ping":74},{"user_id":59,"name":"grif","steam_id":76561198272333800,"connected_time":1770000000000,"state":"active","ping":112},{"user_id":32,"name":"Porytal","steam_id":76561198306101889,"connected_time":2984000000000,"state":"active","ping":63},{"user_id":33,"name":"girr","steam_id":76561198995114110,"connected_time":2971000000000,"state":"active","ping":72},{"user_id":34,"name":"Shoggoth","steam_id":76561198117892299,"connected_time":2929000000000,"state":"active","ping":85},{"user_id":78,"name":"Livin' Like Larry","steam_id":76561198313360974,"connected_time":1315000000000,"state":"active","ping":32},{"user_id":40,"name":"chanoc","steam_id":76561198026734746,"connected_time":2769000000000,"state":"active","ping":56},{"user_id":92,"name":"GreenApples","steam_id":76561198120559543,"connected_time":711000000000,"state":"active","ping":56},{"user_id":45,"name":"IJR","steam_id":76561198370072889,"connected_time":2228000000000,"state":"active","ping":160},{"user_id":77,"name":"Scoron","steam_id":76561198062099305,"connected_time":1330000000000,"state":"active","ping":61},{"user_id":74,"name":"SPC Ham Sandwich","steam_id":76561198035752185,"connected_time":1425000000000,"state":"active","ping":71}]},{"server_id":18,"name":"Uncletopia | San Francisco | 2 | All Maps","name_short":"sfo-2","host":"sfo-1.us.uncletopia.com","port":27025,"enabled":true,"region":"us-west","cc":"us","latitude":37.77397,"longitude":-122.4313,"reserved":0,"last_update":"0001-01-01T00:00:00Z","name_a2s":"Uncletopia | San Francisco | 2 | All Maps","protocol":17,"map":"pl_borneo","folder":"tf","game":"Team Fortress","app_id":440,"player_count":24,"max_players":24,"Bots":0,"server_type":"Dedicated","server_os":"Linux","password":true,"vac":true,"version":"7757534","steam_id":85568392924470000,"keywords":["nocrits","nodmgspread","payload","uncletopia"],"game_id":440,"stv_port":27026,"stv_name":"Uncletopia | San Francisco | 2 | All Maps | STV","players":[{"user_id":180,"name":"Killer Fish from San Diego","steam_id":76561199037594575,"connected_time":2099000000000,"state":"active","ping":72},{"user_id":202,"name":"Champagne Supernova","steam_id":76561198918114562,"connected_time":175000000000,"state":"active","ping":58},{"user_id":155,"name":"RlyTomato","steam_id":76561198011644876,"connected_time":3525000000000,"state":"active","ping":71},{"user_id":208,"name":"moe","steam_id":76561198929586245,"connected_time":2000000000,"state":"spawning","ping":46},{"user_id":204,"name":"Pigcakees","steam_id":76561198797820937,"connected_time":151000000000,"state":"active","ping":136},{"user_id":193,"name":"47 undiagnosed mental illnesses","steam_id":76561198312834406,"connected_time":531000000000,"state":"active","ping":82},{"user_id":187,"name":"jimmyfortnite2014","steam_id":76561198987713830,"connected_time":981000000000,"state":"active","ping":178},{"user_id":196,"name":"EatSomeBEES","steam_id":76561198047334307,"connected_time":399000000000,"state":"active","ping":72},{"user_id":206,"name":"JimmySquid","steam_id":76561198254242530,"connected_time":135000000000,"state":"active","ping":96},{"user_id":198,"name":"Chroma","steam_id":76561199198374358,"connected_time":249000000000,"state":"active","ping":85},{"user_id":179,"name":"Red Physical","steam_id":76561198151864382,"connected_time":2204000000000,"state":"active","ping":154},{"user_id":167,"name":"RushIn","steam_id":76561199013261240,"connected_time":3120000000000,"state":"active","ping":70},{"user_id":190,"name":"The Green One","steam_id":76561198169300852,"connected_time":799000000000,"state":"active","ping":88},{"user_id":203,"name":"SHADOW (he/him)","steam_id":76561198207768148,"connected_time":171000000000,"state":"active","ping":58},{"user_id":209,"name":"Mug Maniac","steam_id":76561198120866920,"connected_time":0,"state":"spawning","ping":0},{"user_id":200,"name":"lag","steam_id":76561197963872739,"connected_time":216000000000,"state":"active","ping":37},{"user_id":161,"name":"Redd","steam_id":76561198013184655,"connected_time":3450000000000,"state":"active","ping":125},{"user_id":136,"name":"NooBHatteR","steam_id":76561198077662703,"connected_time":4211000000000,"state":"active","ping":88},{"user_id":182,"name":"Das_","steam_id":76561198055908152,"connected_time":1680000000000,"state":"active","ping":131},{"user_id":124,"name":"bronk","steam_id":76561198181109553,"connected_time":4892000000000,"state":"active","ping":48},{"user_id":184,"name":"MeKaso TropStar","steam_id":76561199109895840,"connected_time":1606000000000,"state":"active","ping":112},{"user_id":186,"name":"me","steam_id":76561199468285784,"connected_time":1451000000000,"state":"active","ping":36},{"user_id":201,"name":"BLACKout","steam_id":76561198002194086,"connected_time":207000000000,"state":"active","ping":63},{"user_id":207,"name":"roger roger","steam_id":76561198130032444,"connected_time":122000000000,"state":"active","ping":64}]},{"server_id":19,"name":"Uncletopia | San Francisco | 3 | Stopwatch Beta","name_short":"sfo-3","host":"sfo-1.us.uncletopia.com","port":27035,"enabled":true,"region":"us-west","cc":"us","latitude":37.77397,"longitude":-122.4313,"reserved":0,"last_update":"0001-01-01T00:00:00Z","name_a2s":"Uncletopia | San Francisco | 3 | Stopwatch Beta","protocol":17,"map":"pl_borneo","folder":"tf","game":"Team Fortress","app_id":440,"player_count":0,"max_players":24,"Bots":0,"server_type":"Dedicated","server_os":"Linux","password":true,"vac":true,"version":"7757534","steam_id":85568392924742824,"keywords":["nocrits","nodmgspread","payload","uncletopia"],"game_id":440,"stv_port":27036,"stv_name":"Uncletopia | San Francisco | 3 | Stopwatch Beta | STV","players":null},{"server_id":20,"name":"Uncletopia | San Francisco | 4 | Community","name_short":"sfo-4","host":"sfo-1.us.uncletopia.com","port":27045,"enabled":true,"region":"us-west","cc":"us","latitude":37.77397,"longitude":-122.4313,"reserved":0,"last_update":"0001-01-01T00:00:00Z","name_a2s":"Uncletopia | San Francisco | 4 | Community","protocol":17,"map":"workshop/pl_emerge_rc2.ugc888027758","folder":"tf","game":"Team Fortress","app_id":440,"player_count":11,"max_players":24,"Bots":0,"server_type":"Dedicated","server_os":"Linux","password":true,"vac":true,"version":"7757534","steam_id":85568392924742826,"keywords":["nocrits","nodmgspread","payload","uncletopia"],"game_id":440,"stv_port":27046,"stv_name":"Uncletopia | San Francisco | 4 | Community | STV","players":[{"user_id":27,"name":"Hornis the Great","steam_id":76561198139929833,"connected_time":583000000000,"state":"active","ping":64},{"user_id":36,"name":"Art3mis","steam_id":76561199216558315,"connected_time":279000000000,"state":"active","ping":866},{"user_id":29,"name":"rysworld","steam_id":76561198015372065,"connected_time":528000000000,"state":"active","ping":52},{"user_id":34,"name":"jawnymac","steam_id":76561198179529599,"connected_time":353000000000,"state":"active","ping":47},{"user_id":37,"name":"asm_ghost","steam_id":76561199205363547,"connected_time":60000000000,"state":"active","ping":70},{"user_id":33,"name":"usasan","steam_id":76561198044654399,"connected_time":428000000000,"state":"active","ping":55},{"user_id":22,"name":"EggsAndBacon","steam_id":76561198031789082,"connected_time":795000000000,"state":"active","ping":86},{"user_id":23,"name":"Pile of Spinach","steam_id":76561198043068841,"connected_time":791000000000,"state":"active","ping":74},{"user_id":24,"name":"bong appetite","steam_id":76561198059494019,"connected_time":788000000000,"state":"active","ping":102},{"user_id":25,"name":"I Twitch Lego Star Wars...","steam_id":76561198130280060,"connected_time":653000000000,"state":"active","ping":85},{"user_id":26,"name":"JacobonPC‚Ñ¢","steam_id":76561198221619936,"connected_time":644000000000,"state":"active","ping":112}]},{"server_id":141,"name":"Uncletopia | Sydney | 1 | All Maps","name_short":"syd-1","host":"syd-1.au.uncletopia.com","port":27015,"enabled":true,"region":"au","cc":"au","latitude":-33.865143,"longitude":151.2099,"reserved":0,"last_update":"0001-01-01T00:00:00Z","name_a2s":"Uncletopia | Sydney | 1 | All Maps","protocol":17,"map":"pl_swiftwater_final1","folder":"tf","game":"Team Fortress","app_id":440,"player_count":22,"max_players":24,"Bots":0,"server_type":"Dedicated","server_os":"Linux","password":true,"vac":true,"version":"7757534","steam_id":85568392924470001,"keywords":["nocrits","nodmgspread","payload","uncletopia"],"game_id":440,"stv_port":27016,"stv_name":"Uncletopia | Sydney | 1 | All Maps | STV","players":[{"user_id":137,"name":"smiv","steam_id":76561197967531912,"connected_time":643000000000,"state":"active","ping":55},{"user_id":84,"name":"Crimson Aurora","steam_id":76561198157492747,"connected_time":5409000000000,"state":"active","ping":103},{"user_id":95,"name":"Tea","steam_id":76561199029851609,"connected_time":3866000000000,"state":"active","ping":53},{"user_id":144,"name":"‚òÅ‚òÅÔÆéœÉggY‚òÅ","steam_id":76561198156441727,"connected_time":225000000000,"state":"active","ping":32},{"user_id":107,"name":"Tofu","steam_id":76561198025637573,"connected_time":2646000000000,"state":"active","ping":44},{"user_id":117,"name":"SaltierThanYou","steam_id":76561198444395188,"connected_time":2048000000000,"state":"active","ping":82},{"user_id":145,"name":"gimmick","steam_id":76561198449368846,"connected_time":173000000000,"state":"active","ping":44},{"user_id":126,"name":"Distilledrain41","steam_id":76561198272717119,"connected_time":1845000000000,"state":"active","ping":48},{"user_id":142,"name":"Vagabond","steam_id":76561199069777966,"connected_time":362000000000,"state":"active","ping":67},{"user_id":113,"name":"Uncle Dane (Walmart Version)","steam_id":76561199387907037,"connected_time":2272000000000,"state":"active","ping":161},{"user_id":114,"name":"hobo","steam_id":76561199046481213,"connected_time":2162000000000,"state":"active","ping":68},{"user_id":146,"name":"Hawk","steam_id":76561198135164277,"connected_time":171000000000,"state":"active","ping":55},{"user_id":110,"name":"lemur","steam_id":76561198278239170,"connected_time":2398000000000,"state":"active","ping":90},{"user_id":124,"name":"Sy 4","steam_id":76561198879862702,"connected_time":1856000000000,"state":"active","ping":71},{"user_id":128,"name":"radek","steam_id":76561198025474411,"connected_time":1693000000000,"state":"active","ping":45},{"user_id":147,"name":"Peashooter","steam_id":76561198157250318,"connected_time":168000000000,"state":"active","ping":55},{"user_id":130,"name":"ttv/ca7x3","steam_id":76561198181194862,"connected_time":1675000000000,"state":"active","ping":64},{"user_id":120,"name":"Lemon|0_o","steam_id":76561198188258925,"connected_time":1963000000000,"state":"active","ping":42},{"user_id":121,"name":"C4StrappedToMe","steam_id":76561198820860887,"connected_time":1952000000000,"state":"active","ping":53},{"user_id":122,"name":"Jett","steam_id":76561198969434128,"connected_time":1945000000000,"state":"active","ping":68},{"user_id":131,"name":"Blondie","steam_id":76561198257286963,"connected_time":1667000000000,"state":"active","ping":71},{"user_id":132,"name":"The Fox King","steam_id":76561199033244267,"connected_time":1584000000000,"state":"active","ping":72}]},{"server_id":123,"name":"Uncletopia | Sydney | 2 | All Maps","name_short":"syd-2","host":"syd-1.au.uncletopia.com","port":27025,"enabled":true,"region":"au","cc":"au","latitude":-33.865143,"longitude":151.2099,"reserved":0,"last_update":"0001-01-01T00:00:00Z","name_a2s":"Uncletopia | Sydney | 2 | All Maps","protocol":17,"map":"koth_viaduct","folder":"tf","game":"Team Fortress","app_id":440,"player_count":2,"max_players":24,"Bots":0,"server_type":"Dedicated","server_os":"Linux","password":true,"vac":true,"version":"7757534","steam_id":85568392924470002,"keywords":["cp","nocrits","nodmgspread","uncletopia"],"game_id":440,"stv_port":27026,"stv_name":"Uncletopia | Sydney | 2 | All Maps | STV","players":[{"user_id":11,"name":"Crunchy bug","steam_id":76561199083645515,"connected_time":1526000000000,"state":"active","ping":56},{"user_id":15,"name":"Squishy","steam_id":76561198985769205,"connected_time":1154000000000,"state":"active","ping":51}]},{"server_id":395,"name":"Uncletopia | Sydney | 3 | All Maps","name_short":"syd-3","host":"syd-1.au.uncletopia.com","port":27035,"enabled":true,"region":"au","cc":"au","latitude":-33.865143,"longitude":151.2099,"reserved":0,"last_update":"0001-01-01T00:00:00Z","name_a2s":"Uncletopia | Sydney | 3 | All Maps","protocol":17,"map":"pl_barnblitz","folder":"tf","game":"Team Fortress","app_id":440,"player_count":0,"max_players":24,"Bots":0,"server_type":"Dedicated","server_os":"Linux","password":true,"vac":true,"version":"7757534","steam_id":85568392925194467,"keywords":["nocrits","nodmgspread","payload","uncletopia"],"game_id":440,"stv_port":27036,"stv_name":"Uncletopia | Sydney | 3 | All Maps | STV","players":null},{"server_id":396,"name":"Uncletopia | Sydney | 4 | All Maps","name_short":"syd-4","host":"syd-1.au.uncletopia.com","port":27045,"enabled":true,"region":"au","cc":"au","latitude":-33.865143,"longitude":151.2099,"reserved":0,"last_update":"0001-01-01T00:00:00Z","name_a2s":"Uncletopia | Sydney | 4 | All Maps","protocol":17,"map":"koth_lakeside_final","folder":"tf","game":"Team Fortress","app_id":440,"player_count":0,"max_players":24,"Bots":0,"server_type":"Dedicated","server_os":"Linux","password":true,"vac":true,"version":"7757534","steam_id":85568392925397958,"keywords":["cp","nocrits","nodmgspread","uncletopia"],"game_id":440,"stv_port":27046,"stv_name":"Uncletopia | Sydney | 4 | All Maps | STV","players":null},{"server_id":58,"name":"Uncletopia | Sydney | 5 | Stopwatch Beta","name_short":"syd-5","host":"syd-1.au.uncletopia.com","port":27055,"enabled":true,"region":"au","cc":"au","latitude":-33.865143,"longitude":151.2099,"reserved":0,"last_update":"0001-01-01T00:00:00Z","name_a2s":"Uncletopia | Sydney | 5 | Stopwatch Beta","protocol":17,"map":"cp_snakewater_final1","folder":"tf","game":"Team Fortress","app_id":440,"player_count":0,"max_players":24,"Bots":0,"server_type":"Dedicated","server_os":"Linux","password":true,"vac":true,"version":"7757534","steam_id":85568392925397959,"keywords":["cp","nocrits","nodmgspread","uncletopia"],"game_id":440,"stv_port":27056,"stv_name":"Uncletopia | Sydney | 5 | Stopwatch Beta | STV","players":null},{"server_id":59,"name":"Uncletopia | Sydney | 6 | Community","name_short":"syd-6","host":"syd-1.au.uncletopia.com","port":27065,"enabled":true,"region":"au","cc":"au","latitude":-33.865143,"longitude":151.2099,"reserved":0,"last_update":"0001-01-01T00:00:00Z","name_a2s":"Uncletopia | Sydney | 6 | Community","protocol":17,"map":"workshop/cp_sulfur_rc2.ugc619869471","folder":"tf","game":"Team Fortress","app_id":440,"player_count":0,"max_players":24,"Bots":0,"server_type":"Dedicated","server_os":"Linux","password":true,"vac":true,"version":"7757534","steam_id":85568392925397960,"keywords":["cp","nocrits","nodmgspread","uncletopia"],"game_id":440,"stv_port":27066,"stv_name":"Uncletopia | Sydney | 6 | Community | STV","players":null},{"server_id":49,"name":"Uncletopia | Warsaw | 1 | All Maps","name_short":"waw-1","host":"waw-1.pl.uncletopia.com","port":27015,"enabled":true,"region":"eu","cc":"pl","latitude":52.2297,"longitude":21.017532,"reserved":0,"last_update":"0001-01-01T00:00:00Z","name_a2s":"","protocol":0,"map":"","folder":"","game":"","app_id":0,"player_count":0,"max_players":0,"Bots":0,"server_type":"","server_os":"","password":false,"vac":false,"version":"","steam_id":0,"keywords":null,"game_id":0,"stv_port":0,"stv_name":"","players":null},{"server_id":50,"name":"Uncletopia | Warsaw | 2 | All Maps","name_short":"waw-2","host":"waw-1.pl.uncletopia.com","port":27025,"enabled":true,"region":"eu","cc":"pl","latitude":52.2297,"longitude":21.017532,"reserved":0,"last_update":"0001-01-01T00:00:00Z","name_a2s":"Uncletopia | Warsaw | 2 | All Maps","protocol":17,"map":"cp_process_final","folder":"tf","game":"Team Fortress","app_id":440,"player_count":0,"max_players":24,"Bots":0,"server_type":"Dedicated","server_os":"Linux","password":true,"vac":true,"version":"7757534","steam_id":85568392925397851,"keywords":["cp","nocrits","nodmgspread","uncletopia"],"game_id":440,"stv_port":27026,"stv_name":"Uncletopia | Warsaw | 2 | All Maps | STV","players":null},{"server_id":51,"name":"Uncletopia | Warsaw | 3 | All Maps","name_short":"waw-3","host":"waw-1.pl.uncletopia.com","port":27035,"enabled":true,"region":"eu","cc":"pl","latitude":52.2297,"longitude":21.017532,"reserved":0,"last_update":"0001-01-01T00:00:00Z","name_a2s":"Uncletopia | Warsaw | 3 | All Maps","protocol":17,"map":"pl_barnblitz","folder":"tf","game":"Team Fortress","app_id":440,"player_count":0,"max_players":24,"Bots":0,"server_type":"Dedicated","server_os":"Linux","password":true,"vac":true,"version":"7757534","steam_id":85568392925397852,"keywords":["nocrits","nodmgspread","payload","uncletopia"],"game_id":440,"stv_port":27036,"stv_name":"Uncletopia | Warsaw | 3 | All Maps | STV","players":null},{"server_id":52,"name":"Uncletopia | Warsaw | 4 | All Maps","name_short":"waw-4","host":"waw-1.pl.uncletopia.com","port":27045,"enabled":true,"region":"eu","cc":"pl","latitude":52.2297,"longitude":21.017532,"reserved":0,"last_update":"0001-01-01T00:00:00Z","name_a2s":"Uncletopia | Warsaw | 4 | All Maps","protocol":17,"map":"koth_lakeside_final","folder":"tf","game":"Team Fortress","app_id":440,"player_count":0,"max_players":24,"Bots":0,"server_type":"Dedicated","server_os":"Linux","password":true,"vac":true,"version":"7757534","steam_id":85568392925397853,"keywords":["cp","nocrits","nodmgspread","uncletopia"],"game_id":440,"stv_port":27046,"stv_name":"Uncletopia | Warsaw | 4 | All Maps | STV","players":null},{"server_id":53,"name":"Uncletopia | Warsaw | 5 | Stopwatch Beta","name_short":"waw-5","host":"waw-1.pl.uncletopia.com","port":27055,"enabled":true,"region":"eu","cc":"pl","latitude":52.2297,"longitude":21.017532,"reserved":0,"last_update":"0001-01-01T00:00:00Z","name_a2s":"Uncletopia | Warsaw | 5 | Stopwatch Beta","protocol":17,"map":"pl_barnblitz","folder":"tf","game":"Team Fortress","app_id":440,"player_count":0,"max_players":24,"Bots":0,"server_type":"Dedicated","server_os":"Linux","password":true,"vac":true,"version":"7757534","steam_id":85568392925397854,"keywords":["nocrits","nodmgspread","payload","uncletopia"],"game_id":440,"stv_port":27056,"stv_name":"Uncletopia | Warsaw | 5 | Stopwatch Beta | STV","players":null},{"server_id":54,"name":"Uncletopia | Warsaw | 6 | Community","name_short":"waw-6","host":"waw-1.pl.uncletopia.com","port":27065,"enabled":true,"region":"eu","cc":"pl","latitude":52.2297,"longitude":21.017532,"reserved":0,"last_update":"0001-01-01T00:00:00Z","name_a2s":"Uncletopia | Warsaw | 6 | Community","protocol":17,"map":"pl_swiftwater_final1","folder":"tf","game":"Team Fortress","app_id":440,"player_count":0,"max_players":24,"Bots":0,"server_type":"Dedicated","server_os":"Linux","password":true,"vac":true,"version":"7757534","steam_id":85568392925397856,"keywords":["nocrits","nodmgspread","payload","uncletopia"],"game_id":440,"stv_port":27066,"stv_name":"Uncletopia | Warsaw | 6 | Community | STV","players":null}]}