{"status":true,"message":"","result":[{"server_id":9,"name":"Uncletopia | Atlanta | 1 | All Maps","name_short":"atl-1","host":"atl-1.us.uncletopia.com","port":27015,"enabled":true,"region":"us-east","cc":"us","latitude":33.753746,"longitude":-84.38633,"reserved":0,"last_update":"0001-01-01T00:00:00Z","name_a2s":"Uncletopia | Atlanta | 1 | All Maps","protocol":17,"map":"plr_pipeline","folder":"tf","game":"Team Fortress","app_id":440,"player_count":24,"max_players":24,"Bots":0,"server_type":"Dedicated","server_os":"Linux","password":true,"vac":true,"version":"7757534","steam_id":85568392924469982,"keywords":["nocrits","nodmgspread","payload","uncletopia"],"game_id":440,"stv_port":27016,"stv_name":"Uncletopia | Atlanta | 1 | All Maps | STV","players":[{"user_id":387,"name":"{[F.H]} Hydroida","steam_id":76561197999797274,"connected_time":4526000000000,"state":"active","ping":82},{"user_id":436,"name":"NooBHatteR","steam_id":76561198077662703,"connected_time":1372000000000,"state":"active","ping":106},{"user_id":442,"name":"Dunkle","steam_id":76561198041903573,"connected_time":465000000000,"state":"active","ping":105},{"user_id":441,"name":"lker","steam_id":76561197976975075,"connected_time":579000000000,"state":"active","ping":44},{"user_id":438,"name":"cyclops","steam_id":76561197970370198,"connected_time":961000000000,"state":"active","ping":72},{"user_id":443,"name":"aViSiNg","steam_id":76561198161198820,"connected_time":448000000000,"state":"active","ping":57},{"user_id":388,"name":"Javelin","steam_id":76561198068782818,"connected_time":4486000000000,"state":"active","ping":61},{"user_id":445,"name":"Lil' Dunky","steam_id":76561198163572748,"connected_time":427000000000,"state":"active","ping":85},{"user_id":391,"name":"BLU1 Save your wifi","steam_id":76561198286147372,"connected_time":4194000000000,"state":"active","ping":57},{"user_id":432,"name":"IZISOO","steam_id":76561198970380577,"connected_time":1873000000000,"state":"active","ping":70},{"user_id":446,"name":"Shmoopy","steam_id":76561198030459152,"connected_time":409000000000,"state":"active","ping":60},{"user_id":447,"name":"kametro4","steam_id":76561198835430429,"connected_time":386000000000,"state":"active","ping":96},{"user_id":448,"name":"DiscoTraveler","steam_id":76561199240168088,"connected_time":382000000000,"state":"active","ping":55},{"user_id":426,"name":"☙ Corrupt ❧","steam_id":76561197977631915,"connected_time":2102000000000,"state":"active","ping":68},{"user_id":449,"name":"Spiderfight1","steam_id":76561199189991528,"connected_time":348000000000,"state":"active","ping":70},{"user_id":410,"name":"The Horselords and Animal Gods","steam_id":76561197975094050,"connected_time":3411000000000,"state":"active","ping":113},{"user_id":451,"name":"cowabunga!","steam_id":76561198361326855,"connected_time":43000000000,"state":"active","ping":60},{"user_id":302,"name":"BLU1 | cola","steam_id":76561198374390458,"connected_time":12333000000000,"state":"active","ping":48},{"user_id":439,"name":"funny squid!!!!","steam_id":76561198024264744,"connected_time":643000000000,"state":"active","ping":59},{"user_id":418,"name":"Knuckles","steam_id":76561198000704259,"connected_time":3052000000000,"state":"active","ping":60},{"user_id":434,"name":"General French","steam_id":76561198321617148,"connected_time":1523000000000,"state":"active","ping":76},{"user_id":425,"name":"Do Moose go Moo?","steam_id":76561198073550620,"connected_time":2184000000000,"state":"active","ping":60},{"user_id":450,"name":"Moneybags'","steam_id":76561198146759413,"connected_time":275000000000,"state":"active","ping":112},{"user_id":430,"name":"Frajer","steam_id":76561198059129680,"connected_time":2003000000000,"state":"active","ping":82}]},{"server_id":400,"name":"Uncletopia | Atlanta | 3 | Stopwatch Beta","name_short":"atl-3","host":"atl-1.us.uncletopia.com","port":27035,"enabled":true,"region":"us-east","cc":"us","latitude":33.753746,"longitude":-84.38633,"reserved":0,"last_update":"0001-01-01T00:00:00Z","name_a2s":"Uncletopia | Atlanta | 3 | Stopwatch Beta","protocol":17,"map":"workshop/pl_badwater_pro_v12.ugc2142942074","folder":"tf","game":"Team Fortress","app_id":440,"player_count":0,"max_players":24,"Bots":0,"server_type":"Dedicated","server_os":"Linux","password":true,"vac":true,"version":"7757534","steam_id":85568392924515187,"keywords":["nocrits","nodmgspread","payload","uncletopia"],"game_id":440,"stv_port":27036,"stv_name":"Uncletopia | Atlanta | 3 | Stopwatch Beta | STV","players":null},{"server_id":401,"name":"Uncletopia | Atlanta | 4 | No Payload","name_short":"atl-4","host":"atl-1.us.uncletopia.com","port":27045,"enabled":true,"region":"us-east","cc":"us","latitude":33.753746,"longitude":-84.38633,"reserved":0,"last_update":"0001-01-01T00:00:00Z","name_a2s":"Uncletopia | Atlanta | 4 | No Payload","protocol":17,"map":"pl_pier","folder":"tf","game":"Team Fortress","app_id":440,"player_count":0,"max_players":24,"Bots":0,"server_type":"Dedicated","server_os":"Linux","password":true,"vac":true,"version":"7723704","steam_id":85568392924515188,"keywords":["nocrits","nodmgspread","payload","uncletopia"],"game_id":440,"stv_port":27046,"stv_name":"Uncletopia | Atlanta | 4 | No Payload | STV","players":null},{"server_id":2,"name":"Uncletopia | Chicago | 1 | All Maps","name_short":"chi-1","host":"chi-1.us.uncletopia.com","port":27015,"enabled":true,"region":"us-central","cc":"us","latitude":41.881832,"longitude":-87.62318,"reserved":0,"last_update":"0001-01-01T00:00:00Z","name_a2s":"Uncletopia | Chicago | 1 | All Maps","protocol":17,"map":"pl_snowycoast","folder":"tf","game":"Team Fortress","app_id":440,"player_count":24,"max_players":24,"Bots":0,"server_type":"Dedicated","server_os":"Linux","password":true,"vac":true,"version":"7757534","steam_id":85568392924469984,"keywords":["nocrits","nodmgspread","payload","uncletopia"],"game_id":440,"stv_port":27016,"stv_name":"Uncletopia | Chicago | 1 | All Maps | STV","players":[{"user_id":588,"name":"Sink","steam_id":76561198192420249,"connected_time":962000000000,"state":"active","ping":54},{"user_id":589,"name":"arashsmash","steam_id":76561198277649058,"connected_time":742000000000,"state":"active","ping":58},{"user_id":601,"name":"Ye ( I Love Caulk ) West","steam_id":76561198068830312,"connected_time":201000000000,"state":"active","ping":45},{"user_id":569,"name":"Lore","steam_id":76561198098407538,"connected_time":2294000000000,"state":"active","ping":47},{"user_id":593,"name":"Andraw","steam_id":76561198057499385,"connected_time":477000000000,"state":"active","ping":59},{"user_id":564,"name":"「グレーズ・エタ」","steam_id":76561198304045164,"connected_time":2563000000000,"state":"active","ping":65},{"user_id":594,"name":"Bait","steam_id":76561198336489647,"connected_time":473000000000,"state":"active","ping":64},{"user_id":585,"name":"Lucky ¤11¤","steam_id":76561198046529478,"connected_time":1281000000000,"state":"active","ping":81},{"user_id":595,"name":"RED1 | nomad","steam_id":76561197998740399,"connected_time":436000000000,"state":"active","ping":65},{"user_id":596,"name":"Green Icicle","steam_id":76561198069624529,"connected_time":433000000000,"state":"active","ping":92},{"user_id":523,"name":"Fuegan Ra","steam_id":76561198287923849,"connected_time":6690000000000,"state":"active","ping":47},{"user_id":597,"name":"Mickey","steam_id":76561197976868960,"connected_time":423000000000,"state":"active","ping":155},{"user_id":592,"name":"Drakon2689","steam_id":76561198085074245,"connected_time":499000000000,"state":"active","ping":86},{"user_id":525,"name":"Foomfa","steam_id":76561198007033616,"connected_time":6533000000000,"state":"active","ping":85},{"user_id":590,"name":"NOLSEY","steam_id":76561198108959504,"connected_time":565000000000,"state":"active","ping":53},{"user_id":598,"name":"hedahman","steam_id":76561198052398134,"connected_time":412000000000,"state":"active","ping":93},{"user_id":566,"name":"debin","steam_id":76561198070711217,"connected_time":2322000000000,"state":"active","ping":51},{"user_id":577,"name":"richard clock","steam_id":76561198048455671,"connected_time":1652000000000,"state":"active","ping":60},{"user_id":583,"name":"ultralisk52","steam_id":76561198051666604,"connected_time":1501000000000,"state":"active","ping":65},{"user_id":599,"name":"Finn","steam_id":76561198179960193,"connected_time":409000000000,"state":"active","ping":129},{"user_id":587,"name":"Funboringness","steam_id":76561198115648071,"connected_time":1039000000000,"state":"active","ping":101},{"user_id":584,"name":"Soup0fTheDay","steam_id":76561199039857744,"connected_time":1305000000000,"state":"active","ping":50},{"user_id":600,"name":"Zomen","steam_id":76561198134901918,"connected_time":407000000000,"state":"active","ping":99},{"user_id":586,"name":"Oddity","steam_id":76561198086151937,"connected_time":1065000000000,"state":"active","ping":59}]},{"server_id":106,"name":"Uncletopia | Chicago | 2 | All Maps","name_short":"chi-2","host":"chi-1.us.uncletopia.com","port":27025,"enabled":true,"region":"us-central","cc":"us","latitude":41.881832,"longitude":-87.62318,"reserved":0,"last_update":"0001-01-01T00:00:00Z","name_a2s":"Uncletopia | Chicago | 2 | All Maps","protocol":17,"map":"pl_snowycoast","folder":"tf","game":"Team Fortress","app_id":440,"player_count":23,"max_players":24,"Bots":0,"server_type":"Dedicated","server_os":"Linux","password":true,"vac":true,"version":"7757534","steam_id":85568392924469985,"keywords":["nocrits","nodmgspread","payload","uncletopia"],"game_id":440,"stv_port":27026,"stv_name":"Uncletopia | Chicago | 2 | All Maps | STV","players":[{"user_id":412,"name":"Lilac","steam_id":76561198977523626,"connected_time":141000000000,"state":"active","ping":73},{"user_id":386,"name":"DS8U","steam_id":76561198151554321,"connected_time":1311000000000,"state":"active","ping":54},{"user_id":410,"name":"Ave","steam_id":76561198084710033,"connected_time":175000000000,"state":"active","ping":108},{"user_id":370,"name":"Sirius","steam_id":76561198031295225,"connected_time":2591000000000,"state":"active","ping":46},{"user_id":398,"name":"Chuckled","steam_id":76561198217425919,"connected_time":1126000000000,"state":"active","ping":77},{"user_id":416,"name":"Discourse","steam_id":76561198984286678,"connected_time":85000000000,"state":"active","ping":49},{"user_id":411,"name":"Entomophilia","steam_id":76561198980062131,"connected_time":175000000000,"state":"active","ping":61},{"user_id":351,"name":"NovaSc6ut","steam_id":76561198277163301,"connected_time":4908000000000,"state":"active","ping":67},{"user_id":400,"name":"Chicken but","steam_id":76561198257872736,"connected_time":943000000000,"state":"active","ping":60},{"user_id":397,"name":"coffemonster","steam_id":76561198112933478,"connected_time":1154000000000,"state":"active","ping":61},{"user_id":367,"name":"HTA","steam_id":76561198043879140,"connected_time":2606000000000,"state":"active","ping":45},{"user_id":388,"name":"FightyPNW","steam_id":76561198981808810,"connected_time":1272000000000,"state":"active","ping":105},{"user_id":381,"name":"warewarewa","steam_id":76561197965022076,"connected_time":2104000000000,"state":"active","ping":59},{"user_id":407,"name":"Sharmat","steam_id":76561198103492042,"connected_time":366000000000,"state":"active","ping":57},{"user_id":391,"name":"Architect","steam_id":76561198015242016,"connected_time":1256000000000,"state":"active","ping":54},{"user_id":413,"name":"HARD AS FUCK","steam_id":76561198812086921,"connected_time":135000000000,"state":"active","ping":60},{"user_id":414,"name":"TheCheeseWizard","steam_id":76561198058931315,"connected_time":134000000000,"state":"active","ping":60},{"user_id":373,"name":"Skashur","steam_id":76561198364924060,"connected_time":2565000000000,"state":"active","ping":47},{"user_id":415,"name":"slimjim557","steam_id":76561199094710853,"connected_time":110000000000,"state":"active","ping":152},{"user_id":417,"name":"Sarbanes-Oxley","steam_id":76561197975898479,"connected_time":77000000000,"state":"active","ping":73},{"user_id":403,"name":"BuddyMocha","steam_id":76561198054654515,"connected_time":588000000000,"state":"active","ping":60},{"user_id":418,"name":"a grade 9 fixer","steam_id":76561198116908911,"connected_time":57000000000,"state":"active","ping":76},{"user_id":395,"name":"carrion goat she/it","steam_id":76561198262064871,"connected_time":1191000000000,"state":"active","ping":68}]},{"server_id":402,"name":"Uncletopia | Chicago | 3 | All Maps","name_short":"chi-3","host":"chi-1.us.uncletopia.com","port":27035,"enabled":true,"region":"us-central","cc":"us","latitude":41.881832,"longitude":-87.62318,"reserved":0,"last_update":"0001-01-01T00:00:00Z","name_a2s":"Uncletopia | Chicago | 3 | All Maps","protocol":17,"map":"koth_viaduct","folder":"tf","game":"Team Fortress","app_id":440,"player_count":24,"max_players":24,"Bots":0,"server_type":"Dedicated","server_os":"Linux","password":true,"vac":true,"version":"7757534","steam_id":85568392924515191,"keywords":["cp","nocrits","nodmgspread","uncletopia"],"game_id":440,"stv_port":27036,"stv_name":"Uncletopia | Chicago | 3 | All Maps | STV","players":[{"user_id":906,"name":"unfunnytool","steam_id":76561198060560359,"connected_time":430000000000,"state":"active","ping":45},{"user_id":879,"name":"biofio","steam_id":76561198019094571,"connected_time":2571000000000,"state":"active","ping":108},{"user_id":867,"name":"Totes Adorbs!","steam_id":76561197994655618,"connected_time":3161000000000,"state":"active","ping":65},{"user_id":908,"name":"herb","steam_id":76561198185980055,"connected_time":318000000000,"state":"active","ping":57},{"user_id":902,"name":"Farseer Ulwithy","steam_id":76561197965179245,"connected_time":566000000000,"state":"active","ping":83},{"user_id":860,"name":"Foreskin","steam_id":76561198353569408,"connected_time":4034000000000,"state":"active","ping":101},{"user_id":899,"name":"morningstar","steam_id":76561199129953021,"connected_time":913000000000,"state":"active","ping":127},{"user_id":895,"name":"bingus 777 (lottery!! jackpot!!","steam_id":76561198191587983,"connected_time":1191000000000,"state":"active","ping":75},{"user_id":870,"name":"ZekeN0Tech","steam_id":76561198042151365,"connected_time":3098000000000,"state":"active","ping":53},{"user_id":871,"name":"Bl0ckM4n","steam_id":76561199016413171,"connected_time":3093000000000,"state":"active","ping":98},{"user_id":903,"name":"womthedom","steam_id":76561198088768287,"connected_time":524000000000,"state":"active","ping":51},{"user_id":900,"name":"pinglefingle","steam_id":76561198216580197,"connected_time":753000000000,"state":"active","ping":76},{"user_id":904,"name":"cologne","steam_id":76561198069600113,"connected_time":488000000000,"state":"active","ping":58},{"user_id":898,"name":"gyroFSnoob","steam_id":76561198158404683,"connected_time":970000000000,"state":"active","ping":79},{"user_id":845,"name":"I LOVE GAMBIT","steam_id":76561198058752131,"connected_time":6039000000000,"state":"active","ping":104},{"user_id":890,"name":"tv/BLNKT","steam_id":76561198004481006,"connected_time":1511000000000,"state":"active","ping":105},{"user_id":909,"name":"M1C4A3L","steam_id":76561198009980085,"connected_time":192000000000,"state":"active","ping":91},{"user_id":875,"name":"Drake from State Farm","steam_id":76561199069029812,"connected_time":3047000000000,"state":"active","ping":104},{"user_id":901,"name":"morbissey","steam_id":76561198072592880,"connected_time":694000000000,"state":"active","ping":44},{"user_id":911,"name":"matkaster","steam_id":76561197998546486,"connected_time":158000000000,"state":"active","ping":60},{"user_id":846,"name":"Pyromanncer TF","steam_id":76561198018508494,"connected_time":6033000000000,"state":"active","ping":91},{"user_id":847,"name":"Mancer","steam_id":76561198002825637,"connected_time":6013000000000,"state":"active","ping":92},{"user_id":907,"name":"❄Brrr-azorn❄","steam_id":76561198096327396,"connected_time":424000000000,"state":"active","ping":113},{"user_id":894,"name":"huh","steam_id":76561198272057200,"connected_time":1337000000000,"state":"active","ping":94}]},{"server_id":403,"name":"Uncletopia | Chicago | 4 | All Maps","name_short":"chi-4","host":"chi-1.us.uncletopia.com","port":27045,"enabled":true,"region":"us-central","cc":"us","latitude":41.881832,"longitude":-87.62318,"reserved":0,"last_update":"0001-01-01T00:00:00Z","name_a2s":"Uncletopia | Chicago | 4 | All Maps","protocol":17,"map":"koth_viaduct","folder":"tf","game":"Team Fortress","app_id":440,"player_count":0,"max_players":24,"Bots":0,"server_type":"Dedicated","server_os":"Linux","password":true,"vac":true,"version":"7757534","steam_id":85568392924515193,"keywords":["cp","nocrits","nodmgspread","uncletopia"],"game_id":440,"stv_port":27046,"stv_name":"Uncletopia | Chicago | 4 | All Maps | STV","players":null},{"server_id":36,"name":"Uncletopia | Chicago | 5 | All Maps","name_short":"chi-5","host":"chi-2.us.uncletopia.com","port":27015,"enabled":true,"region":"us-central","cc":"us","latitude":41.881832,"longitude":-87.62318,"reserved":0,"last_update":"0001-01-01T00:00:00Z","name_a2s":"Uncletopia | Chicago | 5 | All Maps","protocol":17,"map":"pl_pier","folder":"tf","game":"Team Fortress","app_id":440,"player_count":25,"max_players":24,"Bots":0,"server_type":"Dedicated","server_os":"Linux","password":true,"vac":true,"version":"7757534","steam_id":85568392924866362,"keywords":["nocrits","nodmgspread","payload","uncletopia"],"game_id":440,"stv_port":27016,"stv_name":"Uncletopia | Chicago | 5 | All Maps | STV","players":[{"user_id":161,"name":"le sneeze","steam_id":76561198050213111,"connected_time":1753000000000,"state":"active","ping":74},{"user_id":130,"name":"Benaty","steam_id":76561198057517944,"connected_time":4543000000000,"state":"active","ping":149},{"user_id":166,"name":"Candy Sparkles","steam_id":76561198126871264,"connected_time":1345000000000,"state":"active","ping":91},{"user_id":158,"name":"Murgatroyd","steam_id":76561198077350331,"connected_time":1947000000000,"state":"active","ping":97},{"user_id":99,"name":"HanakoToast","steam_id":76561198045233131,"connected_time":6388000000000,"state":"active","ping":104},{"user_id":57,"name":"captainspatklz","steam_id":76561198432167270,"connected_time":10870000000000,"state":"active","ping":79},{"user_id":153,"name":"Syle","steam_id":76561198059986090,"connected_time":2464000000000,"state":"active","ping":73},{"user_id":127,"name":"klaus","steam_id":76561199008634102,"connected_time":4647000000000,"state":"active","ping":77},{"user_id":143,"name":"Elias","steam_id":76561198106431732,"connected_time":3530000000000,"state":"active","ping":57},{"user_id":177,"name":"pudl","steam_id":76561198043726592,"connected_time":2000000000,"state":"spawning","ping":57},{"user_id":168,"name":"1Cream","steam_id":76561198059743498,"connected_time":1333000000000,"state":"active","ping":57},{"user_id":162,"name":"goron","steam_id":76561198051089144,"connected_time":1651000000000,"state":"active","ping":80},{"user_id":169,"name":"CFDv20","steam_id":76561198450073779,"connected_time":1331000000000,"state":"active","ping":96},{"user_id":176,"name":"poopy joe","steam_id":76561198007742906,"connected_time":772000000000,"state":"active","ping":94},{"user_id":142,"name":"Dot.","steam_id":76561198149463984,"connected_time":3623000000000,"state":"active","ping":68},{"user_id":163,"name":"Kapreesi","steam_id":76561198163361200,"connected_time":1528000000000,"state":"active","ping":75},{"user_id":155,"name":"Shamaury","steam_id":76561198073773862,"connected_time":2137000000000,"state":"active","ping":70},{"user_id":134,"name":"JHorse","steam_id":76561198106418032,"connected_time":4444000000000,"state":"active","ping":100},{"user_id":146,"name":"Tom","steam_id":76561199175627067,"connected_time":3110000000000,"state":"active","ping":71},{"user_id":164,"name":"Meh but good","steam_id":76561199005772246,"connected_time":1516000000000,"state":"active","ping":73},{"user_id":170,"name":"thanksgiving turkey","steam_id":76561198976876859,"connected_time":1283000000000,"state":"active","ping":89},{"user_id":171,"name":"*****setget","steam_id":76561198118824188,"connected_time":1267000000000,"state":"active","ping":120},{"user_id":174,"name":"Dangerous Kliff","steam_id":76561198961326131,"connected_time":1196000000000,"state":"active","ping":57},{"user_id":175,"name":"brian eats you","steam_id":76561198109901138,"connected_time":1038000000000,"state":"active","ping":79},{"user_id":178,"name":"Ryan Lewis truther","steam_id":76561198050505826,"connected_time":2000000000,"state":"spawning","ping":74}]},{"server_id":37,"name":"Uncletopia | Chicago | 6 | All Maps","name_short":"chi-6","host":"chi-2.us.uncletopia.com","port":27025,"enabled":true,"region":"us-central","cc":"us","latitude":41.881832,"longitude":-87.62318,"reserved":0,"last_update":"0001-01-01T00:00:00Z","name_a2s":"Uncletopia | Chicago | 6 | All Maps","protocol":17,"map":"pl_pier","folder":"tf","game":"Team Fortress","app_id":440,"player_count":24,"max_players":24,"Bots":0,"server_type":"Dedicated","server_os":"Linux","password":true,"vac":true,"version":"7757534","steam_id":85568392924866363,"keywords":["nocrits","nodmgspread","payload","uncletopia"],"game_id":440,"stv_port":27026,"stv_name":"Uncletopia | Chicago | 6 | All Maps | STV","players":[{"user_id":548,"name":"lft dw4rf","steam_id":76561198046953937,"connected_time":474000000000,"state":"active","ping":112},{"user_id":546,"name":"MantisTobboggan","steam_id":76561197969447887,"connected_time":506000000000,"state":"active","ping":133},{"user_id":539,"name":"-BRH- Tangled up in Bluegrass","steam_id":76561197987181139,"connected_time":1864000000000,"state":"active","ping":66},{"user_id":547,"name":"Congratulations_","steam_id":76561198031895640,"connected_time":501000000000,"state":"active","ping":65},{"user_id":531,"name":"Раскур","steam_id":76561199467678674,"connected_time":2032000000000,"state":"active","ping":192},{"user_id":504,"name":"Dr. Ｔｉｍｓｋａ","steam_id":76561198272075712,"connected_time":4317000000000,"state":"active","ping":69},{"user_id":494,"name":"TastesLikeTriangle","steam_id":76561198109705599,"connected_time":5979000000000,"state":"active","ping":84},{"user_id":549,"name":"gonurlight","steam_id":76561198935839416,"connected_time":470000000000,"state":"active","ping":99},{"user_id":551,"name":"Wubbox From My Singing Monsters","steam_id":76561198272471440,"connected_time":336000000000,"state":"active","ping":72},{"user_id":540,"name":"loco503","steam_id":76561198827495121,"connected_time":1864000000000,"state":"active","ping":105},{"user_id":499,"name":"Jasmine Rice","steam_id":76561198163163590,"connected_time":5204000000000,"state":"active","ping":73},{"user_id":532,"name":"Mr. Skerpentine","steam_id":76561198137244892,"connected_time":2029000000000,"state":"active","ping":85},{"user_id":525,"name":"⚡Lagiacrus⚡","steam_id":76561198189176634,"connected_time":2777000000000,"state":"active","ping":77},{"user_id":550,"name":"Model CHP-3Y","steam_id":76561198107806145,"connected_time":422000000000,"state":"active","ping":65},{"user_id":522,"name":"Mokaaaa","steam_id":76561198043659301,"connected_time":2848000000000,"state":"active","ping":70},{"user_id":523,"name":"Sauce Hut","steam_id":76561198151922248,"connected_time":2841000000000,"state":"active","ping":76},{"user_id":477,"name":"❤ Brachydios ❤","steam_id":76561198190288063,"connected_time":6821000000000,"state":"active","ping":77},{"user_id":542,"name":"a crazy hobo","steam_id":76561198289650060,"connected_time":1353000000000,"state":"active","ping":80},{"user_id":535,"name":"Deej","steam_id":76561198146874608,"connected_time":1977000000000,"state":"active","ping":68},{"user_id":552,"name":"dmdr1969","steam_id":76561198080469611,"connected_time":199000000000,"state":"active","ping":71},{"user_id":516,"name":"Quatts","steam_id":76561198051482153,"connected_time":3418000000000,"state":"active","ping":59},{"user_id":524,"name":"Trucky","steam_id":76561197988814070,"connected_time":2835000000000,"state":"active","ping":90},{"user_id":537,"name":"Windows Vista Home Premium","steam_id":76561198043764863,"connected_time":1936000000000,"state":"active","ping":100},{"user_id":543,"name":"Mikulazho","steam_id":76561198069263633,"connected_time":1035000000000,"state":"active","ping":135}]},{"server_id":38,"name":"Uncletopia | Chicago | 7 | Stopwatch Beta","name_short":"chi-7","host":"chi-2.us.uncletopia.com","port":27035,"enabled":true,"region":"us-central","cc":"us","latitude":41.881832,"longitude":-87.62318,"reserved":0,"last_update":"0001-01-01T00:00:00Z","name_a2s":"Uncletopia | Chicago | 7 | Stopwatch Beta","protocol":17,"map":"pl_upward","folder":"tf","game":"Team Fortress","app_id":440,"player_count":0,"max_players":24,"Bots":0,"server_type":"Dedicated","server_os":"Linux","password":true,"vac":true,"version":"7757534","steam_id":85568392924866364,"keywords":["nocrits","nodmgspread","payload","uncletopia"],"game_id":440,"stv_port":27036,"stv_name":"Uncletopia | Chicago | 7 | Stopwatch Beta | STV","players":null},{"server_id":39,"name":"Uncletopia | Chicago | 8 | Community","name_short":"chi-8","host":"chi-2.us.uncletopia.com","port":27045,"enabled":true,"region":"us-central","cc":"us","latitude":41.881832,"longitude":-87.62318,"reserved":0,"last_update":"0001-01-01T00:00:00Z","name_a2s":"Uncletopia | Chicago | 8 | Community","protocol":17,"map":"workshop/koth_ashville_final.ugc2130459942","folder":"tf","game":"Team Fortress","app_id":440,"player_count":0,"max_players":24,"Bots":0,"server_type":"Dedicated","server_os":"Linux","password":true,"vac":true,"version":"7757534","steam_id":85568392924866365,"keywords":["cp","nocrits","nodmgspread","uncletopia"],"game_id":440,"stv_port":27046,"stv_name":"Uncletopia | Chicago | 8 | Community | STV","players":null},{"server_id":8,"name":"Uncletopia | Dallas | 1 | All Maps","name_short":"dal-1","host":"dal-1.us.uncletopia.com","port":27015,"enabled":true,"region":"us-central","cc":"us","latitude":32.779167,"longitude":-96.80889,"reserved":0,"last_update":"0001-01-01T00:00:00Z","name_a2s":"Uncletopia | Dallas | 1 | All Maps","protocol":17,"map":"pl_frontier_final","folder":"tf","game":"Team Fortress","app_id":440,"player_count":24,"max_players":24,"Bots":0,"server_type":"Dedicated","server_os":"Linux","password":true,"vac":true,"version":"7757534","steam_id":85568392924469986,"keywords":["nocrits","nodmgspread","payload","uncletopia"],"game_id":440,"stv_port":27016,"stv_name":"Uncletopia | Dallas | 1 | All Maps | STV","players":[{"user_id":668,"name":"FATHER","steam_id":76561198041308977,"connected_time":2111000000000,"state":"active","ping":42},{"user_id":624,"name":"illious","steam_id":76561198169925494,"connected_time":4964000000000,"state":"active","ping":90},{"user_id":682,"name":"Mightythor","steam_id":76561199162355715,"connected_time":583000000000,"state":"active","ping":87},{"user_id":652,"name":"Mahiru Koizumi","steam_id":76561198164782653,"connected_time":2874000000000,"state":"active","ping":90},{"user_id":655,"name":"social distance warrior","steam_id":76561198128992994,"connected_time":2284000000000,"state":"active","ping":90},{"user_id":656,"name":"Cagnus Marlsen","steam_id":76561198063341193,"connected_time":2275000000000,"state":"active","ping":41},{"user_id":683,"name":"The Assistant Regional Manager","steam_id":76561199221484936,"connected_time":574000000000,"state":"active","ping":92},{"user_id":657,"name":"GONE GRUSTLIN'","steam_id":76561198209881263,"connected_time":2273000000000,"state":"active","ping":84},{"user_id":678,"name":"Chess_Masterson","steam_id":76561198079550950,"connected_time":928000000000,"state":"active","ping":66},{"user_id":684,"name":"Dynamo","steam_id":76561198057875639,"connected_time":565000000000,"state":"active","ping":70},{"user_id":689,"name":"iluvtoust","steam_id":76561198869269207,"connected_time":407000000000,"state":"active","ping":54},{"user_id":637,"name":"gerg","steam_id":76561197997127387,"connected_time":4252000000000,"state":"active","ping":91},{"user_id":681,"name":"Facehurt","steam_id":76561198028504034,"connected_time":624000000000,"state":"active","ping":104},{"user_id":686,"name":"SuperChief","steam_id":76561198046519824,"connected_time":545000000000,"state":"active","ping":59},{"user_id":671,"name":"pandora da king","steam_id":76561198075490385,"connected_time":1800000000000,"state":"active","ping":80},{"user_id":622,"name":"gatorbelt","steam_id":76561198145784505,"connected_time":4993000000000,"state":"active","ping":97},{"user_id":662,"name":"ShredMaan","steam_id":76561198429982138,"connected_time":2223000000000,"state":"active","ping":82},{"user_id":687,"name":"moe","steam_id":76561198929586245,"connected_time":492000000000,"state":"active","ping":90},{"user_id":664,"name":"Box of Gael","steam_id":76561199012900656,"connected_time":2207000000000,"state":"active","ping":57},{"user_id":690,"name":"QueenKira","steam_id":76561198136543848,"connected_time":169000000000,"state":"active","ping":70},{"user_id":691,"name":"Redd Guy","steam_id":76561198041034155,"connected_time":123000000000,"state":"active","ping":73},{"user_id":666,"name":"Ocktorock","steam_id":76561198211636619,"connected_time":2181000000000,"state":"active","ping":106},{"user_id":680,"name":"SekksualJackal","steam_id":76561198079243835,"connected_time":750000000000,"state":"active","ping":94},{"user_id":676,"name":"PLATYPUS","steam_id":76561198255796625,"connected_time":1006000000000,"state":"active","ping":131}]},{"server_id":108,"name":"Uncletopia | Dallas | 2 | All Maps","name_short":"dal-2","host":"dal-1.us.uncletopia.com","port":27025,"enabled":true,"region":"us-central","cc":"us","latitude":32.779167,"longitude":-96.80889,"reserved":0,"last_update":"0001-01-01T00:00:00Z","name_a2s":"Uncletopia | Dallas | 2 | All Maps","protocol":17,"map":"koth_lakeside_final","folder":"tf","game":"Team Fortress","app_id":440,"player_count":20,"max_players":24,"Bots":0,"server_type":"Dedicated","server_os":"Linux","password":true,"vac":true,"version":"7757534","steam_id":85568392924469988,"keywords":["cp","nocrits","nodmgspread","uncletopia"],"game_id":440,"stv_port":27026,"stv_name":"Uncletopia | Dallas | 2 | All Maps | STV","players":[{"user_id":382,"name":"An00bis","steam_id":76561198044084508,"connected_time":419000000000,"state":"active","ping":61},{"user_id":326,"name":"Quaker Oats","steam_id":76561197992800293,"connected_time":3618000000000,"state":"active","ping":78},{"user_id":383,"name":"O bez","steam_id":76561198841579939,"connected_time":386000000000,"state":"active","ping":96},{"user_id":377,"name":"RIPannefrank","steam_id":76561198382430954,"connected_time":839000000000,"state":"active","ping":106},{"user_id":328,"name":"Dr. Bobo","steam_id":76561198271696761,"connected_time":3522000000000,"state":"active","ping":62},{"user_id":352,"name":"Carbon Copy","steam_id":76561198042570322,"connected_time":2216000000000,"state":"active","ping":72},{"user_id":384,"name":"Knightly Knight","steam_id":76561198399569659,"connected_time":372000000000,"state":"active","ping":60},{"user_id":385,"name":"Chillin Turt","steam_id":76561198025796849,"connected_time":369000000000,"state":"active","ping":72},{"user_id":386,"name":"Dunbat","steam_id":76561198384433562,"connected_time":175000000000,"state":"active","ping":74},{"user_id":358,"name":"Seanstarman Phillips","steam_id":76561198059812384,"connected_time":1861000000000,"state":"active","ping":163},{"user_id":338,"name":"Autogyro","steam_id":76561198047943679,"connected_time":3246000000000,"state":"active","ping":53},{"user_id":381,"name":"「Spud Wrench」","steam_id":76561198089615706,"connected_time":451000000000,"state":"active","ping":47},{"user_id":374,"name":"Milk T34","steam_id":76561198116115227,"connected_time":1082000000000,"state":"active","ping":83},{"user_id":375,"name":"TheMostEpicest","steam_id":76561198907491719,"connected_time":1039000000000,"state":"active","ping":73},{"user_id":360,"name":"deathstar0611","steam_id":76561198120476410,"connected_time":1742000000000,"state":"active","ping":87},{"user_id":336,"name":"Pizza","steam_id":76561198118748364,"connected_time":3297000000000,"state":"active","ping":80},{"user_id":321,"name":"butter dog","steam_id":76561198830263144,"connected_time":4193000000000,"state":"active","ping":76},{"user_id":364,"name":"Jarryl97","steam_id":76561198055451373,"connected_time":1653000000000,"state":"active","ping":63},{"user_id":367,"name":"millerbv14","steam_id":76561198453908595,"connected_time":1623000000000,"state":"active","ping":81},{"user_id":379,"name":"Kelpy G","steam_id":76561198105330587,"connected_time":813000000000,"state":"active","ping":58}]},{"server_id":5,"name":"Uncletopia | Frankfurt | 1 | All Maps","name_short":"frk-1","host":"frk-1.de.uncletopia.com","port":27015,"enabled":true,"region":"eu","cc":"de","latitude":50.110924,"longitude":8.682127,"reserved":0,"last_update":"0001-01-01T00:00:00Z","name_a2s":"Uncletopia | Frankfurt | 1 | All Maps","protocol":17,"map":"pl_borneo","folder":"tf","game":"Team Fortress","app_id":440,"player_count":0,"max_players":24,"Bots":0,"server_type":"Dedicated","server_os":"Linux","password":true,"vac":true,"version":"7757534","steam_id":85568392924469989,"keywords":["nocrits","nodmgspread","payload","uncletopia"],"game_id":440,"stv_port":27016,"stv_name":"Uncletopia | Frankfurt | 1 | All Maps | STV","players":null},{"server_id":110,"name":"Uncletopia | Frankfurt | 2 | All Maps","name_short":"frk-2","host":"frk-1.de.uncletopia.com","port":27025,"enabled":true,"region":"eu","cc":"de","latitude":50.110924,"longitude":8.682127,"reserved":0,"last_update":"0001-01-01T00:00:00Z","name_a2s":"Uncletopia | Frankfurt | 2 | All Maps","protocol":17,"map":"cp_altitude","folder":"tf","game":"Team Fortress","app_id":440,"player_count":0,"max_players":24,"Bots":0,"server_type":"Dedicated","server_os":"Linux","password":true,"vac":true,"version":"7757534","steam_id":85568392924469990,"keywords":["cp","nocrits","nodmgspread","uncletopia"],"game_id":440,"stv_port":27026,"stv_name":"Uncletopia | Frankfurt | 2 | All Maps | STV","players":null},{"server_id":308,"name":"Uncletopia | Frankfurt | 3 | All Maps","name_short":"frk-3","host":"frk-1.de.uncletopia.com","port":27035,"enabled":true,"region":"eu","cc":"de","latitude":50.110924,"longitude":8.682127,"reserved":0,"last_update":"0001-01-01T00:00:00Z","name_a2s":"Uncletopia | Frankfurt | 3 | All Maps","protocol":17,"map":"pl_barnblitz","folder":"tf","game":"Team Fortress","app_id":440,"player_count":0,"max_players":24,"Bots":0,"server_type":"Dedicated","server_os":"Linux","password":true,"vac":true,"version":"7757534","steam_id":85568392924504274,"keywords":["nocrits","nodmgspread","payload","uncletopia"],"game_id":440,"stv_port":27036,"stv_name":"Uncletopia | Frankfurt | 3 | All Maps | STV","players":null},{"server_id":309,"name":"Uncletopia | Frankfurt | 4 | All Maps","name_short":"frk-4","host":"frk-1.de.uncletopia.com","port":27045,"enabled":true,"region":"eu","cc":"de","latitude":50.110924,"longitude":8.682127,"reserved":0,"last_update":"0001-01-01T00:00:00Z","name_a2s":"Uncletopia | Frankfurt | 4 | All Maps","protocol":17,"map":"pl_snowycoast","folder":"tf","game":"Team Fortress","app_id":440,"player_count":0,"max_players":24,"Bots":0,"server_type":"Dedicated","server_os":"Linux","password":true,"vac":true,"version":"7757534","steam_id":85568392924504275,"keywords":["nocrits","nodmgspread","payload","uncletopia"],"game_id":440,"stv_port":27046,"stv_name":"Uncletopia | Frankfurt | 4 | All Maps | STV","players":null},{"server_id":310,"name":"Uncletopia | Frankfurt | 5 | All Maps","name_short":"frk-5","host":"frk-1.de.uncletopia.com","port":27055,"enabled":true,"region":"eu","cc":"de","latitude":50.110924,"longitude":8.682127,"reserved":0,"last_update":"0001-01-01T00:00:00Z","name_a2s":"Uncletopia | Frankfurt | 5 | All Maps","protocol":17,"map":"cp_mountainlab","folder":"tf","game":"Team Fortress","app_id":440,"player_count":0,"max_players":24,"Bots":0,"server_type":"Dedicated","server_os":"Linux","password":true,"vac":true,"version":"7757534","steam_id":85568392924504277,"keywords":["cp","nocrits","nodmgspread","uncletopia"],"game_id":440,"stv_port":27056,"stv_name":"Uncletopia | Frankfurt | 5 | All Maps | STV","players":null},{"server_id":311,"name":"Uncletopia | Frankfurt | 6 | All Maps","name_short":"frk-6","host":"frk-1.de.uncletopia.com","port":27065,"enabled":true,"region":"eu","cc":"de","latitude":50.110924,"longitude":8.682127,"reserved":0,"last_update":"0001-01-01T00:00:00Z","name_a2s":"Uncletopia | Frankfurt | 6 | All Maps","protocol":17,"map":"koth_highpass","folder":"tf","game":"Team Fortress","app_id":440,"player_count":0,"max_players":24,"Bots":0,"server_type":"Dedicated","server_os":"Linux","password":true,"vac":true,"version":"7757534","steam_id":85568392924504278,"keywords":["cp","nocrits","nodmgspread","uncletopia"],"game_id":440,"stv_port":27066,"stv_name":"Uncletopia | Frankfurt | 6 | All Maps | STV","players":null},{"server_id":23,"name":"Uncletopia | Frankfurt | 7 | Stopwatch Beta","name_short":"frk-7","host":"frk-1.de.uncletopia.com","port":27075,"enabled":true,"region":"eu","cc":"de","latitude":50.110924,"longitude":8.682127,"reserved":0,"last_update":"0001-01-01T00:00:00Z","name_a2s":"Uncletopia | Frankfurt | 7 | Stopwatch Beta","protocol":17,"map":"pl_borneo","folder":"tf","game":"Team Fortress","app_id":440,"player_count":0,"max_players":24,"Bots":0,"server_type":"Dedicated","server_os":"Linux","password":true,"vac":true,"version":"7757534","steam_id":85568392924742827,"keywords":["nocrits","nodmgspread","payload","uncletopia"],"game_id":440,"stv_port":27076,"stv_name":"Uncletopia | Frankfurt | 7 | Stopwatch Beta | STV","players":null},{"server_id":24,"name":"Uncletopia | Frankfurt | 8 | Community","name_short":"frk-8","host":"frk-1.de.uncletopia.com","port":27085,"enabled":true,"region":"eu","cc":"de","latitude":50.110924,"longitude":8.682127,"reserved":0,"last_update":"0001-01-01T00:00:00Z","name_a2s":"Uncletopia | Frankfurt | 8 | Community","protocol":17,"map":"koth_cascade","folder":"tf","game":"Team Fortress","app_id":440,"player_count":0,"max_players":24,"Bots":0,"server_type":"Dedicated","server_os":"Linux","password":true,"vac":true,"version":"7757534","steam_id":85568392924742828,"keywords":["cp","nocrits","nodmgspread","uncletopia"],"game_id":440,"stv_port":27086,"stv_name":"Uncletopia | Frankfurt | 8 | Community | STV","players":null},{"server_id":202,"name":"Uncletopia | Hong Kong | 1 | All Maps","name_short":"hgk-1","host":"hgk-1.hk.uncletopia.com","port":27015,"enabled":true,"region":"asia","cc":"hk","latitude":22.302711,"longitude":114.177216,"reserved":0,"last_update":"0001-01-01T00:00:00Z","name_a2s":"Uncletopia | Hong Kong | 1 | All Maps","protocol":17,"map":"pl_snowycoast","folder":"tf","game":"Team Fortress","app_id":440,"player_count":3,"max_players":24,"Bots":0,"server_type":"Dedicated","server_os":"Linux","password":true,"vac":true,"version":"7757534","steam_id":85568392924494504,"keywords":["nocrits","nodmgspread","payload","uncletopia"],"game_id":440,"stv_port":27016,"stv_name":"Uncletopia | Hong Kong | 1 | All Maps | STV","players":[{"user_id":25,"name":"MS PowerPoint","steam_id":76561198369523192,"connected_time":3486000000000,"state":"spawning","ping":63},{"user_id":36,"name":"AMOGUS SUSSY BALLS","steam_id":76561198846610729,"connected_time":569000000000,"state":"active","ping":99},{"user_id":37,"name":"bottle man","steam_id":76561199158713933,"connected_time":418000000000,"state":"active","ping":96}]},{"server_id":1,"name":"Uncletopia | Los Angeles | 1 | All Maps","name_short":"lax-1","host":"lax-1.us.uncletopia.com","port":27015,"enabled":true,"region":"us-west","cc":"us","latitude":33.94279,"longitude":-118.41004,"reserved":0,"last_update":"0001-01-01T00:00:00Z","name_a2s":"Uncletopia | Los Angeles | 1 | All Maps","protocol":17,"map":"koth_viaduct","folder":"tf","game":"Team Fortress","app_id":440,"player_count":0,"max_players":24,"Bots":0,"server_type":"Dedicated","server_os":"Linux","password":true,"vac":true,"version":"7757534","steam_id":85568392924469991,"keywords":["cp","nocrits","nodmgspread","uncletopia"],"game_id":440,"stv_port":27016,"stv_name":"Uncletopia | Los Angeles | 1 | All Maps | STV","players":null},{"server_id":112,"name":"Uncletopia | Los Angeles | 2 | All Maps","name_short":"lax-2","host":"lax-1.us.uncletopia.com","port":27025,"enabled":true,"region":"us-west","cc":"us","latitude":33.94279,"longitude":-118.41004,"reserved":0,"last_update":"0001-01-01T00:00:00Z","name_a2s":"Uncletopia | Los Angeles | 2 | All Maps","protocol":17,"map":"cp_dustbowl","folder":"tf","game":"Team Fortress","app_id":440,"player_count":20,"max_players":24,"Bots":0,"server_type":"Dedicated","server_os":"Linux","password":true,"vac":true,"version":"7757534","steam_id":85568392924469992,"keywords":["cp","nocrits","nodmgspread","uncletopia"],"game_id":440,"stv_port":27026,"stv_name":"Uncletopia | Los Angeles | 2 | All Maps | STV","players":[{"user_id":203,"name":"AAAAAAAAAAAAAAAAAAAAAAAAAAAAAAA","steam_id":76561198817866879,"connected_time":5153000000000,"state":"active","ping":110},{"user_id":264,"name":"Justin","steam_id":76561198110865423,"connected_time":117000000000,"state":"active","ping":49},{"user_id":241,"name":"KuleDudeFJF","steam_id":76561198167029999,"connected_time":1923000000000,"state":"active","ping":49},{"user_id":242,"name":"Human Person","steam_id":76561198283855440,"connected_time":1878000000000,"state":"active","ping":104},{"user_id":261,"name":"heavy weapons guy","steam_id":76561198151135298,"connected_time":807000000000,"state":"active","ping":39},{"user_id":265,"name":"luke8538","steam_id":76561198067480563,"connected_time":116000000000,"state":"active","ping":70},{"user_id":224,"name":"Karma's Camera","steam_id":76561198059385185,"connected_time":3681000000000,"state":"active","ping":121},{"user_id":250,"name":"AKKAWI","steam_id":76561198203159952,"connected_time":1573000000000,"state":"active","ping":53},{"user_id":251,"name":"Scampy","steam_id":76561198001506924,"connected_time":1562000000000,"state":"active","ping":89},{"user_id":252,"name":"Schmorgus","steam_id":76561198097144923,"connected_time":1552000000000,"state":"active","ping":59},{"user_id":260,"name":"azureglxy","steam_id":76561198861388315,"connected_time":845000000000,"state":"active","ping":31},{"user_id":240,"name":"world machine","steam_id":76561198020689909,"connected_time":1949000000000,"state":"active","ping":45},{"user_id":266,"name":"guy","steam_id":76561198196443262,"connected_time":114000000000,"state":"active","ping":43},{"user_id":253,"name":"NukaDude391","steam_id":76561198278991511,"connected_time":1541000000000,"state":"active","ping":82},{"user_id":267,"name":"Albertelol","steam_id":76561198817610071,"connected_time":40000000000,"state":"active","ping":79},{"user_id":262,"name":"nhoj_","steam_id":76561198048003380,"connected_time":146000000000,"state":"active","ping":45},{"user_id":214,"name":"No Fly Zone","steam_id":76561198016168993,"connected_time":4147000000000,"state":"active","ping":82},{"user_id":254,"name":"nescoceo","steam_id":76561198040801160,"connected_time":1540000000000,"state":"active","ping":49},{"user_id":258,"name":"Phantom Thief","steam_id":76561198254482947,"connected_time":1392000000000,"state":"active","ping":54},{"user_id":238,"name":"flo rida","steam_id":76561198226169704,"connected_time":2183000000000,"state":"active","ping":57}]},{"server_id":324,"name":"Uncletopia | Los Angeles | 3 | All Maps","name_short":"lax-3","host":"lax-1.us.uncletopia.com","port":27035,"enabled":true,"region":"us-west","cc":"us","latitude":33.94279,"longitude":-118.41004,"reserved":0,"last_update":"0001-01-01T00:00:00Z","name_a2s":"Uncletopia | Los Angeles | 3 | All Maps","protocol":17,"map":"koth_highpass","folder":"tf","game":"Team Fortress","app_id":440,"player_count":0,"max_players":24,"Bots":0,"server_type":"Dedicated","server_os":"Linux","password":true,"vac":true,"version":"7757534","steam_id":85568392924510198,"keywords":["cp","nocrits","nodmgspread","uncletopia"],"game_id":440,"stv_port":27036,"stv_name":"Uncletopia | Los Angeles | 3 | All Maps | STV","players":null},{"server_id":25,"name":"Uncletopia | Los Angeles | 4 | Stopwatch Beta","name_short":"lax-4","host":"lax-1.us.uncletopia.com","port":27045,"enabled":true,"region":"us-west","cc":"us","latitude":33.94279,"longitude":-118.41004,"reserved":0,"last_update":"0001-01-01T00:00:00Z","name_a2s":"Uncletopia | Los Angeles | 4 | Stopwatch Beta","protocol":17,"map":"koth_viaduct","folder":"tf","game":"Team Fortress","app_id":440,"player_count":0,"max_players":24,"Bots":0,"server_type":"Dedicated","server_os":"Linux","password":true,"vac":true,"version":"7757534","steam_id":85568392924510199,"keywords":["cp","nocrits","nodmgspread","uncletopia"],"game_id":440,"stv_port":27046,"stv_name":"Uncletopia | Los Angeles | 4 | Stopwatch Beta | STV","players":null},{"server_id":11,"name":"Uncletopia | London | 1 | All Maps","name_short":"lon-1","host":"lon-1.uk.uncletopia.com","port":27015,"enabled":true,"region":"eu","cc":"gb","latitude":51.509865,"longitude":-0.118092,"reserved":0,"last_update":"0001-01-01T00:00:00Z","name_a2s":"Uncletopia | London | 1 | All Maps","protocol":17,"map":"pl_snowycoast","folder":"tf","game":"Team Fortress","app_id":440,"player_count":24,"max_players":24,"Bots":0,"server_type":"Dedicated","server_os":"Linux","password":true,"vac":true,"version":"7757534","steam_id":85568392924367362,"keywords":["nocrits","nodmgspread","payload","uncletopia"],"game_id":440,"stv_port":27016,"stv_name":"Uncletopia | London | 1 | All Maps | STV","players":[{"user_id":1129,"name":"thats a big problem","steam_id":76561198080310253,"connected_time":4843000000000,"state":"active","ping":45},{"user_id":1168,"name":"Void ✦","steam_id":76561198242060218,"connected_time":1720000000000,"state":"active","ping":79},{"user_id":1171,"name":"The Ghost Of Siberian | #FIXTF2","steam_id":76561198183368329,"connected_time":1186000000000,"state":"active","ping":107},{"user_id":1173,"name":"Failsafe","steam_id":76561198090751331,"connected_time":1149000000000,"state":"active","ping":68},{"user_id":1157,"name":"Envy","steam_id":76561198034845894,"connected_time":3274000000000,"state":"active","ping":115},{"user_id":1174,"name":"Spitfire","steam_id":76561198106519283,"connected_time":1142000000000,"state":"active","ping":79},{"user_id":1072,"name":"Suspicious Cabin","steam_id":76561198083261198,"connected_time":10658000000000,"state":"active","ping":49},{"user_id":1143,"name":"InflatableGuillotine","steam_id":76561198027904731,"connected_time":3967000000000,"state":"active","ping":56},{"user_id":1170,"name":"s n o w","steam_id":76561198267463398,"connected_time":1201000000000,"state":"active","ping":62},{"user_id":1184,"name":"rainy day fund","steam_id":76561198357894803,"connected_time":134000000000,"state":"active","ping":88},{"user_id":1145,"name":"Ballstead","steam_id":76561198144152293,"connected_time":3907000000000,"state":"active","ping":115},{"user_id":1166,"name":"nky","steam_id":76561198086229832,"connected_time":2236000000000,"state":"active","ping":66},{"user_id":1179,"name":"Warlord Of Nations","steam_id":76561198417999443,"connected_time":1004000000000,"state":"active","ping":105},{"user_id":1181,"name":"Sen4248","steam_id":76561198088573978,"connected_time":936000000000,"state":"active","ping":70},{"user_id":1182,"name":"Lazulura","steam_id":76561198103569919,"connected_time":833000000000,"state":"active","ping":88},{"user_id":1176,"name":"joona","steam_id":76561198156305446,"connected_time":1134000000000,"state":"active","ping":84},{"user_id":1119,"name":"truly.rizzley bear","steam_id":76561198890409949,"connected_time":5903000000000,"state":"active","ping":88},{"user_id":1167,"name":"Smeelio","steam_id":76561198079480058,"connected_time":2232000000000,"state":"active","ping":39},{"user_id":1164,"name":"cum 2","steam_id":76561198010075638,"connected_time":2768000000000,"state":"active","ping":75},{"user_id":1177,"name":"Mmmmm","steam_id":76561198083396600,"connected_time":1105000000000,"state":"active","ping":49},{"user_id":1162,"name":"joachym","steam_id":76561198428579761,"connected_time":2993000000000,"state":"active","ping":78},{"user_id":1183,"name":"Metheus","steam_id":76561198051847106,"connected_time":149000000000,"state":"active","ping":66},{"user_id":1137,"name":"Dræghy","steam_id":76561198252417898,"connected_time":4518000000000,"state":"active","ping":50},{"user_id":1138,"name":"Overdrive","steam_id":76561198040632616,"connected_time":4450000000000,"state":"active","ping":127}]},{"server_id":114,"name":"Uncletopia | London | 2 | All Maps","name_short":"lon-2","host":"lon-1.uk.uncletopia.com","port":27025,"enabled":true,"region":"eu","cc":"gb","latitude":51.509865,"longitude":-0.118092,"reserved":0,"last_update":"0001-01-01T00:00:00Z","name_a2s":"Uncletopia | London | 2 | All Maps","protocol":17,"map":"pl_barnblitz","folder":"tf","game":"Team Fortress","app_id":440,"player_count":0,"max_players":24,"Bots":0,"server_type":"Dedicated","server_os":"Linux","password":true,"vac":true,"version":"7757534","steam_id":85568392924470941,"keywords":["nocrits","nodmgspread","payload","uncletopia"],"game_id":440,"stv_port":27026,"stv_name":"Uncletopia | London | 2 | All Maps | STV","players":null},{"server_id":320,"name":"Uncletopia | London | 3 | All Maps","name_short":"lon-3","host":"lon-1.uk.uncletopia.com","port":27035,"enabled":true,"region":"eu","cc":"gb","latitude":51.509865,"longitude":-0.118092,"reserved":0,"last_update":"0001-01-01T00:00:00Z","name_a2s":"Uncletopia | London | 3 | All Maps","protocol":17,"map":"pl_barnblitz","folder":"tf","game":"Team Fortress","app_id":440,"player_count":0,"max_players":24,"Bots":0,"server_type":"Dedicated","server_os":"Linux","password":true,"vac":true,"version":"7757534","steam_id":85568392924510192,"keywords":["nocrits","nodmgspread","payload","uncletopia"],"game_id":440,"stv_port":27036,"stv_name":"Uncletopia | London | 3 | All Maps | STV","players":null},{"server_id":321,"name":"Uncletopia | London | 4 | All Maps","name_short":"lon-4","host":"lon-1.uk.uncletopia.com","port":27045,"enabled":true,"region":"eu","cc":"gb","latitude":51.509865,"longitude":-0.118092,"reserved":0,"last_update":"0001-01-01T00:00:00Z","name_a2s":"Uncletopia | London | 4 | All Maps","protocol":17,"map":"pl_upward","folder":"tf","game":"Team Fortress","app_id":440,"player_count":0,"max_players":24,"Bots":0,"server_type":"Dedicated","server_os":"Linux","password":true,"vac":true,"version":"7757534","steam_id":85568392924510193,"keywords":["nocrits","nodmgspread","payload","uncletopia"],"game_id":440,"stv_port":27046,"stv_name":"Uncletopia | London | 4 | All Maps | STV","players":null},{"server_id":21,"name":"Uncletopia | London | 5 | All Maps","name_short":"lon-5","host":"lon-1.uk.uncletopia.com","port":27055,"enabled":true,"region":"eu","cc":"gb","latitude":51.509865,"longitude":-0.118092,"reserved":0,"last_update":"0001-01-01T00:00:00Z","name_a2s":"Uncletopia | London | 5 | All Maps","protocol":17,"map":"cp_sunshine","folder":"tf","game":"Team Fortress","app_id":440,"player_count":0,"max_players":24,"Bots":0,"server_type":"Dedicated","server_os":"Linux","password":true,"vac":true,"version":"7757534","steam_id":85568392924742829,"keywords":["cp","nocrits","nodmgspread","uncletopia"],"game_id":440,"stv_port":27056,"stv_name":"Uncletopia | London | 5 | All Maps | STV","players":null},{"server_id":22,"name":"Uncletopia | London | 6 | All Maps","name_short":"lon-6","host":"lon-1.uk.uncletopia.com","port":27065,"enabled":true,"region":"eu","cc":"gb","latitude":51.509865,"longitude":-0.118092,"reserved":0,"last_update":"0001-01-01T00:00:00Z","name_a2s":"Uncletopia | London | 6 | All Maps","protocol":17,"map":"cp_dustbowl","folder":"tf","game":"Team Fortress","app_id":440,"player_count":0,"max_players":24,"Bots":0,"server_type":"Dedicated","server_os":"Linux","password":true,"vac":true,"version":"7757534","steam_id":85568392924742830,"keywords":["cp","nocrits","nodmgspread","uncletopia"],"game_id":440,"stv_port":27066,"stv_name":"Uncletopia | London | 6 | All Maps | STV","players":null},{"server_id":40,"name":"Uncletopia | London | 7 | No Payload","name_short":"lon-7","host":"lon-1.uk.uncletopia.com","port":27075,"enabled":true,"region":"eu","cc":"gb","latitude":51.509865,"longitude":-0.118092,"reserved":0,"last_update":"0001-01-01T00:00:00Z","name_a2s":"Uncletopia | London | 7 | No Payload","protocol":17,"map":"ctf_well","folder":"tf","game":"Team Fortress","app_id":440,"player_count":0,"max_players":24,"Bots":0,"server_type":"Dedicated","server_os":"Linux","password":true,"vac":true,"version":"7757534","steam_id":85568392924964314,"keywords":["ctf","nocrits","nodmgspread","uncletopia"],"game_id":440,"stv_port":27076,"stv_name":"Uncletopia | London | 7 | No Payload | STV","players":null},{"server_id":41,"name":"Uncletopia | London | 8 | Community","name_short":"lon-8","host":"lon-1.uk.uncletopia.com","port":27085,"enabled":true,"region":"eu","cc":"gb","latitude":51.509865,"longitude":-0.118092,"reserved":0,"last_update":"0001-01-01T00:00:00Z","name_a2s":"Uncletopia | London | 8 | Community","protocol":17,"map":"workshop/koth_bagel_rc5.ugc2514036946","folder":"tf","game":"Team Fortress","app_id":440,"player_count":0,"max_players":24,"Bots":0,"server_type":"Dedicated","server_os":"Linux","password":true,"vac":true,"version":"7757534","steam_id":85568392924964315,"keywords":["cp","nocrits","nodmgspread","uncletopia"],"game_id":440,"stv_port":27086,"stv_name":"Uncletopia | London | 8 | Community | STV","players":null},{"server_id":300,"name":"Uncletopia | Montréal | 1 | All Maps","name_short":"mtl-1","host":"mtl-1.ca.uncletopia.com","port":27015,"enabled":true,"region":"us-east","cc":"ca","latitude":45.50889,"longitude":-73.56167,"reserved":0,"last_update":"0001-01-01T00:00:00Z","name_a2s":"Uncletopia | Montréal | 1 | All Maps","protocol":17,"map":"koth_cascade","folder":"tf","game":"Team Fortress","app_id":440,"player_count":0,"max_players":24,"Bots":0,"server_type":"Dedicated","server_os":"Linux","password":true,"vac":true,"version":"7757534","steam_id":85568392924500087,"keywords":["cp","nocrits","nodmgspread","uncletopia"],"game_id":440,"stv_port":27016,"stv_name":"Uncletopia | Montréal | 1 | All Maps | STV","players":null},{"server_id":301,"name":"Uncletopia | Montréal | 2 | All Maps","name_short":"mtl-2","host":"mtl-1.ca.uncletopia.com","port":27025,"enabled":true,"region":"us-east","cc":"ca","latitude":45.50889,"longitude":-73.56167,"reserved":0,"last_update":"0001-01-01T00:00:00Z","name_a2s":"Uncletopia | Montréal | 2 | All Maps","protocol":17,"map":"koth_viaduct","folder":"tf","game":"Team Fortress","app_id":440,"player_count":0,"max_players":24,"Bots":0,"server_type":"Dedicated","server_os":"Linux","password":true,"vac":true,"version":"7757534","steam_id":85568392924500088,"keywords":["cp","nocrits","nodmgspread","uncletopia"],"game_id":440,"stv_port":27026,"stv_name":"Uncletopia | Montréal | 2 | All Maps | STV","players":null},{"server_id":302,"name":"Uncletopia | Montréal | 3 | All Maps","name_short":"mtl-3","host":"mtl-1.ca.uncletopia.com","port":27035,"enabled":true,"region":"us-east","cc":"ca","latitude":45.50889,"longitude":-73.56167,"reserved":0,"last_update":"0001-01-01T00:00:00Z","name_a2s":"Uncletopia | Montréal | 3 | All Maps","protocol":17,"map":"pl_frontier_final","folder":"tf","game":"Team Fortress","app_id":440,"player_count":9,"max_players":24,"Bots":0,"server_type":"Dedicated","server_os":"Linux","password":true,"vac":true,"version":"7757534","steam_id":85568392924500089,"keywords":["nocrits","nodmgspread","payload","uncletopia"],"game_id":440,"stv_port":27036,"stv_name":"Uncletopia | Montréal | 3 | All Maps | STV","players":[{"user_id":227,"name":"A Terrible Shot","steam_id":76561198045523833,"connected_time":1129000000000,"state":"active","ping":164},{"user_id":213,"name":"_noodle","steam_id":76561199278361340,"connected_time":3782000000000,"state":"active","ping":116},{"user_id":217,"name":"coffee bagel","steam_id":76561198141198352,"connected_time":2495000000000,"state":"active","ping":60},{"user_id":230,"name":"Adaptable1","steam_id":76561198071216262,"connected_time":359000000000,"state":"active","ping":130},{"user_id":232,"name":"Ronanlovesyou","steam_id":76561198261911489,"connected_time":27000000000,"state":"active","ping":118},{"user_id":214,"name":"rainiersky","steam_id":76561199070809425,"connected_time":3731000000000,"state":"active","ping":142},{"user_id":231,"name":"poor","steam_id":76561199468649007,"connected_time":190000000000,"state":"active","ping":83},{"user_id":223,"name":"Bridge","steam_id":76561198041661534,"connected_time":1778000000000,"state":"active","ping":59},{"user_id":222,"name":"Egyptian amogus","steam_id":76561198320353510,"connected_time":2216000000000,"state":"active","ping":138}]},{"server_id":303,"name":"Uncletopia | Montréal | 4 | No Payload","name_short":"mtl-4","host":"mtl-1.ca.uncletopia.com","port":27045,"enabled":true,"region":"us-east","cc":"ca","latitude":45.50889,"longitude":-73.56167,"reserved":0,"last_update":"0001-01-01T00:00:00Z","name_a2s":"Uncletopia | Montréal | 4 | No Payload","protocol":17,"map":"koth_lakeside_final","folder":"tf","game":"Team Fortress","app_id":440,"player_count":0,"max_players":24,"Bots":0,"server_type":"Dedicated","server_os":"Linux","password":true,"vac":true,"version":"7757534","steam_id":85568392924500090,"keywords":["cp","nocrits","nodmgspread","uncletopia"],"game_id":440,"stv_port":27046,"stv_name":"Uncletopia | Montréal | 4 | No Payload | STV","players":null},{"server_id":13,"name":"Uncletopia | New York City | 1 | All Maps","name_short":"nyc-1","host":"nyc-1.us.uncletopia.com","port":27015,"enabled":true,"region":"us-east","cc":"us","latitude":40.73061,"longitude":-73.93524,"reserved":0,"last_update":"0001-01-01T00:00:00Z","name_a2s":"Uncletopia | New York City | 1 | All Maps","protocol":17,"map":"pl_barnblitz","folder":"tf","game":"Team Fortress","app_id":440,"player_count":24,"max_players":24,"Bots":0,"server_type":"Dedicated","server_os":"Linux","password":true,"vac":true,"version":"7757534","steam_id":85568392924469993,"keywords":["nocrits","nodmgspread","payload","uncletopia"],"game_id":440,"stv_port":27016,"stv_name":"Uncletopia | New York City | 1 | All Maps | STV","players":[{"user_id":426,"name":"the nose porblem","steam_id":76561198086008437,"connected_time":1106000000000,"state":"active","ping":91},{"user_id":390,"name":"totally not a pile of beans","steam_id":76561198119851931,"connected_time":4038000000000,"state":"active","ping":69},{"user_id":366,"name":"Horrizan","steam_id":76561197965028480,"connected_time":6723000000000,"state":"active","ping":91},{"user_id":430,"name":"Hamee333","steam_id":76561199388127663,"connected_time":603000000000,"state":"active","ping":59},{"user_id":437,"name":"Titar Industries","steam_id":76561198143078476,"connected_time":309000000000,"state":"active","ping":71},{"user_id":428,"name":"Antifa Alligator","steam_id":76561197988170816,"connected_time":782000000000,"state":"active","ping":103},{"user_id":436,"name":"frank","steam_id":76561198045436159,"connected_time":401000000000,"state":"active","ping":64},{"user_id":413,"name":"Harold","steam_id":76561198057317770,"connected_time":2409000000000,"state":"active","ping":104},{"user_id":431,"name":"Wan Shi Tong","steam_id":76561198076441225,"connected_time":582000000000,"state":"active","ping":48},{"user_id":401,"name":"Pyrofruit","steam_id":76561198803497396,"connected_time":3213000000000,"state":"active","ping":59},{"user_id":429,"name":"the keithvinci kode","steam_id":76561198056622157,"connected_time":660000000000,"state":"active","ping":49},{"user_id":397,"name":"ray (the based god)","steam_id":76561198311984941,"connected_time":3244000000000,"state":"active","ping":85},{"user_id":432,"name":"Giuseppe","steam_id":76561198026597475,"connected_time":550000000000,"state":"active","ping":175},{"user_id":433,"name":"depressed cows","steam_id":76561198358722215,"connected_time":536000000000,"state":"active","ping":115},{"user_id":422,"name":"ItsInfamousCelo","steam_id":76561198299456958,"connected_time":1429000000000,"state":"active","ping":57},{"user_id":356,"name":"Chrisscar","steam_id":76561198086298130,"connected_time":7258000000000,"state":"active","ping":113},{"user_id":438,"name":"Nnyllazxz","steam_id":76561198247797436,"connected_time":240000000000,"state":"active","ping":61},{"user_id":352,"name":"trappy","steam_id":76561198402801140,"connected_time":7304000000000,"state":"active","ping":90},{"user_id":425,"name":"invb","steam_id":76561197998263914,"connected_time":1132000000000,"state":"active","ping":70},{"user_id":435,"name":"Slashes","steam_id":76561197968573499,"connected_time":511000000000,"state":"active","ping":43},{"user_id":295,"name":"A Puppy","steam_id":76561198828184456,"connected_time":10667000000000,"state":"active","ping":48},{"user_id":388,"name":"D00ME","steam_id":76561198383462499,"connected_time":4349000000000,"state":"active","ping":70},{"user_id":406,"name":"WibbyOne","steam_id":76561198052843846,"connected_time":3054000000000,"state":"active","ping":45},{"user_id":424,"name":"froggy :3","steam_id":76561198079405234,"connected_time":1341000000000,"state":"active","ping":59}]},{"server_id":14,"name":"Uncletopia | New York City | 2 | All Maps","name_short":"nyc-2","host":"nyc-1.us.uncletopia.com","port":27025,"enabled":true,"region":"us-east","cc":"us","latitude":40.73061,"longitude":-73.93524,"reserved":0,"last_update":"0001-01-01T00:00:00Z","name_a2s":"Uncletopia | New York City | 2 | All Maps","protocol":17,"map":"pl_badwater","folder":"tf","game":"Team Fortress","app_id":440,"player_count":5,"max_players":24,"Bots":0,"server_type":"Dedicated","server_os":"Linux","password":true,"vac":true,"version":"7757534","steam_id":85568392924469994,"keywords":["nocrits","nodmgspread","payload","uncletopia"],"game_id":440,"stv_port":27026,"stv_name":"Uncletopia | New York City | 2 | All Maps | STV","players":[{"user_id":310,"name":"GoofBall","steam_id":76561198047092585,"connected_time":273000000000,"state":"active","ping":83},{"user_id":305,"name":"Crazy face","steam_id":76561198035251337,"connected_time":509000000000,"state":"active","ping":76},{"user_id":306,"name":"TheUKnowWho","steam_id":76561198181418159,"connected_time":496000000000,"state":"active","ping":72},{"user_id":308,"name":"John Cowboy","steam_id":76561198096146552,"connected_time":459000000000,"state":"active","ping":103},{"user_id":294,"name":"MONKEY EEE OOO","steam_id":76561198009409744,"connected_time":2116000000000,"state":"active","ping":31}]},{"server_id":15,"name":"Uncletopia | New York City | 3 | Stopwatch Beta","name_short":"nyc-3","host":"nyc-1.us.uncletopia.com","port":27035,"enabled":true,"region":"us-east","cc":"us","latitude":40.73061,"longitude":-73.93524,"reserved":0,"last_update":"0001-01-01T00:00:00Z","name_a2s":"Uncletopia | New York City | 3 | Stopwatch Beta","protocol":17,"map":"workshop/pl_barnblitz_pro7.ugc582280235","folder":"tf","game":"Team Fortress","app_id":440,"player_count":0,"max_players":24,"Bots":0,"server_type":"Dedicated","server_os":"Linux","password":true,"vac":true,"version":"7757534","steam_id":85568392924742820,"keywords":["nocrits","nodmgspread","payload","uncletopia"],"game_id":440,"stv_port":27036,"stv_name":"Uncletopia | New York City | 3 | Stopwatch Beta | STV","players":null},{"server_id":16,"name":"Uncletopia | New York City | 4 | Community","name_short":"nyc-4","host":"nyc-1.us.uncletopia.com","port":27045,"enabled":true,"region":"us-east","cc":"us","latitude":40.73061,"longitude":-73.93524,"reserved":0,"last_update":"0001-01-01T00:00:00Z","name_a2s":"Uncletopia | New York City | 4 | Community","protocol":17,"map":"workshop/koth_ashville_final.ugc2130459942","folder":"tf","game":"Team Fortress","app_id":440,"player_count":0,"max_players":24,"Bots":0,"server_type":"Dedicated","server_os":"Linux","password":true,"vac":true,"version":"7757534","steam_id":85568392924742821,"keywords":["cp","nocrits","nodmgspread","uncletopia"],"game_id":440,"stv_port":27046,"stv_name":"Uncletopia | New York City | 4 | Community | STV","players":null},{"server_id":142,"name":"Uncletopia | São Paulo | 1 | All Maps","name_short":"sao-1","host":"sao-1.br.uncletopia.com","port":27015,"enabled":true,"region":"sa","cc":"br","latitude":-23.533773,"longitude":-46.62529,"reserved":0,"last_update":"0001-01-01T00:00:00Z","name_a2s":"Uncletopia | São Paulo | 1 | All Maps","protocol":17,"map":"koth_highpass","folder":"tf","game":"Team Fortress","app_id":440,"player_count":0,"max_players":24,"Bots":0,"server_type":"Dedicated","server_os":"Linux","password":true,"vac":true,"version":"7757534","steam_id":85568392924469996,"keywords":["cp","nocrits","nodmgspread","uncletopia"],"game_id":440,"stv_port":27016,"stv_name":"Uncletopia | São Paulo | 1 | All Maps | STV","players":null},{"server_id":143,"name":"Uncletopia | São Paulo | 2 | All Maps","name_short":"sao-2","host":"sao-2.br.uncletopia.com","port":27015,"enabled":true,"region":"sa","cc":"br","latitude":-23.533773,"longitude":-46.62529,"reserved":0,"last_update":"0001-01-01T00:00:00Z","name_a2s":"Uncletopia | São Paulo | 2 | All Maps","protocol":17,"map":"koth_highpass","folder":"tf","game":"Team Fortress","app_id":440,"player_count":0,"max_players":24,"Bots":0,"server_type":"Dedicated","server_os":"Linux","password":true,"vac":true,"version":"7757534","steam_id":85568392924485349,"keywords":["cp","nocrits","nodmgspread","uncletopia"],"game_id":440,"stv_port":27016,"stv_name":"Uncletopia | São Paulo | 2 | All Maps | STV","players":null},{"server_id":7,"name":"Uncletopia | Seattle | 1 | All Maps","name_short":"sea-1","host":"sea-1.us.uncletopia.com","port":27015,"enabled":true,"region":"us-west","cc":"us","latitude":47.608013,"longitude":-122.33517,"reserved":0,"last_update":"0001-01-01T00:00:00Z","name_a2s":"Uncletopia | Seattle | 1 | All Maps","protocol":17,"map":"pl_swiftwater_final1","folder":"tf","game":"Team Fortress","app_id":440,"player_count":20,"max_players":24,"Bots":0,"server_type":"Dedicated","server_os":"Linux","password":true,"vac":true,"version":"7757534","steam_id":85568392924469997,"keywords":["nocrits","nodmgspread","payload","uncletopia"],"game_id":440,"stv_port":27016,"stv_name":"Uncletopia | Seattle | 1 | All Maps | STV","players":[{"user_id":709,"name":"mmmBoyo","steam_id":76561198821360261,"connected_time":2947000000000,"state":"active","ping":60},{"user_id":700,"name":"Alset","steam_id":76561197993820174,"connected_time":3825000000000,"state":"active","ping":112},{"user_id":726,"name":"Mom","steam_id":76561198207936000,"connected_time":2128000000000,"state":"active","ping":59},{"user_id":738,"name":"bullet man","steam_id":76561198080058079,"connected_time":1236000000000,"state":"active","ping":54},{"user_id":743,"name":"goldhed","steam_id":76561198051751133,"connected_time":573000000000,"state":"active","ping":50},{"user_id":678,"name":"Professor Cuthbert Calculus","steam_id":76561198003257461,"connected_time":5677000000000,"state":"active","ping":58},{"user_id":713,"name":"......","steam_id":76561198067612741,"connected_time":2739000000000,"state":"active","ping":45},{"user_id":718,"name":"Anderswo","steam_id":76561198253224241,"connected_time":2391000000000,"state":"active","ping":60},{"user_id":745,"name":"ilMoose","steam_id":76561198827275420,"connected_time":131000000000,"state":"active","ping":54},{"user_id":721,"name":"Ayayahuasca","steam_id":76561199002906056,"connected_time":2363000000000,"state":"active","ping":46},{"user_id":714,"name":"DORATHEEXPLORER","steam_id":76561198124773931,"connected_time":2733000000000,"state":"active","ping":88},{"user_id":723,"name":"Lily Thorn","steam_id":76561198305488625,"connected_time":2346000000000,"state":"active","ping":69},{"user_id":746,"name":"Blitzy","steam_id":76561198149472890,"connected_time":99000000000,"state":"active","ping":61},{"user_id":744,"name":"Optimore","steam_id":76561198047662990,"connected_time":450000000000,"state":"active","ping":70},{"user_id":734,"name":"Sailor","steam_id":76561199081983517,"connected_time":1668000000000,"state":"active","ping":94},{"user_id":724,"name":"Elbis Premsly","steam_id":76561198067717795,"connected_time":2343000000000,"state":"active","ping":63},{"user_id":711,"name":"こうこう","steam_id":76561198412353895,"connected_time":2752000000000,"state":"active","ping":46},{"user_id":715,"name":"chocolatkey","steam_id":76561198092466325,"connected_time":2701000000000,"state":"active","ping":52},{"user_id":732,"name":"FELXIUFEL","steam_id":76561198352095947,"connected_time":1731000000000,"state":"active","ping":65},{"user_id":737,"name":"bolainassr0","steam_id":76561199079078845,"connected_time":1444000000000,"state":"active","ping":169}]},{"server_id":119,"name":"Uncletopia | Seattle | 2 | All Maps","name_short":"sea-2","host":"sea-1.us.uncletopia.com","port":27025,"enabled":true,"region":"us-west","cc":"us","latitude":47.608013,"longitude":-122.33517,"reserved":0,"last_update":"0001-01-01T00:00:00Z","name_a2s":"Uncletopia | Seattle | 2 | All Maps","protocol":17,"map":"cp_mountainlab","folder":"tf","game":"Team Fortress","app_id":440,"player_count":24,"max_players":24,"Bots":0,"server_type":"Dedicated","server_os":"Linux","password":true,"vac":true,"version":"7757534","steam_id":85568392924469998,"keywords":["cp","nocrits","nodmgspread","uncletopia"],"game_id":440,"stv_port":27026,"stv_name":"Uncletopia | Seattle | 2 | All Maps | STV","players":[{"user_id":520,"name":"Marie","steam_id":76561198056104899,"connected_time":1993000000000,"state":"active","ping":132},{"user_id":521,"name":"mudunit","steam_id":76561198811544015,"connected_time":1814000000000,"state":"active","ping":52},{"user_id":533,"name":"SuaveFrenchman","steam_id":76561198043762683,"connected_time":572000000000,"state":"active","ping":61},{"user_id":456,"name":"LENNIALL","steam_id":76561197991333210,"connected_time":6275000000000,"state":"active","ping":90},{"user_id":503,"name":"rat gets the cheese","steam_id":76561198031234032,"connected_time":3703000000000,"state":"active","ping":97},{"user_id":526,"name":"Santicules","steam_id":76561198209373536,"connected_time":1229000000000,"state":"active","ping":107},{"user_id":448,"name":"Salad","steam_id":76561198120907230,"connected_time":6919000000000,"state":"active","ping":56},{"user_id":537,"name":"avant-goth","steam_id":76561198325306660,"connected_time":287000000000,"state":"active","ping":53},{"user_id":538,"name":"Sam","steam_id":76561198146472900,"connected_time":214000000000,"state":"active","ping":70},{"user_id":540,"name":"Pigeon","steam_id":76561198047426548,"connected_time":140000000000,"state":"active","ping":94},{"user_id":506,"name":"Terror","steam_id":76561198188685728,"connected_time":3154000000000,"state":"active","ping":92},{"user_id":468,"name":":\u003c RUN AWAY","steam_id":76561199245670274,"connected_time":6027000000000,"state":"active","ping":75},{"user_id":536,"name":"strong and healthy gamer","steam_id":76561198049489349,"connected_time":318000000000,"state":"active","ping":56},{"user_id":494,"name":"chompmastr","steam_id":76561199121805899,"connected_time":4204000000000,"state":"active","ping":58},{"user_id":498,"name":"pumba","steam_id":76561198207881077,"connected_time":4063000000000,"state":"active","ping":107},{"user_id":499,"name":"oo","steam_id":76561198119626492,"connected_time":4061000000000,"state":"active","ping":81},{"user_id":522,"name":"Biznickel","steam_id":76561199422511230,"connected_time":1722000000000,"state":"active","ping":58},{"user_id":539,"name":"Birdman743","steam_id":76561198799636748,"connected_time":183000000000,"state":"active","ping":58},{"user_id":528,"name":"PainInTheRuss","steam_id":76561197977960543,"connected_time":1013000000000,"state":"active","ping":61},{"user_id":542,"name":"Tim Piskles","steam_id":76561198991175279,"connected_time":59000000000,"state":"active","ping":48},{"user_id":529,"name":"kenZino","steam_id":76561197967971192,"connected_time":1002000000000,"state":"active","ping":45},{"user_id":534,"name":"Hameas","steam_id":76561198195620918,"connected_time":570000000000,"state":"active","ping":84},{"user_id":543,"name":"KingTinkerer","steam_id":76561198226856548,"connected_time":23000000000,"state":"active","ping":72},{"user_id":535,"name":"Day Man","steam_id":76561198067154807,"connected_time":561000000000,"state":"active","ping":49}]},{"server_id":406,"name":"Uncletopia | Seattle | 3 | Stopwatch Beta","name_short":"sea-3","host":"sea-1.us.uncletopia.com","port":27035,"enabled":true,"region":"us-west","cc":"us","latitude":47.608013,"longitude":-122.33517,"reserved":0,"last_update":"0001-01-01T00:00:00Z","name_a2s":"Uncletopia | Seattle | 3 | Stopwatch Beta","protocol":17,"map":"workshop/koth_ramjam_rc1.ugc459778887","folder":"tf","game":"Team Fortress","app_id":440,"player_count":0,"max_players":24,"Bots":0,"server_type":"Dedicated","server_os":"Linux","password":true,"vac":true,"version":"7757534","steam_id":85568392924515217,"keywords":["cp","nocrits","nodmgspread","uncletopia"],"game_id":440,"stv_port":27036,"stv_name":"Uncletopia | Seattle | 3 | Stopwatch Beta | STV","players":null},{"server_id":17,"name":"Uncletopia | San Francisco | 1 | All Maps","name_short":"sfo-1","host":"sfo-1.us.uncletopia.com","port":27015,"enabled":true,"region":"us-west","cc":"us","latitude":37.77397,"longitude":-122.4313,"reserved":0,"last_update":"0001-01-01T00:00:00Z","name_a2s":"Uncletopia | San Francisco | 1 | All Maps","protocol":17,"map":"pl_borneo","folder":"tf","game":"Team Fortress","app_id":440,"player_count":0,"max_players":24,"Bots":0,"server_type":"Dedicated","server_os":"Linux","password":true,"vac":true,"version":"7757534","steam_id":85568392924469999,"keywords":["nocrits","nodmgspread","payload","uncletopia"],"game_id":440,"stv_port":27016,"stv_name":"Uncletopia | San Francisco | 1 | All Maps | STV","players":null},{"server_id":18,"name":"Uncletopia | San Francisco | 2 | All Maps","name_short":"sfo-2","host":"sfo-1.us.uncletopia.com","port":27025,"enabled":true,"region":"us-west","cc":"us","latitude":37.77397,"longitude":-122.4313,"reserved":0,"last_update":"0001-01-01T00:00:00Z","name_a2s":"Uncletopia | San Francisco | 2 | All Maps","protocol":17,"map":"cp_steel","folder":"tf","game":"Team Fortress","app_id":440,"player_count":24,"max_players":24,"Bots":0,"server_type":"Dedicated","server_os":"Linux","password":true,"vac":true,"version":"7757534","steam_id":85568392924470000,"keywords":["cp","nocrits","nodmgspread","uncletopia"],"game_id":440,"stv_port":27026,"stv_name":"Uncletopia | San Francisco | 2 | All Maps | STV","players":[{"user_id":356,"name":"Matches_                       ","steam_id":76561198048925904,"connected_time":2346000000000,"state":"active","ping":74},{"user_id":387,"name":"berserker_tf2 ttv","steam_id":76561198303464488,"connected_time":311000000000,"state":"active","ping":66},{"user_id":312,"name":"Lack of skelebone","steam_id":76561198102175328,"connected_time":6040000000000,"state":"active","ping":69},{"user_id":386,"name":"bronk","steam_id":76561198181109553,"connected_time":423000000000,"state":"active","ping":60},{"user_id":376,"name":"Futa Lover","steam_id":76561198056775795,"connected_time":976000000000,"state":"active","ping":111},{"user_id":341,"name":"Lunar Angel \u003c3","steam_id":76561199087520403,"connected_time":3578000000000,"state":"active","ping":95},{"user_id":370,"name":"PerKnuckleChuckle","steam_id":76561198023221596,"connected_time":1590000000000,"state":"active","ping":68},{"user_id":357,"name":"Vevo","steam_id":76561198316753540,"connected_time":2325000000000,"state":"active","ping":73},{"user_id":388,"name":"Strength!!","steam_id":76561198001241984,"connected_time":304000000000,"state":"active","ping":72},{"user_id":354,"name":"carp","steam_id":76561198193144463,"connected_time":2437000000000,"state":"active","ping":48},{"user_id":385,"name":"cuppo","steam_id":76561198022008901,"connected_time":590000000000,"state":"active","ping":86},{"user_id":374,"name":"SpockterWho","steam_id":76561198146653460,"connected_time":1330000000000,"state":"active","ping":45},{"user_id":383,"name":"Shoggoth","steam_id":76561198117892299,"connected_time":770000000000,"state":"active","ping":91},{"user_id":392,"name":"SpinnerSpecial","steam_id":76561198065661869,"connected_time":85000000000,"state":"active","ping":74},{"user_id":322,"name":"en","steam_id":76561199129590802,"connected_time":5690000000000,"state":"active","ping":131},{"user_id":247,"name":"the pizza","steam_id":76561198221331476,"connected_time":11070000000000,"state":"active","ping":41},{"user_id":379,"name":"Kerfuffel","steam_id":76561198079615986,"connected_time":960000000000,"state":"active","ping":62},{"user_id":390,"name":"Lambchop","steam_id":76561198043900363,"connected_time":204000000000,"state":"active","ping":60},{"user_id":382,"name":"to be a constellation","steam_id":76561198048992536,"connected_time":931000000000,"state":"active","ping":104},{"user_id":346,"name":"hamo456","steam_id":76561198111939938,"connected_time":3419000000000,"state":"active","ping":59},{"user_id":334,"name":"ShadowSoul","steam_id":76561198259225072,"connected_time":5010000000000,"state":"active","ping":95},{"user_id":336,"name":"Cute Gatito","steam_id":76561198351147780,"connected_time":4738000000000,"state":"active","ping":65},{"user_id":360,"name":"CaptainGold1","steam_id":76561198104967772,"connected_time":2088000000000,"state":"active","ping":76},{"user_id":391,"name":"SvicidalBug","steam_id":76561198221390504,"connected_time":201000000000,"state":"active","ping":84}]},{"server_id":19,"name":"Uncletopia | San Francisco | 3 | Stopwatch Beta","name_short":"sfo-3","host":"sfo-1.us.uncletopia.com","port":27035,"enabled":true,"region":"us-west","cc":"us","latitude":37.77397,"longitude":-122.4313,"reserved":0,"last_update":"0001-01-01T00:00:00Z","name_a2s":"Uncletopia | San Francisco | 3 | Stopwatch Beta","protocol":17,"map":"koth_viaduct","folder":"tf","game":"Team Fortress","app_id":440,"player_count":0,"max_players":24,"Bots":0,"server_type":"Dedicated","server_os":"Linux","password":true,"vac":true,"version":"7757534","steam_id":85568392924742824,"keywords":["cp","nocrits","nodmgspread","uncletopia"],"game_id":440,"stv_port":27036,"stv_name":"Uncletopia | San Francisco | 3 | Stopwatch Beta | STV","players":null},{"server_id":20,"name":"Uncletopia | San Francisco | 4 | Community","name_short":"sfo-4","host":"sfo-1.us.uncletopia.com","port":27045,"enabled":true,"region":"us-west","cc":"us","latitude":37.77397,"longitude":-122.4313,"reserved":0,"last_update":"0001-01-01T00:00:00Z","name_a2s":"Uncletopia | San Francisco | 4 | Community","protocol":17,"map":"workshop/rd_asteroid_redux_b1.ugc2154902912","folder":"tf","game":"Team Fortress","app_id":440,"player_count":0,"max_players":24,"Bots":0,"server_type":"Dedicated","server_os":"Linux","password":true,"vac":true,"version":"7757534","steam_id":85568392924742826,"keywords":["beta","nocrits","nodmgspread","rd","uncletopia"],"game_id":440,"stv_port":27046,"stv_name":"Uncletopia | San Francisco | 4 | Community | STV","players":null},{"server_id":141,"name":"Uncletopia | Sydney | 1 | All Maps","name_short":"syd-1","host":"syd-1.au.uncletopia.com","port":27015,"enabled":true,"region":"au","cc":"au","latitude":-33.865143,"longitude":151.2099,"reserved":0,"last_update":"0001-01-01T00:00:00Z","name_a2s":"Uncletopia | Sydney | 1 | All Maps","protocol":17,"map":"pl_borneo","folder":"tf","game":"Team Fortress","app_id":440,"player_count":0,"max_players":24,"Bots":0,"server_type":"Dedicated","server_os":"Linux","password":true,"vac":true,"version":"7757534","steam_id":85568392924470001,"keywords":["nocrits","nodmgspread","payload","uncletopia"],"game_id":440,"stv_port":27016,"stv_name":"Uncletopia | Sydney | 1 | All Maps | STV","players":null},{"server_id":123,"name":"Uncletopia | Sydney | 2 | All Maps","name_short":"syd-2","host":"syd-1.au.uncletopia.com","port":27025,"enabled":true,"region":"au","cc":"au","latitude":-33.865143,"longitude":151.2099,"reserved":0,"last_update":"0001-01-01T00:00:00Z","name_a2s":"Uncletopia | Sydney | 2 | All Maps","protocol":17,"map":"pl_borneo","folder":"tf","game":"Team Fortress","app_id":440,"player_count":24,"max_players":24,"Bots":0,"server_type":"Dedicated","server_os":"Linux","password":true,"vac":true,"version":"7757534","steam_id":85568392924470002,"keywords":["nocrits","nodmgspread","payload","uncletopia"],"game_id":440,"stv_port":27026,"stv_name":"Uncletopia | Sydney | 2 | All Maps | STV","players":[{"user_id":171,"name":"Piklz","steam_id":76561198043384139,"connected_time":35000000000,"state":"active","ping":51},{"user_id":160,"name":"demoman","steam_id":76561199083914239,"connected_time":1273000000000,"state":"active","ping":64},{"user_id":159,"name":"StarFraud96","steam_id":76561198351146153,"connected_time":1301000000000,"state":"active","ping":68},{"user_id":157,"name":"Thrilled","steam_id":76561198146607797,"connected_time":1306000000000,"state":"active","ping":60},{"user_id":152,"name":"Hawk","steam_id":76561198135164277,"connected_time":1810000000000,"state":"active","ping":49},{"user_id":149,"name":"I ain't scared of nothing","steam_id":76561199257116847,"connected_time":2572000000000,"state":"active","ping":56},{"user_id":95,"name":"zebulon","steam_id":76561198063481761,"connected_time":7609000000000,"state":"active","ping":35},{"user_id":128,"name":"Glockenspe (She/Her)","steam_id":76561199184115241,"connected_time":4941000000000,"state":"active","ping":54},{"user_id":158,"name":"samm","steam_id":76561198190525662,"connected_time":1305000000000,"state":"active","ping":59},{"user_id":153,"name":"shirt without the r","steam_id":76561199071810220,"connected_time":1776000000000,"state":"active","ping":62},{"user_id":166,"name":"Absol","steam_id":76561199045059964,"connected_time":831000000000,"state":"active","ping":102},{"user_id":167,"name":"Trins","steam_id":76561198040922808,"connected_time":294000000000,"state":"active","ping":67},{"user_id":140,"name":"Rook","steam_id":76561198135979008,"connected_time":3489000000000,"state":"active","ping":55},{"user_id":146,"name":"las","steam_id":76561198039162155,"connected_time":3103000000000,"state":"active","ping":55},{"user_id":106,"name":"Wolf","steam_id":76561198067256350,"connected_time":6510000000000,"state":"active","ping":57},{"user_id":115,"name":"the rot consumes","steam_id":76561198223331996,"connected_time":6015000000000,"state":"active","ping":90},{"user_id":164,"name":"The Cake Is A Pie","steam_id":76561198043068402,"connected_time":1012000000000,"state":"active","ping":86},{"user_id":165,"name":"Ganome Chilled","steam_id":76561198064898965,"connected_time":1009000000000,"state":"active","ping":152},{"user_id":172,"name":"Sinister80s","steam_id":76561198343540472,"connected_time":27000000000,"state":"active","ping":85},{"user_id":148,"name":"Oysenberry","steam_id":76561198125443335,"connected_time":2625000000000,"state":"active","ping":32},{"user_id":173,"name":"Seasonal Demons","steam_id":76561198099279182,"connected_time":25000000000,"state":"active","ping":67},{"user_id":121,"name":"the rot doesn't consume","steam_id":76561198866538028,"connected_time":5336000000000,"state":"active","ping":86},{"user_id":170,"name":"Teenyman5","steam_id":76561198326425017,"connected_time":41000000000,"state":"active","ping":63},{"user_id":132,"name":"shrivel","steam_id":76561198129577552,"connected_time":4614000000000,"state":"active","ping":84}]},{"server_id":395,"name":"Uncletopia | Sydney | 3 | All Maps","name_short":"syd-3","host":"syd-1.au.uncletopia.com","port":27035,"enabled":true,"region":"au","cc":"au","latitude":-33.865143,"longitude":151.2099,"reserved":0,"last_update":"0001-01-01T00:00:00Z","name_a2s":"Uncletopia | Sydney | 3 | All Maps","protocol":17,"map":"koth_viaduct","folder":"tf","game":"Team Fortress","app_id":440,"player_count":2,"max_players":24,"Bots":0,"server_type":"Dedicated","server_os":"Linux","password":true,"vac":true,"version":"7757534","steam_id":85568392925194467,"keywords":["cp","nocrits","nodmgspread","uncletopia"],"game_id":440,"stv_port":27036,"stv_name":"Uncletopia | Sydney | 3 | All Maps | STV","players":[{"user_id":12,"name":"Ninjanoah5","steam_id":76561198858613596,"connected_time":1174000000000,"state":"active","ping":52},{"user_id":15,"name":"Marcel","steam_id":76561199229745368,"connected_time":875000000000,"state":"active","ping":53}]},{"server_id":396,"name":"Uncletopia | Sydney | 4 | All Maps","name_short":"syd-4","host":"syd-1.au.uncletopia.com","port":27045,"enabled":true,"region":"au","cc":"au","latitude":-33.865143,"longitude":151.2099,"reserved":0,"last_update":"0001-01-01T00:00:00Z","name_a2s":"Uncletopia | Sydney | 4 | All Maps","protocol":17,"map":"pl_swiftwater_final1","folder":"tf","game":"Team Fortress","app_id":440,"player_count":8,"max_players":24,"Bots":0,"server_type":"Dedicated","server_os":"Linux","password":true,"vac":true,"version":"7757534","steam_id":85568392925397958,"keywords":["nocrits","nodmgspread","payload","uncletopia"],"game_id":440,"stv_port":27046,"stv_name":"Uncletopia | Sydney | 4 | All Maps | STV","players":[{"user_id":23,"name":"Lord Oink","steam_id":76561198125237921,"connected_time":1120000000000,"state":"active","ping":39},{"user_id":24,"name":"Autistic Raptor","steam_id":76561198354523762,"connected_time":1116000000000,"state":"active","ping":44},{"user_id":25,"name":"and Rotate","steam_id":76561198102362578,"connected_time":820000000000,"state":"active","ping":146},{"user_id":30,"name":"Powersurge The Protogen","steam_id":76561198013117218,"connected_time":81000000000,"state":"active","ping":51},{"user_id":27,"name":"LightningBlock","steam_id":76561198289997742,"connected_time":713000000000,"state":"active","ping":38},{"user_id":28,"name":"is that a pro engie?","steam_id":76561199057568663,"connected_time":693000000000,"state":"active","ping":57},{"user_id":31,"name":"Granted_Placebo","steam_id":76561198069063209,"connected_time":44000000000,"state":"spawning","ping":86},{"user_id":20,"name":"GUNCON","steam_id":76561198848287180,"connected_time":1727000000000,"state":"active","ping":46}]},{"server_id":58,"name":"Uncletopia | Sydney | 5 | Stopwatch Beta","name_short":"syd-5","host":"syd-1.au.uncletopia.com","port":27055,"enabled":true,"region":"au","cc":"au","latitude":-33.865143,"longitude":151.2099,"reserved":0,"last_update":"0001-01-01T00:00:00Z","name_a2s":"Uncletopia | Sydney | 5 | Stopwatch Beta","protocol":17,"map":"pl_barnblitz","folder":"tf","game":"Team Fortress","app_id":440,"player_count":0,"max_players":24,"Bots":0,"server_type":"Dedicated","server_os":"Linux","password":true,"vac":true,"version":"7757534","steam_id":85568392925397959,"keywords":["nocrits","nodmgspread","payload","uncletopia"],"game_id":440,"stv_port":27056,"stv_name":"Uncletopia | Sydney | 5 | Stopwatch Beta | STV","players":null},{"server_id":59,"name":"Uncletopia | Sydney | 6 | Community","name_short":"syd-6","host":"syd-1.au.uncletopia.com","port":27065,"enabled":true,"region":"au","cc":"au","latitude":-33.865143,"longitude":151.2099,"reserved":0,"last_update":"0001-01-01T00:00:00Z","name_a2s":"Uncletopia | Sydney | 6 | Community","protocol":17,"map":"workshop/cp_logjam_rc12.ugc454812035","folder":"tf","game":"Team Fortress","app_id":440,"player_count":0,"max_players":24,"Bots":0,"server_type":"Dedicated","server_os":"Linux","password":true,"vac":true,"version":"7757534","steam_id":85568392925397960,"keywords":["cp","nocrits","nodmgspread","uncletopia"],"game_id":440,"stv_port":27066,"stv_name":"Uncletopia | Sydney | 6 | Community | STV","players":null},{"server_id":49,"name":"Uncletopia | Warsaw | 1 | All Maps","name_short":"waw-1","host":"waw-1.pl.uncletopia.com","port":27015,"enabled":true,"region":"eu","cc":"pl","latitude":52.2297,"longitude":21.017532,"reserved":0,"last_update":"0001-01-01T00:00:00Z","name_a2s":"","protocol":0,"map":"","folder":"","game":"","app_id":0,"player_count":0,"max_players":0,"Bots":0,"server_type":"","server_os":"","password":false,"vac":false,"version":"","steam_id":0,"keywords":null,"game_id":0,"stv_port":0,"stv_name":"","players":null},{"server_id":50,"name":"Uncletopia | Warsaw | 2 | All Maps","name_short":"waw-2","host":"waw-1.pl.uncletopia.com","port":27025,"enabled":true,"region":"eu","cc":"pl","latitude":52.2297,"longitude":21.017532,"reserved":0,"last_update":"0001-01-01T00:00:00Z","name_a2s":"Uncletopia | Warsaw | 2 | All Maps","protocol":17,"map":"cp_snakewater_final1","folder":"tf","game":"Team Fortress","app_id":440,"player_count":0,"max_players":24,"Bots":0,"server_type":"Dedicated","server_os":"Linux","password":true,"vac":true,"version":"7757534","steam_id":85568392925397851,"keywords":["cp","nocrits","nodmgspread","uncletopia"],"game_id":440,"stv_port":27026,"stv_name":"Uncletopia | Warsaw | 2 | All Maps | STV","players":null},{"server_id":51,"name":"Uncletopia | Warsaw | 3 | All Maps","name_short":"waw-3","host":"waw-1.pl.uncletopia.com","port":27035,"enabled":true,"region":"eu","cc":"pl","latitude":52.2297,"longitude":21.017532,"reserved":0,"last_update":"0001-01-01T00:00:00Z","name_a2s":"Uncletopia | Warsaw | 3 | All Maps","protocol":17,"map":"cp_sunshine","folder":"tf","game":"Team Fortress","app_id":440,"player_count":0,"max_players":24,"Bots":0,"server_type":"Dedicated","server_os":"Linux","password":true,"vac":true,"version":"7757534","steam_id":85568392925397852,"keywords":["cp","nocrits","nodmgspread","uncletopia"],"game_id":440,"stv_port":27036,"stv_name":"Uncletopia | Warsaw | 3 | All Maps | STV","players":null},{"server_id":52,"name":"Uncletopia | Warsaw | 4 | All Maps","name_short":"waw-4","host":"waw-1.pl.uncletopia.com","port":27045,"enabled":true,"region":"eu","cc":"pl","latitude":52.2297,"longitude":21.017532,"reserved":0,"last_update":"0001-01-01T00:00:00Z","name_a2s":"Uncletopia | Warsaw | 4 | All Maps","protocol":17,"map":"pl_borneo","folder":"tf","game":"Team Fortress","app_id":440,"player_count":0,"max_players":24,"Bots":0,"server_type":"Dedicated","server_os":"Linux","password":true,"vac":true,"version":"7757534","steam_id":85568392925397853,"keywords":["nocrits","nodmgspread","payload","uncletopia"],"game_id":440,"stv_port":27046,"stv_name":"Uncletopia | Warsaw | 4 | All Maps | STV","players":null},{"server_id":53,"name":"Uncletopia | Warsaw | 5 | Stopwatch Beta","name_short":"waw-5","host":"waw-1.pl.uncletopia.com","port":27055,"enabled":true,"region":"eu","cc":"pl","latitude":52.2297,"longitude":21.017532,"reserved":0,"last_update":"0001-01-01T00:00:00Z","name_a2s":"Uncletopia | Warsaw | 5 | Stopwatch Beta","protocol":17,"map":"pl_upward","folder":"tf","game":"Team Fortress","app_id":440,"player_count":0,"max_players":24,"Bots":0,"server_type":"Dedicated","server_os":"Linux","password":true,"vac":true,"version":"7757534","steam_id":85568392925397854,"keywords":["nocrits","nodmgspread","payload","uncletopia"],"game_id":440,"stv_port":27056,"stv_name":"Uncletopia | Warsaw | 5 | Stopwatch Beta | STV","players":null},{"server_id":54,"name":"Uncletopia | Warsaw | 6 | Community","name_short":"waw-6","host":"waw-1.pl.uncletopia.com","port":27065,"enabled":true,"region":"eu","cc":"pl","latitude":52.2297,"longitude":21.017532,"reserved":0,"last_update":"0001-01-01T00:00:00Z","name_a2s":"Uncletopia | Warsaw | 6 | Community","protocol":17,"map":"pl_barnblitz","folder":"tf","game":"Team Fortress","app_id":440,"player_count":0,"max_players":24,"Bots":0,"server_type":"Dedicated","server_os":"Linux","password":true,"vac":true,"version":"7757534","steam_id":85568392925397856,"keywords":["nocrits","nodmgspread","payload","uncletopia"],"game_id":440,"stv_port":27066,"stv_name":"Uncletopia | Warsaw | 6 | Community | STV","players":null}]}