{"status":true,"message":"","result":[{"server_id":9,"name":"Uncletopia | Atlanta | 1 | All Maps","name_short":"atl-1","host":"atl-1.us.uncletopia.com","port":27015,"enabled":true,"region":"us-east","cc":"us","latitude":33.753746,"longitude":-84.38633,"reserved":0,"last_update":"0001-01-01T00:00:00Z","name_a2s":"Uncletopia | Atlanta | 1 | All Maps","protocol":17,"map":"pl_goldrush","folder":"tf","game":"Team Fortress","app_id":440,"player_count":24,"max_players":24,"Bots":0,"server_type":"Dedicated","server_os":"Linux","password":true,"vac":true,"version":"7961495","steam_id":85568392924469982,"keywords":["nocrits","nodmgspread","payload","uncletopia"],"game_id":440,"stv_port":27016,"stv_name":"Uncletopia | Atlanta | 1 | All Maps | STV","players":[{"user_id":5,"name":"ATL2 | Hugecliff","steam_id":76561198044288534,"connected_time":11866000000000,"state":"active","ping":70},{"user_id":238,"name":"nomad","steam_id":76561197998740399,"connected_time":203000000000,"state":"active","ping":73},{"user_id":86,"name":"ATL1 | on my hunting trip","steam_id":76561198315341646,"connected_time":4324000000000,"state":"active","ping":75},{"user_id":121,"name":"Bag","steam_id":76561198012395490,"connected_time":2476000000000,"state":"active","ping":56},{"user_id":9,"name":"Ashes!","steam_id":76561197998475441,"connected_time":11771000000000,"state":"active","ping":78},{"user_id":237,"name":"Platypuspenguin","steam_id":76561198212228081,"connected_time":738000000000,"state":"active","ping":71},{"user_id":239,"name":"tgirl swag","steam_id":76561198128164970,"connected_time":114000000000,"state":"active","ping":104},{"user_id":79,"name":"Monkey Mode","steam_id":76561197961267543,"connected_time":4461000000000,"state":"active","ping":57},{"user_id":240,"name":"nick","steam_id":76561198055079352,"connected_time":82000000000,"state":"active","ping":64},{"user_id":134,"name":"Yongle","steam_id":76561198068591156,"connected_time":2050000000000,"state":"active","ping":69},{"user_id":118,"name":"gallowsCalibrator","steam_id":76561198404707578,"connected_time":2658000000000,"state":"active","ping":64},{"user_id":110,"name":"Thotimus Begonimus","steam_id":76561197970275938,"connected_time":3611000000000,"state":"active","ping":48},{"user_id":129,"name":"good gollyington","steam_id":76561198092135570,"connected_time":2237000000000,"state":"active","ping":67},{"user_id":131,"name":"eish","steam_id":76561198089463603,"connected_time":2154000000000,"state":"active","ping":120},{"user_id":69,"name":"ATL 2 | Punchy","steam_id":76561198200000641,"connected_time":5592000000000,"state":"active","ping":60},{"user_id":233,"name":"freyja","steam_id":76561198249206656,"connected_time":795000000000,"state":"active","ping":79},{"user_id":80,"name":"ATL1 | to4st","steam_id":76561198981009008,"connected_time":4461000000000,"state":"active","ping":70},{"user_id":116,"name":"The Builder","steam_id":76561198093432863,"connected_time":3061000000000,"state":"active","ping":81},{"user_id":76,"name":"mangokip","steam_id":76561198156471516,"connected_time":5301000000000,"state":"active","ping":51},{"user_id":27,"name":"Jango","steam_id":76561198084589742,"connected_time":11092000000000,"state":"active","ping":62},{"user_id":236,"name":"bkiller","steam_id":76561198029265697,"connected_time":783000000000,"state":"active","ping":66},{"user_id":78,"name":"Albino Jellyfish","steam_id":76561198208561097,"connected_time":4469000000000,"state":"active","ping":58},{"user_id":84,"name":"Jared","steam_id":76561198027210228,"connected_time":4415000000000,"state":"active","ping":88},{"user_id":234,"name":"Sinta","steam_id":76561198098398841,"connected_time":795000000000,"state":"active","ping":57}]},{"server_id":104,"name":"Uncletopia | Atlanta | 2 | All Maps","name_short":"atl-2","host":"atl-1.us.uncletopia.com","port":27025,"enabled":true,"region":"us-east","cc":"us","latitude":33.753746,"longitude":-84.38633,"reserved":0,"last_update":"0001-01-01T00:00:00Z","name_a2s":"Uncletopia | Atlanta | 2 | All Maps","protocol":17,"map":"pl_pier","folder":"tf","game":"Team Fortress","app_id":440,"player_count":24,"max_players":24,"Bots":0,"server_type":"Dedicated","server_os":"Linux","password":true,"vac":true,"version":"7961495","steam_id":85568392924469983,"keywords":["nocrits","nodmgspread","payload","uncletopia"],"game_id":440,"stv_port":27026,"stv_name":"Uncletopia | Atlanta | 2 | All Maps | STV","players":[{"user_id":90,"name":"what happened to shame","steam_id":76561198340637557,"connected_time":127000000000,"state":"active","ping":119},{"user_id":91,"name":"Sludgefox","steam_id":76561198299253741,"connected_time":123000000000,"state":"active","ping":98},{"user_id":73,"name":"floom","steam_id":76561198387571809,"connected_time":1944000000000,"state":"active","ping":62},{"user_id":81,"name":"¬°c√°lmate!","steam_id":76561198071421094,"connected_time":1347000000000,"state":"active","ping":82},{"user_id":69,"name":"America's Most Tepid Golf Fan","steam_id":76561198054966395,"connected_time":2303000000000,"state":"active","ping":72},{"user_id":70,"name":"confield","steam_id":76561198004322265,"connected_time":2253000000000,"state":"active","ping":57},{"user_id":78,"name":"Festive Conch Shell","steam_id":76561198042072993,"connected_time":1806000000000,"state":"active","ping":65},{"user_id":85,"name":"BONELOAN","steam_id":76561198100836256,"connected_time":820000000000,"state":"active","ping":85},{"user_id":48,"name":"Suspect3","steam_id":76561198063178963,"connected_time":3686000000000,"state":"active","ping":69},{"user_id":38,"name":"Jammy Jam","steam_id":76561198122804589,"connected_time":3978000000000,"state":"active","ping":66},{"user_id":86,"name":"`o2","steam_id":76561197992030936,"connected_time":787000000000,"state":"active","ping":61},{"user_id":89,"name":"Nibelsnarf (She/They)","steam_id":76561198137642054,"connected_time":544000000000,"state":"active","ping":45},{"user_id":82,"name":"Luci‚òÖFer","steam_id":76561199030343810,"connected_time":1180000000000,"state":"active","ping":41},{"user_id":49,"name":"meg00se","steam_id":76561198246267144,"connected_time":3670000000000,"state":"active","ping":68},{"user_id":80,"name":"THICCBEEF GRANDPA","steam_id":76561197993550572,"connected_time":1406000000000,"state":"active","ping":84},{"user_id":50,"name":"Train","steam_id":76561199105132740,"connected_time":3664000000000,"state":"active","ping":118},{"user_id":63,"name":"java","steam_id":76561198030276792,"connected_time":3132000000000,"state":"active","ping":46},{"user_id":56,"name":"sithreis","steam_id":76561198000564263,"connected_time":3437000000000,"state":"active","ping":58},{"user_id":57,"name":"lanoc","steam_id":76561198055415367,"connected_time":3433000000000,"state":"active","ping":45},{"user_id":67,"name":"Char Aznable","steam_id":76561198041630663,"connected_time":2987000000000,"state":"active","ping":67},{"user_id":59,"name":"AlecTheNefarious","steam_id":76561198035291230,"connected_time":3406000000000,"state":"active","ping":72},{"user_id":60,"name":"aisu","steam_id":76561198043768507,"connected_time":3387000000000,"state":"active","ping":90},{"user_id":83,"name":"Hertz","steam_id":76561198310927351,"connected_time":1027000000000,"state":"active","ping":139},{"user_id":87,"name":"Cthulhu's Malewife","steam_id":76561198085888959,"connected_time":729000000000,"state":"active","ping":40}]},{"server_id":400,"name":"Uncletopia | Atlanta | 3 | Stopwatch","name_short":"atl-3","host":"atl-1.us.uncletopia.com","port":27035,"enabled":true,"region":"us-east","cc":"us","latitude":33.753746,"longitude":-84.38633,"reserved":0,"last_update":"0001-01-01T00:00:00Z","name_a2s":"Uncletopia | Atlanta | 3 | Stopwatch","protocol":17,"map":"workshop/pl_summercoast_rc8e.ugc1761528829","folder":"tf","game":"Team Fortress","app_id":440,"player_count":0,"max_players":24,"Bots":0,"server_type":"Dedicated","server_os":"Linux","password":true,"vac":true,"version":"7961495","steam_id":85568392924515187,"keywords":["nocrits","nodmgspread","payload","uncletopia"],"game_id":440,"stv_port":27036,"stv_name":"Uncletopia | Atlanta | 3 | Stopwatch | STV","players":null},{"server_id":401,"name":"Uncletopia | Atlanta | 4 | Community","name_short":"atl-4","host":"atl-1.us.uncletopia.com","port":27045,"enabled":true,"region":"us-east","cc":"us","latitude":33.753746,"longitude":-84.38633,"reserved":0,"last_update":"0001-01-01T00:00:00Z","name_a2s":"Uncletopia | Atlanta | 4 | Community","protocol":17,"map":"workshop/koth_ramjam_rc1.ugc459778887","folder":"tf","game":"Team Fortress","app_id":440,"player_count":0,"max_players":24,"Bots":0,"server_type":"Dedicated","server_os":"Linux","password":true,"vac":true,"version":"7961495","steam_id":85568392924515188,"keywords":["cp","nocrits","nodmgspread","uncletopia"],"game_id":440,"stv_port":27046,"stv_name":"Uncletopia | Atlanta | 4 | Community | STV","players":null},{"server_id":2,"name":"Uncletopia | Chicago | 1 | All Maps","name_short":"chi-1","host":"chi-1.us.uncletopia.com","port":27015,"enabled":true,"region":"us-central","cc":"us","latitude":41.881832,"longitude":-87.62318,"reserved":0,"last_update":"0001-01-01T00:00:00Z","name_a2s":"Uncletopia | Chicago | 1 | All Maps","protocol":17,"map":"pl_pier","folder":"tf","game":"Team Fortress","app_id":440,"player_count":24,"max_players":24,"Bots":0,"server_type":"Dedicated","server_os":"Linux","password":true,"vac":true,"version":"7961495","steam_id":85568392924469984,"keywords":["nocrits","nodmgspread","payload","uncletopia"],"game_id":440,"stv_port":27016,"stv_name":"Uncletopia | Chicago | 1 | All Maps | STV","players":[{"user_id":436,"name":"wet_socks_only","steam_id":76561199101019354,"connected_time":4472000000000,"state":"active","ping":72},{"user_id":401,"name":"Ickly","steam_id":76561198130225025,"connected_time":7884000000000,"state":"active","ping":111},{"user_id":464,"name":"bath","steam_id":76561197969993352,"connected_time":1753000000000,"state":"active","ping":63},{"user_id":474,"name":"Flashtasm","steam_id":76561198026635660,"connected_time":1479000000000,"state":"active","ping":60},{"user_id":463,"name":"‚òòÔ∏èNACHO_üçÄ","steam_id":76561198076618089,"connected_time":2061000000000,"state":"active","ping":73},{"user_id":454,"name":"Hypoxic","steam_id":76561198052030424,"connected_time":3154000000000,"state":"active","ping":84},{"user_id":462,"name":"on that zaza?","steam_id":76561198038713198,"connected_time":2156000000000,"state":"active","ping":62},{"user_id":328,"name":"TheCenturionGod","steam_id":76561199054176354,"connected_time":11570000000000,"state":"active","ping":101},{"user_id":475,"name":"Tara","steam_id":76561198020696265,"connected_time":1327000000000,"state":"active","ping":61},{"user_id":279,"name":"Celestial Bodies","steam_id":76561198212572955,"connected_time":16676000000000,"state":"active","ping":80},{"user_id":478,"name":"FatSweatyBlackMan","steam_id":76561199020244051,"connected_time":843000000000,"state":"active","ping":97},{"user_id":442,"name":"CombatStraps","steam_id":76561198356280659,"connected_time":3596000000000,"state":"active","ping":85},{"user_id":435,"name":"gesture jester","steam_id":76561198850632709,"connected_time":4675000000000,"state":"active","ping":84},{"user_id":472,"name":"SecondCarpet","steam_id":76561199008323078,"connected_time":1645000000000,"state":"active","ping":71},{"user_id":434,"name":"ThunderMonkey (SMOKE)","steam_id":76561198017631728,"connected_time":4719000000000,"state":"active","ping":71},{"user_id":448,"name":"777","steam_id":76561198277163301,"connected_time":3514000000000,"state":"active","ping":64},{"user_id":349,"name":"Swiftmend","steam_id":76561197995595692,"connected_time":8926000000000,"state":"active","ping":76},{"user_id":479,"name":"grald05421","steam_id":76561199049031560,"connected_time":560000000000,"state":"active","ping":89},{"user_id":467,"name":"chaffy","steam_id":76561198021754567,"connected_time":1718000000000,"state":"active","ping":56},{"user_id":468,"name":"oyasumi","steam_id":76561198128614882,"connected_time":1710000000000,"state":"active","ping":78},{"user_id":443,"name":"Scout Cuomo","steam_id":76561198345950408,"connected_time":3593000000000,"state":"active","ping":80},{"user_id":429,"name":"Spy Gaming","steam_id":76561198453295613,"connected_time":5550000000000,"state":"active","ping":112},{"user_id":460,"name":"Coolyo1313","steam_id":76561198158772227,"connected_time":2471000000000,"state":"active","ping":64},{"user_id":473,"name":"plane from united","steam_id":76561198035669814,"connected_time":1554000000000,"state":"active","ping":51}]},{"server_id":106,"name":"Uncletopia | Chicago | 2 | All Maps","name_short":"chi-2","host":"chi-1.us.uncletopia.com","port":27025,"enabled":true,"region":"us-central","cc":"us","latitude":41.881832,"longitude":-87.62318,"reserved":0,"last_update":"0001-01-01T00:00:00Z","name_a2s":"Uncletopia | Chicago | 2 | All Maps","protocol":17,"map":"cp_freight_final1","folder":"tf","game":"Team Fortress","app_id":440,"player_count":24,"max_players":24,"Bots":0,"server_type":"Dedicated","server_os":"Linux","password":true,"vac":true,"version":"7961495","steam_id":85568392924469985,"keywords":["cp","nocrits","nodmgspread","uncletopia"],"game_id":440,"stv_port":27026,"stv_name":"Uncletopia | Chicago | 2 | All Maps | STV","players":[{"user_id":586,"name":"CEO of leg pills","steam_id":76561198019542583,"connected_time":715000000000,"state":"active","ping":88},{"user_id":598,"name":"Shystie","steam_id":76561198025371440,"connected_time":386000000000,"state":"active","ping":76},{"user_id":585,"name":"she french, i'm a coke boy","steam_id":76561198120440587,"connected_time":731000000000,"state":"active","ping":62},{"user_id":477,"name":"Lee?","steam_id":76561199060892634,"connected_time":10217000000000,"state":"active","ping":81},{"user_id":475,"name":"Huloon","steam_id":76561198070837568,"connected_time":10486000000000,"state":"active","ping":72},{"user_id":583,"name":"Slavaskii","steam_id":76561198046673499,"connected_time":742000000000,"state":"active","ping":79},{"user_id":592,"name":"gIBBY","steam_id":76561198080099598,"connected_time":626000000000,"state":"active","ping":47},{"user_id":580,"name":"Phillips 66","steam_id":76561198026875868,"connected_time":1146000000000,"state":"active","ping":56},{"user_id":540,"name":"Lennu","steam_id":76561198060730154,"connected_time":4720000000000,"state":"active","ping":70},{"user_id":576,"name":"fingers longer than arm","steam_id":76561198001781616,"connected_time":1928000000000,"state":"active","ping":56},{"user_id":599,"name":"Dzhoshua","steam_id":76561198071915251,"connected_time":356000000000,"state":"active","ping":69},{"user_id":584,"name":"Jimmy Carl Black","steam_id":76561198257035228,"connected_time":737000000000,"state":"active","ping":77},{"user_id":600,"name":"[S]Mr. X [No Monitor]","steam_id":76561197963746035,"connected_time":306000000000,"state":"active","ping":119},{"user_id":587,"name":"Schizo Femboy","steam_id":76561199162627150,"connected_time":711000000000,"state":"active","ping":115},{"user_id":590,"name":"/JELL-E/","steam_id":76561198031000001,"connected_time":682000000000,"state":"active","ping":85},{"user_id":591,"name":"Farded and shidded","steam_id":76561198844270350,"connected_time":671000000000,"state":"active","ping":88},{"user_id":557,"name":"NotoriousThicc","steam_id":76561198244650474,"connected_time":3359000000000,"state":"active","ping":111},{"user_id":593,"name":"Stamwich","steam_id":76561197993458618,"connected_time":612000000000,"state":"active","ping":78},{"user_id":553,"name":"yakubian snow ape","steam_id":76561198107343544,"connected_time":4463000000000,"state":"active","ping":97},{"user_id":597,"name":"ItsBrieDude","steam_id":76561198051971306,"connected_time":432000000000,"state":"active","ping":63},{"user_id":595,"name":"Lord Pretty Flocko Jordye","steam_id":76561198962880749,"connected_time":586000000000,"state":"active","ping":104},{"user_id":578,"name":"Monte","steam_id":76561198097499917,"connected_time":1346000000000,"state":"active","ping":101},{"user_id":601,"name":"NUt","steam_id":76561198031007966,"connected_time":262000000000,"state":"active","ping":62},{"user_id":582,"name":"Boxcars","steam_id":76561198120978767,"connected_time":995000000000,"state":"active","ping":100}]},{"server_id":402,"name":"Uncletopia | Chicago | 3 | All Maps","name_short":"chi-3","host":"chi-1.us.uncletopia.com","port":27035,"enabled":true,"region":"us-central","cc":"us","latitude":41.881832,"longitude":-87.62318,"reserved":0,"last_update":"0001-01-01T00:00:00Z","name_a2s":"Uncletopia | Chicago | 3 | All Maps","protocol":17,"map":"pl_pier","folder":"tf","game":"Team Fortress","app_id":440,"player_count":24,"max_players":24,"Bots":0,"server_type":"Dedicated","server_os":"Linux","password":true,"vac":true,"version":"7961495","steam_id":85568392924515191,"keywords":["nocrits","nodmgspread","payload","uncletopia"],"game_id":440,"stv_port":27036,"stv_name":"Uncletopia | Chicago | 3 | All Maps | STV","players":[{"user_id":222,"name":"aphexjh","steam_id":76561197985854658,"connected_time":5765000000000,"state":"active","ping":57},{"user_id":279,"name":"MonkeyNobody","steam_id":76561199451266605,"connected_time":729000000000,"state":"active","ping":115},{"user_id":270,"name":"Mack","steam_id":76561198089361823,"connected_time":1315000000000,"state":"active","ping":119},{"user_id":285,"name":"Windup Monkey in a Human Suit","steam_id":76561198119501444,"connected_time":496000000000,"state":"active","ping":98},{"user_id":271,"name":"GlitchNoodles","steam_id":76561199009135766,"connected_time":819000000000,"state":"active","ping":50},{"user_id":289,"name":"basketball","steam_id":76561199074875663,"connected_time":256000000000,"state":"active","ping":75},{"user_id":272,"name":"SN0W","steam_id":76561198153665468,"connected_time":810000000000,"state":"active","ping":55},{"user_id":190,"name":"MedRed‚Ñ¢ #IATAH","steam_id":76561198002962970,"connected_time":8585000000000,"state":"active","ping":93},{"user_id":261,"name":"Amtyk","steam_id":76561197979130554,"connected_time":2482000000000,"state":"active","ping":66},{"user_id":249,"name":"RagunCagun","steam_id":76561198132848008,"connected_time":3305000000000,"state":"active","ping":45},{"user_id":281,"name":"roach","steam_id":76561199061380038,"connected_time":560000000000,"state":"active","ping":75},{"user_id":218,"name":"Swash","steam_id":76561197969421355,"connected_time":6198000000000,"state":"active","ping":55},{"user_id":274,"name":"gas station tweaker","steam_id":76561198264288798,"connected_time":802000000000,"state":"active","ping":95},{"user_id":208,"name":"y0","steam_id":76561198143894333,"connected_time":7238000000000,"state":"active","ping":58},{"user_id":287,"name":"NeoWolf","steam_id":76561198144759784,"connected_time":377000000000,"state":"active","ping":95},{"user_id":262,"name":"Crombun","steam_id":76561198031559642,"connected_time":2258000000000,"state":"active","ping":76},{"user_id":198,"name":"AFKaylee","steam_id":76561198218215220,"connected_time":7894000000000,"state":"active","ping":60},{"user_id":259,"name":"hej","steam_id":76561197996366940,"connected_time":2544000000000,"state":"active","ping":60},{"user_id":283,"name":"chunk","steam_id":76561198134775401,"connected_time":540000000000,"state":"active","ping":80},{"user_id":264,"name":"lucius","steam_id":76561199138748499,"connected_time":2204000000000,"state":"active","ping":59},{"user_id":286,"name":"Dokkibai","steam_id":76561198355935693,"connected_time":437000000000,"state":"active","ping":51},{"user_id":203,"name":"punk cock","steam_id":76561198418182764,"connected_time":7727000000000,"state":"active","ping":68},{"user_id":247,"name":"Grundle Thunder","steam_id":76561197960790338,"connected_time":3457000000000,"state":"active","ping":86},{"user_id":288,"name":"schnedwob","steam_id":76561197999146588,"connected_time":265000000000,"state":"active","ping":81}]},{"server_id":403,"name":"Uncletopia | Chicago | 4 | All Maps","name_short":"chi-4","host":"chi-1.us.uncletopia.com","port":27045,"enabled":true,"region":"us-central","cc":"us","latitude":41.881832,"longitude":-87.62318,"reserved":0,"last_update":"0001-01-01T00:00:00Z","name_a2s":"Uncletopia | Chicago | 4 | All Maps","protocol":17,"map":"pl_badwater","folder":"tf","game":"Team Fortress","app_id":440,"player_count":24,"max_players":24,"Bots":0,"server_type":"Dedicated","server_os":"Linux","password":true,"vac":true,"version":"7961495","steam_id":85568392924515193,"keywords":["nocrits","nodmgspread","payload","uncletopia"],"game_id":440,"stv_port":27046,"stv_name":"Uncletopia | Chicago | 4 | All Maps | STV","players":[{"user_id":607,"name":"Arcane Flame","steam_id":76561198360024422,"connected_time":9695000000000,"state":"active","ping":115},{"user_id":760,"name":"Bentus","steam_id":76561198056887235,"connected_time":739000000000,"state":"active","ping":56},{"user_id":733,"name":"LeSperm James","steam_id":76561198144909435,"connected_time":1449000000000,"state":"active","ping":107},{"user_id":764,"name":" ú·¥Ä Ä·¥†","steam_id":76561199224251631,"connected_time":707000000000,"state":"active","ping":51},{"user_id":786,"name":"Artic_Ryuu","steam_id":76561198182194918,"connected_time":24000000000,"state":"active","ping":96},{"user_id":623,"name":"General Sherman","steam_id":76561198044769376,"connected_time":8087000000000,"state":"active","ping":75},{"user_id":780,"name":"Crisp","steam_id":76561198132644084,"connected_time":319000000000,"state":"active","ping":71},{"user_id":773,"name":"Kat","steam_id":76561199182755123,"connected_time":564000000000,"state":"active","ping":93},{"user_id":709,"name":"Dacoda999","steam_id":76561198092203780,"connected_time":2865000000000,"state":"active","ping":57},{"user_id":715,"name":"TacoMan4Life","steam_id":76561198832562728,"connected_time":2293000000000,"state":"active","ping":113},{"user_id":736,"name":"sawrik","steam_id":76561198018808213,"connected_time":1410000000000,"state":"active","ping":72},{"user_id":708,"name":"Ghost Kaisar","steam_id":76561198103629357,"connected_time":2951000000000,"state":"active","ping":71},{"user_id":737,"name":"JellyParrot","steam_id":76561199190990163,"connected_time":1381000000000,"state":"active","ping":71},{"user_id":719,"name":"KiloeJet","steam_id":76561199084636926,"connected_time":2023000000000,"state":"active","ping":108},{"user_id":778,"name":"Hihi3000","steam_id":76561198873454667,"connected_time":341000000000,"state":"active","ping":80},{"user_id":723,"name":"GreySweaterCat","steam_id":76561198351860293,"connected_time":1943000000000,"state":"active","ping":90},{"user_id":701,"name":"It's pronounced GIF.","steam_id":76561197993151595,"connected_time":3205000000000,"state":"active","ping":69},{"user_id":738,"name":"Magik","steam_id":76561198099726660,"connected_time":1380000000000,"state":"active","ping":101},{"user_id":785,"name":"fugitivefuglemanfugue","steam_id":76561197972601902,"connected_time":187000000000,"state":"active","ping":92},{"user_id":766,"name":"chilis baby back ribs","steam_id":76561198813516435,"connected_time":683000000000,"state":"active","ping":101},{"user_id":761,"name":"‚à´ (3x^2) (x^3  +1)^6  d x","steam_id":76561198313364985,"connected_time":738000000000,"state":"active","ping":73},{"user_id":725,"name":"PayPal me $3000 USD","steam_id":76561199066185761,"connected_time":1936000000000,"state":"active","ping":138},{"user_id":726,"name":"BLOCKHEAD","steam_id":76561198808224331,"connected_time":1899000000000,"state":"active","ping":126},{"user_id":732,"name":"totoro","steam_id":76561198210420871,"connected_time":1547000000000,"state":"active","ping":48}]},{"server_id":36,"name":"Uncletopia | Chicago | 5 | All Maps","name_short":"chi-5","host":"chi-2.us.uncletopia.com","port":27015,"enabled":true,"region":"us-central","cc":"us","latitude":41.881832,"longitude":-87.62318,"reserved":0,"last_update":"0001-01-01T00:00:00Z","name_a2s":"Uncletopia | Chicago | 5 | All Maps","protocol":17,"map":"pl_upward","folder":"tf","game":"Team Fortress","app_id":440,"player_count":23,"max_players":24,"Bots":0,"server_type":"Dedicated","server_os":"Linux","password":true,"vac":true,"version":"7961495","steam_id":85568392924866362,"keywords":["nocrits","nodmgspread","payload","uncletopia"],"game_id":440,"stv_port":27016,"stv_name":"Uncletopia | Chicago | 5 | All Maps | STV","players":[{"user_id":611,"name":"fried rice","steam_id":76561198928939100,"connected_time":3697000000000,"state":"active","ping":71},{"user_id":662,"name":"‡∏Ö^‚Ä¢Ôªå‚Ä¢^‡∏Ö","steam_id":76561198326987939,"connected_time":806000000000,"state":"active","ping":60},{"user_id":632,"name":"my monitor is off","steam_id":76561198148905570,"connected_time":2650000000000,"state":"active","ping":72},{"user_id":673,"name":"Wafflemouth","steam_id":76561198086040614,"connected_time":16000000000,"state":"active","ping":59},{"user_id":671,"name":"veno","steam_id":76561198110261781,"connected_time":196000000000,"state":"active","ping":83},{"user_id":658,"name":"for the king","steam_id":76561197973488858,"connected_time":877000000000,"state":"active","ping":58},{"user_id":666,"name":"Streetwise","steam_id":76561197971684268,"connected_time":390000000000,"state":"active","ping":83},{"user_id":633,"name":"astrobob911","steam_id":76561199099110654,"connected_time":2648000000000,"state":"active","ping":86},{"user_id":667,"name":"DethSQRL","steam_id":76561199149628610,"connected_time":272000000000,"state":"active","ping":87},{"user_id":635,"name":"Chumster","steam_id":76561199120624891,"connected_time":2640000000000,"state":"active","ping":131},{"user_id":652,"name":"Funny Moment #4","steam_id":76561198271907916,"connected_time":1276000000000,"state":"active","ping":58},{"user_id":672,"name":"Sarbanes-Oxley","steam_id":76561197975898479,"connected_time":91000000000,"state":"active","ping":76},{"user_id":659,"name":"GreenApples","steam_id":76561198120559543,"connected_time":856000000000,"state":"active","ping":95},{"user_id":656,"name":"Balerion the Black Dread","steam_id":76561198003728369,"connected_time":981000000000,"state":"active","ping":80},{"user_id":601,"name":"Vine Gar","steam_id":76561198119483989,"connected_time":4459000000000,"state":"active","ping":87},{"user_id":655,"name":"The Washer of Dishes","steam_id":76561198028157625,"connected_time":1050000000000,"state":"active","ping":90},{"user_id":602,"name":"totally not a pile of beans","steam_id":76561198119851931,"connected_time":4450000000000,"state":"active","ping":84},{"user_id":670,"name":"Bongjour","steam_id":76561198083851689,"connected_time":212000000000,"state":"active","ping":61},{"user_id":650,"name":"War on Drugs Fighter","steam_id":76561198103211035,"connected_time":1475000000000,"state":"active","ping":66},{"user_id":654,"name":"frank","steam_id":76561198137777483,"connected_time":1129000000000,"state":"active","ping":74},{"user_id":627,"name":"c00kie","steam_id":76561198418178297,"connected_time":3311000000000,"state":"active","ping":53},{"user_id":648,"name":"SWISS!","steam_id":76561198271971252,"connected_time":1758000000000,"state":"active","ping":75},{"user_id":664,"name":"Naps","steam_id":76561198045288245,"connected_time":763000000000,"state":"active","ping":106}]},{"server_id":37,"name":"Uncletopia | Chicago | 6 | All Maps","name_short":"chi-6","host":"chi-2.us.uncletopia.com","port":27025,"enabled":true,"region":"us-central","cc":"us","latitude":41.881832,"longitude":-87.62318,"reserved":0,"last_update":"0001-01-01T00:00:00Z","name_a2s":"Uncletopia | Chicago | 6 | All Maps","protocol":17,"map":"cp_mountainlab","folder":"tf","game":"Team Fortress","app_id":440,"player_count":24,"max_players":24,"Bots":0,"server_type":"Dedicated","server_os":"Linux","password":true,"vac":true,"version":"7961495","steam_id":85568392924866363,"keywords":["cp","nocrits","nodmgspread","uncletopia"],"game_id":440,"stv_port":27026,"stv_name":"Uncletopia | Chicago | 6 | All Maps | STV","players":[{"user_id":306,"name":"Acuzik","steam_id":76561198045453400,"connected_time":1976000000000,"state":"active","ping":55},{"user_id":310,"name":"Rein","steam_id":76561198300340427,"connected_time":1841000000000,"state":"active","ping":60},{"user_id":293,"name":"Hud","steam_id":76561198146122110,"connected_time":2496000000000,"state":"active","ping":51},{"user_id":322,"name":"The Owlchemist","steam_id":76561198010239032,"connected_time":410000000000,"state":"active","ping":68},{"user_id":289,"name":"minecraft 2.0","steam_id":76561198391819120,"connected_time":2891000000000,"state":"active","ping":130},{"user_id":311,"name":"J2daakob","steam_id":76561198177499289,"connected_time":1836000000000,"state":"active","ping":91},{"user_id":331,"name":"Orceus","steam_id":76561198254906285,"connected_time":71000000000,"state":"active","ping":155},{"user_id":303,"name":"oppenheimer style","steam_id":76561198026664629,"connected_time":2101000000000,"state":"active","ping":59},{"user_id":320,"name":"TheJackSlingingSplasher","steam_id":76561197973093864,"connected_time":529000000000,"state":"active","ping":64},{"user_id":304,"name":"m9","steam_id":76561198125732157,"connected_time":2098000000000,"state":"active","ping":56},{"user_id":294,"name":"Red Lobster Cheddar Bay Biscuit","steam_id":76561198133231245,"connected_time":2476000000000,"state":"active","ping":57},{"user_id":324,"name":"Plant Enthusiast","steam_id":76561198045718960,"connected_time":262000000000,"state":"active","ping":60},{"user_id":332,"name":"Bond","steam_id":76561197978024696,"connected_time":15000000000,"state":"spawning","ping":29},{"user_id":319,"name":"gyozaking","steam_id":76561197972312696,"connected_time":928000000000,"state":"active","ping":50},{"user_id":325,"name":"Golden Markiplier","steam_id":76561198279392720,"connected_time":258000000000,"state":"active","ping":60},{"user_id":295,"name":"PoplDude","steam_id":76561198170132570,"connected_time":2462000000000,"state":"active","ping":70},{"user_id":326,"name":"Squigly","steam_id":76561198084811625,"connected_time":252000000000,"state":"active","ping":81},{"user_id":307,"name":"Braingoo Hex","steam_id":76561198083094783,"connected_time":1973000000000,"state":"active","ping":101},{"user_id":323,"name":"TheBrocklobster","steam_id":76561198039682984,"connected_time":301000000000,"state":"active","ping":109},{"user_id":327,"name":"imitation crab","steam_id":76561198097550535,"connected_time":226000000000,"state":"active","ping":85},{"user_id":329,"name":"plasmaofthedawn","steam_id":76561198287916194,"connected_time":137000000000,"state":"active","ping":82},{"user_id":308,"name":"Moon And Star","steam_id":76561198084449092,"connected_time":1971000000000,"state":"active","ping":80},{"user_id":330,"name":"KingBean","steam_id":76561199195063613,"connected_time":120000000000,"state":"active","ping":84},{"user_id":314,"name":"Fiendish Frog","steam_id":76561198029478821,"connected_time":1600000000000,"state":"active","ping":73}]},{"server_id":38,"name":"Uncletopia | Chicago | 7 | Stopwatch","name_short":"chi-7","host":"chi-2.us.uncletopia.com","port":27035,"enabled":true,"region":"us-central","cc":"us","latitude":41.881832,"longitude":-87.62318,"reserved":0,"last_update":"0001-01-01T00:00:00Z","name_a2s":"Uncletopia | Chicago | 7 | Stopwatch","protocol":17,"map":"workshop/pl_summercoast_rc8e.ugc1761528829","folder":"tf","game":"Team Fortress","app_id":440,"player_count":14,"max_players":24,"Bots":0,"server_type":"Dedicated","server_os":"Linux","password":true,"vac":true,"version":"7961495","steam_id":85568392924866364,"keywords":["nocrits","nodmgspread","payload","uncletopia"],"game_id":440,"stv_port":27036,"stv_name":"Uncletopia | Chicago | 7 | Stopwatch | STV","players":[{"user_id":21,"name":"Duk","steam_id":76561198450692568,"connected_time":6248000000000,"state":"active","ping":75},{"user_id":84,"name":"Not Muscle Man","steam_id":76561198010460535,"connected_time":1760000000000,"state":"active","ping":146},{"user_id":87,"name":"Doowid","steam_id":76561198145419024,"connected_time":1458000000000,"state":"active","ping":57},{"user_id":23,"name":"BasilBird037","steam_id":76561198325406086,"connected_time":5989000000000,"state":"active","ping":80},{"user_id":24,"name":"Somerandom Neko","steam_id":76561198121595112,"connected_time":5635000000000,"state":"active","ping":100},{"user_id":53,"name":"filthycasual","steam_id":76561199138226238,"connected_time":3071000000000,"state":"active","ping":87},{"user_id":38,"name":"Sex Mode:ACTIVATE","steam_id":76561199219852129,"connected_time":4268000000000,"state":"active","ping":186},{"user_id":106,"name":"MoreGames","steam_id":76561198262392738,"connected_time":179000000000,"state":"active","ping":42},{"user_id":90,"name":"BroBoss64","steam_id":76561198995865904,"connected_time":1068000000000,"state":"active","ping":76},{"user_id":104,"name":"Grumpicake","steam_id":76561198292927842,"connected_time":447000000000,"state":"active","ping":70},{"user_id":92,"name":"canakblasteran","steam_id":76561199472518822,"connected_time":949000000000,"state":"active","ping":100},{"user_id":59,"name":"A Mask of My Own Face","steam_id":76561198090289497,"connected_time":2838000000000,"state":"active","ping":74},{"user_id":105,"name":"Panacea","steam_id":76561198342513959,"connected_time":400000000000,"state":"active","ping":82},{"user_id":79,"name":"PANNED RAT","steam_id":76561198328829278,"connected_time":2372000000000,"state":"active","ping":58}]},{"server_id":39,"name":"Uncletopia | Chicago | 8 | Community","name_short":"chi-8","host":"chi-2.us.uncletopia.com","port":27045,"enabled":true,"region":"us-central","cc":"us","latitude":41.881832,"longitude":-87.62318,"reserved":0,"last_update":"0001-01-01T00:00:00Z","name_a2s":"Uncletopia | Chicago | 8 | Community","protocol":17,"map":"workshop/koth_slaughter_rc1.ugc1712845210","folder":"tf","game":"Team Fortress","app_id":440,"player_count":0,"max_players":24,"Bots":0,"server_type":"Dedicated","server_os":"Linux","password":true,"vac":true,"version":"7961495","steam_id":85568392924866365,"keywords":["cp","nocrits","nodmgspread","uncletopia"],"game_id":440,"stv_port":27046,"stv_name":"Uncletopia | Chicago | 8 | Community | STV","players":null},{"server_id":8,"name":"Uncletopia | Dallas | 1 | All Maps","name_short":"dal-1","host":"dal-1.us.uncletopia.com","port":27015,"enabled":true,"region":"us-central","cc":"us","latitude":32.779167,"longitude":-96.80889,"reserved":0,"last_update":"0001-01-01T00:00:00Z","name_a2s":"Uncletopia | Dallas | 1 | All Maps","protocol":17,"map":"pl_upward","folder":"tf","game":"Team Fortress","app_id":440,"player_count":24,"max_players":24,"Bots":0,"server_type":"Dedicated","server_os":"Linux","password":true,"vac":true,"version":"7961495","steam_id":85568392924469986,"keywords":["nocrits","nodmgspread","payload","uncletopia"],"game_id":440,"stv_port":27016,"stv_name":"Uncletopia | Dallas | 1 | All Maps | STV","players":[{"user_id":414,"name":"Tommy Provolone","steam_id":76561198170062377,"connected_time":452000000000,"state":"active","ping":60},{"user_id":396,"name":"‚ù§ Ashleyyy ‚ù§","steam_id":76561198056428303,"connected_time":3073000000000,"state":"active","ping":75},{"user_id":417,"name":"Timur","steam_id":76561197989552257,"connected_time":91000000000,"state":"active","ping":69},{"user_id":402,"name":"Imrgrim","steam_id":76561198135866481,"connected_time":2009000000000,"state":"active","ping":61},{"user_id":386,"name":"tiny","steam_id":76561198010743348,"connected_time":3927000000000,"state":"active","ping":41},{"user_id":415,"name":"9/11 Airlines","steam_id":76561198096306325,"connected_time":387000000000,"state":"active","ping":84},{"user_id":361,"name":"self sufficient kitten","steam_id":76561197960592612,"connected_time":5636000000000,"state":"active","ping":103},{"user_id":384,"name":"Redwood","steam_id":76561198072933593,"connected_time":4207000000000,"state":"active","ping":60},{"user_id":405,"name":"Certified Hood Classic","steam_id":76561199086159354,"connected_time":1625000000000,"state":"active","ping":53},{"user_id":406,"name":"sergeant major cone tits","steam_id":76561198333985626,"connected_time":1571000000000,"state":"active","ping":45},{"user_id":411,"name":"Sunny.","steam_id":76561198333213856,"connected_time":1269000000000,"state":"active","ping":75},{"user_id":410,"name":"cook","steam_id":76561198073106278,"connected_time":1347000000000,"state":"active","ping":64},{"user_id":404,"name":"Im High","steam_id":76561198049954886,"connected_time":1636000000000,"state":"active","ping":86},{"user_id":341,"name":"The Great Whore","steam_id":76561198069735882,"connected_time":7140000000000,"state":"active","ping":78},{"user_id":416,"name":"Green Bean","steam_id":76561198959874732,"connected_time":96000000000,"state":"active","ping":109},{"user_id":353,"name":"reis","steam_id":76561199232952016,"connected_time":5731000000000,"state":"active","ping":176},{"user_id":412,"name":"Fever Dreams","steam_id":76561198116614620,"connected_time":1264000000000,"state":"active","ping":79},{"user_id":418,"name":"ManoloMilan","steam_id":76561199229644796,"connected_time":62000000000,"state":"active","ping":147},{"user_id":409,"name":"je'mond #JOYCONBOYZ","steam_id":76561198113990147,"connected_time":1507000000000,"state":"active","ping":93},{"user_id":397,"name":"Bea","steam_id":76561198197928515,"connected_time":3043000000000,"state":"active","ping":59},{"user_id":376,"name":"Ironaka","steam_id":76561198029993183,"connected_time":4555000000000,"state":"active","ping":95},{"user_id":374,"name":"barker bill","steam_id":76561198018451994,"connected_time":4702000000000,"state":"active","ping":63},{"user_id":403,"name":"schmuck","steam_id":76561198143789773,"connected_time":1779000000000,"state":"active","ping":56},{"user_id":413,"name":"Harbor Seal","steam_id":76561198162631724,"connected_time":1239000000000,"state":"active","ping":96}]},{"server_id":108,"name":"Uncletopia | Dallas | 2 | All Maps","name_short":"dal-2","host":"dal-1.us.uncletopia.com","port":27025,"enabled":true,"region":"us-central","cc":"us","latitude":32.779167,"longitude":-96.80889,"reserved":0,"last_update":"0001-01-01T00:00:00Z","name_a2s":"Uncletopia | Dallas | 2 | All Maps","protocol":17,"map":"pl_frontier_final","folder":"tf","game":"Team Fortress","app_id":440,"player_count":24,"max_players":24,"Bots":0,"server_type":"Dedicated","server_os":"Linux","password":true,"vac":true,"version":"7961495","steam_id":85568392924469988,"keywords":["nocrits","nodmgspread","payload","uncletopia"],"game_id":440,"stv_port":27026,"stv_name":"Uncletopia | Dallas | 2 | All Maps | STV","players":[{"user_id":386,"name":"Kirby","steam_id":76561199161858008,"connected_time":5605000000000,"state":"active","ping":72},{"user_id":466,"name":"Artemisia (She/They)","steam_id":76561198265616793,"connected_time":1333000000000,"state":"active","ping":75},{"user_id":410,"name":"craven","steam_id":76561198088191503,"connected_time":4097000000000,"state":"active","ping":73},{"user_id":472,"name":"HRT","steam_id":76561198013781132,"connected_time":748000000000,"state":"active","ping":83},{"user_id":453,"name":"Mentally Ill Woman","steam_id":76561198072030567,"connected_time":1928000000000,"state":"active","ping":75},{"user_id":464,"name":"SlayerFan43","steam_id":76561198099975634,"connected_time":1387000000000,"state":"active","ping":77},{"user_id":465,"name":"Fritzz__","steam_id":76561198176956826,"connected_time":1359000000000,"state":"active","ping":74},{"user_id":362,"name":"+","steam_id":76561198262422184,"connected_time":6713000000000,"state":"active","ping":53},{"user_id":477,"name":"THIRDPIERCE","steam_id":76561198405366314,"connected_time":279000000000,"state":"active","ping":58},{"user_id":442,"name":"Jovo","steam_id":76561197993265970,"connected_time":2402000000000,"state":"active","ping":104},{"user_id":476,"name":"ark","steam_id":76561198041066271,"connected_time":335000000000,"state":"active","ping":78},{"user_id":467,"name":"Junipyre","steam_id":76561198044819364,"connected_time":1311000000000,"state":"active","ping":71},{"user_id":409,"name":"Chauncey von Snuffles III","steam_id":76561198021784746,"connected_time":4403000000000,"state":"active","ping":63},{"user_id":479,"name":"BooceMaster","steam_id":76561198148520318,"connected_time":231000000000,"state":"active","ping":89},{"user_id":445,"name":"Transgender Guy Fieri","steam_id":76561198801467075,"connected_time":2297000000000,"state":"active","ping":61},{"user_id":474,"name":"Major Woody","steam_id":76561198835541533,"connected_time":544000000000,"state":"active","ping":63},{"user_id":471,"name":"TinnyLattice","steam_id":76561199015329331,"connected_time":938000000000,"state":"active","ping":47},{"user_id":441,"name":"B0B_Bobson","steam_id":76561198400694217,"connected_time":2470000000000,"state":"active","ping":90},{"user_id":456,"name":"H.","steam_id":76561198074951179,"connected_time":1880000000000,"state":"active","ping":89},{"user_id":460,"name":"Spagon","steam_id":76561198162374030,"connected_time":1524000000000,"state":"active","ping":89},{"user_id":475,"name":"cupsovietxeno","steam_id":76561198997539399,"connected_time":393000000000,"state":"active","ping":94},{"user_id":470,"name":"Philo","steam_id":76561198061873341,"connected_time":1234000000000,"state":"active","ping":95},{"user_id":450,"name":"JAKandBEL","steam_id":76561198213060931,"connected_time":2095000000000,"state":"active","ping":94},{"user_id":478,"name":"Thequirka","steam_id":76561198968058652,"connected_time":279000000000,"state":"active","ping":101}]},{"server_id":404,"name":"Uncletopia | Dallas | 3 | All Maps","name_short":"dal-3","host":"dal-1.us.uncletopia.com","port":27035,"enabled":true,"region":"us-central","cc":"us","latitude":32.779167,"longitude":-96.80889,"reserved":0,"last_update":"0001-01-01T00:00:00Z","name_a2s":"Uncletopia | Dallas | 3 | All Maps","protocol":17,"map":"koth_viaduct","folder":"tf","game":"Team Fortress","app_id":440,"player_count":5,"max_players":24,"Bots":0,"server_type":"Dedicated","server_os":"Linux","password":true,"vac":true,"version":"7961495","steam_id":85568392924515219,"keywords":["cp","nocrits","nodmgspread","uncletopia"],"game_id":440,"stv_port":27036,"stv_name":"Uncletopia | Dallas | 3 | All Maps | STV","players":[{"user_id":59,"name":"leopardo123atl","steam_id":76561198872648238,"connected_time":199000000000,"state":"active","ping":73},{"user_id":58,"name":"Lok Lanser","steam_id":76561198358059832,"connected_time":471000000000,"state":"active","ping":70},{"user_id":52,"name":"KiWii","steam_id":76561199013608864,"connected_time":1260000000000,"state":"active","ping":61},{"user_id":60,"name":"Caleb The Hedgehog","steam_id":76561198188496597,"connected_time":56000000000,"state":"spawning","ping":122},{"user_id":55,"name":"cajun thotsauce","steam_id":76561198101636066,"connected_time":1118000000000,"state":"active","ping":74}]},{"server_id":405,"name":"Uncletopia | Dallas | 4 | Community","name_short":"dal-4","host":"dal-1.us.uncletopia.com","port":27045,"enabled":true,"region":"us-central","cc":"us","latitude":32.779167,"longitude":-96.80889,"reserved":0,"last_update":"0001-01-01T00:00:00Z","name_a2s":"Uncletopia | Dallas | 4 | Community","protocol":17,"map":"workshop/koth_trenchfoot_ab1.ugc731436616","folder":"tf","game":"Team Fortress","app_id":440,"player_count":0,"max_players":24,"Bots":0,"server_type":"Dedicated","server_os":"Linux","password":true,"vac":true,"version":"7961495","steam_id":85568392924515220,"keywords":["cp","nocrits","nodmgspread","uncletopia"],"game_id":440,"stv_port":27046,"stv_name":"Uncletopia | Dallas | 4 | Community | STV","players":null},{"server_id":5,"name":"Uncletopia | Frankfurt | 1 | All Maps","name_short":"frk-1","host":"frk-1.de.uncletopia.com","port":27015,"enabled":true,"region":"eu","cc":"de","latitude":50.110924,"longitude":8.682127,"reserved":0,"last_update":"0001-01-01T00:00:00Z","name_a2s":"Uncletopia | Frankfurt | 1 | All Maps","protocol":17,"map":"cp_snakewater_final1","folder":"tf","game":"Team Fortress","app_id":440,"player_count":0,"max_players":24,"Bots":0,"server_type":"Dedicated","server_os":"Linux","password":true,"vac":true,"version":"7961495","steam_id":85568392924469989,"keywords":["cp","nocrits","nodmgspread","uncletopia"],"game_id":440,"stv_port":27016,"stv_name":"Uncletopia | Frankfurt | 1 | All Maps | STV","players":null},{"server_id":110,"name":"Uncletopia | Frankfurt | 2 | All Maps","name_short":"frk-2","host":"frk-1.de.uncletopia.com","port":27025,"enabled":true,"region":"eu","cc":"de","latitude":50.110924,"longitude":8.682127,"reserved":0,"last_update":"0001-01-01T00:00:00Z","name_a2s":"Uncletopia | Frankfurt | 2 | All Maps","protocol":17,"map":"cp_altitude","folder":"tf","game":"Team Fortress","app_id":440,"player_count":0,"max_players":24,"Bots":0,"server_type":"Dedicated","server_os":"Linux","password":true,"vac":true,"version":"7961495","steam_id":85568392924469990,"keywords":["cp","nocrits","nodmgspread","uncletopia"],"game_id":440,"stv_port":27026,"stv_name":"Uncletopia | Frankfurt | 2 | All Maps | STV","players":null},{"server_id":308,"name":"Uncletopia | Frankfurt | 3 | All Maps","name_short":"frk-3","host":"frk-1.de.uncletopia.com","port":27035,"enabled":true,"region":"eu","cc":"de","latitude":50.110924,"longitude":8.682127,"reserved":0,"last_update":"0001-01-01T00:00:00Z","name_a2s":"Uncletopia | Frankfurt | 3 | All Maps","protocol":17,"map":"koth_lakeside_final","folder":"tf","game":"Team Fortress","app_id":440,"player_count":0,"max_players":24,"Bots":0,"server_type":"Dedicated","server_os":"Linux","password":true,"vac":true,"version":"7961495","steam_id":85568392924504274,"keywords":["cp","nocrits","nodmgspread","uncletopia"],"game_id":440,"stv_port":27036,"stv_name":"Uncletopia | Frankfurt | 3 | All Maps | STV","players":null},{"server_id":309,"name":"Uncletopia | Frankfurt | 4 | All Maps","name_short":"frk-4","host":"frk-1.de.uncletopia.com","port":27045,"enabled":true,"region":"eu","cc":"de","latitude":50.110924,"longitude":8.682127,"reserved":0,"last_update":"0001-01-01T00:00:00Z","name_a2s":"Uncletopia | Frankfurt | 4 | All Maps","protocol":17,"map":"koth_highpass","folder":"tf","game":"Team Fortress","app_id":440,"player_count":0,"max_players":24,"Bots":0,"server_type":"Dedicated","server_os":"Linux","password":true,"vac":true,"version":"7961495","steam_id":85568392924504275,"keywords":["cp","nocrits","nodmgspread","uncletopia"],"game_id":440,"stv_port":27046,"stv_name":"Uncletopia | Frankfurt | 4 | All Maps | STV","players":null},{"server_id":310,"name":"Uncletopia | Frankfurt | 5 | All Maps","name_short":"frk-5","host":"frk-1.de.uncletopia.com","port":27055,"enabled":true,"region":"eu","cc":"de","latitude":50.110924,"longitude":8.682127,"reserved":0,"last_update":"0001-01-01T00:00:00Z","name_a2s":"Uncletopia | Frankfurt | 5 | All Maps","protocol":17,"map":"cp_snakewater_final1","folder":"tf","game":"Team Fortress","app_id":440,"player_count":0,"max_players":24,"Bots":0,"server_type":"Dedicated","server_os":"Linux","password":true,"vac":true,"version":"7961495","steam_id":85568392924504277,"keywords":["cp","nocrits","nodmgspread","uncletopia"],"game_id":440,"stv_port":27056,"stv_name":"Uncletopia | Frankfurt | 5 | All Maps | STV","players":null},{"server_id":311,"name":"Uncletopia | Frankfurt | 6 | All Maps","name_short":"frk-6","host":"frk-1.de.uncletopia.com","port":27065,"enabled":true,"region":"eu","cc":"de","latitude":50.110924,"longitude":8.682127,"reserved":0,"last_update":"0001-01-01T00:00:00Z","name_a2s":"Uncletopia | Frankfurt | 6 | All Maps","protocol":17,"map":"koth_lakeside_final","folder":"tf","game":"Team Fortress","app_id":440,"player_count":0,"max_players":24,"Bots":0,"server_type":"Dedicated","server_os":"Linux","password":true,"vac":true,"version":"7961495","steam_id":85568392924504278,"keywords":["cp","nocrits","nodmgspread","uncletopia"],"game_id":440,"stv_port":27066,"stv_name":"Uncletopia | Frankfurt | 6 | All Maps | STV","players":null},{"server_id":23,"name":"Uncletopia | Frankfurt | 7 | Stopwatch","name_short":"frk-7","host":"frk-1.de.uncletopia.com","port":27075,"enabled":true,"region":"eu","cc":"de","latitude":50.110924,"longitude":8.682127,"reserved":0,"last_update":"0001-01-01T00:00:00Z","name_a2s":"Uncletopia | Frankfurt | 7 | Stopwatch","protocol":17,"map":"pl_frontier_final","folder":"tf","game":"Team Fortress","app_id":440,"player_count":0,"max_players":24,"Bots":0,"server_type":"Dedicated","server_os":"Linux","password":true,"vac":true,"version":"7961495","steam_id":85568392924742827,"keywords":["nocrits","nodmgspread","payload","uncletopia"],"game_id":440,"stv_port":27076,"stv_name":"Uncletopia | Frankfurt | 7 | Stopwatch | STV","players":null},{"server_id":24,"name":"Uncletopia | Frankfurt | 8 | Community","name_short":"frk-8","host":"frk-1.de.uncletopia.com","port":27085,"enabled":true,"region":"eu","cc":"de","latitude":50.110924,"longitude":8.682127,"reserved":0,"last_update":"0001-01-01T00:00:00Z","name_a2s":"Uncletopia | Frankfurt | 8 | Community","protocol":17,"map":"workshop/koth_ashville_final.ugc2130459942","folder":"tf","game":"Team Fortress","app_id":440,"player_count":0,"max_players":24,"Bots":0,"server_type":"Dedicated","server_os":"Linux","password":true,"vac":true,"version":"7961495","steam_id":85568392924742828,"keywords":["cp","nocrits","nodmgspread","uncletopia"],"game_id":440,"stv_port":27086,"stv_name":"Uncletopia | Frankfurt | 8 | Community | STV","players":null},{"server_id":202,"name":"Uncletopia | Hong Kong | 1 | All Maps","name_short":"hgk-1","host":"hgk-1.hk.uncletopia.com","port":27015,"enabled":true,"region":"asia","cc":"hk","latitude":22.302711,"longitude":114.177216,"reserved":0,"last_update":"0001-01-01T00:00:00Z","name_a2s":"Uncletopia | Hong Kong | 1 | All Maps","protocol":17,"map":"pl_upward","folder":"tf","game":"Team Fortress","app_id":440,"player_count":17,"max_players":24,"Bots":0,"server_type":"Dedicated","server_os":"Linux","password":true,"vac":true,"version":"7961495","steam_id":85568392924494504,"keywords":["nocrits","nodmgspread","payload","uncletopia"],"game_id":440,"stv_port":27016,"stv_name":"Uncletopia | Hong Kong | 1 | All Maps | STV","players":[{"user_id":3,"name":"poopypantsjoe","steam_id":76561198204747977,"connected_time":10330000000000,"state":"active","ping":64},{"user_id":9,"name":"Cheesey","steam_id":76561198975684137,"connected_time":6219000000000,"state":"active","ping":77},{"user_id":42,"name":"Lady \u0026 The Tramp (1955)","steam_id":76561198422543918,"connected_time":1482000000000,"state":"active","ping":115},{"user_id":20,"name":"Furry_(Real)","steam_id":76561199230196794,"connected_time":4452000000000,"state":"active","ping":113},{"user_id":36,"name":"ArcticDolphin","steam_id":76561198203626319,"connected_time":2539000000000,"state":"active","ping":129},{"user_id":24,"name":"sc","steam_id":76561198110601275,"connected_time":3998000000000,"state":"active","ping":73},{"user_id":48,"name":"naturo uchicha","steam_id":76561199075775384,"connected_time":582000000000,"state":"active","ping":75},{"user_id":38,"name":"P nut","steam_id":76561198986108106,"connected_time":1976000000000,"state":"active","ping":95},{"user_id":33,"name":"Wat","steam_id":76561199159894607,"connected_time":2959000000000,"state":"active","ping":115},{"user_id":45,"name":"Lady D.","steam_id":76561199225360457,"connected_time":1053000000000,"state":"active","ping":76},{"user_id":32,"name":"poophead","steam_id":76561199332410546,"connected_time":3225000000000,"state":"active","ping":146},{"user_id":52,"name":"Dornbladderant","steam_id":76561198434020768,"connected_time":146000000000,"state":"active","ping":1208},{"user_id":53,"name":"LunarDark","steam_id":76561199053375740,"connected_time":110000000000,"state":"active","ping":127},{"user_id":44,"name":"villy","steam_id":76561198169263597,"connected_time":1420000000000,"state":"active","ping":35},{"user_id":49,"name":"Regular Snow","steam_id":76561199445694770,"connected_time":513000000000,"state":"active","ping":152},{"user_id":54,"name":"AIvy","steam_id":76561198144336956,"connected_time":98000000000,"state":"active","ping":117},{"user_id":51,"name":"Nomly","steam_id":76561199468098797,"connected_time":215000000000,"state":"active","ping":99}]},{"server_id":1,"name":"Uncletopia | Los Angeles | 1 | All Maps","name_short":"lax-1","host":"lax-1.us.uncletopia.com","port":27015,"enabled":true,"region":"us-west","cc":"us","latitude":33.94279,"longitude":-118.41004,"reserved":0,"last_update":"0001-01-01T00:00:00Z","name_a2s":"Uncletopia | Los Angeles | 1 | All Maps","protocol":17,"map":"pl_snowycoast","folder":"tf","game":"Team Fortress","app_id":440,"player_count":23,"max_players":24,"Bots":0,"server_type":"Dedicated","server_os":"Linux","password":true,"vac":true,"version":"7961495","steam_id":85568392924469991,"keywords":["nocrits","nodmgspread","payload","uncletopia"],"game_id":440,"stv_port":27016,"stv_name":"Uncletopia | Los Angeles | 1 | All Maps | STV","players":[{"user_id":349,"name":"pazer","steam_id":76561198003911389,"connected_time":2364000000000,"state":"active","ping":52},{"user_id":371,"name":"plutonium isotope","steam_id":76561198319442494,"connected_time":786000000000,"state":"active","ping":73},{"user_id":381,"name":"walrooos","steam_id":76561198024521839,"connected_time":242000000000,"state":"active","ping":46},{"user_id":373,"name":"Yoyos","steam_id":76561198061035695,"connected_time":692000000000,"state":"active","ping":46},{"user_id":341,"name":"Gm_Sweet","steam_id":76561199445091548,"connected_time":3118000000000,"state":"active","ping":70},{"user_id":374,"name":"DAWNZY","steam_id":76561198207924905,"connected_time":621000000000,"state":"active","ping":49},{"user_id":366,"name":"Pez","steam_id":76561199197778137,"connected_time":1177000000000,"state":"active","ping":61},{"user_id":368,"name":"‡∏∏","steam_id":76561198084134025,"connected_time":964000000000,"state":"active","ping":103},{"user_id":380,"name":"TrueBoredom","steam_id":76561198027021364,"connected_time":271000000000,"state":"active","ping":54},{"user_id":344,"name":"CALsHero09","steam_id":76561198155881095,"connected_time":2963000000000,"state":"active","ping":91},{"user_id":328,"name":"tsun.","steam_id":76561198079488962,"connected_time":4538000000000,"state":"active","ping":89},{"user_id":348,"name":"h20verdrive","steam_id":76561198115957085,"connected_time":2639000000000,"state":"active","ping":46},{"user_id":326,"name":"Ligh3t","steam_id":76561198179178533,"connected_time":4569000000000,"state":"active","ping":127},{"user_id":324,"name":"willow","steam_id":76561198068266114,"connected_time":4595000000000,"state":"active","ping":76},{"user_id":372,"name":"FROYO b4nny","steam_id":76561197970669109,"connected_time":783000000000,"state":"active","ping":53},{"user_id":352,"name":"fish (2:3)","steam_id":76561198134331073,"connected_time":2093000000000,"state":"active","ping":84},{"user_id":364,"name":"donutdagger","steam_id":76561199203048300,"connected_time":1380000000000,"state":"active","ping":63},{"user_id":376,"name":"zinnk","steam_id":76561198092081825,"connected_time":564000000000,"state":"active","ping":56},{"user_id":378,"name":"Zobozo","steam_id":76561198028954297,"connected_time":359000000000,"state":"active","ping":46},{"user_id":337,"name":"Sweets","steam_id":76561198998446307,"connected_time":3503000000000,"state":"active","ping":92},{"user_id":379,"name":"an offer he couldn't refuse","steam_id":76561199498563597,"connected_time":327000000000,"state":"active","ping":121},{"user_id":339,"name":"camp3r","steam_id":76561197992870439,"connected_time":3230000000000,"state":"active","ping":61},{"user_id":365,"name":"Crab Raider","steam_id":76561198045727596,"connected_time":1266000000000,"state":"active","ping":107}]},{"server_id":112,"name":"Uncletopia | Los Angeles | 2 | All Maps","name_short":"lax-2","host":"lax-1.us.uncletopia.com","port":27025,"enabled":true,"region":"us-west","cc":"us","latitude":33.94279,"longitude":-118.41004,"reserved":0,"last_update":"0001-01-01T00:00:00Z","name_a2s":"Uncletopia | Los Angeles | 2 | All Maps","protocol":17,"map":"koth_lakeside_final","folder":"tf","game":"Team Fortress","app_id":440,"player_count":1,"max_players":24,"Bots":0,"server_type":"Dedicated","server_os":"Linux","password":true,"vac":true,"version":"7961495","steam_id":85568392924469992,"keywords":["cp","nocrits","nodmgspread","uncletopia"],"game_id":440,"stv_port":27026,"stv_name":"Uncletopia | Los Angeles | 2 | All Maps | STV","players":[{"user_id":6,"name":"Blake","steam_id":76561198884871311,"connected_time":21000000000,"state":"active","ping":69}]},{"server_id":324,"name":"Uncletopia | Los Angeles | 3 | All Maps","name_short":"lax-3","host":"lax-1.us.uncletopia.com","port":27035,"enabled":true,"region":"us-west","cc":"us","latitude":33.94279,"longitude":-118.41004,"reserved":0,"last_update":"0001-01-01T00:00:00Z","name_a2s":"Uncletopia | Los Angeles | 3 | All Maps","protocol":17,"map":"plr_hightower","folder":"tf","game":"Team Fortress","app_id":440,"player_count":24,"max_players":24,"Bots":0,"server_type":"Dedicated","server_os":"Linux","password":true,"vac":true,"version":"7961495","steam_id":85568392924510198,"keywords":["nocrits","nodmgspread","payload","uncletopia"],"game_id":440,"stv_port":27036,"stv_name":"Uncletopia | Los Angeles | 3 | All Maps | STV","players":[{"user_id":260,"name":"sincerelymagicmeister","steam_id":76561198393923543,"connected_time":890000000000,"state":"active","ping":74},{"user_id":254,"name":"the chicken wing","steam_id":76561198800386026,"connected_time":1444000000000,"state":"active","ping":68},{"user_id":274,"name":"exx","steam_id":76561198090552145,"connected_time":203000000000,"state":"active","ping":45},{"user_id":261,"name":"SoCal Kaizer","steam_id":76561198334361081,"connected_time":872000000000,"state":"active","ping":71},{"user_id":257,"name":"Preston","steam_id":76561199130754110,"connected_time":1122000000000,"state":"active","ping":100},{"user_id":272,"name":"muri","steam_id":76561198036167494,"connected_time":261000000000,"state":"active","ping":76},{"user_id":262,"name":"Dietary Thunder","steam_id":76561198036177601,"connected_time":612000000000,"state":"active","ping":84},{"user_id":263,"name":"Proud Swift City Resident","steam_id":76561198036283992,"connected_time":612000000000,"state":"active","ping":66},{"user_id":208,"name":"All the gun violence in Chicago","steam_id":76561198017275707,"connected_time":5473000000000,"state":"active","ping":69},{"user_id":247,"name":"YaBoyUlyssesG","steam_id":76561198042482742,"connected_time":1870000000000,"state":"active","ping":93},{"user_id":266,"name":"yoda's ketamine therapy‚Ñ¢","steam_id":76561198317943203,"connected_time":548000000000,"state":"active","ping":84},{"user_id":237,"name":"Anstorner","steam_id":76561198274026015,"connected_time":3207000000000,"state":"active","ping":40},{"user_id":264,"name":"purple hatsune miku","steam_id":76561198108844158,"connected_time":604000000000,"state":"active","ping":66},{"user_id":267,"name":"CHIEF","steam_id":76561198011209422,"connected_time":535000000000,"state":"active","ping":75},{"user_id":275,"name":"Evelyn! (she/her)","steam_id":76561198881145760,"connected_time":199000000000,"state":"active","ping":45},{"user_id":268,"name":"dicksnip","steam_id":76561198356515396,"connected_time":509000000000,"state":"active","ping":113},{"user_id":216,"name":"The Notorious T.A.F.T.","steam_id":76561198073012352,"connected_time":5337000000000,"state":"active","ping":75},{"user_id":273,"name":"Berdy","steam_id":76561198019651739,"connected_time":248000000000,"state":"active","ping":73},{"user_id":270,"name":"ronald","steam_id":76561197960691622,"connected_time":493000000000,"state":"active","ping":71},{"user_id":242,"name":"the pizza","steam_id":76561198221331476,"connected_time":2780000000000,"state":"active","ping":47},{"user_id":271,"name":"Callie","steam_id":76561198131833567,"connected_time":482000000000,"state":"active","ping":79},{"user_id":228,"name":"Marz","steam_id":76561198799364911,"connected_time":4161000000000,"state":"active","ping":73},{"user_id":258,"name":"Konnor","steam_id":76561199136300254,"connected_time":924000000000,"state":"active","ping":43},{"user_id":239,"name":"Cigarette Fish","steam_id":76561199086973797,"connected_time":3186000000000,"state":"active","ping":121}]},{"server_id":25,"name":"Uncletopia | Los Angeles | 4 | Stopwatch","name_short":"lax-4","host":"lax-1.us.uncletopia.com","port":27045,"enabled":true,"region":"us-west","cc":"us","latitude":33.94279,"longitude":-118.41004,"reserved":0,"last_update":"0001-01-01T00:00:00Z","name_a2s":"Uncletopia | Los Angeles | 4 | Stopwatch","protocol":17,"map":"pl_barnblitz","folder":"tf","game":"Team Fortress","app_id":440,"player_count":0,"max_players":24,"Bots":0,"server_type":"Dedicated","server_os":"Linux","password":true,"vac":true,"version":"7961495","steam_id":85568392924510199,"keywords":["nocrits","nodmgspread","payload","uncletopia"],"game_id":440,"stv_port":27046,"stv_name":"Uncletopia | Los Angeles | 4 | Stopwatch | STV","players":null},{"server_id":11,"name":"Uncletopia | London | 1 | All Maps","name_short":"lon-1","host":"lon-1.uk.uncletopia.com","port":27015,"enabled":true,"region":"eu","cc":"gb","latitude":51.509865,"longitude":-0.118092,"reserved":0,"last_update":"0001-01-01T00:00:00Z","name_a2s":"Uncletopia | London | 1 | All Maps","protocol":17,"map":"pl_frontier_final","folder":"tf","game":"Team Fortress","app_id":440,"player_count":0,"max_players":24,"Bots":0,"server_type":"Dedicated","server_os":"Linux","password":true,"vac":true,"version":"7961495","steam_id":85568392924367362,"keywords":["nocrits","nodmgspread","payload","uncletopia"],"game_id":440,"stv_port":27016,"stv_name":"Uncletopia | London | 1 | All Maps | STV","players":null},{"server_id":114,"name":"Uncletopia | London | 2 | All Maps","name_short":"lon-2","host":"lon-1.uk.uncletopia.com","port":27025,"enabled":true,"region":"eu","cc":"gb","latitude":51.509865,"longitude":-0.118092,"reserved":0,"last_update":"0001-01-01T00:00:00Z","name_a2s":"Uncletopia | London | 2 | All Maps","protocol":17,"map":"koth_cascade","folder":"tf","game":"Team Fortress","app_id":440,"player_count":0,"max_players":24,"Bots":0,"server_type":"Dedicated","server_os":"Linux","password":true,"vac":true,"version":"7961495","steam_id":85568392924470941,"keywords":["cp","nocrits","nodmgspread","uncletopia"],"game_id":440,"stv_port":27026,"stv_name":"Uncletopia | London | 2 | All Maps | STV","players":null},{"server_id":320,"name":"Uncletopia | London | 3 | All Maps","name_short":"lon-3","host":"lon-1.uk.uncletopia.com","port":27035,"enabled":true,"region":"eu","cc":"gb","latitude":51.509865,"longitude":-0.118092,"reserved":0,"last_update":"0001-01-01T00:00:00Z","name_a2s":"Uncletopia | London | 3 | All Maps","protocol":17,"map":"pl_borneo","folder":"tf","game":"Team Fortress","app_id":440,"player_count":18,"max_players":24,"Bots":0,"server_type":"Dedicated","server_os":"Linux","password":true,"vac":true,"version":"7961495","steam_id":85568392924510192,"keywords":["nocrits","nodmgspread","payload","uncletopia"],"game_id":440,"stv_port":27036,"stv_name":"Uncletopia | London | 3 | All Maps | STV","players":[{"user_id":446,"name":"Coac","steam_id":76561198085265740,"connected_time":3290000000000,"state":"active","ping":70},{"user_id":477,"name":"KonG.- nedos—Çaje≈°.","steam_id":76561198039099650,"connected_time":148000000000,"state":"active","ping":79},{"user_id":462,"name":"Nittugai","steam_id":76561198067366462,"connected_time":2008000000000,"state":"active","ping":60},{"user_id":463,"name":"MrChester","steam_id":76561199213192992,"connected_time":1937000000000,"state":"active","ping":68},{"user_id":454,"name":"lila","steam_id":76561198040690770,"connected_time":2823000000000,"state":"active","ping":48},{"user_id":404,"name":"skelebin","steam_id":76561199480942903,"connected_time":7100000000000,"state":"active","ping":75},{"user_id":474,"name":"mArm","steam_id":76561197968031793,"connected_time":573000000000,"state":"active","ping":80},{"user_id":461,"name":"Brozy","steam_id":76561199014951849,"connected_time":2030000000000,"state":"active","ping":81},{"user_id":458,"name":"Ratman","steam_id":76561198121888714,"connected_time":2455000000000,"state":"active","ping":58},{"user_id":415,"name":"jones","steam_id":76561198044434971,"connected_time":6143000000000,"state":"active","ping":64},{"user_id":471,"name":"Play slowly, pls","steam_id":76561198006463587,"connected_time":879000000000,"state":"active","ping":146},{"user_id":466,"name":"Hex Reflect","steam_id":76561197972572841,"connected_time":1570000000000,"state":"active","ping":67},{"user_id":418,"name":"DNA","steam_id":76561198095477557,"connected_time":5944000000000,"state":"active","ping":64},{"user_id":421,"name":"Albert?","steam_id":76561198049405872,"connected_time":5335000000000,"state":"active","ping":46},{"user_id":441,"name":"Mr. Bean","steam_id":76561198086929777,"connected_time":3921000000000,"state":"active","ping":49},{"user_id":472,"name":"Outer","steam_id":76561199085041734,"connected_time":676000000000,"state":"active","ping":82},{"user_id":470,"name":"mrznja","steam_id":76561198170334258,"connected_time":1188000000000,"state":"active","ping":71}]},{"server_id":321,"name":"Uncletopia | London | 4 | All Maps","name_short":"lon-4","host":"lon-1.uk.uncletopia.com","port":27045,"enabled":true,"region":"eu","cc":"gb","latitude":51.509865,"longitude":-0.118092,"reserved":0,"last_update":"0001-01-01T00:00:00Z","name_a2s":"Uncletopia | London | 4 | All Maps","protocol":17,"map":"koth_viaduct","folder":"tf","game":"Team Fortress","app_id":440,"player_count":0,"max_players":24,"Bots":0,"server_type":"Dedicated","server_os":"Linux","password":true,"vac":true,"version":"7961495","steam_id":85568392924510193,"keywords":["cp","nocrits","nodmgspread","uncletopia"],"game_id":440,"stv_port":27046,"stv_name":"Uncletopia | London | 4 | All Maps | STV","players":null},{"server_id":21,"name":"Uncletopia | London | 5 | All Maps","name_short":"lon-5","host":"lon-1.uk.uncletopia.com","port":27055,"enabled":true,"region":"eu","cc":"gb","latitude":51.509865,"longitude":-0.118092,"reserved":0,"last_update":"0001-01-01T00:00:00Z","name_a2s":"Uncletopia | London | 5 | All Maps","protocol":17,"map":"cp_dustbowl","folder":"tf","game":"Team Fortress","app_id":440,"player_count":0,"max_players":24,"Bots":0,"server_type":"Dedicated","server_os":"Linux","password":true,"vac":true,"version":"7961495","steam_id":85568392924742829,"keywords":["cp","nocrits","nodmgspread","uncletopia"],"game_id":440,"stv_port":27056,"stv_name":"Uncletopia | London | 5 | All Maps | STV","players":null},{"server_id":22,"name":"Uncletopia | London | 6 | All Maps","name_short":"lon-6","host":"lon-1.uk.uncletopia.com","port":27065,"enabled":true,"region":"eu","cc":"gb","latitude":51.509865,"longitude":-0.118092,"reserved":0,"last_update":"0001-01-01T00:00:00Z","name_a2s":"Uncletopia | London | 6 | All Maps","protocol":17,"map":"koth_lakeside_final","folder":"tf","game":"Team Fortress","app_id":440,"player_count":0,"max_players":24,"Bots":0,"server_type":"Dedicated","server_os":"Linux","password":true,"vac":true,"version":"7961495","steam_id":85568392924742830,"keywords":["cp","nocrits","nodmgspread","uncletopia"],"game_id":440,"stv_port":27066,"stv_name":"Uncletopia | London | 6 | All Maps | STV","players":null},{"server_id":40,"name":"Uncletopia | London | 7 | Stopwatch","name_short":"lon-7","host":"lon-1.uk.uncletopia.com","port":27075,"enabled":true,"region":"eu","cc":"gb","latitude":51.509865,"longitude":-0.118092,"reserved":0,"last_update":"0001-01-01T00:00:00Z","name_a2s":"Uncletopia | London | 7 | Stopwatch","protocol":17,"map":"workshop/pl_summercoast_rc8e.ugc1761528829","folder":"tf","game":"Team Fortress","app_id":440,"player_count":0,"max_players":24,"Bots":0,"server_type":"Dedicated","server_os":"Linux","password":true,"vac":true,"version":"7961495","steam_id":85568392924964314,"keywords":["nocrits","nodmgspread","payload","uncletopia"],"game_id":440,"stv_port":27076,"stv_name":"Uncletopia | London | 7 | Stopwatch | STV","players":null},{"server_id":41,"name":"Uncletopia | London | 8 | Community","name_short":"lon-8","host":"lon-1.uk.uncletopia.com","port":27085,"enabled":true,"region":"eu","cc":"gb","latitude":51.509865,"longitude":-0.118092,"reserved":0,"last_update":"0001-01-01T00:00:00Z","name_a2s":"Uncletopia | London | 8 | Community","protocol":17,"map":"workshop/cp_logjam_rc12.ugc454812035","folder":"tf","game":"Team Fortress","app_id":440,"player_count":0,"max_players":24,"Bots":0,"server_type":"Dedicated","server_os":"Linux","password":true,"vac":true,"version":"7961495","steam_id":85568392924964315,"keywords":["cp","nocrits","nodmgspread","uncletopia"],"game_id":440,"stv_port":27086,"stv_name":"Uncletopia | London | 8 | Community | STV","players":null},{"server_id":300,"name":"Uncletopia | Montr√©al | 1 | One Thousand Uncles","name_short":"mtl-1","host":"mtl-1.ca.uncletopia.com","port":27015,"enabled":true,"region":"us-east","cc":"ca","latitude":45.50889,"longitude":-73.56167,"reserved":0,"last_update":"0001-01-01T00:00:00Z","name_a2s":"","protocol":0,"map":"","folder":"","game":"","app_id":0,"player_count":4,"max_players":0,"Bots":0,"server_type":"","server_os":"","password":false,"vac":false,"version":"","steam_id":0,"keywords":null,"game_id":0,"stv_port":0,"stv_name":"","players":[{"user_id":274,"name":"hamletespacial","steam_id":76561199084414649,"connected_time":583000000000,"state":"active","ping":74},{"user_id":277,"name":"SomeRandomGuy","steam_id":76561199092571346,"connected_time":456000000000,"state":"active","ping":66},{"user_id":272,"name":"The Last Thing","steam_id":76561198047192080,"connected_time":853000000000,"state":"active","ping":85},{"user_id":273,"name":"Poyo Boyo","steam_id":76561198010201227,"connected_time":818000000000,"state":"active","ping":62}]},{"server_id":301,"name":"Uncletopia | Montr√©al | 2 | One Thousand Uncles","name_short":"mtl-2","host":"mtl-1.ca.uncletopia.com","port":27025,"enabled":true,"region":"us-east","cc":"ca","latitude":45.50889,"longitude":-73.56167,"reserved":0,"last_update":"0001-01-01T00:00:00Z","name_a2s":"","protocol":0,"map":"","folder":"","game":"","app_id":0,"player_count":0,"max_players":0,"Bots":0,"server_type":"","server_os":"","password":false,"vac":false,"version":"","steam_id":0,"keywords":null,"game_id":0,"stv_port":0,"stv_name":"","players":null},{"server_id":302,"name":"Uncletopia | Montr√©al | 3 | One Thousand Uncles","name_short":"mtl-3","host":"mtl-1.ca.uncletopia.com","port":27035,"enabled":true,"region":"us-east","cc":"ca","latitude":45.50889,"longitude":-73.56167,"reserved":0,"last_update":"0001-01-01T00:00:00Z","name_a2s":"","protocol":0,"map":"","folder":"","game":"","app_id":0,"player_count":0,"max_players":0,"Bots":0,"server_type":"","server_os":"","password":false,"vac":false,"version":"","steam_id":0,"keywords":null,"game_id":0,"stv_port":0,"stv_name":"","players":null},{"server_id":13,"name":"Uncletopia | New York City | 1 | All Maps","name_short":"nyc-1","host":"nyc-1.us.uncletopia.com","port":27015,"enabled":true,"region":"us-east","cc":"us","latitude":40.73061,"longitude":-73.93524,"reserved":0,"last_update":"0001-01-01T00:00:00Z","name_a2s":"Uncletopia | New York City | 1 | All Maps","protocol":17,"map":"cp_steel","folder":"tf","game":"Team Fortress","app_id":440,"player_count":24,"max_players":24,"Bots":0,"server_type":"Dedicated","server_os":"Linux","password":true,"vac":true,"version":"7961495","steam_id":85568392924469993,"keywords":["cp","nocrits","nodmgspread","uncletopia"],"game_id":440,"stv_port":27016,"stv_name":"Uncletopia | New York City | 1 | All Maps | STV","players":[{"user_id":417,"name":"Some_Arse","steam_id":76561198039095394,"connected_time":1691000000000,"state":"active","ping":69},{"user_id":452,"name":"Tails","steam_id":76561198130322109,"connected_time":88000000000,"state":"active","ping":179},{"user_id":406,"name":"zeden","steam_id":76561198077567939,"connected_time":3470000000000,"state":"active","ping":63},{"user_id":373,"name":"addera","steam_id":76561198041535102,"connected_time":5540000000000,"state":"active","ping":65},{"user_id":418,"name":"Glover Speedrunner","steam_id":76561198015154311,"connected_time":1676000000000,"state":"active","ping":62},{"user_id":425,"name":"KILL","steam_id":76561198029216569,"connected_time":1379000000000,"state":"active","ping":56},{"user_id":443,"name":"Hyden da kobobl","steam_id":76561198837931725,"connected_time":672000000000,"state":"active","ping":111},{"user_id":421,"name":"Captain Crunch","steam_id":76561199141538581,"connected_time":1551000000000,"state":"active","ping":135},{"user_id":427,"name":"HalfDead","steam_id":76561198049700226,"connected_time":1194000000000,"state":"active","ping":72},{"user_id":428,"name":"CheeseLikeSubstance","steam_id":76561197977170646,"connected_time":1172000000000,"state":"active","ping":64},{"user_id":438,"name":"pipebombrater","steam_id":76561199029030831,"connected_time":906000000000,"state":"active","ping":68},{"user_id":429,"name":"8BitWyatt","steam_id":76561198453336518,"connected_time":1130000000000,"state":"active","ping":132},{"user_id":448,"name":"MantisToboggan","steam_id":76561197969447887,"connected_time":167000000000,"state":"active","ping":135},{"user_id":449,"name":"rusty","steam_id":76561199070869016,"connected_time":149000000000,"state":"active","ping":115},{"user_id":446,"name":"Remix.SMG","steam_id":76561198052895933,"connected_time":287000000000,"state":"active","ping":62},{"user_id":450,"name":"tommy","steam_id":76561198111753974,"connected_time":145000000000,"state":"active","ping":33},{"user_id":392,"name":"Bim","steam_id":76561198155979811,"connected_time":4106000000000,"state":"active","ping":58},{"user_id":433,"name":"Scrumbly_Scrimbo","steam_id":76561198377609683,"connected_time":1068000000000,"state":"active","ping":49},{"user_id":451,"name":"Gugomo","steam_id":76561198121428316,"connected_time":136000000000,"state":"active","ping":105},{"user_id":435,"name":"Ferguzt","steam_id":76561198428353797,"connected_time":1049000000000,"state":"active","ping":102},{"user_id":436,"name":"Antwan","steam_id":76561198246200638,"connected_time":1014000000000,"state":"active","ping":75},{"user_id":405,"name":"Orb","steam_id":76561198353963523,"connected_time":3645000000000,"state":"active","ping":90},{"user_id":437,"name":"SoggyOreos","steam_id":76561198139240925,"connected_time":969000000000,"state":"active","ping":58},{"user_id":441,"name":"corntent","steam_id":76561198824847948,"connected_time":887000000000,"state":"active","ping":40}]},{"server_id":14,"name":"Uncletopia | New York City | 2 | All Maps","name_short":"nyc-2","host":"nyc-1.us.uncletopia.com","port":27025,"enabled":true,"region":"us-east","cc":"us","latitude":40.73061,"longitude":-73.93524,"reserved":0,"last_update":"0001-01-01T00:00:00Z","name_a2s":"Uncletopia | New York City | 2 | All Maps","protocol":17,"map":"pl_frontier_final","folder":"tf","game":"Team Fortress","app_id":440,"player_count":24,"max_players":24,"Bots":0,"server_type":"Dedicated","server_os":"Linux","password":true,"vac":true,"version":"7961495","steam_id":85568392924469994,"keywords":["nocrits","nodmgspread","payload","uncletopia"],"game_id":440,"stv_port":27026,"stv_name":"Uncletopia | New York City | 2 | All Maps | STV","players":[{"user_id":642,"name":"HomieJr","steam_id":76561198202448800,"connected_time":2112000000000,"state":"active","ping":92},{"user_id":635,"name":"Pomegranate88","steam_id":76561198056385456,"connected_time":2340000000000,"state":"active","ping":61},{"user_id":600,"name":"ToyBox","steam_id":76561199074735423,"connected_time":4758000000000,"state":"active","ping":60},{"user_id":636,"name":"dirty30","steam_id":76561198021226566,"connected_time":2318000000000,"state":"active","ping":114},{"user_id":641,"name":"Hole Dozer","steam_id":76561198119509319,"connected_time":2134000000000,"state":"active","ping":60},{"user_id":618,"name":"Terror-Billy #SaveTF2","steam_id":76561198328141870,"connected_time":3724000000000,"state":"active","ping":64},{"user_id":652,"name":"George W. Bush","steam_id":76561198079879544,"connected_time":1281000000000,"state":"active","ping":120},{"user_id":559,"name":"Samrizo el Chorizo","steam_id":76561198009838162,"connected_time":7235000000000,"state":"active","ping":49},{"user_id":628,"name":"vareh","steam_id":76561197993190926,"connected_time":2583000000000,"state":"active","ping":125},{"user_id":646,"name":"ZombieSlayer77","steam_id":76561199023974356,"connected_time":2015000000000,"state":"active","ping":82},{"user_id":653,"name":"Cave404","steam_id":76561198165788760,"connected_time":1279000000000,"state":"active","ping":85},{"user_id":627,"name":"boof^","steam_id":76561198087074444,"connected_time":2585000000000,"state":"active","ping":98},{"user_id":637,"name":"PurPle","steam_id":76561198050393396,"connected_time":2307000000000,"state":"active","ping":65},{"user_id":659,"name":"Ballistic","steam_id":76561197992355477,"connected_time":531000000000,"state":"active","ping":58},{"user_id":638,"name":"Fish Fisherman","steam_id":76561198018656022,"connected_time":2290000000000,"state":"active","ping":58},{"user_id":631,"name":"Ice Spice #1 Fan","steam_id":76561198142370229,"connected_time":2537000000000,"state":"active","ping":59},{"user_id":656,"name":"Bee","steam_id":76561198074681324,"connected_time":708000000000,"state":"active","ping":46},{"user_id":644,"name":"Tokyo_Timeshift_","steam_id":76561198048677523,"connected_time":2042000000000,"state":"active","ping":61},{"user_id":660,"name":"[GUT] RiDiK¬Æ","steam_id":76561197969756446,"connected_time":507000000000,"state":"active","ping":82},{"user_id":657,"name":"Huge Load","steam_id":76561198284468330,"connected_time":707000000000,"state":"active","ping":94},{"user_id":649,"name":"Genn","steam_id":76561198070450699,"connected_time":1788000000000,"state":"active","ping":44},{"user_id":489,"name":"Voracious Puma","steam_id":76561197963621649,"connected_time":12213000000000,"state":"active","ping":88},{"user_id":655,"name":"some sort of giant enemy crab","steam_id":76561198008224284,"connected_time":720000000000,"state":"active","ping":69},{"user_id":650,"name":"Silverkeys","steam_id":76561197986012496,"connected_time":1780000000000,"state":"active","ping":57}]},{"server_id":15,"name":"Uncletopia | New York City | 3 | Stopwatch","name_short":"nyc-3","host":"nyc-1.us.uncletopia.com","port":27035,"enabled":true,"region":"us-east","cc":"us","latitude":40.73061,"longitude":-73.93524,"reserved":0,"last_update":"0001-01-01T00:00:00Z","name_a2s":"Uncletopia | New York City | 3 | Stopwatch","protocol":17,"map":"workshop/koth_ashville_final.ugc2130459942","folder":"tf","game":"Team Fortress","app_id":440,"player_count":0,"max_players":24,"Bots":0,"server_type":"Dedicated","server_os":"Linux","password":true,"vac":true,"version":"7961495","steam_id":85568392924742820,"keywords":["cp","nocrits","nodmgspread","uncletopia"],"game_id":440,"stv_port":27036,"stv_name":"Uncletopia | New York City | 3 | Stopwatch | STV","players":null},{"server_id":16,"name":"Uncletopia | New York City | 4 | Community","name_short":"nyc-4","host":"nyc-1.us.uncletopia.com","port":27045,"enabled":true,"region":"us-east","cc":"us","latitude":40.73061,"longitude":-73.93524,"reserved":0,"last_update":"0001-01-01T00:00:00Z","name_a2s":"Uncletopia | New York City | 4 | Community","protocol":17,"map":"workshop/pl_shoreleave_rc2.ugc1238849347","folder":"tf","game":"Team Fortress","app_id":440,"player_count":0,"max_players":24,"Bots":0,"server_type":"Dedicated","server_os":"Linux","password":true,"vac":true,"version":"7961495","steam_id":85568392924742821,"keywords":["nocrits","nodmgspread","payload","uncletopia"],"game_id":440,"stv_port":27046,"stv_name":"Uncletopia | New York City | 4 | Community | STV","players":null},{"server_id":142,"name":"Uncletopia | S√£o Paulo | 1 | All Maps","name_short":"sao-1","host":"sao-1.br.uncletopia.com","port":27015,"enabled":true,"region":"sa","cc":"br","latitude":-23.533773,"longitude":-46.62529,"reserved":0,"last_update":"0001-01-01T00:00:00Z","name_a2s":"Uncletopia | S√£o Paulo | 1 | All Maps","protocol":17,"map":"koth_cascade","folder":"tf","game":"Team Fortress","app_id":440,"player_count":0,"max_players":24,"Bots":0,"server_type":"Dedicated","server_os":"Linux","password":true,"vac":true,"version":"7961495","steam_id":85568392924469996,"keywords":["cp","nocrits","nodmgspread","uncletopia"],"game_id":440,"stv_port":27016,"stv_name":"Uncletopia | S√£o Paulo | 1 | All Maps | STV","players":null},{"server_id":143,"name":"Uncletopia | S√£o Paulo | 2 | Community","name_short":"sao-2","host":"sao-2.br.uncletopia.com","port":27015,"enabled":true,"region":"sa","cc":"br","latitude":-23.533773,"longitude":-46.62529,"reserved":0,"last_update":"0001-01-01T00:00:00Z","name_a2s":"Uncletopia | S√£o Paulo | 2 | Community","protocol":17,"map":"workshop/cp_propaganda_b18.ugc1603743849","folder":"tf","game":"Team Fortress","app_id":440,"player_count":0,"max_players":24,"Bots":0,"server_type":"Dedicated","server_os":"Linux","password":true,"vac":true,"version":"7961495","steam_id":85568392924485349,"keywords":["cp","nocrits","nodmgspread","uncletopia"],"game_id":440,"stv_port":27016,"stv_name":"Uncletopia | S√£o Paulo | 2 | Community | STV","players":null},{"server_id":7,"name":"Uncletopia | Seattle | 1 | All Maps","name_short":"sea-1","host":"sea-1.us.uncletopia.com","port":27015,"enabled":true,"region":"us-west","cc":"us","latitude":47.608013,"longitude":-122.33517,"reserved":0,"last_update":"0001-01-01T00:00:00Z","name_a2s":"Uncletopia | Seattle | 1 | All Maps","protocol":17,"map":"koth_sawmill","folder":"tf","game":"Team Fortress","app_id":440,"player_count":24,"max_players":24,"Bots":0,"server_type":"Dedicated","server_os":"Linux","password":true,"vac":true,"version":"7961495","steam_id":85568392924469997,"keywords":["cp","nocrits","nodmgspread","uncletopia"],"game_id":440,"stv_port":27016,"stv_name":"Uncletopia | Seattle | 1 | All Maps | STV","players":[{"user_id":572,"name":"William P. Ennis","steam_id":76561198073464877,"connected_time":2601000000000,"state":"active","ping":89},{"user_id":525,"name":"the beast","steam_id":76561198088131563,"connected_time":6569000000000,"state":"active","ping":87},{"user_id":503,"name":"Nom Skirrett","steam_id":76561198014600788,"connected_time":8209000000000,"state":"active","ping":60},{"user_id":590,"name":"Timemx63","steam_id":76561198062377543,"connected_time":144000000000,"state":"active","ping":42},{"user_id":559,"name":"Rev","steam_id":76561199060355036,"connected_time":3585000000000,"state":"active","ping":40},{"user_id":585,"name":"Sasha The Foxgirl","steam_id":76561198018403555,"connected_time":1112000000000,"state":"active","ping":48},{"user_id":573,"name":"goofy goober","steam_id":76561199024079388,"connected_time":2467000000000,"state":"active","ping":47},{"user_id":570,"name":"Hazel Nutts :3","steam_id":76561199247095754,"connected_time":2794000000000,"state":"active","ping":59},{"user_id":588,"name":"JacobOneHundredPercentWholeWhea","steam_id":76561198045992418,"connected_time":777000000000,"state":"active","ping":59},{"user_id":565,"name":"spenca","steam_id":76561198025371154,"connected_time":2957000000000,"state":"active","ping":51},{"user_id":476,"name":"Spectre‚Åπ‚Åπ‚Åπ","steam_id":76561198037535169,"connected_time":11454000000000,"state":"active","ping":74},{"user_id":587,"name":"Bendidy","steam_id":76561198041964300,"connected_time":871000000000,"state":"active","ping":58},{"user_id":586,"name":"Demopan","steam_id":76561198141903490,"connected_time":1075000000000,"state":"active","ping":44},{"user_id":577,"name":"Walter White","steam_id":76561199102963294,"connected_time":1971000000000,"state":"active","ping":59},{"user_id":579,"name":"duddlee","steam_id":76561198030052564,"connected_time":1285000000000,"state":"active","ping":59},{"user_id":580,"name":"GalaxyDoug32","steam_id":76561197997126305,"connected_time":1165000000000,"state":"active","ping":57},{"user_id":535,"name":"Ayayayayayayayayayayayayahuasca","steam_id":76561199002906056,"connected_time":5232000000000,"state":"active","ping":51},{"user_id":583,"name":"NOT FRIENDLY","steam_id":76561198041327231,"connected_time":1154000000000,"state":"active","ping":46},{"user_id":576,"name":"The_Man","steam_id":76561199194890696,"connected_time":2052000000000,"state":"active","ping":104},{"user_id":557,"name":"Indigolake","steam_id":76561198202215807,"connected_time":3680000000000,"state":"active","ping":127},{"user_id":578,"name":"WaffleWithNoToppings","steam_id":76561199088280111,"connected_time":1400000000000,"state":"active","ping":48},{"user_id":584,"name":"RainboomCrash","steam_id":76561198065612273,"connected_time":1154000000000,"state":"active","ping":50},{"user_id":592,"name":"rat who can kickflip","steam_id":76561198073620027,"connected_time":135000000000,"state":"active","ping":42},{"user_id":526,"name":"NickoDeeBz","steam_id":76561198294657867,"connected_time":6569000000000,"state":"active","ping":58}]},{"server_id":119,"name":"Uncletopia | Seattle | 2 | All Maps","name_short":"sea-2","host":"sea-1.us.uncletopia.com","port":27025,"enabled":true,"region":"us-west","cc":"us","latitude":47.608013,"longitude":-122.33517,"reserved":0,"last_update":"0001-01-01T00:00:00Z","name_a2s":"Uncletopia | Seattle | 2 | All Maps","protocol":17,"map":"pl_borneo","folder":"tf","game":"Team Fortress","app_id":440,"player_count":24,"max_players":24,"Bots":0,"server_type":"Dedicated","server_os":"Linux","password":true,"vac":true,"version":"7961495","steam_id":85568392924469998,"keywords":["nocrits","nodmgspread","payload","uncletopia"],"game_id":440,"stv_port":27026,"stv_name":"Uncletopia | Seattle | 2 | All Maps | STV","players":[{"user_id":84,"name":"Rock Kickass","steam_id":76561198450510841,"connected_time":3730000000000,"state":"active","ping":93},{"user_id":108,"name":"CHIEF_JUSTICE_FUCKASS","steam_id":76561199261675844,"connected_time":1174000000000,"state":"active","ping":43},{"user_id":99,"name":"Day Man","steam_id":76561198067154807,"connected_time":1505000000000,"state":"active","ping":53},{"user_id":116,"name":"Thexx ‚ù§","steam_id":76561198113823050,"connected_time":500000000000,"state":"active","ping":49},{"user_id":109,"name":"Helmet Hands","steam_id":76561197961141994,"connected_time":1094000000000,"state":"active","ping":122},{"user_id":117,"name":"jurt","steam_id":76561198966381490,"connected_time":446000000000,"state":"active","ping":47},{"user_id":110,"name":"i got a new old mouse","steam_id":76561198421913648,"connected_time":1029000000000,"state":"active","ping":48},{"user_id":107,"name":"gatorbelt","steam_id":76561198145784505,"connected_time":1278000000000,"state":"active","ping":88},{"user_id":115,"name":"Ball Cat","steam_id":76561199238282094,"connected_time":515000000000,"state":"active","ping":66},{"user_id":86,"name":"Dextersbrain","steam_id":76561198011831579,"connected_time":2918000000000,"state":"active","ping":57},{"user_id":77,"name":"nav","steam_id":76561198872608266,"connected_time":4369000000000,"state":"active","ping":131},{"user_id":118,"name":"OxOoxen841","steam_id":76561198297981993,"connected_time":445000000000,"state":"active","ping":76},{"user_id":103,"name":"h","steam_id":76561198868164815,"connected_time":1451000000000,"state":"active","ping":57},{"user_id":40,"name":"Joyous Jenny","steam_id":76561198127998866,"connected_time":7441000000000,"state":"active","ping":123},{"user_id":113,"name":"mindgiant","steam_id":76561197992995915,"connected_time":746000000000,"state":"active","ping":63},{"user_id":62,"name":"mooney","steam_id":76561199110622484,"connected_time":5797000000000,"state":"active","ping":62},{"user_id":73,"name":"FireQuiz","steam_id":76561198107357249,"connected_time":4721000000000,"state":"active","ping":43},{"user_id":60,"name":"Ferret","steam_id":76561198060416458,"connected_time":5894000000000,"state":"active","ping":80},{"user_id":111,"name":"=Silver=","steam_id":76561198292307127,"connected_time":972000000000,"state":"active","ping":72},{"user_id":114,"name":"jadene11","steam_id":76561199369221113,"connected_time":629000000000,"state":"active","ping":61},{"user_id":105,"name":"Blue Shell Man Guy","steam_id":76561198157985901,"connected_time":1448000000000,"state":"active","ping":55},{"user_id":81,"name":"DAY MAN 2.0","steam_id":76561198116023052,"connected_time":3819000000000,"state":"active","ping":75},{"user_id":96,"name":"(ngv) Antwan","steam_id":76561198018017318,"connected_time":1897000000000,"state":"active","ping":51},{"user_id":120,"name":"NotEvenBeyond","steam_id":76561198083137611,"connected_time":89000000000,"state":"active","ping":84}]},{"server_id":406,"name":"Uncletopia | Seattle | 3 | Stopwatch","name_short":"sea-3","host":"sea-1.us.uncletopia.com","port":27035,"enabled":true,"region":"us-west","cc":"us","latitude":47.608013,"longitude":-122.33517,"reserved":0,"last_update":"0001-01-01T00:00:00Z","name_a2s":"Uncletopia | Seattle | 3 | Stopwatch","protocol":17,"map":"pl_swiftwater_final1","folder":"tf","game":"Team Fortress","app_id":440,"player_count":3,"max_players":24,"Bots":0,"server_type":"Dedicated","server_os":"Linux","password":true,"vac":true,"version":"7961495","steam_id":85568392924515217,"keywords":["nocrits","nodmgspread","payload","uncletopia"],"game_id":440,"stv_port":27036,"stv_name":"Uncletopia | Seattle | 3 | Stopwatch | STV","players":[{"user_id":7,"name":"Cheezbeargur","steam_id":76561198164702899,"connected_time":760000000000,"state":"active","ping":64},{"user_id":8,"name":"Kc","steam_id":76561198210734407,"connected_time":608000000000,"state":"active","ping":106},{"user_id":9,"name":"Pi-Pi","steam_id":76561198450073779,"connected_time":237000000000,"state":"active","ping":44}]},{"server_id":17,"name":"Uncletopia | San Francisco | 1 | All Maps","name_short":"sfo-1","host":"sfo-1.us.uncletopia.com","port":27015,"enabled":true,"region":"us-west","cc":"us","latitude":37.77397,"longitude":-122.4313,"reserved":0,"last_update":"0001-01-01T00:00:00Z","name_a2s":"Uncletopia | San Francisco | 1 | All Maps","protocol":17,"map":"koth_highpass","folder":"tf","game":"Team Fortress","app_id":440,"player_count":15,"max_players":24,"Bots":0,"server_type":"Dedicated","server_os":"Linux","password":true,"vac":true,"version":"7961495","steam_id":85568392924469999,"keywords":["cp","nocrits","nodmgspread","uncletopia"],"game_id":440,"stv_port":27016,"stv_name":"Uncletopia | San Francisco | 1 | All Maps | STV","players":[{"user_id":34,"name":"Ziffulz","steam_id":76561198050546165,"connected_time":18000000000,"state":"spawning","ping":29},{"user_id":17,"name":"NotAToaster","steam_id":76561198349938357,"connected_time":940000000000,"state":"active","ping":101},{"user_id":21,"name":"Chef Molbo","steam_id":76561198089045454,"connected_time":608000000000,"state":"active","ping":122},{"user_id":19,"name":"348956238047","steam_id":76561198229081472,"connected_time":763000000000,"state":"active","ping":85},{"user_id":22,"name":"dust | it/she","steam_id":76561198045218909,"connected_time":538000000000,"state":"active","ping":58},{"user_id":23,"name":"Re:Zero (SEASON 3 BABY!!!!)","steam_id":76561198171821345,"connected_time":366000000000,"state":"active","ping":68},{"user_id":24,"name":"booboo keys","steam_id":76561198140231083,"connected_time":312000000000,"state":"active","ping":80},{"user_id":25,"name":"Crustiest_Bill","steam_id":76561198842722858,"connected_time":308000000000,"state":"active","ping":63},{"user_id":26,"name":"Locrian","steam_id":76561198356159602,"connected_time":302000000000,"state":"active","ping":64},{"user_id":30,"name":"strawberry","steam_id":76561198101926397,"connected_time":129000000000,"state":"active","ping":63},{"user_id":28,"name":"Ranger Lugi","steam_id":76561198143611016,"connected_time":231000000000,"state":"active","ping":69},{"user_id":29,"name":"cranfordtheodore45","steam_id":76561199161577403,"connected_time":174000000000,"state":"active","ping":77},{"user_id":31,"name":"JesterJasper","steam_id":76561198025338925,"connected_time":119000000000,"state":"active","ping":63},{"user_id":32,"name":"Brody Yukin","steam_id":76561198084712019,"connected_time":53000000000,"state":"active","ping":58},{"user_id":33,"name":"Gallus Domesticus","steam_id":76561198137242703,"connected_time":30000000000,"state":"active","ping":61}]},{"server_id":18,"name":"Uncletopia | San Francisco | 2 | All Maps","name_short":"sfo-2","host":"sfo-1.us.uncletopia.com","port":27025,"enabled":true,"region":"us-west","cc":"us","latitude":37.77397,"longitude":-122.4313,"reserved":0,"last_update":"0001-01-01T00:00:00Z","name_a2s":"Uncletopia | San Francisco | 2 | All Maps","protocol":17,"map":"pl_swiftwater_final1","folder":"tf","game":"Team Fortress","app_id":440,"player_count":24,"max_players":24,"Bots":0,"server_type":"Dedicated","server_os":"Linux","password":true,"vac":true,"version":"7961495","steam_id":85568392924470000,"keywords":["nocrits","nodmgspread","payload","uncletopia"],"game_id":440,"stv_port":27026,"stv_name":"Uncletopia | San Francisco | 2 | All Maps | STV","players":[{"user_id":631,"name":"ronald_stackerusa55","steam_id":76561198150406851,"connected_time":2573000000000,"state":"active","ping":45},{"user_id":648,"name":"Laxoloni","steam_id":76561199197045700,"connected_time":407000000000,"state":"active","ping":68},{"user_id":593,"name":"„Ç≥„Çπ„Éà„Ç≥„Éõ„ÉÉ„Éà„Éâ„ÉÉ„Ç∞","steam_id":76561198082406533,"connected_time":5139000000000,"state":"active","ping":110},{"user_id":644,"name":"infant daughter","steam_id":76561198168492250,"connected_time":893000000000,"state":"active","ping":70},{"user_id":643,"name":"allahsdroptop (Bag/Chaser)","steam_id":76561198133195238,"connected_time":982000000000,"state":"active","ping":60},{"user_id":636,"name":"Always Here for You","steam_id":76561198219252313,"connected_time":2147000000000,"state":"active","ping":115},{"user_id":547,"name":"Username","steam_id":76561198198918781,"connected_time":7226000000000,"state":"active","ping":71},{"user_id":598,"name":"[TWL] Mythical Lag","steam_id":76561198347031281,"connected_time":4939000000000,"state":"active","ping":90},{"user_id":650,"name":"celestia ludenberg","steam_id":76561199196437823,"connected_time":191000000000,"state":"active","ping":68},{"user_id":641,"name":"melon_eater","steam_id":76561198018714084,"connected_time":1556000000000,"state":"active","ping":55},{"user_id":614,"name":"AstraLee","steam_id":76561198093501649,"connected_time":3412000000000,"state":"active","ping":96},{"user_id":621,"name":"chesterwnimitz","steam_id":76561198062664377,"connected_time":3185000000000,"state":"active","ping":99},{"user_id":634,"name":"gaydads420","steam_id":76561197967768244,"connected_time":2255000000000,"state":"active","ping":61},{"user_id":592,"name":"Krysar","steam_id":76561198202077555,"connected_time":5157000000000,"state":"active","ping":94},{"user_id":645,"name":"ARMPIT FETISHIST","steam_id":76561199008452637,"connected_time":800000000000,"state":"active","ping":60},{"user_id":622,"name":"1HandsomeLAD","steam_id":76561198807047496,"connected_time":3184000000000,"state":"active","ping":117},{"user_id":602,"name":"Sir BrainDamage the IV of Serbi","steam_id":76561198846344452,"connected_time":4703000000000,"state":"active","ping":101},{"user_id":633,"name":"Keamy","steam_id":76561199471434875,"connected_time":2259000000000,"state":"active","ping":61},{"user_id":649,"name":"dewey","steam_id":76561198132791511,"connected_time":315000000000,"state":"active","ping":60},{"user_id":623,"name":"a real fish","steam_id":76561198845824198,"connected_time":3170000000000,"state":"active","ping":119},{"user_id":651,"name":"wubber","steam_id":76561198286627157,"connected_time":184000000000,"state":"active","ping":57},{"user_id":624,"name":"EnihX","steam_id":76561198175746787,"connected_time":3149000000000,"state":"active","ping":109},{"user_id":625,"name":"asm_ghost","steam_id":76561199205363547,"connected_time":3143000000000,"state":"active","ping":77},{"user_id":630,"name":"CheekyMcCheek","steam_id":76561198081978491,"connected_time":2604000000000,"state":"active","ping":79}]},{"server_id":19,"name":"Uncletopia | San Francisco | 3 | Stopwatch","name_short":"sfo-3","host":"sfo-1.us.uncletopia.com","port":27035,"enabled":true,"region":"us-west","cc":"us","latitude":37.77397,"longitude":-122.4313,"reserved":0,"last_update":"0001-01-01T00:00:00Z","name_a2s":"Uncletopia | San Francisco | 3 | Stopwatch","protocol":17,"map":"workshop/koth_product_final.ugc454272353","folder":"tf","game":"Team Fortress","app_id":440,"player_count":2,"max_players":24,"Bots":0,"server_type":"Dedicated","server_os":"Linux","password":true,"vac":true,"version":"7961495","steam_id":85568392924742824,"keywords":["cp","nocrits","nodmgspread","uncletopia"],"game_id":440,"stv_port":27036,"stv_name":"Uncletopia | San Francisco | 3 | Stopwatch | STV","players":[{"user_id":16,"name":"Scarab Lord Brook","steam_id":76561198185126222,"connected_time":778000000000,"state":"active","ping":58},{"user_id":17,"name":"Your Loyal Familiar","steam_id":76561198106476075,"connected_time":726000000000,"state":"active","ping":102}]},{"server_id":20,"name":"Uncletopia | San Francisco | 4 | Community","name_short":"sfo-4","host":"sfo-1.us.uncletopia.com","port":27045,"enabled":true,"region":"us-west","cc":"us","latitude":37.77397,"longitude":-122.4313,"reserved":0,"last_update":"0001-01-01T00:00:00Z","name_a2s":"Uncletopia | San Francisco | 4 | Community","protocol":17,"map":"workshop/cp_logjam_rc12.ugc454812035","folder":"tf","game":"Team Fortress","app_id":440,"player_count":0,"max_players":24,"Bots":0,"server_type":"Dedicated","server_os":"Linux","password":true,"vac":true,"version":"7961495","steam_id":85568392924742826,"keywords":["cp","nocrits","nodmgspread","uncletopia"],"game_id":440,"stv_port":27046,"stv_name":"Uncletopia | San Francisco | 4 | Community | STV","players":null},{"server_id":141,"name":"Uncletopia | Sydney | 1 | All Maps","name_short":"syd-1","host":"syd-1.au.uncletopia.com","port":27015,"enabled":true,"region":"au","cc":"au","latitude":-33.865143,"longitude":151.2099,"reserved":0,"last_update":"0001-01-01T00:00:00Z","name_a2s":"Uncletopia | Sydney | 1 | All Maps","protocol":17,"map":"koth_viaduct","folder":"tf","game":"Team Fortress","app_id":440,"player_count":0,"max_players":24,"Bots":0,"server_type":"Dedicated","server_os":"Linux","password":true,"vac":true,"version":"7961495","steam_id":85568392924470001,"keywords":["cp","nocrits","nodmgspread","uncletopia"],"game_id":440,"stv_port":27016,"stv_name":"Uncletopia | Sydney | 1 | All Maps | STV","players":null},{"server_id":123,"name":"Uncletopia | Sydney | 2 | All Maps","name_short":"syd-2","host":"syd-1.au.uncletopia.com","port":27025,"enabled":true,"region":"au","cc":"au","latitude":-33.865143,"longitude":151.2099,"reserved":0,"last_update":"0001-01-01T00:00:00Z","name_a2s":"Uncletopia | Sydney | 2 | All Maps","protocol":17,"map":"cp_altitude","folder":"tf","game":"Team Fortress","app_id":440,"player_count":0,"max_players":24,"Bots":0,"server_type":"Dedicated","server_os":"Linux","password":true,"vac":true,"version":"7961495","steam_id":85568392924470002,"keywords":["cp","nocrits","nodmgspread","uncletopia"],"game_id":440,"stv_port":27026,"stv_name":"Uncletopia | Sydney | 2 | All Maps | STV","players":null},{"server_id":395,"name":"Uncletopia | Sydney | 3 | All Maps","name_short":"syd-3","host":"syd-1.au.uncletopia.com","port":27035,"enabled":true,"region":"au","cc":"au","latitude":-33.865143,"longitude":151.2099,"reserved":0,"last_update":"0001-01-01T00:00:00Z","name_a2s":"Uncletopia | Sydney | 3 | All Maps","protocol":17,"map":"pl_frontier_final","folder":"tf","game":"Team Fortress","app_id":440,"player_count":0,"max_players":24,"Bots":0,"server_type":"Dedicated","server_os":"Linux","password":true,"vac":true,"version":"7961495","steam_id":85568392925194467,"keywords":["nocrits","nodmgspread","payload","uncletopia"],"game_id":440,"stv_port":27036,"stv_name":"Uncletopia | Sydney | 3 | All Maps | STV","players":null},{"server_id":396,"name":"Uncletopia | Sydney | 4 | All Maps","name_short":"syd-4","host":"syd-1.au.uncletopia.com","port":27045,"enabled":true,"region":"au","cc":"au","latitude":-33.865143,"longitude":151.2099,"reserved":0,"last_update":"0001-01-01T00:00:00Z","name_a2s":"Uncletopia | Sydney | 4 | All Maps","protocol":17,"map":"cp_process_final","folder":"tf","game":"Team Fortress","app_id":440,"player_count":0,"max_players":24,"Bots":0,"server_type":"Dedicated","server_os":"Linux","password":true,"vac":true,"version":"7961495","steam_id":85568392925397958,"keywords":["cp","nocrits","nodmgspread","uncletopia"],"game_id":440,"stv_port":27046,"stv_name":"Uncletopia | Sydney | 4 | All Maps | STV","players":null},{"server_id":58,"name":"Uncletopia | Sydney | 5 | Stopwatch","name_short":"syd-5","host":"syd-1.au.uncletopia.com","port":27055,"enabled":true,"region":"au","cc":"au","latitude":-33.865143,"longitude":151.2099,"reserved":0,"last_update":"0001-01-01T00:00:00Z","name_a2s":"Uncletopia | Sydney | 5 | Stopwatch","protocol":17,"map":"pl_frontier_final","folder":"tf","game":"Team Fortress","app_id":440,"player_count":0,"max_players":24,"Bots":0,"server_type":"Dedicated","server_os":"Linux","password":true,"vac":true,"version":"7961495","steam_id":85568392925397959,"keywords":["nocrits","nodmgspread","payload","uncletopia"],"game_id":440,"stv_port":27056,"stv_name":"Uncletopia | Sydney | 5 | Stopwatch | STV","players":null},{"server_id":59,"name":"Uncletopia | Sydney | 6 | Community","name_short":"syd-6","host":"syd-1.au.uncletopia.com","port":27065,"enabled":true,"region":"au","cc":"au","latitude":-33.865143,"longitude":151.2099,"reserved":0,"last_update":"0001-01-01T00:00:00Z","name_a2s":"Uncletopia | Sydney | 6 | Community","protocol":17,"map":"cp_sunshine","folder":"tf","game":"Team Fortress","app_id":440,"player_count":0,"max_players":24,"Bots":0,"server_type":"Dedicated","server_os":"Linux","password":true,"vac":true,"version":"7961495","steam_id":85568392925397960,"keywords":["cp","nocrits","nodmgspread","uncletopia"],"game_id":440,"stv_port":27066,"stv_name":"Uncletopia | Sydney | 6 | Community | STV","players":null},{"server_id":49,"name":"Uncletopia | Warsaw | 1 | One Thousand Uncles","name_short":"waw-1","host":"waw-1.pl.uncletopia.com","port":27015,"enabled":true,"region":"eu","cc":"pl","latitude":52.2297,"longitude":21.017532,"reserved":0,"last_update":"0001-01-01T00:00:00Z","name_a2s":"Uncletopia | Warsaw | 1 | One Thousand Uncles","protocol":17,"map":"pl_hoodoo_final","folder":"tf","game":"Team Fortress","app_id":440,"player_count":22,"max_players":32,"Bots":16,"server_type":"Dedicated","server_os":"Linux","password":true,"vac":true,"version":"7961495","steam_id":85568392925397850,"keywords":["alltalk","bots","danepve","increased_maxplayers","nocrits","norespawntime","payload","uncletopia"],"game_id":440,"stv_port":0,"stv_name":"","players":[{"user_id":309,"name":"nolife511","steam_id":76561199501782206,"connected_time":359000000000,"state":"active","ping":100},{"user_id":238,"name":"GoatLord1","steam_id":76561198157964544,"connected_time":7202000000000,"state":"active","ping":76},{"user_id":208,"name":"Œ©vetabolŒ©","steam_id":76561199015064558,"connected_time":16599000000000,"state":"active","ping":110},{"user_id":327,"name":"Unbelievable!","steam_id":76561198055812586,"connected_time":28000000000,"state":"active","ping":110},{"user_id":326,"name":"Milk_","steam_id":76561198087612533,"connected_time":314000000000,"state":"active","ping":75},{"user_id":306,"name":"Telman161(RU)","steam_id":76561199222814353,"connected_time":1615000000000,"state":"active","ping":123}]},{"server_id":50,"name":"Uncletopia | Warsaw | 2 | One Thousand Uncles","name_short":"waw-2","host":"waw-1.pl.uncletopia.com","port":27025,"enabled":true,"region":"eu","cc":"pl","latitude":52.2297,"longitude":21.017532,"reserved":0,"last_update":"0001-01-01T00:00:00Z","name_a2s":"Uncletopia | Warsaw | 2 | One Thousand Uncles","protocol":17,"map":"cp_mercenarypark","folder":"tf","game":"Team Fortress","app_id":440,"player_count":0,"max_players":32,"Bots":0,"server_type":"Dedicated","server_os":"Linux","password":true,"vac":true,"version":"7961495","steam_id":85568392925397851,"keywords":["alltalk","cp","danepve","increased_maxplayers","nocrits","norespawntime","uncletopia"],"game_id":440,"stv_port":0,"stv_name":"","players":null},{"server_id":51,"name":"Uncletopia | Warsaw | 3 | All Maps","name_short":"waw-3","host":"waw-1.pl.uncletopia.com","port":27035,"enabled":true,"region":"eu","cc":"pl","latitude":52.2297,"longitude":21.017532,"reserved":0,"last_update":"0001-01-01T00:00:00Z","name_a2s":"Uncletopia | Warsaw | 3 | All Maps","protocol":17,"map":"plr_pipeline","folder":"tf","game":"Team Fortress","app_id":440,"player_count":0,"max_players":24,"Bots":0,"server_type":"Dedicated","server_os":"Linux","password":true,"vac":true,"version":"7961495","steam_id":85568392925397852,"keywords":["nocrits","nodmgspread","payload","uncletopia"],"game_id":440,"stv_port":27036,"stv_name":"Uncletopia | Warsaw | 3 | All Maps | STV","players":null},{"server_id":52,"name":"Uncletopia | Warsaw | 4 | All Maps","name_short":"waw-4","host":"waw-1.pl.uncletopia.com","port":27045,"enabled":true,"region":"eu","cc":"pl","latitude":52.2297,"longitude":21.017532,"reserved":0,"last_update":"0001-01-01T00:00:00Z","name_a2s":"Uncletopia | Warsaw | 4 | All Maps","protocol":17,"map":"cp_snakewater_final1","folder":"tf","game":"Team Fortress","app_id":440,"player_count":0,"max_players":24,"Bots":0,"server_type":"Dedicated","server_os":"Linux","password":true,"vac":true,"version":"7961495","steam_id":85568392925397853,"keywords":["cp","nocrits","nodmgspread","uncletopia"],"game_id":440,"stv_port":27046,"stv_name":"Uncletopia | Warsaw | 4 | All Maps | STV","players":null},{"server_id":53,"name":"Uncletopia | Warsaw | 5 | Stopwatch","name_short":"waw-5","host":"waw-1.pl.uncletopia.com","port":27055,"enabled":true,"region":"eu","cc":"pl","latitude":52.2297,"longitude":21.017532,"reserved":0,"last_update":"0001-01-01T00:00:00Z","name_a2s":"Uncletopia | Warsaw | 5 | Stopwatch","protocol":17,"map":"koth_highpass","folder":"tf","game":"Team Fortress","app_id":440,"player_count":0,"max_players":24,"Bots":0,"server_type":"Dedicated","server_os":"Linux","password":true,"vac":true,"version":"7961495","steam_id":85568392925397854,"keywords":["cp","nocrits","nodmgspread","uncletopia"],"game_id":440,"stv_port":27056,"stv_name":"Uncletopia | Warsaw | 5 | Stopwatch | STV","players":null},{"server_id":54,"name":"Uncletopia | Warsaw | 6 | Community","name_short":"waw-6","host":"waw-1.pl.uncletopia.com","port":27065,"enabled":true,"region":"eu","cc":"pl","latitude":52.2297,"longitude":21.017532,"reserved":0,"last_update":"0001-01-01T00:00:00Z","name_a2s":"Uncletopia | Warsaw | 6 | Community","protocol":17,"map":"workshop/cp_villa_b19.ugc2113052569","folder":"tf","game":"Team Fortress","app_id":440,"player_count":0,"max_players":24,"Bots":0,"server_type":"Dedicated","server_os":"Linux","password":true,"vac":true,"version":"7961495","steam_id":85568392925397856,"keywords":["cp","nocrits","nodmgspread","uncletopia"],"game_id":440,"stv_port":27066,"stv_name":"Uncletopia | Warsaw | 6 | Community | STV","players":null}]}