{"status":true,"message":"","result":[{"server_id":9,"name":"Uncletopia | Atlanta | 1 | All Maps","name_short":"atl-1","host":"atl-1.us.uncletopia.com","port":27015,"enabled":true,"region":"us-east","cc":"us","latitude":33.753746,"longitude":-84.38633,"reserved":0,"last_update":"0001-01-01T00:00:00Z","name_a2s":"Uncletopia | Atlanta | 1 | All Maps","protocol":17,"map":"koth_viaduct","folder":"tf","game":"Team Fortress","app_id":440,"player_count":20,"max_players":24,"Bots":0,"server_type":"Dedicated","server_os":"Linux","password":true,"vac":true,"version":"7757534","steam_id":85568392924469982,"keywords":["cp","nocrits","nodmgspread","uncletopia"],"game_id":440,"stv_port":27016,"stv_name":"Uncletopia | Atlanta | 1 | All Maps | STV","players":[{"user_id":264,"name":"Nox(She/They)","steam_id":76561198141950842,"connected_time":6267000000000,"state":"active","ping":41},{"user_id":314,"name":"Báµ¢g Bâ‚’â‚›â‚›","steam_id":76561198090271815,"connected_time":60000000000,"state":"active","ping":94},{"user_id":269,"name":"Moonglass Kaiju","steam_id":76561198043431819,"connected_time":5191000000000,"state":"active","ping":60},{"user_id":290,"name":"T Jit","steam_id":76561197993371179,"connected_time":3660000000000,"state":"active","ping":38},{"user_id":260,"name":"V!CT!M","steam_id":76561198962721502,"connected_time":6647000000000,"state":"active","ping":86},{"user_id":315,"name":"too funky á—œË¬á—œ","steam_id":76561199120399776,"connected_time":55000000000,"state":"active","ping":81},{"user_id":316,"name":"Soull","steam_id":76561199188088471,"connected_time":37000000000,"state":"active","ping":116},{"user_id":310,"name":"ATL1 | Lancer Fan Club","steam_id":76561198355495948,"connected_time":601000000000,"state":"active","ping":58},{"user_id":317,"name":"KnightMan","steam_id":76561198143531192,"connected_time":21000000000,"state":"spawning","ping":69},{"user_id":308,"name":"JokingPunisher27","steam_id":76561198385237215,"connected_time":683000000000,"state":"active","ping":81},{"user_id":313,"name":"MyamE","steam_id":76561198133278462,"connected_time":165000000000,"state":"active","ping":70},{"user_id":298,"name":"Eins","steam_id":76561199030343810,"connected_time":2376000000000,"state":"active","ping":43},{"user_id":296,"name":"the spy behind the healing (F2P","steam_id":76561198854070384,"connected_time":2451000000000,"state":"active","ping":137},{"user_id":304,"name":"marguerite","steam_id":76561198170873495,"connected_time":1153000000000,"state":"active","ping":45},{"user_id":318,"name":"Sheev Palpatine","steam_id":76561198252332430,"connected_time":14000000000,"state":"active","ping":139},{"user_id":303,"name":"Weather Report","steam_id":76561199109494283,"connected_time":1620000000000,"state":"active","ping":67},{"user_id":309,"name":"ATL1 | Pango","steam_id":76561198069811545,"connected_time":672000000000,"state":"active","ping":48},{"user_id":297,"name":"Doomagedden","steam_id":76561198272589475,"connected_time":2421000000000,"state":"active","ping":63},{"user_id":209,"name":"Pixler544","steam_id":76561198240575132,"connected_time":11828000000000,"state":"active","ping":59},{"user_id":295,"name":"Chrisscar","steam_id":76561198086298130,"connected_time":2615000000000,"state":"active","ping":101}]},{"server_id":104,"name":"Uncletopia | Atlanta | 2 | All Maps","name_short":"atl-2","host":"atl-1.us.uncletopia.com","port":27025,"enabled":true,"region":"us-east","cc":"us","latitude":33.753746,"longitude":-84.38633,"reserved":0,"last_update":"0001-01-01T00:00:00Z","name_a2s":"Uncletopia | Atlanta | 2 | All Maps","protocol":17,"map":"pl_badwater","folder":"tf","game":"Team Fortress","app_id":440,"player_count":24,"max_players":24,"Bots":0,"server_type":"Dedicated","server_os":"Linux","password":true,"vac":true,"version":"7757534","steam_id":85568392924469983,"keywords":["nocrits","nodmgspread","payload","uncletopia"],"game_id":440,"stv_port":27026,"stv_name":"Uncletopia | Atlanta | 2 | All Maps | STV","players":[{"user_id":235,"name":"Marty Mailbox","steam_id":76561198024974886,"connected_time":166000000000,"state":"active","ping":67},{"user_id":139,"name":"uniwu - BUFF THE SPEED","steam_id":76561198864421290,"connected_time":7097000000000,"state":"active","ping":42},{"user_id":166,"name":"jerry","steam_id":76561198422891994,"connected_time":6027000000000,"state":"active","ping":99},{"user_id":227,"name":"Meringue","steam_id":76561198067899943,"connected_time":472000000000,"state":"active","ping":68},{"user_id":219,"name":"roby","steam_id":76561198044660393,"connected_time":1135000000000,"state":"active","ping":157},{"user_id":236,"name":"comet vomet3","steam_id":76561198377327685,"connected_time":43000000000,"state":"active","ping":100},{"user_id":225,"name":"BurnN8or101","steam_id":76561198132668224,"connected_time":946000000000,"state":"active","ping":55},{"user_id":229,"name":"Pom","steam_id":76561198043235509,"connected_time":434000000000,"state":"active","ping":85},{"user_id":230,"name":"Aeonspassed","steam_id":76561198014016451,"connected_time":426000000000,"state":"active","ping":87},{"user_id":233,"name":"emas","steam_id":76561198147700035,"connected_time":286000000000,"state":"active","ping":162},{"user_id":220,"name":"Kubloo","steam_id":76561198067391168,"connected_time":1110000000000,"state":"active","ping":72},{"user_id":234,"name":"Proto","steam_id":76561198053602795,"connected_time":210000000000,"state":"active","ping":81},{"user_id":221,"name":"tubby","steam_id":76561198174982661,"connected_time":1104000000000,"state":"active","ping":68},{"user_id":183,"name":"El Bondin","steam_id":76561198820792434,"connected_time":4732000000000,"state":"active","ping":83},{"user_id":222,"name":"Spiral Mountain","steam_id":76561198058683715,"connected_time":1093000000000,"state":"active","ping":77},{"user_id":231,"name":"TI-83 Plus","steam_id":76561198316134443,"connected_time":391000000000,"state":"active","ping":55},{"user_id":224,"name":"Viva Discordia","steam_id":76561199350870177,"connected_time":1050000000000,"state":"active","ping":75},{"user_id":148,"name":"Osrio","steam_id":76561198083428069,"connected_time":6832000000000,"state":"active","ping":89},{"user_id":186,"name":"CapitÃ¡n Ã„xis-Flores","steam_id":76561198353865006,"connected_time":4708000000000,"state":"active","ping":61},{"user_id":212,"name":"Dangerous_Dave76","steam_id":76561199230056550,"connected_time":2398000000000,"state":"active","ping":105},{"user_id":211,"name":"Wcloud82","steam_id":76561198859441885,"connected_time":2429000000000,"state":"active","ping":160},{"user_id":217,"name":"Glowie Gus","steam_id":76561198047809106,"connected_time":1859000000000,"state":"active","ping":93},{"user_id":187,"name":"do not perceive me","steam_id":76561198030291655,"connected_time":4700000000000,"state":"active","ping":67},{"user_id":237,"name":"The sad vanilla","steam_id":76561198268621447,"connected_time":42000000000,"state":"spawning","ping":80}]},{"server_id":400,"name":"Uncletopia | Atlanta | 3 | Community","name_short":"atl-3","host":"atl-1.us.uncletopia.com","port":27035,"enabled":true,"region":"us-east","cc":"us","latitude":33.753746,"longitude":-84.38633,"reserved":0,"last_update":"0001-01-01T00:00:00Z","name_a2s":"Uncletopia | Atlanta | 3 | Community","protocol":17,"map":"workshop/pl_cashworks_final1.ugc2904065412","folder":"tf","game":"Team Fortress","app_id":440,"player_count":0,"max_players":24,"Bots":0,"server_type":"Dedicated","server_os":"Linux","password":true,"vac":true,"version":"7757534","steam_id":85568392924515187,"keywords":["nocrits","nodmgspread","payload","uncletopia"],"game_id":440,"stv_port":27036,"stv_name":"Uncletopia | Atlanta | 3 | Community | STV","players":null},{"server_id":401,"name":"Uncletopia | Atlanta | 4 | No Payload","name_short":"atl-4","host":"atl-1.us.uncletopia.com","port":27045,"enabled":true,"region":"us-east","cc":"us","latitude":33.753746,"longitude":-84.38633,"reserved":0,"last_update":"0001-01-01T00:00:00Z","name_a2s":"","protocol":0,"map":"","folder":"","game":"","app_id":0,"player_count":0,"max_players":0,"Bots":0,"server_type":"","server_os":"","password":false,"vac":false,"version":"","steam_id":0,"keywords":null,"game_id":0,"stv_port":0,"stv_name":"","players":null},{"server_id":2,"name":"Uncletopia | Chicago | 1 | All Maps","name_short":"chi-1","host":"chi-1.us.uncletopia.com","port":27015,"enabled":true,"region":"us-central","cc":"us","latitude":41.881832,"longitude":-87.62318,"reserved":0,"last_update":"0001-01-01T00:00:00Z","name_a2s":"Uncletopia | Chicago | 1 | All Maps","protocol":17,"map":"pl_thundermountain","folder":"tf","game":"Team Fortress","app_id":440,"player_count":24,"max_players":24,"Bots":0,"server_type":"Dedicated","server_os":"Linux","password":true,"vac":true,"version":"7757534","steam_id":85568392924469984,"keywords":["nocrits","nodmgspread","payload","uncletopia"],"game_id":440,"stv_port":27016,"stv_name":"Uncletopia | Chicago | 1 | All Maps | STV","players":[{"user_id":464,"name":"Toast","steam_id":76561198401995265,"connected_time":2063000000000,"state":"active","ping":55},{"user_id":436,"name":"Also Known As Assteeth","steam_id":76561198049837377,"connected_time":3963000000000,"state":"active","ping":48},{"user_id":476,"name":"Hylic","steam_id":76561199051314589,"connected_time":1366000000000,"state":"active","ping":63},{"user_id":449,"name":"SaucySandwichKid","steam_id":76561199372590934,"connected_time":2919000000000,"state":"active","ping":81},{"user_id":486,"name":"asbestos","steam_id":76561198079178866,"connected_time":180000000000,"state":"active","ping":63},{"user_id":440,"name":"Krome","steam_id":76561198087317232,"connected_time":3119000000000,"state":"active","ping":75},{"user_id":448,"name":"ContinuedBear","steam_id":76561198265176919,"connected_time":3031000000000,"state":"active","ping":59},{"user_id":472,"name":"nascar.jimmy2005","steam_id":76561198170939290,"connected_time":1999000000000,"state":"active","ping":60},{"user_id":478,"name":"Rx Auntie","steam_id":76561198051618393,"connected_time":1061000000000,"state":"active","ping":72},{"user_id":484,"name":"Murder of Crows","steam_id":76561198171267781,"connected_time":261000000000,"state":"active","ping":93},{"user_id":479,"name":"igotmail","steam_id":76561198070631899,"connected_time":918000000000,"state":"active","ping":71},{"user_id":481,"name":"Saikyo","steam_id":76561198212461467,"connected_time":555000000000,"state":"active","ping":63},{"user_id":485,"name":"Samrizo el Chorizo","steam_id":76561198009838162,"connected_time":252000000000,"state":"active","ping":63},{"user_id":475,"name":"Sprucelass","steam_id":76561197998391724,"connected_time":1875000000000,"state":"active","ping":74},{"user_id":466,"name":"help! esoobac","steam_id":76561198010370396,"connected_time":2062000000000,"state":"active","ping":47},{"user_id":480,"name":"DamerDoozle","steam_id":76561199121686201,"connected_time":707000000000,"state":"active","ping":59},{"user_id":444,"name":"flamingcookies","steam_id":76561198280864779,"connected_time":3082000000000,"state":"active","ping":78},{"user_id":460,"name":"Unchained Zeity","steam_id":76561198414129606,"connected_time":2271000000000,"state":"active","ping":186},{"user_id":487,"name":"Peter McKay","steam_id":76561198842221188,"connected_time":128000000000,"state":"active","ping":79},{"user_id":483,"name":"å½¡â™¡ SleepyStarIcarus â™¡å½¡","steam_id":76561198145533630,"connected_time":363000000000,"state":"active","ping":53},{"user_id":446,"name":"money getting 1 percenter","steam_id":76561198012796388,"connected_time":3075000000000,"state":"active","ping":59},{"user_id":473,"name":"ScreamCram","steam_id":76561199114068524,"connected_time":1934000000000,"state":"active","ping":66},{"user_id":393,"name":"kasp","steam_id":76561198263271697,"connected_time":7317000000000,"state":"active","ping":45},{"user_id":452,"name":"Hi","steam_id":76561198068113077,"connected_time":2700000000000,"state":"active","ping":113}]},{"server_id":106,"name":"Uncletopia | Chicago | 2 | All Maps","name_short":"chi-2","host":"chi-1.us.uncletopia.com","port":27025,"enabled":true,"region":"us-central","cc":"us","latitude":41.881832,"longitude":-87.62318,"reserved":0,"last_update":"0001-01-01T00:00:00Z","name_a2s":"Uncletopia | Chicago | 2 | All Maps","protocol":17,"map":"pl_pier","folder":"tf","game":"Team Fortress","app_id":440,"player_count":23,"max_players":24,"Bots":0,"server_type":"Dedicated","server_os":"Linux","password":true,"vac":true,"version":"7757534","steam_id":85568392924469985,"keywords":["nocrits","nodmgspread","payload","uncletopia"],"game_id":440,"stv_port":27026,"stv_name":"Uncletopia | Chicago | 2 | All Maps | STV","players":[{"user_id":506,"name":"JellyParrot","steam_id":76561199190990163,"connected_time":698000000000,"state":"active","ping":68},{"user_id":446,"name":"blossom","steam_id":76561198042735130,"connected_time":1567000000000,"state":"active","ping":102},{"user_id":521,"name":"Sneetch [sRb]","steam_id":76561197996693506,"connected_time":289000000000,"state":"active","ping":84},{"user_id":485,"name":"viagra addict","steam_id":76561198017705248,"connected_time":1069000000000,"state":"active","ping":46},{"user_id":518,"name":"IvvI","steam_id":76561198067365804,"connected_time":490000000000,"state":"active","ping":72},{"user_id":482,"name":"LunarrD","steam_id":76561198811220107,"connected_time":1100000000000,"state":"active","ping":85},{"user_id":522,"name":"Xan Hathaway","steam_id":76561198069816677,"connected_time":275000000000,"state":"active","ping":73},{"user_id":530,"name":"Monster","steam_id":76561198189429665,"connected_time":85000000000,"state":"active","ping":71},{"user_id":503,"name":"fug","steam_id":76561198337692867,"connected_time":717000000000,"state":"active","ping":69},{"user_id":532,"name":"Aeri","steam_id":76561197996522919,"connected_time":0,"state":"spawning","ping":34},{"user_id":488,"name":"nnobi","steam_id":76561198878729277,"connected_time":1019000000000,"state":"active","ping":76},{"user_id":477,"name":"reis","steam_id":76561199232952016,"connected_time":1127000000000,"state":"active","ping":181},{"user_id":423,"name":"Seedkns","steam_id":76561199092210172,"connected_time":2188000000000,"state":"active","ping":71},{"user_id":455,"name":"Argo","steam_id":76561198353725622,"connected_time":1466000000000,"state":"active","ping":84},{"user_id":510,"name":"Ligmus Sigmus","steam_id":76561198168946002,"connected_time":666000000000,"state":"active","ping":54},{"user_id":360,"name":"x3 â™¡","steam_id":76561198132011077,"connected_time":8031000000000,"state":"active","ping":59},{"user_id":502,"name":"CuSO4","steam_id":76561199278147589,"connected_time":737000000000,"state":"active","ping":65},{"user_id":441,"name":"O o g","steam_id":76561199267535506,"connected_time":1727000000000,"state":"active","ping":60},{"user_id":435,"name":"test","steam_id":76561198197388678,"connected_time":1951000000000,"state":"active","ping":94},{"user_id":401,"name":"Ta5K","steam_id":76561198939558155,"connected_time":4544000000000,"state":"active","ping":51},{"user_id":418,"name":"TÃ–ZI","steam_id":76561198045268695,"connected_time":2710000000000,"state":"active","ping":60},{"user_id":439,"name":"Glass Joe","steam_id":76561198317365741,"connected_time":1767000000000,"state":"active","ping":63},{"user_id":500,"name":"monke","steam_id":76561198308289194,"connected_time":801000000000,"state":"active","ping":80}]},{"server_id":402,"name":"Uncletopia | Chicago | 3 | All Maps","name_short":"chi-3","host":"chi-1.us.uncletopia.com","port":27035,"enabled":true,"region":"us-central","cc":"us","latitude":41.881832,"longitude":-87.62318,"reserved":0,"last_update":"0001-01-01T00:00:00Z","name_a2s":"Uncletopia | Chicago | 3 | All Maps","protocol":17,"map":"pl_thundermountain","folder":"tf","game":"Team Fortress","app_id":440,"player_count":24,"max_players":24,"Bots":0,"server_type":"Dedicated","server_os":"Linux","password":true,"vac":true,"version":"7757534","steam_id":85568392924515191,"keywords":["nocrits","nodmgspread","payload","uncletopia"],"game_id":440,"stv_port":27036,"stv_name":"Uncletopia | Chicago | 3 | All Maps | STV","players":[{"user_id":215,"name":"Miro","steam_id":76561198936412406,"connected_time":204000000000,"state":"active","ping":85},{"user_id":185,"name":"Ex-PFC Wintergreen","steam_id":76561198203851303,"connected_time":2510000000000,"state":"active","ping":83},{"user_id":175,"name":"CyMeryy","steam_id":76561197984986540,"connected_time":2703000000000,"state":"active","ping":67},{"user_id":192,"name":"narwool","steam_id":76561198175955138,"connected_time":1947000000000,"state":"active","ping":99},{"user_id":187,"name":"yateyay","steam_id":76561198311004039,"connected_time":2373000000000,"state":"active","ping":88},{"user_id":188,"name":"RyInc","steam_id":76561198874261643,"connected_time":2340000000000,"state":"active","ping":45},{"user_id":217,"name":"Uno!","steam_id":76561198799400617,"connected_time":57000000000,"state":"active","ping":99},{"user_id":213,"name":"reign","steam_id":76561198047269484,"connected_time":467000000000,"state":"active","ping":132},{"user_id":202,"name":"Michael Fettuccine","steam_id":76561198056953903,"connected_time":1178000000000,"state":"active","ping":97},{"user_id":176,"name":"Not_Douglas","steam_id":76561199024184136,"connected_time":2697000000000,"state":"active","ping":67},{"user_id":177,"name":"No","steam_id":76561198268304564,"connected_time":2696000000000,"state":"active","ping":83},{"user_id":197,"name":"JetZ","steam_id":76561199122488957,"connected_time":1593000000000,"state":"active","ping":69},{"user_id":204,"name":"Kab","steam_id":76561198073503100,"connected_time":1013000000000,"state":"active","ping":67},{"user_id":218,"name":"cringe","steam_id":76561198104086771,"connected_time":46000000000,"state":"spawning","ping":92},{"user_id":143,"name":"Paprika","steam_id":76561198412628892,"connected_time":5856000000000,"state":"active","ping":67},{"user_id":219,"name":"RefriedToast","steam_id":76561198166187853,"connected_time":46000000000,"state":"active","ping":87},{"user_id":208,"name":"KIng_Nothing","steam_id":76561199086840044,"connected_time":793000000000,"state":"active","ping":73},{"user_id":191,"name":"sqerkbo","steam_id":76561198080012700,"connected_time":2041000000000,"state":"active","ping":62},{"user_id":203,"name":"spiny337","steam_id":76561199160766869,"connected_time":1130000000000,"state":"active","ping":66},{"user_id":206,"name":"uhooter","steam_id":76561198007829078,"connected_time":970000000000,"state":"active","ping":52},{"user_id":210,"name":"booger","steam_id":76561198333832807,"connected_time":728000000000,"state":"active","ping":128},{"user_id":211,"name":"Torips","steam_id":76561198251665862,"connected_time":517000000000,"state":"active","ping":105},{"user_id":184,"name":"CHIKN","steam_id":76561198277792665,"connected_time":2629000000000,"state":"active","ping":107},{"user_id":214,"name":"Pat4laifu","steam_id":76561198133618292,"connected_time":464000000000,"state":"active","ping":61}]},{"server_id":403,"name":"Uncletopia | Chicago | 4 | All Maps","name_short":"chi-4","host":"chi-1.us.uncletopia.com","port":27045,"enabled":true,"region":"us-central","cc":"us","latitude":41.881832,"longitude":-87.62318,"reserved":0,"last_update":"0001-01-01T00:00:00Z","name_a2s":"Uncletopia | Chicago | 4 | All Maps","protocol":17,"map":"pl_borneo","folder":"tf","game":"Team Fortress","app_id":440,"player_count":22,"max_players":24,"Bots":0,"server_type":"Dedicated","server_os":"Linux","password":true,"vac":true,"version":"7757534","steam_id":85568392924515193,"keywords":["nocrits","nodmgspread","payload","uncletopia"],"game_id":440,"stv_port":27046,"stv_name":"Uncletopia | Chicago | 4 | All Maps | STV","players":[{"user_id":398,"name":"Simply G","steam_id":76561199221934609,"connected_time":2426000000000,"state":"active","ping":110},{"user_id":425,"name":"demifiend smt3","steam_id":76561198942356955,"connected_time":578000000000,"state":"active","ping":53},{"user_id":433,"name":"brg","steam_id":76561197998415548,"connected_time":273000000000,"state":"active","ping":48},{"user_id":347,"name":"ohton","steam_id":76561199033233448,"connected_time":6029000000000,"state":"active","ping":102},{"user_id":383,"name":"Ax0L_","steam_id":76561199008960175,"connected_time":3511000000000,"state":"active","ping":48},{"user_id":437,"name":"Xpiredd","steam_id":76561198449525437,"connected_time":77000000000,"state":"spawning","ping":66},{"user_id":423,"name":"KOI BOY","steam_id":76561198402739250,"connected_time":607000000000,"state":"active","ping":78},{"user_id":421,"name":"Takeover","steam_id":76561197996081461,"connected_time":638000000000,"state":"active","ping":56},{"user_id":436,"name":"Iggy Dogg","steam_id":76561198059602545,"connected_time":115000000000,"state":"active","ping":49},{"user_id":419,"name":"jeremimi","steam_id":76561198818225102,"connected_time":866000000000,"state":"active","ping":123},{"user_id":438,"name":"Fenneck","steam_id":76561198061985604,"connected_time":76000000000,"state":"active","ping":60},{"user_id":435,"name":"Cerabond","steam_id":76561199230915333,"connected_time":156000000000,"state":"active","ping":84},{"user_id":441,"name":"BattleWriter","steam_id":76561198059618706,"connected_time":32000000000,"state":"active","ping":55},{"user_id":373,"name":"Rukks","steam_id":76561197993918954,"connected_time":4721000000000,"state":"active","ping":90},{"user_id":434,"name":"schnedwob","steam_id":76561197999146588,"connected_time":214000000000,"state":"active","ping":74},{"user_id":405,"name":"Dreamzapp","steam_id":76561199084936632,"connected_time":2185000000000,"state":"active","ping":116},{"user_id":431,"name":"Oni","steam_id":76561198112066584,"connected_time":324000000000,"state":"active","ping":70},{"user_id":429,"name":"-â‚£â‚µ-grease.goblin","steam_id":76561198077902438,"connected_time":461000000000,"state":"active","ping":78},{"user_id":426,"name":"Duder","steam_id":76561198823224784,"connected_time":568000000000,"state":"active","ping":94},{"user_id":430,"name":"-FC- malju","steam_id":76561199050174626,"connected_time":424000000000,"state":"active","ping":61},{"user_id":432,"name":"CrabboStabbo","steam_id":76561198105660937,"connected_time":291000000000,"state":"active","ping":132},{"user_id":428,"name":"Scut","steam_id":76561198973734291,"connected_time":551000000000,"state":"active","ping":93}]},{"server_id":36,"name":"Uncletopia | Chicago | 5 | All Maps","name_short":"chi-5","host":"chi-2.us.uncletopia.com","port":27015,"enabled":true,"region":"us-central","cc":"us","latitude":41.881832,"longitude":-87.62318,"reserved":0,"last_update":"0001-01-01T00:00:00Z","name_a2s":"Uncletopia | Chicago | 5 | All Maps","protocol":17,"map":"pl_upward","folder":"tf","game":"Team Fortress","app_id":440,"player_count":24,"max_players":24,"Bots":0,"server_type":"Dedicated","server_os":"Linux","password":true,"vac":true,"version":"7757534","steam_id":85568392924866362,"keywords":["nocrits","nodmgspread","payload","uncletopia"],"game_id":440,"stv_port":27016,"stv_name":"Uncletopia | Chicago | 5 | All Maps | STV","players":[{"user_id":76,"name":"Rein","steam_id":76561198300340427,"connected_time":544000000000,"state":"active","ping":62},{"user_id":77,"name":"Owl Pacino","steam_id":76561197979970666,"connected_time":539000000000,"state":"active","ping":56},{"user_id":19,"name":"roast beast","steam_id":76561198084433360,"connected_time":3720000000000,"state":"active","ping":58},{"user_id":20,"name":"Red Baron","steam_id":76561198067011766,"connected_time":3668000000000,"state":"active","ping":55},{"user_id":44,"name":"the bane","steam_id":76561198053046161,"connected_time":3056000000000,"state":"active","ping":60},{"user_id":54,"name":"MacchuPeachu","steam_id":76561199093242587,"connected_time":2321000000000,"state":"active","ping":76},{"user_id":63,"name":"enmgxcltayiqoacx","steam_id":76561197974965536,"connected_time":1376000000000,"state":"active","ping":62},{"user_id":79,"name":"Apricot","steam_id":76561198355699935,"connected_time":169000000000,"state":"active","ping":66},{"user_id":29,"name":"some furry","steam_id":76561198038247674,"connected_time":3226000000000,"state":"active","ping":67},{"user_id":71,"name":"Exio","steam_id":76561198218639325,"connected_time":1160000000000,"state":"active","ping":74},{"user_id":69,"name":"Jango","steam_id":76561198121922413,"connected_time":1357000000000,"state":"active","ping":103},{"user_id":53,"name":"TheSnipersHat","steam_id":76561198057684066,"connected_time":2323000000000,"state":"active","ping":57},{"user_id":33,"name":"Ejaculation Zach","steam_id":76561198203765200,"connected_time":3151000000000,"state":"active","ping":66},{"user_id":70,"name":"snapping turtle emporium","steam_id":76561198127149121,"connected_time":1357000000000,"state":"active","ping":82},{"user_id":73,"name":"reanimator","steam_id":76561198085830470,"connected_time":1003000000000,"state":"active","ping":68},{"user_id":36,"name":"e7","steam_id":76561198154265084,"connected_time":3146000000000,"state":"active","ping":91},{"user_id":37,"name":"recycle","steam_id":76561198819562111,"connected_time":3145000000000,"state":"active","ping":67},{"user_id":38,"name":"Touch Grass","steam_id":76561199480331257,"connected_time":3133000000000,"state":"active","ping":85},{"user_id":56,"name":"Warmaster00","steam_id":76561197987001858,"connected_time":2307000000000,"state":"active","ping":116},{"user_id":72,"name":"OpenDown","steam_id":76561198064132688,"connected_time":1016000000000,"state":"active","ping":66},{"user_id":42,"name":"loser","steam_id":76561198171507451,"connected_time":3087000000000,"state":"active","ping":90},{"user_id":47,"name":"skittlez","steam_id":76561198024662861,"connected_time":3029000000000,"state":"active","ping":84},{"user_id":78,"name":"German Industrial Dancer","steam_id":76561199127423378,"connected_time":374000000000,"state":"active","ping":115},{"user_id":81,"name":"Spytron 3000","steam_id":76561198067791086,"connected_time":110000000000,"state":"active","ping":94}]},{"server_id":37,"name":"Uncletopia | Chicago | 6 | All Maps","name_short":"chi-6","host":"chi-2.us.uncletopia.com","port":27025,"enabled":true,"region":"us-central","cc":"us","latitude":41.881832,"longitude":-87.62318,"reserved":0,"last_update":"0001-01-01T00:00:00Z","name_a2s":"Uncletopia | Chicago | 6 | All Maps","protocol":17,"map":"koth_lakeside_final","folder":"tf","game":"Team Fortress","app_id":440,"player_count":24,"max_players":24,"Bots":0,"server_type":"Dedicated","server_os":"Linux","password":true,"vac":true,"version":"7757534","steam_id":85568392924866363,"keywords":["cp","nocrits","nodmgspread","uncletopia"],"game_id":440,"stv_port":27026,"stv_name":"Uncletopia | Chicago | 6 | All Maps | STV","players":[{"user_id":11,"name":"Astrodius","steam_id":76561199228913766,"connected_time":736000000000,"state":"active","ping":98},{"user_id":12,"name":"Michiru","steam_id":76561198878701671,"connected_time":708000000000,"state":"active","ping":88},{"user_id":13,"name":"Blud walked 0 miles ðŸ˜­ðŸ˜­\ufffd\ufffd\ufffd","steam_id":76561199285074344,"connected_time":700000000000,"state":"active","ping":61},{"user_id":14,"name":"Blondale Pringle","steam_id":76561198300104866,"connected_time":694000000000,"state":"active","ping":82},{"user_id":15,"name":"Livsbian","steam_id":76561198799368071,"connected_time":620000000000,"state":"active","ping":59},{"user_id":16,"name":"Awaiting Her Return","steam_id":76561198055820194,"connected_time":570000000000,"state":"active","ping":45},{"user_id":17,"name":"wafflehamster2000","steam_id":76561198849161820,"connected_time":440000000000,"state":"active","ping":71},{"user_id":18,"name":"Scope","steam_id":76561198164813564,"connected_time":362000000000,"state":"active","ping":57},{"user_id":19,"name":"bomb","steam_id":76561198359135819,"connected_time":335000000000,"state":"active","ping":90},{"user_id":20,"name":"HappyCocoa","steam_id":76561198189001527,"connected_time":329000000000,"state":"active","ping":92},{"user_id":35,"name":"Overduecat","steam_id":76561198092452824,"connected_time":16000000000,"state":"spawning","ping":67},{"user_id":22,"name":"DerrickHenryFan2012","steam_id":76561198254452687,"connected_time":315000000000,"state":"active","ping":96},{"user_id":23,"name":"watchfull","steam_id":76561198433266742,"connected_time":312000000000,"state":"active","ping":102},{"user_id":24,"name":"Sockhead","steam_id":76561198253181773,"connected_time":271000000000,"state":"active","ping":81},{"user_id":25,"name":"Schizo, Pisser of Pants","steam_id":76561198397662124,"connected_time":238000000000,"state":"active","ping":88},{"user_id":26,"name":"Geebler, Shitter of Pants","steam_id":76561198400058665,"connected_time":217000000000,"state":"active","ping":81},{"user_id":27,"name":"silliest guy","steam_id":76561198066566813,"connected_time":181000000000,"state":"active","ping":123},{"user_id":28,"name":"TheBiggerIron","steam_id":76561198257043605,"connected_time":181000000000,"state":"active","ping":105},{"user_id":29,"name":"Post nut clarity","steam_id":76561198060246831,"connected_time":165000000000,"state":"active","ping":78},{"user_id":30,"name":"sailaser","steam_id":76561198035752229,"connected_time":151000000000,"state":"active","ping":63},{"user_id":31,"name":"TJGSASQUATCH","steam_id":76561198077806921,"connected_time":101000000000,"state":"active","ping":74},{"user_id":32,"name":"Lawn","steam_id":76561198267235228,"connected_time":78000000000,"state":"active","ping":115},{"user_id":33,"name":"Scoundrel","steam_id":76561198056672372,"connected_time":77000000000,"state":"active","ping":81},{"user_id":34,"name":"yoko","steam_id":76561199086546171,"connected_time":30000000000,"state":"active","ping":89}]},{"server_id":38,"name":"Uncletopia | Chicago | 7 | Stopwatch Beta","name_short":"chi-7","host":"chi-2.us.uncletopia.com","port":27035,"enabled":true,"region":"us-central","cc":"us","latitude":41.881832,"longitude":-87.62318,"reserved":0,"last_update":"0001-01-01T00:00:00Z","name_a2s":"Uncletopia | Chicago | 7 | Stopwatch Beta","protocol":17,"map":"pl_swiftwater_final1","folder":"tf","game":"Team Fortress","app_id":440,"player_count":0,"max_players":24,"Bots":0,"server_type":"Dedicated","server_os":"Linux","password":true,"vac":true,"version":"7757534","steam_id":85568392924866364,"keywords":["nocrits","nodmgspread","payload","uncletopia"],"game_id":440,"stv_port":27036,"stv_name":"Uncletopia | Chicago | 7 | Stopwatch Beta | STV","players":null},{"server_id":39,"name":"Uncletopia | Chicago | 8 | Community","name_short":"chi-8","host":"chi-2.us.uncletopia.com","port":27045,"enabled":true,"region":"us-central","cc":"us","latitude":41.881832,"longitude":-87.62318,"reserved":0,"last_update":"0001-01-01T00:00:00Z","name_a2s":"Uncletopia | Chicago | 8 | Community","protocol":17,"map":"koth_cascade","folder":"tf","game":"Team Fortress","app_id":440,"player_count":0,"max_players":24,"Bots":0,"server_type":"Dedicated","server_os":"Linux","password":true,"vac":true,"version":"7757534","steam_id":85568392924866365,"keywords":["cp","nocrits","nodmgspread","uncletopia"],"game_id":440,"stv_port":27046,"stv_name":"Uncletopia | Chicago | 8 | Community | STV","players":null},{"server_id":8,"name":"Uncletopia | Dallas | 1 | All Maps","name_short":"dal-1","host":"dal-1.us.uncletopia.com","port":27015,"enabled":true,"region":"us-central","cc":"us","latitude":32.779167,"longitude":-96.80889,"reserved":0,"last_update":"0001-01-01T00:00:00Z","name_a2s":"Uncletopia | Dallas | 1 | All Maps","protocol":17,"map":"cp_dustbowl","folder":"tf","game":"Team Fortress","app_id":440,"player_count":24,"max_players":24,"Bots":0,"server_type":"Dedicated","server_os":"Linux","password":true,"vac":true,"version":"7757534","steam_id":85568392924469986,"keywords":["cp","nocrits","nodmgspread","uncletopia"],"game_id":440,"stv_port":27016,"stv_name":"Uncletopia | Dallas | 1 | All Maps | STV","players":[{"user_id":191,"name":"SomeRandomCat","steam_id":76561199107044061,"connected_time":1096000000000,"state":"active","ping":49},{"user_id":188,"name":"Highphin","steam_id":76561198986584680,"connected_time":1486000000000,"state":"active","ping":90},{"user_id":208,"name":"Teutiaplus","steam_id":76561198880943359,"connected_time":31000000000,"state":"active","ping":63},{"user_id":200,"name":"Herr Doktor","steam_id":76561198025473302,"connected_time":477000000000,"state":"active","ping":108},{"user_id":198,"name":"BrightOrangeMango","steam_id":76561198023144607,"connected_time":1056000000000,"state":"active","ping":78},{"user_id":149,"name":"MegaMudkipz","steam_id":76561198354776000,"connected_time":4427000000000,"state":"active","ping":51},{"user_id":190,"name":"krakowski","steam_id":76561198119536224,"connected_time":1110000000000,"state":"active","ping":75},{"user_id":187,"name":"trks","steam_id":76561198233984300,"connected_time":1615000000000,"state":"active","ping":72},{"user_id":199,"name":"bo scrungulus","steam_id":76561198038036122,"connected_time":935000000000,"state":"active","ping":109},{"user_id":201,"name":"Chhaam","steam_id":76561198058508132,"connected_time":474000000000,"state":"active","ping":75},{"user_id":194,"name":"the private","steam_id":76561198232500756,"connected_time":1082000000000,"state":"active","ping":57},{"user_id":118,"name":"UNIT 220","steam_id":76561198042243497,"connected_time":5399000000000,"state":"active","ping":70},{"user_id":91,"name":"{BUB} Royd Rage","steam_id":76561198127591926,"connected_time":7213000000000,"state":"active","ping":81},{"user_id":204,"name":"Humon Player","steam_id":76561198013593178,"connected_time":306000000000,"state":"active","ping":56},{"user_id":207,"name":"jae","steam_id":76561199239926014,"connected_time":98000000000,"state":"active","ping":63},{"user_id":206,"name":"Lunacy","steam_id":76561199386273760,"connected_time":111000000000,"state":"active","ping":89},{"user_id":203,"name":"tranquildarth","steam_id":76561199176155186,"connected_time":322000000000,"state":"active","ping":118},{"user_id":205,"name":"literally tyler durden","steam_id":76561199014628655,"connected_time":303000000000,"state":"active","ping":60},{"user_id":45,"name":"Pornelius Hubert","steam_id":76561198186128723,"connected_time":10553000000000,"state":"active","ping":55},{"user_id":152,"name":"dicksnip","steam_id":76561198356515396,"connected_time":4376000000000,"state":"active","ping":57},{"user_id":166,"name":"TheRealMrGutsy","steam_id":76561198085395848,"connected_time":3061000000000,"state":"active","ping":93},{"user_id":48,"name":"markiplier the real","steam_id":76561198156467907,"connected_time":10528000000000,"state":"active","ping":59},{"user_id":171,"name":"StraySheep","steam_id":76561198256003811,"connected_time":2843000000000,"state":"active","ping":78},{"user_id":197,"name":"Chaddy_Gaming","steam_id":76561198100098802,"connected_time":1069000000000,"state":"active","ping":166}]},{"server_id":108,"name":"Uncletopia | Dallas | 2 | All Maps","name_short":"dal-2","host":"dal-1.us.uncletopia.com","port":27025,"enabled":true,"region":"us-central","cc":"us","latitude":32.779167,"longitude":-96.80889,"reserved":0,"last_update":"0001-01-01T00:00:00Z","name_a2s":"Uncletopia | Dallas | 2 | All Maps","protocol":17,"map":"pl_barnblitz","folder":"tf","game":"Team Fortress","app_id":440,"player_count":24,"max_players":24,"Bots":0,"server_type":"Dedicated","server_os":"Linux","password":true,"vac":true,"version":"7757534","steam_id":85568392924469988,"keywords":["nocrits","nodmgspread","payload","uncletopia"],"game_id":440,"stv_port":27026,"stv_name":"Uncletopia | Dallas | 2 | All Maps | STV","players":[{"user_id":122,"name":"hot pyro","steam_id":76561198935859163,"connected_time":333000000000,"state":"active","ping":62},{"user_id":51,"name":"god gamer","steam_id":76561198168149434,"connected_time":5453000000000,"state":"active","ping":125},{"user_id":53,"name":"Beantama","steam_id":76561198986811476,"connected_time":5406000000000,"state":"active","ping":68},{"user_id":108,"name":"RedFlare","steam_id":76561199254669036,"connected_time":1285000000000,"state":"active","ping":86},{"user_id":84,"name":"Dop_Pop_Bop","steam_id":76561198803110941,"connected_time":3894000000000,"state":"active","ping":99},{"user_id":114,"name":"Arrluk","steam_id":76561198396679452,"connected_time":910000000000,"state":"active","ping":72},{"user_id":85,"name":"QueenPinharam","steam_id":76561199015626409,"connected_time":3831000000000,"state":"active","ping":60},{"user_id":101,"name":"Tyler\u0026Fingers","steam_id":76561198085154485,"connected_time":2030000000000,"state":"active","ping":89},{"user_id":104,"name":"âœª Y V E S","steam_id":76561198299479796,"connected_time":1599000000000,"state":"active","ping":75},{"user_id":102,"name":"Dragon9990","steam_id":76561199094804095,"connected_time":1940000000000,"state":"active","ping":100},{"user_id":105,"name":"J.G. Klaus","steam_id":76561198001111196,"connected_time":1571000000000,"state":"active","ping":58},{"user_id":118,"name":"shaoer","steam_id":76561198071376804,"connected_time":747000000000,"state":"active","ping":79},{"user_id":109,"name":"Fantastic Mr. Fox Appreciator","steam_id":76561198096306325,"connected_time":1204000000000,"state":"active","ping":94},{"user_id":95,"name":"Rhutebeer","steam_id":76561198018302761,"connected_time":2644000000000,"state":"active","ping":83},{"user_id":106,"name":"Heartgold","steam_id":76561199062592062,"connected_time":1504000000000,"state":"active","ping":94},{"user_id":120,"name":"WM1 PYRO","steam_id":76561198045893896,"connected_time":509000000000,"state":"active","ping":111},{"user_id":121,"name":"Rent is Due","steam_id":76561198155872356,"connected_time":505000000000,"state":"active","ping":75},{"user_id":103,"name":"Inner city youth","steam_id":76561198050204475,"connected_time":1885000000000,"state":"active","ping":60},{"user_id":77,"name":"Scorpianswag","steam_id":76561198260651036,"connected_time":4066000000000,"state":"active","ping":69},{"user_id":98,"name":"bestie_boy","steam_id":76561199121946793,"connected_time":2604000000000,"state":"active","ping":81},{"user_id":87,"name":"Tmiracle","steam_id":76561198052375275,"connected_time":3776000000000,"state":"active","ping":76},{"user_id":113,"name":"wahooka","steam_id":76561197981211922,"connected_time":1051000000000,"state":"active","ping":82},{"user_id":112,"name":"mrnotsogudguy","steam_id":76561199289893241,"connected_time":1065000000000,"state":"active","ping":68},{"user_id":123,"name":"Devoid","steam_id":76561198254039012,"connected_time":280000000000,"state":"active","ping":75}]},{"server_id":5,"name":"Uncletopia | Frankfurt | 1 | All Maps","name_short":"frk-1","host":"frk-1.de.uncletopia.com","port":27015,"enabled":true,"region":"eu","cc":"de","latitude":50.110924,"longitude":8.682127,"reserved":0,"last_update":"0001-01-01T00:00:00Z","name_a2s":"Uncletopia | Frankfurt | 1 | All Maps","protocol":17,"map":"koth_cascade","folder":"tf","game":"Team Fortress","app_id":440,"player_count":25,"max_players":24,"Bots":0,"server_type":"Dedicated","server_os":"Linux","password":true,"vac":true,"version":"7757534","steam_id":85568392924469989,"keywords":["cp","nocrits","nodmgspread","uncletopia"],"game_id":440,"stv_port":27016,"stv_name":"Uncletopia | Frankfurt | 1 | All Maps | STV","players":[{"user_id":437,"name":"Zombie Rehabilitation","steam_id":76561197962848916,"connected_time":1450000000000,"state":"active","ping":190},{"user_id":445,"name":"DeanAdamFry","steam_id":76561198054153160,"connected_time":1045000000000,"state":"active","ping":67},{"user_id":424,"name":"heavy sings (real)","steam_id":76561199023804405,"connected_time":2279000000000,"state":"active","ping":75},{"user_id":469,"name":"JC","steam_id":76561198029213352,"connected_time":226000000000,"state":"active","ping":45},{"user_id":436,"name":"giclure :;","steam_id":76561197986362828,"connected_time":1598000000000,"state":"active","ping":68},{"user_id":441,"name":"Mr_Joergen","steam_id":76561198364713702,"connected_time":1290000000000,"state":"active","ping":66},{"user_id":464,"name":"Voxil","steam_id":76561198013643001,"connected_time":405000000000,"state":"active","ping":59},{"user_id":470,"name":"Perci","steam_id":76561198097789669,"connected_time":206000000000,"state":"active","ping":59},{"user_id":442,"name":"The one True Mads","steam_id":76561197999204692,"connected_time":1204000000000,"state":"active","ping":71},{"user_id":413,"name":"ðŸ˜ˆ COCKDESTROYER ðŸ˜ˆ","steam_id":76561198042846999,"connected_time":2916000000000,"state":"active","ping":60},{"user_id":427,"name":"gedrmtyo4p5ijyekdmrg","steam_id":76561198006254783,"connected_time":2081000000000,"state":"active","ping":86},{"user_id":452,"name":"Ixsus\u003c3","steam_id":76561198094756869,"connected_time":919000000000,"state":"active","ping":51},{"user_id":460,"name":"Knugen the Conqueror","steam_id":76561198127091993,"connected_time":712000000000,"state":"active","ping":55},{"user_id":435,"name":"Hearny","steam_id":76561198015413751,"connected_time":1853000000000,"state":"active","ping":73},{"user_id":468,"name":"â€ ","steam_id":76561199042470246,"connected_time":246000000000,"state":"active","ping":50},{"user_id":408,"name":"dn4k","steam_id":76561199221755690,"connected_time":3084000000000,"state":"active","ping":85},{"user_id":440,"name":"Bobo","steam_id":76561198052308399,"connected_time":1397000000000,"state":"active","ping":56},{"user_id":472,"name":"Bodeine Brazy","steam_id":76561198122181176,"connected_time":28000000000,"state":"active","ping":50},{"user_id":467,"name":"å¤§ä¾¿è‡‰","steam_id":76561198038472045,"connected_time":322000000000,"state":"active","ping":71},{"user_id":444,"name":"Smashy_3","steam_id":76561198946398831,"connected_time":1180000000000,"state":"active","ping":59},{"user_id":457,"name":"WÃ¼stenfuchs","steam_id":76561198453885708,"connected_time":816000000000,"state":"active","ping":76},{"user_id":434,"name":"port :o3","steam_id":76561198059151809,"connected_time":1914000000000,"state":"active","ping":70},{"user_id":461,"name":"ProfessorCrack","steam_id":76561199035475627,"connected_time":667000000000,"state":"active","ping":85},{"user_id":422,"name":"Generic text","steam_id":76561198291962185,"connected_time":2345000000000,"state":"active","ping":76},{"user_id":473,"name":"Animatic","steam_id":76561198186421601,"connected_time":6000000000,"state":"spawning","ping":171}]},{"server_id":110,"name":"Uncletopia | Frankfurt | 2 | All Maps","name_short":"frk-2","host":"frk-1.de.uncletopia.com","port":27025,"enabled":true,"region":"eu","cc":"de","latitude":50.110924,"longitude":8.682127,"reserved":0,"last_update":"0001-01-01T00:00:00Z","name_a2s":"Uncletopia | Frankfurt | 2 | All Maps","protocol":17,"map":"pl_snowycoast","folder":"tf","game":"Team Fortress","app_id":440,"player_count":20,"max_players":24,"Bots":0,"server_type":"Dedicated","server_os":"Linux","password":true,"vac":true,"version":"7757534","steam_id":85568392924469990,"keywords":["nocrits","nodmgspread","payload","uncletopia"],"game_id":440,"stv_port":27026,"stv_name":"Uncletopia | Frankfurt | 2 | All Maps | STV","players":[{"user_id":491,"name":"LordTrap.exe","steam_id":76561198318089716,"connected_time":152000000000,"state":"active","ping":52},{"user_id":492,"name":"\u003c blank \u003e","steam_id":76561198059375315,"connected_time":117000000000,"state":"active","ping":59},{"user_id":493,"name":"Gearless","steam_id":76561198362367074,"connected_time":42000000000,"state":"active","ping":68},{"user_id":427,"name":"Pilaarius","steam_id":76561198120273212,"connected_time":5287000000000,"state":"active","ping":94},{"user_id":494,"name":"TidB","steam_id":76561198055342304,"connected_time":7000000000,"state":"spawning","ping":83},{"user_id":495,"name":"Galex","steam_id":76561198045637579,"connected_time":5000000000,"state":"spawning","ping":44},{"user_id":474,"name":"Ð‘ravo","steam_id":76561198259340310,"connected_time":1163000000000,"state":"active","ping":66},{"user_id":485,"name":"Merc","steam_id":76561198044864067,"connected_time":634000000000,"state":"active","ping":69},{"user_id":451,"name":"Suomipe #TF2Center","steam_id":76561198816127818,"connected_time":4126000000000,"state":"active","ping":84},{"user_id":465,"name":"Mi Manchi","steam_id":76561198171573129,"connected_time":2080000000000,"state":"active","ping":59},{"user_id":484,"name":"tallen","steam_id":76561198061708595,"connected_time":654000000000,"state":"active","ping":81},{"user_id":480,"name":"maria.","steam_id":76561198398126607,"connected_time":981000000000,"state":"active","ping":61},{"user_id":456,"name":"G6 sherlock","steam_id":76561198802967796,"connected_time":3650000000000,"state":"active","ping":120},{"user_id":441,"name":"Koli","steam_id":76561197992428783,"connected_time":4547000000000,"state":"active","ping":54},{"user_id":458,"name":"Olfrad","steam_id":76561198161763817,"connected_time":3622000000000,"state":"active","ping":47},{"user_id":439,"name":"Kvicha Kvaratskhelia","steam_id":76561198179339326,"connected_time":4607000000000,"state":"active","ping":75},{"user_id":453,"name":"bread","steam_id":76561198111097313,"connected_time":4098000000000,"state":"active","ping":60},{"user_id":463,"name":"Gen","steam_id":76561198021775885,"connected_time":2385000000000,"state":"active","ping":58},{"user_id":483,"name":"Olvustin","steam_id":76561198272011453,"connected_time":909000000000,"state":"active","ping":96},{"user_id":425,"name":"Marmac","steam_id":76561198120033210,"connected_time":5537000000000,"state":"active","ping":69}]},{"server_id":308,"name":"Uncletopia | Frankfurt | 3 | All Maps","name_short":"frk-3","host":"frk-1.de.uncletopia.com","port":27035,"enabled":true,"region":"eu","cc":"de","latitude":50.110924,"longitude":8.682127,"reserved":0,"last_update":"0001-01-01T00:00:00Z","name_a2s":"Uncletopia | Frankfurt | 3 | All Maps","protocol":17,"map":"pl_badwater","folder":"tf","game":"Team Fortress","app_id":440,"player_count":24,"max_players":24,"Bots":0,"server_type":"Dedicated","server_os":"Linux","password":true,"vac":true,"version":"7757534","steam_id":85568392924504274,"keywords":["nocrits","nodmgspread","payload","uncletopia"],"game_id":440,"stv_port":27036,"stv_name":"Uncletopia | Frankfurt | 3 | All Maps | STV","players":[{"user_id":98,"name":"Deadlycow","steam_id":76561197980761347,"connected_time":2537000000000,"state":"active","ping":70},{"user_id":111,"name":"(wm) Das Fleisch","steam_id":76561198001250715,"connected_time":1121000000000,"state":"active","ping":49},{"user_id":82,"name":"madman hesus","steam_id":76561198159702599,"connected_time":3311000000000,"state":"active","ping":79},{"user_id":106,"name":"PeTrAk0S","steam_id":76561198109314762,"connected_time":1498000000000,"state":"active","ping":76},{"user_id":114,"name":"addicted","steam_id":76561199129801006,"connected_time":938000000000,"state":"active","ping":48},{"user_id":91,"name":"Insain Bolt!","steam_id":76561198025687726,"connected_time":2974000000000,"state":"active","ping":68},{"user_id":94,"name":"Yoshikage Kira","steam_id":76561199051752886,"connected_time":2643000000000,"state":"active","ping":60},{"user_id":101,"name":"Mistress of the universe","steam_id":76561198115988477,"connected_time":1921000000000,"state":"active","ping":56},{"user_id":117,"name":"BoJack #TF2Center","steam_id":76561197994147794,"connected_time":858000000000,"state":"active","ping":83},{"user_id":135,"name":"astigmatic","steam_id":76561199103959197,"connected_time":122000000000,"state":"active","ping":96},{"user_id":81,"name":"Endi","steam_id":76561198914938199,"connected_time":3356000000000,"state":"active","ping":96},{"user_id":133,"name":"Behind you","steam_id":76561198102420849,"connected_time":246000000000,"state":"active","ping":59},{"user_id":108,"name":"Regan","steam_id":76561198100631086,"connected_time":1470000000000,"state":"active","ping":87},{"user_id":120,"name":"Borat","steam_id":76561198122226417,"connected_time":506000000000,"state":"active","ping":54},{"user_id":113,"name":"im wearing gunnars","steam_id":76561198045413005,"connected_time":1047000000000,"state":"active","ping":58},{"user_id":116,"name":"mkwii","steam_id":76561198062507768,"connected_time":924000000000,"state":"active","ping":59},{"user_id":70,"name":"Arturias","steam_id":76561198188720263,"connected_time":3768000000000,"state":"active","ping":50},{"user_id":65,"name":"WeegeePJ","steam_id":76561199383362382,"connected_time":3904000000000,"state":"active","ping":136},{"user_id":71,"name":"Mario3ghj","steam_id":76561198069804561,"connected_time":3753000000000,"state":"active","ping":95},{"user_id":134,"name":"metodmiha","steam_id":76561199111498575,"connected_time":244000000000,"state":"active","ping":77},{"user_id":73,"name":"Nickbro101","steam_id":76561198044271692,"connected_time":3730000000000,"state":"active","ping":60},{"user_id":109,"name":"S_ApplePie","steam_id":76561198106947669,"connected_time":1469000000000,"state":"active","ping":88},{"user_id":95,"name":"Aesthetic Alcoholism","steam_id":76561198044418968,"connected_time":2611000000000,"state":"active","ping":51},{"user_id":103,"name":"ÐšÑ€Ð¸Ð¼Ð¸Ð½Ð°Ð»ÑŒÐ½Ñ‹Ð¹ ÑƒÑ‰Ðµ","steam_id":76561198034136409,"connected_time":1790000000000,"state":"active","ping":89}]},{"server_id":309,"name":"Uncletopia | Frankfurt | 4 | All Maps","name_short":"frk-4","host":"frk-1.de.uncletopia.com","port":27045,"enabled":true,"region":"eu","cc":"de","latitude":50.110924,"longitude":8.682127,"reserved":0,"last_update":"0001-01-01T00:00:00Z","name_a2s":"Uncletopia | Frankfurt | 4 | All Maps","protocol":17,"map":"cp_dustbowl","folder":"tf","game":"Team Fortress","app_id":440,"player_count":24,"max_players":24,"Bots":0,"server_type":"Dedicated","server_os":"Linux","password":true,"vac":true,"version":"7757534","steam_id":85568392924504275,"keywords":["cp","nocrits","nodmgspread","uncletopia"],"game_id":440,"stv_port":27046,"stv_name":"Uncletopia | Frankfurt | 4 | All Maps | STV","players":[{"user_id":228,"name":"thepro-strong","steam_id":76561198047359132,"connected_time":6520000000000,"state":"active","ping":65},{"user_id":300,"name":"Piteras","steam_id":76561198858532207,"connected_time":1671000000000,"state":"active","ping":71},{"user_id":265,"name":"Mrbluuub","steam_id":76561199273847084,"connected_time":3943000000000,"state":"active","ping":71},{"user_id":260,"name":"smk","steam_id":76561198068027379,"connected_time":4562000000000,"state":"active","ping":84},{"user_id":263,"name":"vissa","steam_id":76561198150680224,"connected_time":4450000000000,"state":"active","ping":91},{"user_id":290,"name":"Small NULL-terminated humifier","steam_id":76561199441603388,"connected_time":1964000000000,"state":"active","ping":86},{"user_id":301,"name":"s a i","steam_id":76561197970379754,"connected_time":1655000000000,"state":"active","ping":58},{"user_id":314,"name":"shr1mple","steam_id":76561198173537027,"connected_time":301000000000,"state":"active","ping":37},{"user_id":308,"name":"idc","steam_id":76561198322087870,"connected_time":539000000000,"state":"active","ping":94},{"user_id":284,"name":"Ouzei","steam_id":76561198025949624,"connected_time":2380000000000,"state":"active","ping":69},{"user_id":311,"name":"[O\u0026O]YaboiDucki","steam_id":76561198195976589,"connected_time":399000000000,"state":"active","ping":70},{"user_id":312,"name":"padillacampos","steam_id":76561198161923970,"connected_time":391000000000,"state":"active","ping":86},{"user_id":295,"name":"Nithle","steam_id":76561198025372740,"connected_time":1893000000000,"state":"active","ping":48},{"user_id":249,"name":"Mo","steam_id":76561198809697283,"connected_time":5740000000000,"state":"active","ping":57},{"user_id":268,"name":"eeeeee","steam_id":76561198017786875,"connected_time":3398000000000,"state":"active","ping":61},{"user_id":313,"name":"RIFT","steam_id":76561198991622379,"connected_time":376000000000,"state":"active","ping":53},{"user_id":303,"name":"koko","steam_id":76561198953867666,"connected_time":1254000000000,"state":"active","ping":58},{"user_id":315,"name":"Rintse","steam_id":76561198065679312,"connected_time":211000000000,"state":"active","ping":52},{"user_id":297,"name":"Subterranean","steam_id":76561198106684566,"connected_time":1885000000000,"state":"active","ping":82},{"user_id":272,"name":"TheEventGuy","steam_id":76561197972797744,"connected_time":2634000000000,"state":"active","ping":62},{"user_id":316,"name":"kotamine","steam_id":76561198068907991,"connected_time":181000000000,"state":"active","ping":69},{"user_id":279,"name":"B1urred","steam_id":76561198263657694,"connected_time":2513000000000,"state":"active","ping":67},{"user_id":270,"name":"Carrotcracker","steam_id":76561198034862396,"connected_time":3274000000000,"state":"active","ping":74},{"user_id":288,"name":"Unedited Andy","steam_id":76561199090694469,"connected_time":2097000000000,"state":"active","ping":126}]},{"server_id":310,"name":"Uncletopia | Frankfurt | 5 | All Maps","name_short":"frk-5","host":"frk-1.de.uncletopia.com","port":27055,"enabled":true,"region":"eu","cc":"de","latitude":50.110924,"longitude":8.682127,"reserved":0,"last_update":"0001-01-01T00:00:00Z","name_a2s":"Uncletopia | Frankfurt | 5 | All Maps","protocol":17,"map":"koth_lakeside_final","folder":"tf","game":"Team Fortress","app_id":440,"player_count":0,"max_players":24,"Bots":0,"server_type":"Dedicated","server_os":"Linux","password":true,"vac":true,"version":"7757534","steam_id":85568392924504277,"keywords":["cp","nocrits","nodmgspread","uncletopia"],"game_id":440,"stv_port":27056,"stv_name":"Uncletopia | Frankfurt | 5 | All Maps | STV","players":null},{"server_id":311,"name":"Uncletopia | Frankfurt | 6 | All Maps","name_short":"frk-6","host":"frk-1.de.uncletopia.com","port":27065,"enabled":true,"region":"eu","cc":"de","latitude":50.110924,"longitude":8.682127,"reserved":0,"last_update":"0001-01-01T00:00:00Z","name_a2s":"Uncletopia | Frankfurt | 6 | All Maps","protocol":17,"map":"pl_upward","folder":"tf","game":"Team Fortress","app_id":440,"player_count":21,"max_players":24,"Bots":0,"server_type":"Dedicated","server_os":"Linux","password":true,"vac":true,"version":"7757534","steam_id":85568392924504278,"keywords":["nocrits","nodmgspread","payload","uncletopia"],"game_id":440,"stv_port":27066,"stv_name":"Uncletopia | Frankfurt | 6 | All Maps | STV","players":[{"user_id":534,"name":"Peams","steam_id":76561198343328308,"connected_time":210000000000,"state":"active","ping":46},{"user_id":510,"name":"MK-Ultra Violence","steam_id":76561198081328238,"connected_time":1543000000000,"state":"active","ping":68},{"user_id":523,"name":"snovi","steam_id":76561198984436595,"connected_time":990000000000,"state":"active","ping":74},{"user_id":535,"name":"5tv^","steam_id":76561198063129586,"connected_time":194000000000,"state":"active","ping":65},{"user_id":536,"name":"day","steam_id":76561198260265302,"connected_time":130000000000,"state":"active","ping":44},{"user_id":484,"name":"AgentEagele","steam_id":76561198255444884,"connected_time":3401000000000,"state":"active","ping":84},{"user_id":521,"name":"proph","steam_id":76561197998803950,"connected_time":1193000000000,"state":"active","ping":52},{"user_id":537,"name":"Maximus OverDrive","steam_id":76561198081041276,"connected_time":104000000000,"state":"active","ping":131},{"user_id":538,"name":":)","steam_id":76561199142721155,"connected_time":57000000000,"state":"active","ping":69},{"user_id":512,"name":"David \"Crash\" Murphy","steam_id":76561198292845505,"connected_time":1521000000000,"state":"active","ping":77},{"user_id":539,"name":"Mr_Alex","steam_id":76561198308929418,"connected_time":51000000000,"state":"spawning","ping":58},{"user_id":540,"name":"TheSciencePerson","steam_id":76561198352592448,"connected_time":34000000000,"state":"active","ping":71},{"user_id":503,"name":"Rez","steam_id":76561198410598772,"connected_time":2891000000000,"state":"active","ping":54},{"user_id":517,"name":"beckler","steam_id":76561198029266963,"connected_time":1285000000000,"state":"active","ping":47},{"user_id":526,"name":"sens","steam_id":76561199441196540,"connected_time":730000000000,"state":"active","ping":62},{"user_id":541,"name":"Edla","steam_id":76561198062815315,"connected_time":14000000000,"state":"spawning","ping":110},{"user_id":497,"name":"Hoficraft","steam_id":76561198868213375,"connected_time":3127000000000,"state":"active","ping":87},{"user_id":460,"name":"Tonne","steam_id":76561197970856766,"connected_time":5880000000000,"state":"active","ping":61},{"user_id":507,"name":"Swoosh","steam_id":76561198073037982,"connected_time":2580000000000,"state":"active","ping":53},{"user_id":505,"name":"Tea","steam_id":76561198799243030,"connected_time":2848000000000,"state":"active","ping":72},{"user_id":520,"name":"The Glurb","steam_id":76561198401281485,"connected_time":1264000000000,"state":"active","ping":167}]},{"server_id":23,"name":"Uncletopia | Frankfurt | 7 | Stopwatch Beta","name_short":"frk-7","host":"frk-1.de.uncletopia.com","port":27075,"enabled":true,"region":"eu","cc":"de","latitude":50.110924,"longitude":8.682127,"reserved":0,"last_update":"0001-01-01T00:00:00Z","name_a2s":"Uncletopia | Frankfurt | 7 | Stopwatch Beta","protocol":17,"map":"workshop/koth_bagel_rc6.ugc2514036946","folder":"tf","game":"Team Fortress","app_id":440,"player_count":0,"max_players":24,"Bots":0,"server_type":"Dedicated","server_os":"Linux","password":true,"vac":true,"version":"7757534","steam_id":85568392924742827,"keywords":["cp","nocrits","nodmgspread","uncletopia"],"game_id":440,"stv_port":27076,"stv_name":"Uncletopia | Frankfurt | 7 | Stopwatch Beta | STV","players":null},{"server_id":24,"name":"Uncletopia | Frankfurt | 8 | Community","name_short":"frk-8","host":"frk-1.de.uncletopia.com","port":27085,"enabled":true,"region":"eu","cc":"de","latitude":50.110924,"longitude":8.682127,"reserved":0,"last_update":"0001-01-01T00:00:00Z","name_a2s":"Uncletopia | Frankfurt | 8 | Community","protocol":17,"map":"workshop/cp_hazyfort_rc6.ugc1365963729","folder":"tf","game":"Team Fortress","app_id":440,"player_count":0,"max_players":24,"Bots":0,"server_type":"Dedicated","server_os":"Linux","password":true,"vac":true,"version":"7757534","steam_id":85568392924742828,"keywords":["cp","nocrits","nodmgspread","uncletopia"],"game_id":440,"stv_port":27086,"stv_name":"Uncletopia | Frankfurt | 8 | Community | STV","players":null},{"server_id":202,"name":"Uncletopia | Hong Kong | 1 | All Maps","name_short":"hgk-1","host":"hgk-1.hk.uncletopia.com","port":27015,"enabled":true,"region":"asia","cc":"hk","latitude":22.302711,"longitude":114.177216,"reserved":0,"last_update":"0001-01-01T00:00:00Z","name_a2s":"Uncletopia | Hong Kong | 1 | All Maps","protocol":17,"map":"koth_cascade","folder":"tf","game":"Team Fortress","app_id":440,"player_count":0,"max_players":24,"Bots":0,"server_type":"Dedicated","server_os":"Linux","password":true,"vac":true,"version":"7757534","steam_id":85568392924494504,"keywords":["cp","nocrits","nodmgspread","uncletopia"],"game_id":440,"stv_port":27016,"stv_name":"Uncletopia | Hong Kong | 1 | All Maps | STV","players":null},{"server_id":1,"name":"Uncletopia | Los Angeles | 1 | All Maps","name_short":"lax-1","host":"lax-1.us.uncletopia.com","port":27015,"enabled":true,"region":"us-west","cc":"us","latitude":33.94279,"longitude":-118.41004,"reserved":0,"last_update":"0001-01-01T00:00:00Z","name_a2s":"Uncletopia | Los Angeles | 1 | All Maps","protocol":17,"map":"cp_mercenarypark","folder":"tf","game":"Team Fortress","app_id":440,"player_count":23,"max_players":24,"Bots":0,"server_type":"Dedicated","server_os":"Linux","password":true,"vac":true,"version":"7757534","steam_id":85568392924469991,"keywords":["cp","nocrits","nodmgspread","uncletopia"],"game_id":440,"stv_port":27016,"stv_name":"Uncletopia | Los Angeles | 1 | All Maps | STV","players":[{"user_id":170,"name":"SpringIvan","steam_id":76561199133179509,"connected_time":553000000000,"state":"active","ping":46},{"user_id":173,"name":"An00bis","steam_id":76561198044084508,"connected_time":424000000000,"state":"active","ping":56},{"user_id":163,"name":"Eden","steam_id":76561198081284664,"connected_time":815000000000,"state":"active","ping":45},{"user_id":157,"name":"party tim","steam_id":76561198034876389,"connected_time":1215000000000,"state":"active","ping":55},{"user_id":167,"name":"TTV/ChadMorningWood","steam_id":76561198139832291,"connected_time":695000000000,"state":"active","ping":53},{"user_id":169,"name":"groovin â™«","steam_id":76561198968287353,"connected_time":613000000000,"state":"active","ping":36},{"user_id":174,"name":"Matisguy","steam_id":76561199020903681,"connected_time":400000000000,"state":"active","ping":85},{"user_id":156,"name":"ThatOneDude","steam_id":76561198269184641,"connected_time":1380000000000,"state":"active","ping":115},{"user_id":178,"name":"Tomoko2001","steam_id":76561198047117990,"connected_time":69000000000,"state":"active","ping":95},{"user_id":152,"name":"peter griffindor","steam_id":76561198007867721,"connected_time":1490000000000,"state":"active","ping":50},{"user_id":176,"name":"Boy_Blue","steam_id":76561198142150093,"connected_time":326000000000,"state":"active","ping":131},{"user_id":159,"name":"Vile Gunner","steam_id":76561198806668514,"connected_time":1011000000000,"state":"active","ping":102},{"user_id":172,"name":"Poochingus","steam_id":76561198092613341,"connected_time":506000000000,"state":"active","ping":81},{"user_id":164,"name":"racist","steam_id":76561198869535018,"connected_time":790000000000,"state":"active","ping":158},{"user_id":84,"name":"krootonitron","steam_id":76561198114113037,"connected_time":4953000000000,"state":"active","ping":55},{"user_id":118,"name":"corbenis","steam_id":76561199012442511,"connected_time":2870000000000,"state":"active","ping":51},{"user_id":149,"name":"Superman123389","steam_id":76561198267472539,"connected_time":1579000000000,"state":"active","ping":90},{"user_id":154,"name":"PageBoiSkull","steam_id":76561198237353578,"connected_time":1480000000000,"state":"active","ping":66},{"user_id":179,"name":"M4_Patriot","steam_id":76561198380134648,"connected_time":23000000000,"state":"spawning","ping":68},{"user_id":111,"name":"Tobibus300","steam_id":76561199379083988,"connected_time":3280000000000,"state":"active","ping":64},{"user_id":70,"name":"Hotdog Goblin","steam_id":76561198004133638,"connected_time":5868000000000,"state":"active","ping":58},{"user_id":148,"name":"i watched octo's gun spy video","steam_id":76561198308071306,"connected_time":1596000000000,"state":"active","ping":46},{"user_id":124,"name":"Ashes2Ashes","steam_id":76561198263004448,"connected_time":2433000000000,"state":"active","ping":45}]},{"server_id":112,"name":"Uncletopia | Los Angeles | 2 | All Maps","name_short":"lax-2","host":"lax-1.us.uncletopia.com","port":27025,"enabled":true,"region":"us-west","cc":"us","latitude":33.94279,"longitude":-118.41004,"reserved":0,"last_update":"0001-01-01T00:00:00Z","name_a2s":"Uncletopia | Los Angeles | 2 | All Maps","protocol":17,"map":"koth_cascade","folder":"tf","game":"Team Fortress","app_id":440,"player_count":0,"max_players":24,"Bots":0,"server_type":"Dedicated","server_os":"Linux","password":true,"vac":true,"version":"7757534","steam_id":85568392924469992,"keywords":["cp","nocrits","nodmgspread","uncletopia"],"game_id":440,"stv_port":27026,"stv_name":"Uncletopia | Los Angeles | 2 | All Maps | STV","players":null},{"server_id":324,"name":"Uncletopia | Los Angeles | 3 | All Maps","name_short":"lax-3","host":"lax-1.us.uncletopia.com","port":27035,"enabled":true,"region":"us-west","cc":"us","latitude":33.94279,"longitude":-118.41004,"reserved":0,"last_update":"0001-01-01T00:00:00Z","name_a2s":"Uncletopia | Los Angeles | 3 | All Maps","protocol":17,"map":"koth_viaduct","folder":"tf","game":"Team Fortress","app_id":440,"player_count":0,"max_players":24,"Bots":0,"server_type":"Dedicated","server_os":"Linux","password":true,"vac":true,"version":"7757534","steam_id":85568392924510198,"keywords":["cp","nocrits","nodmgspread","uncletopia"],"game_id":440,"stv_port":27036,"stv_name":"Uncletopia | Los Angeles | 3 | All Maps | STV","players":null},{"server_id":25,"name":"Uncletopia | Los Angeles | 4 | Stopwatch Beta","name_short":"lax-4","host":"lax-1.us.uncletopia.com","port":27045,"enabled":true,"region":"us-west","cc":"us","latitude":33.94279,"longitude":-118.41004,"reserved":0,"last_update":"0001-01-01T00:00:00Z","name_a2s":"Uncletopia | Los Angeles | 4 | Stopwatch Beta","protocol":17,"map":"pl_swiftwater_final1","folder":"tf","game":"Team Fortress","app_id":440,"player_count":0,"max_players":24,"Bots":0,"server_type":"Dedicated","server_os":"Linux","password":true,"vac":true,"version":"7757534","steam_id":85568392924510199,"keywords":["nocrits","nodmgspread","payload","uncletopia"],"game_id":440,"stv_port":27046,"stv_name":"Uncletopia | Los Angeles | 4 | Stopwatch Beta | STV","players":null},{"server_id":11,"name":"Uncletopia | London | 1 | All Maps","name_short":"lon-1","host":"lon-1.uk.uncletopia.com","port":27015,"enabled":true,"region":"eu","cc":"gb","latitude":51.509865,"longitude":-0.118092,"reserved":0,"last_update":"0001-01-01T00:00:00Z","name_a2s":"Uncletopia | London | 1 | All Maps","protocol":17,"map":"pl_frontier_final","folder":"tf","game":"Team Fortress","app_id":440,"player_count":24,"max_players":24,"Bots":0,"server_type":"Dedicated","server_os":"Linux","password":true,"vac":true,"version":"7757534","steam_id":85568392924367362,"keywords":["nocrits","nodmgspread","payload","uncletopia"],"game_id":440,"stv_port":27016,"stv_name":"Uncletopia | London | 1 | All Maps | STV","players":[{"user_id":622,"name":"Balls","steam_id":76561198086400484,"connected_time":7264000000000,"state":"active","ping":74},{"user_id":658,"name":"Advokat","steam_id":76561198307121174,"connected_time":4909000000000,"state":"active","ping":68},{"user_id":714,"name":"Debch1k","steam_id":76561198144985727,"connected_time":1600000000000,"state":"active","ping":83},{"user_id":710,"name":"beheading video from 2009","steam_id":76561198834897089,"connected_time":1641000000000,"state":"active","ping":70},{"user_id":713,"name":"AWildTamim","steam_id":76561198048060652,"connected_time":1609000000000,"state":"active","ping":37},{"user_id":661,"name":"fishska","steam_id":76561198051166015,"connected_time":4870000000000,"state":"active","ping":60},{"user_id":720,"name":"Wedgeridoo","steam_id":76561198082813907,"connected_time":437000000000,"state":"active","ping":120},{"user_id":663,"name":"SunnySideEggs","steam_id":76561198308377741,"connected_time":4855000000000,"state":"active","ping":157},{"user_id":679,"name":"â™¥ aura â™¥","steam_id":76561198066258544,"connected_time":4633000000000,"state":"active","ping":86},{"user_id":690,"name":"kojitori","steam_id":76561198838072150,"connected_time":3480000000000,"state":"active","ping":44},{"user_id":715,"name":"SODA!!!!!!!","steam_id":76561198107362485,"connected_time":1579000000000,"state":"active","ping":110},{"user_id":699,"name":"Tilty ðŸ‘¥","steam_id":76561198141834089,"connected_time":2860000000000,"state":"active","ping":53},{"user_id":643,"name":"BreadBubbles","steam_id":76561198174332826,"connected_time":6069000000000,"state":"active","ping":58},{"user_id":692,"name":"Coach","steam_id":76561198317087411,"connected_time":3220000000000,"state":"active","ping":118},{"user_id":721,"name":"Minimi","steam_id":76561198873850443,"connected_time":345000000000,"state":"active","ping":46},{"user_id":651,"name":"Dark ^^","steam_id":76561198036241064,"connected_time":5557000000000,"state":"active","ping":69},{"user_id":718,"name":"Yorm","steam_id":76561198078459249,"connected_time":729000000000,"state":"active","ping":147},{"user_id":701,"name":"CanSirMan","steam_id":76561198312570181,"connected_time":2502000000000,"state":"active","ping":72},{"user_id":685,"name":"Shwupas","steam_id":76561198045493529,"connected_time":4271000000000,"state":"active","ping":41},{"user_id":708,"name":"duchess abigail","steam_id":76561198166953966,"connected_time":1757000000000,"state":"active","ping":73},{"user_id":691,"name":"Yuzu","steam_id":76561198121694613,"connected_time":3401000000000,"state":"active","ping":45},{"user_id":704,"name":"ZingyBot_","steam_id":76561198284732624,"connected_time":2142000000000,"state":"active","ping":58},{"user_id":719,"name":"trite","steam_id":76561197983765323,"connected_time":548000000000,"state":"active","ping":53},{"user_id":702,"name":"ciliorkun18","steam_id":76561198228942500,"connected_time":2248000000000,"state":"active","ping":90}]},{"server_id":114,"name":"Uncletopia | London | 2 | All Maps","name_short":"lon-2","host":"lon-1.uk.uncletopia.com","port":27025,"enabled":true,"region":"eu","cc":"gb","latitude":51.509865,"longitude":-0.118092,"reserved":0,"last_update":"0001-01-01T00:00:00Z","name_a2s":"Uncletopia | London | 2 | All Maps","protocol":17,"map":"cp_altitude","folder":"tf","game":"Team Fortress","app_id":440,"player_count":23,"max_players":24,"Bots":0,"server_type":"Dedicated","server_os":"Linux","password":true,"vac":true,"version":"7757534","steam_id":85568392924470941,"keywords":["cp","nocrits","nodmgspread","uncletopia"],"game_id":440,"stv_port":27026,"stv_name":"Uncletopia | London | 2 | All Maps | STV","players":[{"user_id":443,"name":"ike","steam_id":76561198039845647,"connected_time":794000000000,"state":"active","ping":57},{"user_id":449,"name":"Val23","steam_id":76561198099480715,"connected_time":282000000000,"state":"active","ping":51},{"user_id":420,"name":"tuber","steam_id":76561198086644199,"connected_time":2651000000000,"state":"active","ping":46},{"user_id":453,"name":"Csama","steam_id":76561198255612826,"connected_time":233000000000,"state":"active","ping":90},{"user_id":438,"name":"Dezalt","steam_id":76561198154866092,"connected_time":958000000000,"state":"active","ping":77},{"user_id":347,"name":"finbar","steam_id":76561198056812396,"connected_time":8269000000000,"state":"active","ping":96},{"user_id":396,"name":"gibb (official)","steam_id":76561198074097655,"connected_time":4905000000000,"state":"active","ping":35},{"user_id":435,"name":"Brallerin","steam_id":76561198060026189,"connected_time":1302000000000,"state":"active","ping":53},{"user_id":426,"name":"GogsCrunchyNuts","steam_id":76561198150599213,"connected_time":2080000000000,"state":"active","ping":93},{"user_id":427,"name":"Fluke","steam_id":76561199006077551,"connected_time":2071000000000,"state":"active","ping":53},{"user_id":441,"name":"Relon Frolik","steam_id":76561198106492874,"connected_time":867000000000,"state":"active","ping":72},{"user_id":416,"name":"CuteButDeadInside(f2p)","steam_id":76561199170424238,"connected_time":3205000000000,"state":"active","ping":73},{"user_id":422,"name":"bowchika wowa #SlavaUkraine","steam_id":76561198159564550,"connected_time":2123000000000,"state":"active","ping":68},{"user_id":410,"name":"Fazarky","steam_id":76561199013370791,"connected_time":3521000000000,"state":"active","ping":55},{"user_id":436,"name":"Farmercy","steam_id":76561198000038039,"connected_time":1300000000000,"state":"active","ping":74},{"user_id":434,"name":"GipsySorcerer","steam_id":76561198170020311,"connected_time":1679000000000,"state":"active","ping":84},{"user_id":433,"name":"NinjaTuna","steam_id":76561198034569315,"connected_time":1822000000000,"state":"active","ping":48},{"user_id":444,"name":"Portal2Player","steam_id":76561198062870114,"connected_time":762000000000,"state":"active","ping":142},{"user_id":413,"name":"Halapatra","steam_id":76561199004923871,"connected_time":3359000000000,"state":"active","ping":103},{"user_id":451,"name":"Jahusi!*","steam_id":76561197992445165,"connected_time":264000000000,"state":"active","ping":67},{"user_id":448,"name":"3igen3ggy","steam_id":76561197989548015,"connected_time":674000000000,"state":"active","ping":74},{"user_id":447,"name":"JOHN GAMING (#transrights)","steam_id":76561199085822219,"connected_time":696000000000,"state":"active","ping":88},{"user_id":405,"name":"Sirzen","steam_id":76561198170155434,"connected_time":4130000000000,"state":"active","ping":47}]},{"server_id":320,"name":"Uncletopia | London | 3 | All Maps","name_short":"lon-3","host":"lon-1.uk.uncletopia.com","port":27035,"enabled":true,"region":"eu","cc":"gb","latitude":51.509865,"longitude":-0.118092,"reserved":0,"last_update":"0001-01-01T00:00:00Z","name_a2s":"Uncletopia | London | 3 | All Maps","protocol":17,"map":"cp_sunshine","folder":"tf","game":"Team Fortress","app_id":440,"player_count":24,"max_players":24,"Bots":0,"server_type":"Dedicated","server_os":"Linux","password":true,"vac":true,"version":"7757534","steam_id":85568392924510192,"keywords":["cp","nocrits","nodmgspread","uncletopia"],"game_id":440,"stv_port":27036,"stv_name":"Uncletopia | London | 3 | All Maps | STV","players":[{"user_id":186,"name":"a","steam_id":76561198390523242,"connected_time":4490000000000,"state":"active","ping":71},{"user_id":209,"name":"ruined","steam_id":76561198048741472,"connected_time":2765000000000,"state":"active","ping":47},{"user_id":149,"name":"Milosz52","steam_id":76561199060940204,"connected_time":6392000000000,"state":"active","ping":88},{"user_id":199,"name":"Mr. Mietsch","steam_id":76561198077516818,"connected_time":3641000000000,"state":"active","ping":60},{"user_id":224,"name":"Mannequin","steam_id":76561198128833974,"connected_time":1454000000000,"state":"active","ping":49},{"user_id":226,"name":"Lessoz","steam_id":76561199211572036,"connected_time":1427000000000,"state":"active","ping":84},{"user_id":223,"name":"ToxicÃ²","steam_id":76561199031920676,"connected_time":1462000000000,"state":"active","ping":86},{"user_id":222,"name":"MAKENTAKEN","steam_id":76561199127359587,"connected_time":1524000000000,"state":"active","ping":99},{"user_id":216,"name":"Fat Pigeon","steam_id":76561198817940142,"connected_time":2291000000000,"state":"active","ping":45},{"user_id":219,"name":"Fatty_McFatFat [NL]","steam_id":76561198073362707,"connected_time":1741000000000,"state":"active","ping":44},{"user_id":217,"name":"wouris","steam_id":76561198876188003,"connected_time":2176000000000,"state":"active","ping":63},{"user_id":220,"name":"Ned1ah","steam_id":76561199407385546,"connected_time":1741000000000,"state":"active","ping":58},{"user_id":211,"name":"X-tis","steam_id":76561198043837480,"connected_time":2640000000000,"state":"active","ping":72},{"user_id":230,"name":"8 Ball","steam_id":76561197960988736,"connected_time":720000000000,"state":"active","ping":46},{"user_id":218,"name":"Udinese Dion","steam_id":76561198067931573,"connected_time":1913000000000,"state":"active","ping":64},{"user_id":203,"name":"Puck :))","steam_id":76561198378295653,"connected_time":2944000000000,"state":"active","ping":48},{"user_id":190,"name":"CarBombEnthusiast","steam_id":76561199448185434,"connected_time":4451000000000,"state":"active","ping":71},{"user_id":174,"name":"dotdotdot","steam_id":76561198057628751,"connected_time":5097000000000,"state":"active","ping":63},{"user_id":191,"name":"Ed","steam_id":76561198135081318,"connected_time":4440000000000,"state":"active","ping":50},{"user_id":227,"name":"NotFionn","steam_id":76561198890525176,"connected_time":1414000000000,"state":"active","ping":80},{"user_id":155,"name":"disc0rd","steam_id":76561197985965776,"connected_time":6231000000000,"state":"active","ping":64},{"user_id":229,"name":"BenteBent","steam_id":76561198297920637,"connected_time":794000000000,"state":"active","ping":36},{"user_id":215,"name":"Egor Pomidor","steam_id":76561199175688390,"connected_time":2595000000000,"state":"active","ping":88},{"user_id":129,"name":"Yaire","steam_id":76561198017343510,"connected_time":8396000000000,"state":"active","ping":56}]},{"server_id":321,"name":"Uncletopia | London | 4 | All Maps","name_short":"lon-4","host":"lon-1.uk.uncletopia.com","port":27045,"enabled":true,"region":"eu","cc":"gb","latitude":51.509865,"longitude":-0.118092,"reserved":0,"last_update":"0001-01-01T00:00:00Z","name_a2s":"Uncletopia | London | 4 | All Maps","protocol":17,"map":"pl_upward","folder":"tf","game":"Team Fortress","app_id":440,"player_count":24,"max_players":24,"Bots":0,"server_type":"Dedicated","server_os":"Linux","password":true,"vac":true,"version":"7757534","steam_id":85568392924510193,"keywords":["nocrits","nodmgspread","payload","uncletopia"],"game_id":440,"stv_port":27046,"stv_name":"Uncletopia | London | 4 | All Maps | STV","players":[{"user_id":234,"name":"LiterallyRyanGosling","steam_id":76561199017856691,"connected_time":4847000000000,"state":"active","ping":53},{"user_id":278,"name":"La-Li-Lu-Le-Lo","steam_id":76561198047990600,"connected_time":1115000000000,"state":"active","ping":53},{"user_id":279,"name":"lol","steam_id":76561198104438656,"connected_time":916000000000,"state":"active","ping":77},{"user_id":225,"name":"Pixel","steam_id":76561198394855597,"connected_time":5650000000000,"state":"active","ping":108},{"user_id":259,"name":"SKFBoge","steam_id":76561198269038278,"connected_time":3168000000000,"state":"active","ping":79},{"user_id":268,"name":"Xtremeâ„¢","steam_id":76561198050144913,"connected_time":1991000000000,"state":"active","ping":78},{"user_id":263,"name":"generic alias","steam_id":76561198271607226,"connected_time":2434000000000,"state":"active","ping":104},{"user_id":285,"name":"he/him whimper","steam_id":76561198097175164,"connected_time":181000000000,"state":"active","ping":138},{"user_id":283,"name":"Someone_stole_my_fucking_toast","steam_id":76561198996788906,"connected_time":851000000000,"state":"active","ping":132},{"user_id":205,"name":"FoOzTV","steam_id":76561197998636728,"connected_time":6950000000000,"state":"active","ping":69},{"user_id":276,"name":"i am bread","steam_id":76561199180277321,"connected_time":1322000000000,"state":"active","ping":54},{"user_id":272,"name":"BigBoyBroccoli","steam_id":76561198029337108,"connected_time":1756000000000,"state":"active","ping":69},{"user_id":256,"name":"whyamialive","steam_id":76561199070008862,"connected_time":3521000000000,"state":"active","ping":41},{"user_id":264,"name":"Gordon","steam_id":76561198303652059,"connected_time":2433000000000,"state":"active","ping":72},{"user_id":269,"name":"Gryoss","steam_id":76561197999837111,"connected_time":1979000000000,"state":"active","ping":115},{"user_id":237,"name":"B@yka","steam_id":76561198986736592,"connected_time":4811000000000,"state":"active","ping":64},{"user_id":253,"name":"hupa","steam_id":76561198241901284,"connected_time":3626000000000,"state":"active","ping":60},{"user_id":284,"name":"Zenssei","steam_id":76561198209895623,"connected_time":418000000000,"state":"active","ping":102},{"user_id":275,"name":"I Don't Know","steam_id":76561198841011430,"connected_time":1536000000000,"state":"active","ping":83},{"user_id":281,"name":"Ziemniaczki z koperkiem","steam_id":76561198829123464,"connected_time":890000000000,"state":"active","ping":84},{"user_id":270,"name":"Circular","steam_id":76561198001536710,"connected_time":1973000000000,"state":"active","ping":46},{"user_id":208,"name":"Death","steam_id":76561198176896415,"connected_time":6932000000000,"state":"active","ping":90},{"user_id":282,"name":"hananamanna","steam_id":76561198006570285,"connected_time":888000000000,"state":"active","ping":120},{"user_id":267,"name":"Shynii","steam_id":76561198194682105,"connected_time":2338000000000,"state":"active","ping":59}]},{"server_id":21,"name":"Uncletopia | London | 5 | All Maps","name_short":"lon-5","host":"lon-1.uk.uncletopia.com","port":27055,"enabled":true,"region":"eu","cc":"gb","latitude":51.509865,"longitude":-0.118092,"reserved":0,"last_update":"0001-01-01T00:00:00Z","name_a2s":"Uncletopia | London | 5 | All Maps","protocol":17,"map":"pl_frontier_final","folder":"tf","game":"Team Fortress","app_id":440,"player_count":24,"max_players":24,"Bots":0,"server_type":"Dedicated","server_os":"Linux","password":true,"vac":true,"version":"7757534","steam_id":85568392924742829,"keywords":["nocrits","nodmgspread","payload","uncletopia"],"game_id":440,"stv_port":27056,"stv_name":"Uncletopia | London | 5 | All Maps | STV","players":[{"user_id":207,"name":"Nakamyzz","steam_id":76561199253667238,"connected_time":179000000000,"state":"active","ping":73},{"user_id":145,"name":"Economic crisis","steam_id":76561198063562843,"connected_time":4358000000000,"state":"active","ping":64},{"user_id":179,"name":"Ð½ÑƒÐ±Ð°Ñ","steam_id":76561198084958317,"connected_time":1711000000000,"state":"active","ping":90},{"user_id":205,"name":"Signor_UpB #SaveTF2","steam_id":76561199145637231,"connected_time":328000000000,"state":"active","ping":95},{"user_id":198,"name":"Platy","steam_id":76561198073442109,"connected_time":621000000000,"state":"active","ping":62},{"user_id":174,"name":"Doecheldorf","steam_id":76561198291628630,"connected_time":2327000000000,"state":"active","ping":65},{"user_id":124,"name":"Chad","steam_id":76561198037309490,"connected_time":4960000000000,"state":"active","ping":86},{"user_id":139,"name":"ufomaster1111111","steam_id":76561198837347666,"connected_time":4518000000000,"state":"active","ping":46},{"user_id":209,"name":"Flint","steam_id":76561197995920776,"connected_time":109000000000,"state":"active","ping":50},{"user_id":206,"name":"Hydnhof","steam_id":76561198120989805,"connected_time":271000000000,"state":"active","ping":73},{"user_id":144,"name":"sex havin'","steam_id":76561198169857427,"connected_time":4365000000000,"state":"active","ping":67},{"user_id":199,"name":"X45Y","steam_id":76561198112534025,"connected_time":612000000000,"state":"active","ping":54},{"user_id":189,"name":"God's Goofiest Goober","steam_id":76561198103175187,"connected_time":791000000000,"state":"active","ping":71},{"user_id":203,"name":"Charles Darwin","steam_id":76561197973496139,"connected_time":556000000000,"state":"active","ping":65},{"user_id":100,"name":"Danio211","steam_id":76561199228698878,"connected_time":6227000000000,"state":"active","ping":75},{"user_id":148,"name":"romaniamanele2004","steam_id":76561198125546299,"connected_time":4260000000000,"state":"active","ping":94},{"user_id":188,"name":"AsuX","steam_id":76561197990333289,"connected_time":837000000000,"state":"active","ping":60},{"user_id":208,"name":"Pancakes","steam_id":76561198196259989,"connected_time":174000000000,"state":"active","ping":46},{"user_id":126,"name":"gagalak","steam_id":76561198089979108,"connected_time":4946000000000,"state":"active","ping":104},{"user_id":156,"name":"I.C. Wiener","steam_id":76561197999912254,"connected_time":3837000000000,"state":"active","ping":94},{"user_id":196,"name":"Munibe","steam_id":76561198107967904,"connected_time":652000000000,"state":"active","ping":67},{"user_id":201,"name":"boar hammer","steam_id":76561198396168679,"connected_time":604000000000,"state":"active","ping":174},{"user_id":191,"name":"hellcase.com","steam_id":76561198089330547,"connected_time":787000000000,"state":"active","ping":59},{"user_id":202,"name":"Twink covered in slurry","steam_id":76561198156906497,"connected_time":604000000000,"state":"active","ping":57}]},{"server_id":22,"name":"Uncletopia | London | 6 | All Maps","name_short":"lon-6","host":"lon-1.uk.uncletopia.com","port":27065,"enabled":true,"region":"eu","cc":"gb","latitude":51.509865,"longitude":-0.118092,"reserved":0,"last_update":"0001-01-01T00:00:00Z","name_a2s":"Uncletopia | London | 6 | All Maps","protocol":17,"map":"pl_badwater","folder":"tf","game":"Team Fortress","app_id":440,"player_count":22,"max_players":24,"Bots":0,"server_type":"Dedicated","server_os":"Linux","password":true,"vac":true,"version":"7757534","steam_id":85568392924742830,"keywords":["nocrits","nodmgspread","payload","uncletopia"],"game_id":440,"stv_port":27066,"stv_name":"Uncletopia | London | 6 | All Maps | STV","players":[{"user_id":614,"name":"Dope","steam_id":76561198318858892,"connected_time":226000000000,"state":"active","ping":59},{"user_id":616,"name":"Dictatorial Karelian","steam_id":76561198196736457,"connected_time":209000000000,"state":"active","ping":85},{"user_id":544,"name":"Luuk","steam_id":76561198088266026,"connected_time":4684000000000,"state":"active","ping":45},{"user_id":617,"name":"Juiceydough","steam_id":76561197997323419,"connected_time":129000000000,"state":"active","ping":83},{"user_id":585,"name":"Carol Olston","steam_id":76561198080257273,"connected_time":1927000000000,"state":"active","ping":42},{"user_id":589,"name":"MaypulSoyrup","steam_id":76561199213966821,"connected_time":1844000000000,"state":"active","ping":66},{"user_id":609,"name":"McGraggyDaddy","steam_id":76561198050189828,"connected_time":1007000000000,"state":"active","ping":52},{"user_id":610,"name":"Uncle Moomin","steam_id":76561198011628656,"connected_time":908000000000,"state":"active","ping":81},{"user_id":590,"name":"EggsKenedict","steam_id":76561198078448656,"connected_time":1806000000000,"state":"active","ping":45},{"user_id":618,"name":"Jack","steam_id":76561198079575891,"connected_time":107000000000,"state":"active","ping":45},{"user_id":591,"name":"Hex:TheyRuinedRuin","steam_id":76561199013391865,"connected_time":1805000000000,"state":"active","ping":48},{"user_id":619,"name":"fÃ©nix","steam_id":76561198083199151,"connected_time":99000000000,"state":"active","ping":57},{"user_id":620,"name":"spake","steam_id":76561198109247682,"connected_time":84000000000,"state":"active","ping":51},{"user_id":601,"name":"Gray","steam_id":76561198449128916,"connected_time":1611000000000,"state":"active","ping":89},{"user_id":621,"name":"I jazzed myself","steam_id":76561198203016603,"connected_time":74000000000,"state":"active","ping":72},{"user_id":572,"name":"KillerQueen (he/they/she)","steam_id":76561199019399725,"connected_time":3325000000000,"state":"active","ping":48},{"user_id":607,"name":"Toofy","steam_id":76561197989727907,"connected_time":1074000000000,"state":"active","ping":30},{"user_id":605,"name":"tapeworms!","steam_id":76561198069649097,"connected_time":1271000000000,"state":"active","ping":48},{"user_id":622,"name":"Vermilion. -ãƒ¡ãƒ©ãƒˆãƒ‹ãƒ³-","steam_id":76561198050555372,"connected_time":54000000000,"state":"active","ping":56},{"user_id":598,"name":"owo","steam_id":76561198158209651,"connected_time":1680000000000,"state":"active","ping":53},{"user_id":560,"name":"Boki","steam_id":76561198044553351,"connected_time":4245000000000,"state":"active","ping":74},{"user_id":540,"name":"playing while wearing crocs.","steam_id":76561198139404261,"connected_time":4864000000000,"state":"active","ping":45}]},{"server_id":40,"name":"Uncletopia | London | 7 | No Payload","name_short":"lon-7","host":"lon-1.uk.uncletopia.com","port":27075,"enabled":true,"region":"eu","cc":"gb","latitude":51.509865,"longitude":-0.118092,"reserved":0,"last_update":"0001-01-01T00:00:00Z","name_a2s":"Uncletopia | London | 7 | No Payload","protocol":17,"map":"koth_lazarus","folder":"tf","game":"Team Fortress","app_id":440,"player_count":0,"max_players":24,"Bots":0,"server_type":"Dedicated","server_os":"Linux","password":true,"vac":true,"version":"7757534","steam_id":85568392924964314,"keywords":["cp","nocrits","nodmgspread","uncletopia"],"game_id":440,"stv_port":27076,"stv_name":"Uncletopia | London | 7 | No Payload | STV","players":null},{"server_id":41,"name":"Uncletopia | London | 8 | Community","name_short":"lon-8","host":"lon-1.uk.uncletopia.com","port":27085,"enabled":true,"region":"eu","cc":"gb","latitude":51.509865,"longitude":-0.118092,"reserved":0,"last_update":"0001-01-01T00:00:00Z","name_a2s":"Uncletopia | London | 8 | Community","protocol":17,"map":"pl_barnblitz","folder":"tf","game":"Team Fortress","app_id":440,"player_count":0,"max_players":24,"Bots":0,"server_type":"Dedicated","server_os":"Linux","password":true,"vac":true,"version":"7757534","steam_id":85568392924964315,"keywords":["nocrits","nodmgspread","payload","uncletopia"],"game_id":440,"stv_port":27086,"stv_name":"Uncletopia | London | 8 | Community | STV","players":null},{"server_id":300,"name":"Uncletopia | MontrÃ©al | 1 | All Maps","name_short":"mtl-1","host":"mtl-1.ca.uncletopia.com","port":27015,"enabled":true,"region":"us-east","cc":"ca","latitude":45.50889,"longitude":-73.56167,"reserved":0,"last_update":"0001-01-01T00:00:00Z","name_a2s":"Uncletopia | MontrÃ©al | 1 | All Maps","protocol":17,"map":"pl_barnblitz","folder":"tf","game":"Team Fortress","app_id":440,"player_count":0,"max_players":24,"Bots":0,"server_type":"Dedicated","server_os":"Linux","password":true,"vac":true,"version":"7757534","steam_id":85568392924500087,"keywords":["nocrits","nodmgspread","payload","uncletopia"],"game_id":440,"stv_port":27016,"stv_name":"Uncletopia | MontrÃ©al | 1 | All Maps | STV","players":null},{"server_id":301,"name":"Uncletopia | MontrÃ©al | 2 | All Maps","name_short":"mtl-2","host":"mtl-1.ca.uncletopia.com","port":27025,"enabled":true,"region":"us-east","cc":"ca","latitude":45.50889,"longitude":-73.56167,"reserved":0,"last_update":"0001-01-01T00:00:00Z","name_a2s":"Uncletopia | MontrÃ©al | 2 | All Maps","protocol":17,"map":"pl_snowycoast","folder":"tf","game":"Team Fortress","app_id":440,"player_count":0,"max_players":24,"Bots":0,"server_type":"Dedicated","server_os":"Linux","password":true,"vac":true,"version":"7757534","steam_id":85568392924500088,"keywords":["nocrits","nodmgspread","payload","uncletopia"],"game_id":440,"stv_port":27026,"stv_name":"Uncletopia | MontrÃ©al | 2 | All Maps | STV","players":null},{"server_id":302,"name":"Uncletopia | MontrÃ©al | 3 | All Maps","name_short":"mtl-3","host":"mtl-1.ca.uncletopia.com","port":27035,"enabled":true,"region":"us-east","cc":"ca","latitude":45.50889,"longitude":-73.56167,"reserved":0,"last_update":"0001-01-01T00:00:00Z","name_a2s":"Uncletopia | MontrÃ©al | 3 | All Maps","protocol":17,"map":"pl_upward","folder":"tf","game":"Team Fortress","app_id":440,"player_count":0,"max_players":24,"Bots":0,"server_type":"Dedicated","server_os":"Linux","password":true,"vac":true,"version":"7757534","steam_id":85568392924500089,"keywords":["nocrits","nodmgspread","payload","uncletopia"],"game_id":440,"stv_port":27036,"stv_name":"Uncletopia | MontrÃ©al | 3 | All Maps | STV","players":null},{"server_id":303,"name":"Uncletopia | MontrÃ©al | 4 | No Payload","name_short":"mtl-4","host":"mtl-1.ca.uncletopia.com","port":27045,"enabled":true,"region":"us-east","cc":"ca","latitude":45.50889,"longitude":-73.56167,"reserved":0,"last_update":"0001-01-01T00:00:00Z","name_a2s":"Uncletopia | MontrÃ©al | 4 | No Payload","protocol":17,"map":"pl_pier","folder":"tf","game":"Team Fortress","app_id":440,"player_count":0,"max_players":24,"Bots":0,"server_type":"Dedicated","server_os":"Linux","password":true,"vac":true,"version":"7757534","steam_id":85568392924500090,"keywords":["nocrits","nodmgspread","payload","uncletopia"],"game_id":440,"stv_port":27046,"stv_name":"Uncletopia | MontrÃ©al | 4 | No Payload | STV","players":null},{"server_id":13,"name":"Uncletopia | New York City | 1 | All Maps","name_short":"nyc-1","host":"nyc-1.us.uncletopia.com","port":27015,"enabled":true,"region":"us-east","cc":"us","latitude":40.73061,"longitude":-73.93524,"reserved":0,"last_update":"0001-01-01T00:00:00Z","name_a2s":"Uncletopia | New York City | 1 | All Maps","protocol":17,"map":"cp_dustbowl","folder":"tf","game":"Team Fortress","app_id":440,"player_count":24,"max_players":24,"Bots":0,"server_type":"Dedicated","server_os":"Linux","password":true,"vac":true,"version":"7757534","steam_id":85568392924469993,"keywords":["cp","nocrits","nodmgspread","uncletopia"],"game_id":440,"stv_port":27016,"stv_name":"Uncletopia | New York City | 1 | All Maps | STV","players":[{"user_id":296,"name":"10KO!","steam_id":76561199134895220,"connected_time":2610000000000,"state":"active","ping":55},{"user_id":291,"name":"Ozirion","steam_id":76561198108901767,"connected_time":2742000000000,"state":"active","ping":82},{"user_id":302,"name":"Wattle","steam_id":76561198036756626,"connected_time":2029000000000,"state":"active","ping":55},{"user_id":304,"name":"Fiendish Frog","steam_id":76561198029478821,"connected_time":1712000000000,"state":"active","ping":53},{"user_id":313,"name":"Triforce141","steam_id":76561198063896776,"connected_time":30000000000,"state":"active","ping":87},{"user_id":289,"name":"Drake the Pixel","steam_id":76561198131824401,"connected_time":2900000000000,"state":"active","ping":41},{"user_id":270,"name":"xX_Big Boss420_Xx","steam_id":76561198191167133,"connected_time":4257000000000,"state":"active","ping":61},{"user_id":290,"name":"roman","steam_id":76561198170066797,"connected_time":2848000000000,"state":"active","ping":57},{"user_id":285,"name":"footoftheday","steam_id":76561198052712449,"connected_time":3551000000000,"state":"active","ping":77},{"user_id":267,"name":"Scoobery Doobery","steam_id":76561198023634449,"connected_time":4453000000000,"state":"active","ping":68},{"user_id":307,"name":"VioletSpecs","steam_id":76561198089366466,"connected_time":1182000000000,"state":"active","ping":61},{"user_id":311,"name":"Lucille_Bluth","steam_id":76561198206133916,"connected_time":222000000000,"state":"active","ping":73},{"user_id":301,"name":"Raisin","steam_id":76561198116295334,"connected_time":2361000000000,"state":"active","ping":52},{"user_id":306,"name":"abed","steam_id":76561198072856511,"connected_time":1297000000000,"state":"active","ping":73},{"user_id":300,"name":"open na noor","steam_id":76561198851918683,"connected_time":2469000000000,"state":"active","ping":49},{"user_id":276,"name":"Pussy Slambasket","steam_id":76561198093694322,"connected_time":4040000000000,"state":"active","ping":68},{"user_id":282,"name":"SpaceGoldfish122","steam_id":76561198332334119,"connected_time":3660000000000,"state":"active","ping":155},{"user_id":314,"name":"Ð¨ð‘’ð‘’vil","steam_id":76561198081260791,"connected_time":25000000000,"state":"active","ping":145},{"user_id":286,"name":"YUMMY MED PICK","steam_id":76561199445629071,"connected_time":3510000000000,"state":"active","ping":50},{"user_id":249,"name":"CptHavvock","steam_id":76561199189740651,"connected_time":6471000000000,"state":"active","ping":162},{"user_id":305,"name":"Eraserhead Baby","steam_id":76561198010968514,"connected_time":1670000000000,"state":"active","ping":112},{"user_id":308,"name":"kametro4","steam_id":76561198835430429,"connected_time":1181000000000,"state":"active","ping":66},{"user_id":292,"name":"aspiceeone","steam_id":76561198335426817,"connected_time":2731000000000,"state":"active","ping":44},{"user_id":280,"name":"Dastardly","steam_id":76561198028351509,"connected_time":3885000000000,"state":"active","ping":155}]},{"server_id":14,"name":"Uncletopia | New York City | 2 | All Maps","name_short":"nyc-2","host":"nyc-1.us.uncletopia.com","port":27025,"enabled":true,"region":"us-east","cc":"us","latitude":40.73061,"longitude":-73.93524,"reserved":0,"last_update":"0001-01-01T00:00:00Z","name_a2s":"Uncletopia | New York City | 2 | All Maps","protocol":17,"map":"pl_pier","folder":"tf","game":"Team Fortress","app_id":440,"player_count":24,"max_players":24,"Bots":0,"server_type":"Dedicated","server_os":"Linux","password":true,"vac":true,"version":"7757534","steam_id":85568392924469994,"keywords":["nocrits","nodmgspread","payload","uncletopia"],"game_id":440,"stv_port":27026,"stv_name":"Uncletopia | New York City | 2 | All Maps | STV","players":[{"user_id":524,"name":"teaf","steam_id":76561198406252824,"connected_time":5427000000000,"state":"active","ping":120},{"user_id":581,"name":"Kraftlos","steam_id":76561198074350350,"connected_time":264000000000,"state":"active","ping":57},{"user_id":564,"name":"sentience","steam_id":76561198098781227,"connected_time":2360000000000,"state":"active","ping":96},{"user_id":527,"name":"creeeeeee","steam_id":76561198392539722,"connected_time":5022000000000,"state":"active","ping":79},{"user_id":578,"name":"sneakysquid (real)","steam_id":76561198800721329,"connected_time":494000000000,"state":"active","ping":102},{"user_id":583,"name":"papi Chulo","steam_id":76561198126274984,"connected_time":101000000000,"state":"active","ping":131},{"user_id":540,"name":"mylomalopi","steam_id":76561198354990729,"connected_time":4273000000000,"state":"active","ping":68},{"user_id":490,"name":"CrustyCapybara","steam_id":76561199450398030,"connected_time":7783000000000,"state":"active","ping":57},{"user_id":549,"name":"Sudden Pyro Event","steam_id":76561198085815757,"connected_time":3475000000000,"state":"active","ping":63},{"user_id":544,"name":"tsaide","steam_id":76561198384120999,"connected_time":4124000000000,"state":"active","ping":56},{"user_id":484,"name":"Pickle Chips","steam_id":76561198271951504,"connected_time":8192000000000,"state":"active","ping":45},{"user_id":576,"name":"Dispenser (Maple!)","steam_id":76561198993581426,"connected_time":741000000000,"state":"active","ping":60},{"user_id":582,"name":"slurp","steam_id":76561198323497535,"connected_time":204000000000,"state":"active","ping":63},{"user_id":545,"name":"mechiimi â˜…","steam_id":76561198321627268,"connected_time":4106000000000,"state":"active","ping":128},{"user_id":584,"name":"jorjor wells","steam_id":76561199073429082,"connected_time":58000000000,"state":"active","ping":55},{"user_id":565,"name":"boppetson","steam_id":76561198073529045,"connected_time":2351000000000,"state":"active","ping":53},{"user_id":569,"name":"Draco6257","steam_id":76561199147322448,"connected_time":1960000000000,"state":"active","ping":33},{"user_id":575,"name":"SomeFlamingo","steam_id":76561198869299841,"connected_time":1234000000000,"state":"active","ping":59},{"user_id":407,"name":"canid","steam_id":76561198103496593,"connected_time":12500000000000,"state":"active","ping":62},{"user_id":566,"name":"stinker","steam_id":76561198295640486,"connected_time":2320000000000,"state":"active","ping":107},{"user_id":550,"name":"mio","steam_id":76561198239286750,"connected_time":3429000000000,"state":"active","ping":58},{"user_id":571,"name":"TURTLEPOOL21","steam_id":76561198278212264,"connected_time":1727000000000,"state":"active","ping":61},{"user_id":572,"name":"Brown_Dream","steam_id":76561198975766145,"connected_time":1514000000000,"state":"active","ping":79},{"user_id":568,"name":"Icaras","steam_id":76561198416724843,"connected_time":2116000000000,"state":"active","ping":110}]},{"server_id":15,"name":"Uncletopia | New York City | 3 | Stopwatch Beta","name_short":"nyc-3","host":"nyc-1.us.uncletopia.com","port":27035,"enabled":true,"region":"us-east","cc":"us","latitude":40.73061,"longitude":-73.93524,"reserved":0,"last_update":"0001-01-01T00:00:00Z","name_a2s":"Uncletopia | New York City | 3 | Stopwatch Beta","protocol":17,"map":"workshop/pl_badwater_pro_v12.ugc2142942074","folder":"tf","game":"Team Fortress","app_id":440,"player_count":0,"max_players":24,"Bots":0,"server_type":"Dedicated","server_os":"Linux","password":true,"vac":true,"version":"7757534","steam_id":85568392924742820,"keywords":["nocrits","nodmgspread","payload","uncletopia"],"game_id":440,"stv_port":27036,"stv_name":"Uncletopia | New York City | 3 | Stopwatch Beta | STV","players":null},{"server_id":16,"name":"Uncletopia | New York City | 4 | Community","name_short":"nyc-4","host":"nyc-1.us.uncletopia.com","port":27045,"enabled":true,"region":"us-east","cc":"us","latitude":40.73061,"longitude":-73.93524,"reserved":0,"last_update":"0001-01-01T00:00:00Z","name_a2s":"Uncletopia | New York City | 4 | Community","protocol":17,"map":"workshop/cp_mannbase_rc2a.ugc1900737467","folder":"tf","game":"Team Fortress","app_id":440,"player_count":24,"max_players":24,"Bots":0,"server_type":"Dedicated","server_os":"Linux","password":true,"vac":true,"version":"7757534","steam_id":85568392924742821,"keywords":["cp","nocrits","nodmgspread","uncletopia"],"game_id":440,"stv_port":27046,"stv_name":"Uncletopia | New York City | 4 | Community | STV","players":[{"user_id":127,"name":"I ate those food","steam_id":76561198084614149,"connected_time":50000000000,"state":"active","ping":50},{"user_id":49,"name":"My dad owns Club Penguin.","steam_id":76561198032864436,"connected_time":5252000000000,"state":"active","ping":85},{"user_id":100,"name":"raccoon with internet access","steam_id":76561198062763756,"connected_time":1858000000000,"state":"active","ping":67},{"user_id":125,"name":"SnatchyGoblin69","steam_id":76561199276295259,"connected_time":180000000000,"state":"active","ping":90},{"user_id":126,"name":"Architect","steam_id":76561198015242016,"connected_time":155000000000,"state":"active","ping":58},{"user_id":95,"name":"Havok","steam_id":76561198063455003,"connected_time":2047000000000,"state":"active","ping":60},{"user_id":89,"name":"dudescore","steam_id":76561199091453555,"connected_time":2240000000000,"state":"active","ping":140},{"user_id":121,"name":"Corrin","steam_id":76561199480535845,"connected_time":547000000000,"state":"active","ping":45},{"user_id":124,"name":"girl piss","steam_id":76561199036496807,"connected_time":452000000000,"state":"active","ping":126},{"user_id":94,"name":"you forgot the sauce","steam_id":76561198387016713,"connected_time":2076000000000,"state":"active","ping":55},{"user_id":85,"name":"garfield(she/they)","steam_id":76561198098293459,"connected_time":2590000000000,"state":"active","ping":120},{"user_id":92,"name":"Aureum","steam_id":76561199001172403,"connected_time":2126000000000,"state":"active","ping":93},{"user_id":32,"name":"Le0901","steam_id":76561198372891244,"connected_time":5661000000000,"state":"active","ping":66},{"user_id":86,"name":"Swifgz","steam_id":76561198162875756,"connected_time":2589000000000,"state":"active","ping":43},{"user_id":119,"name":"Jimmy jam123","steam_id":76561199216003981,"connected_time":699000000000,"state":"active","ping":76},{"user_id":115,"name":"Mr. May","steam_id":76561198132112804,"connected_time":958000000000,"state":"active","ping":88},{"user_id":111,"name":"barbara","steam_id":76561198072417792,"connected_time":1120000000000,"state":"active","ping":134},{"user_id":122,"name":"Griffin","steam_id":76561198159339442,"connected_time":542000000000,"state":"active","ping":77},{"user_id":107,"name":"Clusterfart","steam_id":76561198150242043,"connected_time":1395000000000,"state":"active","ping":86},{"user_id":106,"name":"Barlon","steam_id":76561198023717515,"connected_time":1410000000000,"state":"active","ping":60},{"user_id":102,"name":"coom","steam_id":76561198078189844,"connected_time":1543000000000,"state":"active","ping":63},{"user_id":109,"name":"JawnyMac","steam_id":76561198179529599,"connected_time":1274000000000,"state":"active","ping":120},{"user_id":112,"name":"Huey","steam_id":76561198972816386,"connected_time":1119000000000,"state":"active","ping":88},{"user_id":123,"name":"Minion Bob","steam_id":76561198023938170,"connected_time":537000000000,"state":"active","ping":68}]},{"server_id":142,"name":"Uncletopia | SÃ£o Paulo | 1 | All Maps","name_short":"sao-1","host":"sao-1.br.uncletopia.com","port":27015,"enabled":true,"region":"sa","cc":"br","latitude":-23.533773,"longitude":-46.62529,"reserved":0,"last_update":"0001-01-01T00:00:00Z","name_a2s":"Uncletopia | SÃ£o Paulo | 1 | All Maps","protocol":17,"map":"pl_snowycoast","folder":"tf","game":"Team Fortress","app_id":440,"player_count":14,"max_players":24,"Bots":0,"server_type":"Dedicated","server_os":"Linux","password":true,"vac":true,"version":"7757534","steam_id":85568392924469996,"keywords":["nocrits","nodmgspread","payload","uncletopia"],"game_id":440,"stv_port":27016,"stv_name":"Uncletopia | SÃ£o Paulo | 1 | All Maps | STV","players":[{"user_id":25,"name":"BOT Prymityw","steam_id":76561198130140556,"connected_time":619000000000,"state":"active","ping":277},{"user_id":24,"name":"The Isle Evrima","steam_id":76561199113197722,"connected_time":725000000000,"state":"active","ping":189},{"user_id":18,"name":"The Demented Bunny known as Max","steam_id":76561199087107180,"connected_time":1047000000000,"state":"active","ping":256},{"user_id":26,"name":"Kunio15","steam_id":76561199471332529,"connected_time":567000000000,"state":"active","ping":281},{"user_id":17,"name":"Modular Wings","steam_id":76561199446623554,"connected_time":1399000000000,"state":"active","ping":63},{"user_id":19,"name":"ailuros","steam_id":76561198171349369,"connected_time":989000000000,"state":"active","ping":35},{"user_id":20,"name":"DufsterYT","steam_id":76561199122486848,"connected_time":918000000000,"state":"active","ping":181},{"user_id":21,"name":"Hate of War","steam_id":76561199178358956,"connected_time":906000000000,"state":"active","ping":241},{"user_id":22,"name":"Stoopid","steam_id":76561198126485401,"connected_time":864000000000,"state":"active","ping":45},{"user_id":27,"name":"HeadShotGamerBR","steam_id":76561198116856702,"connected_time":567000000000,"state":"active","ping":83},{"user_id":28,"name":"Pastel do PedrÃ£o","steam_id":76561199359501901,"connected_time":512000000000,"state":"active","ping":42},{"user_id":29,"name":"yfcc bfc","steam_id":76561199400474035,"connected_time":261000000000,"state":"active","ping":294},{"user_id":32,"name":"01","steam_id":76561199200993350,"connected_time":69000000000,"state":"active","ping":73},{"user_id":33,"name":"Evanbrs","steam_id":76561198041508327,"connected_time":2000000000,"state":"spawning","ping":54}]},{"server_id":143,"name":"Uncletopia | SÃ£o Paulo | 2 | All Maps","name_short":"sao-2","host":"sao-2.br.uncletopia.com","port":27015,"enabled":true,"region":"sa","cc":"br","latitude":-23.533773,"longitude":-46.62529,"reserved":0,"last_update":"0001-01-01T00:00:00Z","name_a2s":"Uncletopia | SÃ£o Paulo | 2 | All Maps","protocol":17,"map":"cp_process_final","folder":"tf","game":"Team Fortress","app_id":440,"player_count":1,"max_players":24,"Bots":0,"server_type":"Dedicated","server_os":"Linux","password":true,"vac":true,"version":"7757534","steam_id":85568392924485349,"keywords":["cp","nocrits","nodmgspread","uncletopia"],"game_id":440,"stv_port":27016,"stv_name":"Uncletopia | SÃ£o Paulo | 2 | All Maps | STV","players":[{"user_id":30,"name":"Edge prince (a F2P)","steam_id":76561199076658868,"connected_time":16000000000,"state":"active","ping":58}]},{"server_id":7,"name":"Uncletopia | Seattle | 1 | All Maps","name_short":"sea-1","host":"sea-1.us.uncletopia.com","port":27015,"enabled":true,"region":"us-west","cc":"us","latitude":47.608013,"longitude":-122.33517,"reserved":0,"last_update":"0001-01-01T00:00:00Z","name_a2s":"Uncletopia | Seattle | 1 | All Maps","protocol":17,"map":"pl_frontier_final","folder":"tf","game":"Team Fortress","app_id":440,"player_count":24,"max_players":24,"Bots":0,"server_type":"Dedicated","server_os":"Linux","password":true,"vac":true,"version":"7757534","steam_id":85568392924469997,"keywords":["nocrits","nodmgspread","payload","uncletopia"],"game_id":440,"stv_port":27016,"stv_name":"Uncletopia | Seattle | 1 | All Maps | STV","players":[{"user_id":228,"name":"Dongus","steam_id":76561197979056451,"connected_time":3771000000000,"state":"active","ping":45},{"user_id":251,"name":"John Johnson","steam_id":76561198347510093,"connected_time":1862000000000,"state":"active","ping":66},{"user_id":261,"name":"Gundo","steam_id":76561198093339825,"connected_time":1303000000000,"state":"active","ping":130},{"user_id":255,"name":"Theory-ZaZa","steam_id":76561198116419931,"connected_time":1456000000000,"state":"active","ping":56},{"user_id":250,"name":"BreadQuest","steam_id":76561198082425960,"connected_time":1999000000000,"state":"active","ping":45},{"user_id":256,"name":"Mornal","steam_id":76561198033346045,"connected_time":1455000000000,"state":"active","ping":127},{"user_id":221,"name":"Prison Food","steam_id":76561198160779356,"connected_time":4421000000000,"state":"active","ping":102},{"user_id":258,"name":"SibilantSerpent","steam_id":76561198154488754,"connected_time":1442000000000,"state":"active","ping":52},{"user_id":270,"name":"Google","steam_id":76561198857237473,"connected_time":501000000000,"state":"active","ping":51},{"user_id":222,"name":"Corpe","steam_id":76561198054490549,"connected_time":4222000000000,"state":"active","ping":52},{"user_id":269,"name":"dimpled","steam_id":76561197983120236,"connected_time":511000000000,"state":"active","ping":57},{"user_id":276,"name":"e","steam_id":76561199117761097,"connected_time":20000000000,"state":"active","ping":57},{"user_id":224,"name":"my monitor is off","steam_id":76561198074499537,"connected_time":3826000000000,"state":"active","ping":94},{"user_id":272,"name":"Luca","steam_id":76561198125087140,"connected_time":222000000000,"state":"active","ping":52},{"user_id":257,"name":"ThatGamingKiwi","steam_id":76561199170522237,"connected_time":1449000000000,"state":"active","ping":135},{"user_id":271,"name":"Menacing Pile of Frogs","steam_id":76561198360134800,"connected_time":499000000000,"state":"active","ping":125},{"user_id":260,"name":"sugnoD","steam_id":76561198068672882,"connected_time":1415000000000,"state":"active","ping":69},{"user_id":265,"name":"Joe ELO From Progressive","steam_id":76561198336597038,"connected_time":1086000000000,"state":"active","ping":75},{"user_id":240,"name":"mega","steam_id":76561198089520959,"connected_time":2729000000000,"state":"active","ping":100},{"user_id":245,"name":"JayBurb","steam_id":76561199119579978,"connected_time":2587000000000,"state":"active","ping":128},{"user_id":253,"name":"TheCowledWiz","steam_id":76561198016735868,"connected_time":1850000000000,"state":"active","ping":48},{"user_id":268,"name":"MerkZ","steam_id":76561198047620432,"connected_time":564000000000,"state":"active","ping":76},{"user_id":273,"name":"lox","steam_id":76561198288531493,"connected_time":183000000000,"state":"active","ping":57},{"user_id":275,"name":"Sniff","steam_id":76561198010270922,"connected_time":121000000000,"state":"active","ping":45}]},{"server_id":119,"name":"Uncletopia | Seattle | 2 | All Maps","name_short":"sea-2","host":"sea-1.us.uncletopia.com","port":27025,"enabled":true,"region":"us-west","cc":"us","latitude":47.608013,"longitude":-122.33517,"reserved":0,"last_update":"0001-01-01T00:00:00Z","name_a2s":"Uncletopia | Seattle | 2 | All Maps","protocol":17,"map":"pl_swiftwater_final1","folder":"tf","game":"Team Fortress","app_id":440,"player_count":24,"max_players":24,"Bots":0,"server_type":"Dedicated","server_os":"Linux","password":true,"vac":true,"version":"7757534","steam_id":85568392924469998,"keywords":["nocrits","nodmgspread","payload","uncletopia"],"game_id":440,"stv_port":27026,"stv_name":"Uncletopia | Seattle | 2 | All Maps | STV","players":[{"user_id":325,"name":"Tom","steam_id":76561198070630154,"connected_time":3602000000000,"state":"active","ping":81},{"user_id":369,"name":"mango cafe","steam_id":76561198142328193,"connected_time":1082000000000,"state":"active","ping":47},{"user_id":344,"name":"Vâˆ†lume The 1rd","steam_id":76561198133260990,"connected_time":2902000000000,"state":"active","ping":274},{"user_id":377,"name":"Mister Fister","steam_id":76561199059653595,"connected_time":4000000000,"state":"spawning","ping":30},{"user_id":355,"name":"Vagrant","steam_id":76561198242536886,"connected_time":1944000000000,"state":"active","ping":80},{"user_id":372,"name":"Algibruh","steam_id":76561199221599415,"connected_time":421000000000,"state":"active","ping":47},{"user_id":361,"name":"Omnoman","steam_id":76561198006258213,"connected_time":1302000000000,"state":"active","ping":137},{"user_id":354,"name":"Arkus","steam_id":76561199092478198,"connected_time":2306000000000,"state":"active","ping":50},{"user_id":331,"name":"Fire_box41238","steam_id":76561199185673650,"connected_time":3016000000000,"state":"active","ping":56},{"user_id":336,"name":"Clit Yeastwood","steam_id":76561199042672094,"connected_time":2973000000000,"state":"active","ping":65},{"user_id":362,"name":"The Lunch King","steam_id":76561198076737701,"connected_time":1253000000000,"state":"active","ping":84},{"user_id":373,"name":"Livin' Like Larry","steam_id":76561198313360974,"connected_time":420000000000,"state":"active","ping":60},{"user_id":376,"name":"gloobern","steam_id":76561198341190679,"connected_time":51000000000,"state":"active","ping":86},{"user_id":357,"name":"Dimple #TF2Center","steam_id":76561198980324190,"connected_time":1742000000000,"state":"active","ping":53},{"user_id":340,"name":"tconnors1976","steam_id":76561198840033336,"connected_time":2951000000000,"state":"active","ping":58},{"user_id":327,"name":"RING DONG DORINGOS","steam_id":76561198043558709,"connected_time":3232000000000,"state":"active","ping":45},{"user_id":364,"name":"Charlie","steam_id":76561199098209171,"connected_time":1215000000000,"state":"active","ping":129},{"user_id":305,"name":"A Shiny Meat Bicycle","steam_id":76561198358757709,"connected_time":5688000000000,"state":"active","ping":149},{"user_id":374,"name":"LightBulbGlue #SaveTF2","steam_id":76561198329573529,"connected_time":394000000000,"state":"active","ping":123},{"user_id":358,"name":"Deja Vu","steam_id":76561198062090620,"connected_time":1615000000000,"state":"active","ping":84},{"user_id":353,"name":"Horse","steam_id":76561199112075552,"connected_time":2544000000000,"state":"active","ping":124},{"user_id":375,"name":"Big Jon","steam_id":76561198402285099,"connected_time":379000000000,"state":"active","ping":79},{"user_id":370,"name":"GIRTHQUAKE, MAGNITUDE 11","steam_id":76561198023975674,"connected_time":979000000000,"state":"active","ping":79},{"user_id":359,"name":"â™¥Lyraâ™¥","steam_id":76561198092853824,"connected_time":1488000000000,"state":"active","ping":65}]},{"server_id":406,"name":"Uncletopia | Seattle | 3 | Stopwatch Beta","name_short":"sea-3","host":"sea-1.us.uncletopia.com","port":27035,"enabled":true,"region":"us-west","cc":"us","latitude":47.608013,"longitude":-122.33517,"reserved":0,"last_update":"0001-01-01T00:00:00Z","name_a2s":"Uncletopia | Seattle | 3 | Stopwatch Beta","protocol":17,"map":"cp_metalworks","folder":"tf","game":"Team Fortress","app_id":440,"player_count":0,"max_players":24,"Bots":0,"server_type":"Dedicated","server_os":"Linux","password":true,"vac":true,"version":"7757534","steam_id":85568392924515217,"keywords":["cp","nocrits","nodmgspread","uncletopia"],"game_id":440,"stv_port":27036,"stv_name":"Uncletopia | Seattle | 3 | Stopwatch Beta | STV","players":null},{"server_id":17,"name":"Uncletopia | San Francisco | 1 | All Maps","name_short":"sfo-1","host":"sfo-1.us.uncletopia.com","port":27015,"enabled":true,"region":"us-west","cc":"us","latitude":37.77397,"longitude":-122.4313,"reserved":0,"last_update":"0001-01-01T00:00:00Z","name_a2s":"Uncletopia | San Francisco | 1 | All Maps","protocol":17,"map":"koth_highpass","folder":"tf","game":"Team Fortress","app_id":440,"player_count":0,"max_players":24,"Bots":0,"server_type":"Dedicated","server_os":"Linux","password":true,"vac":true,"version":"7757534","steam_id":85568392924469999,"keywords":["cp","nocrits","nodmgspread","uncletopia"],"game_id":440,"stv_port":27016,"stv_name":"Uncletopia | San Francisco | 1 | All Maps | STV","players":null},{"server_id":18,"name":"Uncletopia | San Francisco | 2 | All Maps","name_short":"sfo-2","host":"sfo-1.us.uncletopia.com","port":27025,"enabled":true,"region":"us-west","cc":"us","latitude":37.77397,"longitude":-122.4313,"reserved":0,"last_update":"0001-01-01T00:00:00Z","name_a2s":"Uncletopia | San Francisco | 2 | All Maps","protocol":17,"map":"cp_altitude","folder":"tf","game":"Team Fortress","app_id":440,"player_count":24,"max_players":24,"Bots":0,"server_type":"Dedicated","server_os":"Linux","password":true,"vac":true,"version":"7757534","steam_id":85568392924470000,"keywords":["cp","nocrits","nodmgspread","uncletopia"],"game_id":440,"stv_port":27026,"stv_name":"Uncletopia | San Francisco | 2 | All Maps | STV","players":[{"user_id":48,"name":"Uncle Jaz","steam_id":76561198796795012,"connected_time":1226000000000,"state":"active","ping":59},{"user_id":61,"name":"peepee_luigi","steam_id":76561198355667121,"connected_time":314000000000,"state":"active","ping":75},{"user_id":55,"name":"Chickenwing","steam_id":76561199347103141,"connected_time":579000000000,"state":"active","ping":97},{"user_id":18,"name":"DjWars","steam_id":76561198170954486,"connected_time":2194000000000,"state":"active","ping":78},{"user_id":68,"name":"zoomer go zoom","steam_id":76561198414278560,"connected_time":129000000000,"state":"active","ping":94},{"user_id":56,"name":"Sleuth","steam_id":76561198418288939,"connected_time":578000000000,"state":"active","ping":58},{"user_id":58,"name":"I deepfried my penis","steam_id":76561198848858223,"connected_time":497000000000,"state":"active","ping":63},{"user_id":69,"name":"Just kill me 3","steam_id":76561198979600491,"connected_time":61000000000,"state":"active","ping":78},{"user_id":27,"name":"goaty_jones","steam_id":76561199185121010,"connected_time":1733000000000,"state":"active","ping":129},{"user_id":62,"name":"Wounded","steam_id":76561199440954924,"connected_time":307000000000,"state":"active","ping":96},{"user_id":63,"name":"carp","steam_id":76561198042865147,"connected_time":296000000000,"state":"active","ping":93},{"user_id":50,"name":"The Professor","steam_id":76561198046165617,"connected_time":1133000000000,"state":"active","ping":75},{"user_id":33,"name":"BlazeHX","steam_id":76561198827408017,"connected_time":1446000000000,"state":"active","ping":125},{"user_id":64,"name":"Larry","steam_id":76561198005056455,"connected_time":260000000000,"state":"active","ping":60},{"user_id":35,"name":"A pack of feral hogs","steam_id":76561198374279594,"connected_time":1389000000000,"state":"active","ping":61},{"user_id":65,"name":"phenom811","steam_id":76561199236145358,"connected_time":248000000000,"state":"active","ping":130},{"user_id":38,"name":"Just a Good Friend","steam_id":76561198140052403,"connected_time":1338000000000,"state":"active","ping":41},{"user_id":66,"name":"Bony","steam_id":76561199001748822,"connected_time":193000000000,"state":"active","ping":54},{"user_id":40,"name":"OrphanObliterator","steam_id":76561199185087795,"connected_time":1311000000000,"state":"active","ping":87},{"user_id":41,"name":"The Moon","steam_id":76561198082926682,"connected_time":1305000000000,"state":"active","ping":47},{"user_id":59,"name":"Soothsayer","steam_id":76561198051750641,"connected_time":439000000000,"state":"active","ping":65},{"user_id":54,"name":"J-Prism","steam_id":76561198118214399,"connected_time":795000000000,"state":"active","ping":69},{"user_id":67,"name":"Xenagos","steam_id":76561198045678290,"connected_time":156000000000,"state":"active","ping":110},{"user_id":70,"name":"pho","steam_id":76561199034472374,"connected_time":58000000000,"state":"active","ping":66}]},{"server_id":19,"name":"Uncletopia | San Francisco | 3 | Stopwatch Beta","name_short":"sfo-3","host":"sfo-1.us.uncletopia.com","port":27035,"enabled":true,"region":"us-west","cc":"us","latitude":37.77397,"longitude":-122.4313,"reserved":0,"last_update":"0001-01-01T00:00:00Z","name_a2s":"Uncletopia | San Francisco | 3 | Stopwatch Beta","protocol":17,"map":"koth_lakeside_final","folder":"tf","game":"Team Fortress","app_id":440,"player_count":0,"max_players":24,"Bots":0,"server_type":"Dedicated","server_os":"Linux","password":true,"vac":true,"version":"7757534","steam_id":85568392924742824,"keywords":["cp","nocrits","nodmgspread","uncletopia"],"game_id":440,"stv_port":27036,"stv_name":"Uncletopia | San Francisco | 3 | Stopwatch Beta | STV","players":null},{"server_id":20,"name":"Uncletopia | San Francisco | 4 | Community","name_short":"sfo-4","host":"sfo-1.us.uncletopia.com","port":27045,"enabled":true,"region":"us-west","cc":"us","latitude":37.77397,"longitude":-122.4313,"reserved":0,"last_update":"0001-01-01T00:00:00Z","name_a2s":"Uncletopia | San Francisco | 4 | Community","protocol":17,"map":"workshop/koth_bagel_rc6.ugc2514036946","folder":"tf","game":"Team Fortress","app_id":440,"player_count":0,"max_players":24,"Bots":0,"server_type":"Dedicated","server_os":"Linux","password":true,"vac":true,"version":"7757534","steam_id":85568392924742826,"keywords":["cp","nocrits","nodmgspread","uncletopia"],"game_id":440,"stv_port":27046,"stv_name":"Uncletopia | San Francisco | 4 | Community | STV","players":null},{"server_id":141,"name":"Uncletopia | Sydney | 1 | All Maps","name_short":"syd-1","host":"syd-1.au.uncletopia.com","port":27015,"enabled":true,"region":"au","cc":"au","latitude":-33.865143,"longitude":151.2099,"reserved":0,"last_update":"0001-01-01T00:00:00Z","name_a2s":"Uncletopia | Sydney | 1 | All Maps","protocol":17,"map":"koth_viaduct","folder":"tf","game":"Team Fortress","app_id":440,"player_count":0,"max_players":24,"Bots":0,"server_type":"Dedicated","server_os":"Linux","password":true,"vac":true,"version":"7757534","steam_id":85568392924470001,"keywords":["cp","nocrits","nodmgspread","uncletopia"],"game_id":440,"stv_port":27016,"stv_name":"Uncletopia | Sydney | 1 | All Maps | STV","players":null},{"server_id":123,"name":"Uncletopia | Sydney | 2 | All Maps","name_short":"syd-2","host":"syd-1.au.uncletopia.com","port":27025,"enabled":true,"region":"au","cc":"au","latitude":-33.865143,"longitude":151.2099,"reserved":0,"last_update":"0001-01-01T00:00:00Z","name_a2s":"Uncletopia | Sydney | 2 | All Maps","protocol":17,"map":"cp_process_final","folder":"tf","game":"Team Fortress","app_id":440,"player_count":0,"max_players":24,"Bots":0,"server_type":"Dedicated","server_os":"Linux","password":true,"vac":true,"version":"7757534","steam_id":85568392924470002,"keywords":["cp","nocrits","nodmgspread","uncletopia"],"game_id":440,"stv_port":27026,"stv_name":"Uncletopia | Sydney | 2 | All Maps | STV","players":null},{"server_id":395,"name":"Uncletopia | Sydney | 3 | All Maps","name_short":"syd-3","host":"syd-1.au.uncletopia.com","port":27035,"enabled":true,"region":"au","cc":"au","latitude":-33.865143,"longitude":151.2099,"reserved":0,"last_update":"0001-01-01T00:00:00Z","name_a2s":"Uncletopia | Sydney | 3 | All Maps","protocol":17,"map":"pl_swiftwater_final1","folder":"tf","game":"Team Fortress","app_id":440,"player_count":0,"max_players":24,"Bots":0,"server_type":"Dedicated","server_os":"Linux","password":true,"vac":true,"version":"7757534","steam_id":85568392925194467,"keywords":["nocrits","nodmgspread","payload","uncletopia"],"game_id":440,"stv_port":27036,"stv_name":"Uncletopia | Sydney | 3 | All Maps | STV","players":null},{"server_id":396,"name":"Uncletopia | Sydney | 4 | All Maps","name_short":"syd-4","host":"syd-1.au.uncletopia.com","port":27045,"enabled":true,"region":"au","cc":"au","latitude":-33.865143,"longitude":151.2099,"reserved":0,"last_update":"0001-01-01T00:00:00Z","name_a2s":"Uncletopia | Sydney | 4 | All Maps","protocol":17,"map":"koth_highpass","folder":"tf","game":"Team Fortress","app_id":440,"player_count":0,"max_players":24,"Bots":0,"server_type":"Dedicated","server_os":"Linux","password":true,"vac":true,"version":"7757534","steam_id":85568392925397958,"keywords":["cp","nocrits","nodmgspread","uncletopia"],"game_id":440,"stv_port":27046,"stv_name":"Uncletopia | Sydney | 4 | All Maps | STV","players":null},{"server_id":58,"name":"Uncletopia | Sydney | 5 | Stopwatch Beta","name_short":"syd-5","host":"syd-1.au.uncletopia.com","port":27055,"enabled":true,"region":"au","cc":"au","latitude":-33.865143,"longitude":151.2099,"reserved":0,"last_update":"0001-01-01T00:00:00Z","name_a2s":"Uncletopia | Sydney | 5 | Stopwatch Beta","protocol":17,"map":"koth_cascade","folder":"tf","game":"Team Fortress","app_id":440,"player_count":0,"max_players":24,"Bots":0,"server_type":"Dedicated","server_os":"Linux","password":true,"vac":true,"version":"7757534","steam_id":85568392925397959,"keywords":["cp","nocrits","nodmgspread","uncletopia"],"game_id":440,"stv_port":27056,"stv_name":"Uncletopia | Sydney | 5 | Stopwatch Beta | STV","players":null},{"server_id":59,"name":"Uncletopia | Sydney | 6 | Community","name_short":"syd-6","host":"syd-1.au.uncletopia.com","port":27065,"enabled":true,"region":"au","cc":"au","latitude":-33.865143,"longitude":151.2099,"reserved":0,"last_update":"0001-01-01T00:00:00Z","name_a2s":"Uncletopia | Sydney | 6 | Community","protocol":17,"map":"cp_snakewater_final1","folder":"tf","game":"Team Fortress","app_id":440,"player_count":0,"max_players":24,"Bots":0,"server_type":"Dedicated","server_os":"Linux","password":true,"vac":true,"version":"7757534","steam_id":85568392925397960,"keywords":["cp","nocrits","nodmgspread","uncletopia"],"game_id":440,"stv_port":27066,"stv_name":"Uncletopia | Sydney | 6 | Community | STV","players":null},{"server_id":49,"name":"Uncletopia | Warsaw | 1 | All Maps","name_short":"waw-1","host":"waw-1.pl.uncletopia.com","port":27015,"enabled":true,"region":"eu","cc":"pl","latitude":52.2297,"longitude":21.017532,"reserved":0,"last_update":"0001-01-01T00:00:00Z","name_a2s":"","protocol":0,"map":"","folder":"","game":"","app_id":0,"player_count":0,"max_players":0,"Bots":0,"server_type":"","server_os":"","password":false,"vac":false,"version":"","steam_id":0,"keywords":null,"game_id":0,"stv_port":0,"stv_name":"","players":null},{"server_id":50,"name":"Uncletopia | Warsaw | 2 | All Maps","name_short":"waw-2","host":"waw-1.pl.uncletopia.com","port":27025,"enabled":true,"region":"eu","cc":"pl","latitude":52.2297,"longitude":21.017532,"reserved":0,"last_update":"0001-01-01T00:00:00Z","name_a2s":"Uncletopia | Warsaw | 2 | All Maps","protocol":17,"map":"koth_viaduct","folder":"tf","game":"Team Fortress","app_id":440,"player_count":0,"max_players":24,"Bots":0,"server_type":"Dedicated","server_os":"Linux","password":true,"vac":true,"version":"7757534","steam_id":85568392925397851,"keywords":["cp","nocrits","nodmgspread","uncletopia"],"game_id":440,"stv_port":27026,"stv_name":"Uncletopia | Warsaw | 2 | All Maps | STV","players":null},{"server_id":51,"name":"Uncletopia | Warsaw | 3 | All Maps","name_short":"waw-3","host":"waw-1.pl.uncletopia.com","port":27035,"enabled":true,"region":"eu","cc":"pl","latitude":52.2297,"longitude":21.017532,"reserved":0,"last_update":"0001-01-01T00:00:00Z","name_a2s":"Uncletopia | Warsaw | 3 | All Maps","protocol":17,"map":"pl_barnblitz","folder":"tf","game":"Team Fortress","app_id":440,"player_count":0,"max_players":24,"Bots":0,"server_type":"Dedicated","server_os":"Linux","password":true,"vac":true,"version":"7757534","steam_id":85568392925397852,"keywords":["nocrits","nodmgspread","payload","uncletopia"],"game_id":440,"stv_port":27036,"stv_name":"Uncletopia | Warsaw | 3 | All Maps | STV","players":null},{"server_id":52,"name":"Uncletopia | Warsaw | 4 | All Maps","name_short":"waw-4","host":"waw-1.pl.uncletopia.com","port":27045,"enabled":true,"region":"eu","cc":"pl","latitude":52.2297,"longitude":21.017532,"reserved":0,"last_update":"0001-01-01T00:00:00Z","name_a2s":"Uncletopia | Warsaw | 4 | All Maps","protocol":17,"map":"koth_lakeside_final","folder":"tf","game":"Team Fortress","app_id":440,"player_count":0,"max_players":24,"Bots":0,"server_type":"Dedicated","server_os":"Linux","password":true,"vac":true,"version":"7757534","steam_id":85568392925397853,"keywords":["cp","nocrits","nodmgspread","uncletopia"],"game_id":440,"stv_port":27046,"stv_name":"Uncletopia | Warsaw | 4 | All Maps | STV","players":null},{"server_id":53,"name":"Uncletopia | Warsaw | 5 | Stopwatch Beta","name_short":"waw-5","host":"waw-1.pl.uncletopia.com","port":27055,"enabled":true,"region":"eu","cc":"pl","latitude":52.2297,"longitude":21.017532,"reserved":0,"last_update":"0001-01-01T00:00:00Z","name_a2s":"Uncletopia | Warsaw | 5 | Stopwatch Beta","protocol":17,"map":"pl_borneo","folder":"tf","game":"Team Fortress","app_id":440,"player_count":0,"max_players":24,"Bots":0,"server_type":"Dedicated","server_os":"Linux","password":true,"vac":true,"version":"7757534","steam_id":85568392925397854,"keywords":["nocrits","nodmgspread","payload","uncletopia"],"game_id":440,"stv_port":27056,"stv_name":"Uncletopia | Warsaw | 5 | Stopwatch Beta | STV","players":null},{"server_id":54,"name":"Uncletopia | Warsaw | 6 | Community","name_short":"waw-6","host":"waw-1.pl.uncletopia.com","port":27065,"enabled":true,"region":"eu","cc":"pl","latitude":52.2297,"longitude":21.017532,"reserved":0,"last_update":"0001-01-01T00:00:00Z","name_a2s":"Uncletopia | Warsaw | 6 | Community","protocol":17,"map":"koth_lakeside_final","folder":"tf","game":"Team Fortress","app_id":440,"player_count":0,"max_players":24,"Bots":0,"server_type":"Dedicated","server_os":"Linux","password":true,"vac":true,"version":"7757534","steam_id":85568392925397856,"keywords":["cp","nocrits","nodmgspread","uncletopia"],"game_id":440,"stv_port":27066,"stv_name":"Uncletopia | Warsaw | 6 | Community | STV","players":null}]}