{"status":true,"message":"","result":[{"server_id":9,"name":"Uncletopia | Atlanta | 1 | All Maps","name_short":"atl-1","host":"atl-1.us.uncletopia.com","port":27015,"enabled":true,"region":"us-east","cc":"us","latitude":33.753746,"longitude":-84.38633,"reserved":0,"last_update":"0001-01-01T00:00:00Z","name_a2s":"Uncletopia | Atlanta | 1 | All Maps","protocol":17,"map":"pl_badwater","folder":"tf","game":"Team Fortress","app_id":440,"player_count":24,"max_players":24,"Bots":0,"server_type":"Dedicated","server_os":"Linux","password":true,"vac":true,"version":"7961495","steam_id":85568392924469982,"keywords":["nocrits","nodmgspread","payload","uncletopia"],"game_id":440,"stv_port":27016,"stv_name":"Uncletopia | Atlanta | 1 | All Maps | STV","players":[{"user_id":257,"name":"stevizzy","steam_id":76561198025653612,"connected_time":1302000000000,"state":"active","ping":71},{"user_id":245,"name":"Chris Duo","steam_id":76561198312765677,"connected_time":2233000000000,"state":"active","ping":64},{"user_id":234,"name":"dantheman","steam_id":76561199486390813,"connected_time":3321000000000,"state":"active","ping":73},{"user_id":272,"name":"ATL1 | cola","steam_id":76561198374390458,"connected_time":28000000000,"state":"active","ping":61},{"user_id":269,"name":"1998 Volvo S70 T5","steam_id":76561198258615044,"connected_time":282000000000,"state":"active","ping":87},{"user_id":250,"name":"-=Bits=-Dinkleberg","steam_id":76561198080367616,"connected_time":1721000000000,"state":"active","ping":59},{"user_id":264,"name":"Boneless Blithen","steam_id":76561197989955619,"connected_time":946000000000,"state":"active","ping":129},{"user_id":270,"name":"com lag","steam_id":76561198019019392,"connected_time":260000000000,"state":"active","ping":56},{"user_id":258,"name":"--_Cook_--","steam_id":76561198080855748,"connected_time":1290000000000,"state":"active","ping":63},{"user_id":160,"name":"The Undead Knight","steam_id":76561198010654500,"connected_time":8808000000000,"state":"active","ping":71},{"user_id":253,"name":"lil hog","steam_id":76561199230929836,"connected_time":1445000000000,"state":"active","ping":85},{"user_id":252,"name":"thunderous prophet","steam_id":76561198131166135,"connected_time":1558000000000,"state":"active","ping":105},{"user_id":229,"name":"Oxygen User","steam_id":76561199111975528,"connected_time":3769000000000,"state":"active","ping":76},{"user_id":248,"name":"Kuri","steam_id":76561199037050183,"connected_time":1953000000000,"state":"active","ping":89},{"user_id":262,"name":"☂","steam_id":76561198001263590,"connected_time":1105000000000,"state":"active","ping":66},{"user_id":265,"name":"Heathcliff","steam_id":76561198044288534,"connected_time":907000000000,"state":"active","ping":74},{"user_id":271,"name":"Sinta","steam_id":76561198098398841,"connected_time":257000000000,"state":"active","ping":49},{"user_id":243,"name":"eish","steam_id":76561198089463603,"connected_time":2559000000000,"state":"active","ping":116},{"user_id":266,"name":"Thotimus Begonimus","steam_id":76561197970275938,"connected_time":861000000000,"state":"active","ping":49},{"user_id":242,"name":"Obelisk","steam_id":76561198049416866,"connected_time":3006000000000,"state":"active","ping":56},{"user_id":260,"name":"YOU WHAT?!","steam_id":76561198418679471,"connected_time":1280000000000,"state":"active","ping":45},{"user_id":268,"name":"vinny6","steam_id":76561198386735728,"connected_time":821000000000,"state":"active","ping":70},{"user_id":219,"name":"Snitzman","steam_id":76561198068303272,"connected_time":4350000000000,"state":"active","ping":105},{"user_id":222,"name":"Punchy","steam_id":76561198200000641,"connected_time":4279000000000,"state":"active","ping":66}]},{"server_id":104,"name":"Uncletopia | Atlanta | 2 | All Maps","name_short":"atl-2","host":"atl-1.us.uncletopia.com","port":27025,"enabled":true,"region":"us-east","cc":"us","latitude":33.753746,"longitude":-84.38633,"reserved":0,"last_update":"0001-01-01T00:00:00Z","name_a2s":"Uncletopia | Atlanta | 2 | All Maps","protocol":17,"map":"koth_highpass","folder":"tf","game":"Team Fortress","app_id":440,"player_count":24,"max_players":24,"Bots":0,"server_type":"Dedicated","server_os":"Linux","password":true,"vac":true,"version":"7961495","steam_id":85568392924469983,"keywords":["cp","nocrits","nodmgspread","uncletopia"],"game_id":440,"stv_port":27026,"stv_name":"Uncletopia | Atlanta | 2 | All Maps | STV","players":[{"user_id":271,"name":"_copkilla.B1G$L1M€.zaddY_","steam_id":76561198283687382,"connected_time":463000000000,"state":"active","ping":102},{"user_id":269,"name":"Vonx Crane","steam_id":76561198205069715,"connected_time":493000000000,"state":"active","ping":87},{"user_id":281,"name":"QuesaDiaz","steam_id":76561198355667850,"connected_time":64000000000,"state":"active","ping":96},{"user_id":263,"name":"farfalle","steam_id":76561198882758067,"connected_time":1587000000000,"state":"active","ping":76},{"user_id":118,"name":"A Cat","steam_id":76561198221549132,"connected_time":10595000000000,"state":"active","ping":128},{"user_id":280,"name":"dog","steam_id":76561198263873491,"connected_time":173000000000,"state":"active","ping":55},{"user_id":248,"name":"Lemonty","steam_id":76561198163812778,"connected_time":2067000000000,"state":"active","ping":70},{"user_id":278,"name":"Button","steam_id":76561199209694624,"connected_time":298000000000,"state":"active","ping":53},{"user_id":272,"name":"CopperBox","steam_id":76561198068217248,"connected_time":460000000000,"state":"active","ping":88},{"user_id":239,"name":"Scoundrel","steam_id":76561198056672372,"connected_time":3055000000000,"state":"active","ping":77},{"user_id":252,"name":"AMistake","steam_id":76561199379196708,"connected_time":1880000000000,"state":"active","ping":52},{"user_id":222,"name":"Rex","steam_id":76561198138365053,"connected_time":4541000000000,"state":"active","ping":114},{"user_id":186,"name":"confield","steam_id":76561198004322265,"connected_time":7257000000000,"state":"active","ping":51},{"user_id":273,"name":"Fall","steam_id":76561198186385485,"connected_time":451000000000,"state":"active","ping":56},{"user_id":265,"name":"slater","steam_id":76561198269478319,"connected_time":1272000000000,"state":"active","ping":60},{"user_id":274,"name":"lil' Wayne","steam_id":76561198050136796,"connected_time":437000000000,"state":"active","ping":96},{"user_id":254,"name":"bigrob2005","steam_id":76561198843724181,"connected_time":1876000000000,"state":"active","ping":90},{"user_id":275,"name":"Sud","steam_id":76561199102300588,"connected_time":419000000000,"state":"active","ping":90},{"user_id":125,"name":"The All-Seeing Tim","steam_id":76561198075510786,"connected_time":10402000000000,"state":"active","ping":87},{"user_id":276,"name":"Ashe is Kiriko main","steam_id":76561198245775974,"connected_time":419000000000,"state":"active","ping":133},{"user_id":257,"name":"keysandrew","steam_id":76561198077178683,"connected_time":1857000000000,"state":"active","ping":68},{"user_id":270,"name":"ThreatLvl 9 (she/her)","steam_id":76561198079410533,"connected_time":492000000000,"state":"active","ping":75},{"user_id":277,"name":"Captain Bug","steam_id":76561198137763878,"connected_time":414000000000,"state":"active","ping":73},{"user_id":230,"name":"EduGhost","steam_id":76561198294986893,"connected_time":3818000000000,"state":"active","ping":121}]},{"server_id":400,"name":"Uncletopia | Atlanta | 3 | Stopwatch","name_short":"atl-3","host":"atl-1.us.uncletopia.com","port":27035,"enabled":true,"region":"us-east","cc":"us","latitude":33.753746,"longitude":-84.38633,"reserved":0,"last_update":"0001-01-01T00:00:00Z","name_a2s":"Uncletopia | Atlanta | 3 | Stopwatch","protocol":17,"map":"workshop/pl_barnblitz_pro7.ugc582280235","folder":"tf","game":"Team Fortress","app_id":440,"player_count":0,"max_players":24,"Bots":0,"server_type":"Dedicated","server_os":"Linux","password":true,"vac":true,"version":"7961495","steam_id":85568392924515187,"keywords":["nocrits","nodmgspread","payload","uncletopia"],"game_id":440,"stv_port":27036,"stv_name":"Uncletopia | Atlanta | 3 | Stopwatch | STV","players":null},{"server_id":401,"name":"Uncletopia | Atlanta | 4 | Community","name_short":"atl-4","host":"atl-1.us.uncletopia.com","port":27045,"enabled":true,"region":"us-east","cc":"us","latitude":33.753746,"longitude":-84.38633,"reserved":0,"last_update":"0001-01-01T00:00:00Z","name_a2s":"Uncletopia | Atlanta | 4 | Community","protocol":17,"map":"workshop/pl_cashworks_final1.ugc2904065412","folder":"tf","game":"Team Fortress","app_id":440,"player_count":0,"max_players":24,"Bots":0,"server_type":"Dedicated","server_os":"Linux","password":true,"vac":true,"version":"7961495","steam_id":85568392924515188,"keywords":["nocrits","nodmgspread","payload","uncletopia"],"game_id":440,"stv_port":27046,"stv_name":"Uncletopia | Atlanta | 4 | Community | STV","players":null},{"server_id":2,"name":"Uncletopia | Chicago | 1 | All Maps","name_short":"chi-1","host":"chi-1.us.uncletopia.com","port":27015,"enabled":true,"region":"us-central","cc":"us","latitude":41.881832,"longitude":-87.62318,"reserved":0,"last_update":"0001-01-01T00:00:00Z","name_a2s":"Uncletopia | Chicago | 1 | All Maps","protocol":17,"map":"pl_badwater","folder":"tf","game":"Team Fortress","app_id":440,"player_count":24,"max_players":24,"Bots":0,"server_type":"Dedicated","server_os":"Linux","password":true,"vac":true,"version":"7961495","steam_id":85568392924469984,"keywords":["nocrits","nodmgspread","payload","uncletopia"],"game_id":440,"stv_port":27016,"stv_name":"Uncletopia | Chicago | 1 | All Maps | STV","players":[{"user_id":260,"name":"SPF420","steam_id":76561198083991705,"connected_time":1371000000000,"state":"active","ping":62},{"user_id":180,"name":"loser","steam_id":76561198259380127,"connected_time":8400000000000,"state":"active","ping":50},{"user_id":276,"name":"Legit_Jaxer","steam_id":76561198172234053,"connected_time":3000000000,"state":"spawning","ping":116},{"user_id":272,"name":"Siz","steam_id":76561198072962154,"connected_time":346000000000,"state":"active","ping":56},{"user_id":253,"name":"Crunchy","steam_id":76561198060342804,"connected_time":1899000000000,"state":"active","ping":71},{"user_id":256,"name":"Rambly Dambly","steam_id":76561198844496567,"connected_time":1669000000000,"state":"active","ping":54},{"user_id":235,"name":"evil tiger","steam_id":76561198152818418,"connected_time":2228000000000,"state":"active","ping":84},{"user_id":218,"name":"Hexadecatrack","steam_id":76561198044480181,"connected_time":4072000000000,"state":"active","ping":47},{"user_id":250,"name":"Chris P. Bacon","steam_id":76561198994704160,"connected_time":1991000000000,"state":"active","ping":68},{"user_id":274,"name":"Dokkibai","steam_id":76561198355935693,"connected_time":327000000000,"state":"active","ping":47},{"user_id":270,"name":"UwU","steam_id":76561198971629959,"connected_time":693000000000,"state":"active","ping":146},{"user_id":271,"name":"Mug Moment Gaming","steam_id":76561198233098136,"connected_time":574000000000,"state":"active","ping":53},{"user_id":246,"name":"MaineGameBoy","steam_id":76561198278698726,"connected_time":2119000000000,"state":"active","ping":86},{"user_id":245,"name":"Schwartzy","steam_id":76561198098576795,"connected_time":2151000000000,"state":"active","ping":64},{"user_id":263,"name":"Cranjis McBasketball","steam_id":76561198811130843,"connected_time":939000000000,"state":"active","ping":80},{"user_id":226,"name":"Mr. Tickle","steam_id":76561198126684647,"connected_time":2984000000000,"state":"active","ping":59},{"user_id":259,"name":"Dude Named Bob","steam_id":76561198310448093,"connected_time":1381000000000,"state":"active","ping":46},{"user_id":247,"name":"PhantomFangs","steam_id":76561199436742648,"connected_time":2096000000000,"state":"active","ping":79},{"user_id":257,"name":"Tom","steam_id":76561198070630154,"connected_time":1651000000000,"state":"active","ping":91},{"user_id":275,"name":"Digit","steam_id":76561198156589157,"connected_time":12000000000,"state":"spawning","ping":67},{"user_id":266,"name":"ashsillygoober","steam_id":76561199454622997,"connected_time":881000000000,"state":"active","ping":79},{"user_id":267,"name":"Lapis","steam_id":76561198042677899,"connected_time":881000000000,"state":"active","ping":55},{"user_id":229,"name":"Lia_Rein","steam_id":76561198151569597,"connected_time":2578000000000,"state":"active","ping":146},{"user_id":269,"name":"[MOM] Preening Champion","steam_id":76561198055855534,"connected_time":876000000000,"state":"active","ping":70}]},{"server_id":106,"name":"Uncletopia | Chicago | 2 | All Maps","name_short":"chi-2","host":"chi-1.us.uncletopia.com","port":27025,"enabled":true,"region":"us-central","cc":"us","latitude":41.881832,"longitude":-87.62318,"reserved":0,"last_update":"0001-01-01T00:00:00Z","name_a2s":"Uncletopia | Chicago | 2 | All Maps","protocol":17,"map":"pl_badwater","folder":"tf","game":"Team Fortress","app_id":440,"player_count":0,"max_players":24,"Bots":0,"server_type":"Dedicated","server_os":"Linux","password":true,"vac":true,"version":"7961495","steam_id":85568392924469985,"keywords":["nocrits","nodmgspread","payload","uncletopia"],"game_id":440,"stv_port":27026,"stv_name":"Uncletopia | Chicago | 2 | All Maps | STV","players":null},{"server_id":402,"name":"Uncletopia | Chicago | 3 | All Maps","name_short":"chi-3","host":"chi-1.us.uncletopia.com","port":27035,"enabled":true,"region":"us-central","cc":"us","latitude":41.881832,"longitude":-87.62318,"reserved":0,"last_update":"0001-01-01T00:00:00Z","name_a2s":"Uncletopia | Chicago | 3 | All Maps","protocol":17,"map":"pl_borneo","folder":"tf","game":"Team Fortress","app_id":440,"player_count":6,"max_players":24,"Bots":0,"server_type":"Dedicated","server_os":"Linux","password":true,"vac":true,"version":"7961495","steam_id":85568392924515191,"keywords":["nocrits","nodmgspread","payload","uncletopia"],"game_id":440,"stv_port":27036,"stv_name":"Uncletopia | Chicago | 3 | All Maps | STV","players":[{"user_id":8,"name":"BugsAreMyWorstEnemy","steam_id":76561199440395505,"connected_time":752000000000,"state":"active","ping":58},{"user_id":11,"name":"Tideflat","steam_id":76561198179850851,"connected_time":251000000000,"state":"active","ping":90},{"user_id":12,"name":"Toast","steam_id":76561198401995265,"connected_time":171000000000,"state":"active","ping":47},{"user_id":13,"name":"3ggsalad3","steam_id":76561199386969191,"connected_time":147000000000,"state":"active","ping":45},{"user_id":14,"name":"Pile of Spinach","steam_id":76561198043068841,"connected_time":101000000000,"state":"active","ping":45},{"user_id":15,"name":"Tlord","steam_id":76561198086967416,"connected_time":23000000000,"state":"spawning","ping":50}]},{"server_id":403,"name":"Uncletopia | Chicago | 4 | All Maps","name_short":"chi-4","host":"chi-1.us.uncletopia.com","port":27045,"enabled":true,"region":"us-central","cc":"us","latitude":41.881832,"longitude":-87.62318,"reserved":0,"last_update":"0001-01-01T00:00:00Z","name_a2s":"Uncletopia | Chicago | 4 | All Maps","protocol":17,"map":"koth_viaduct","folder":"tf","game":"Team Fortress","app_id":440,"player_count":24,"max_players":24,"Bots":0,"server_type":"Dedicated","server_os":"Linux","password":true,"vac":true,"version":"7961495","steam_id":85568392924515193,"keywords":["cp","nocrits","nodmgspread","uncletopia"],"game_id":440,"stv_port":27046,"stv_name":"Uncletopia | Chicago | 4 | All Maps | STV","players":[{"user_id":114,"name":"In Your Walls","steam_id":76561198798158647,"connected_time":7482000000000,"state":"active","ping":64},{"user_id":187,"name":"Blargh","steam_id":76561198044095816,"connected_time":3484000000000,"state":"active","ping":59},{"user_id":208,"name":"deimos","steam_id":76561198148357768,"connected_time":1134000000000,"state":"active","ping":74},{"user_id":207,"name":"SpecialForce19","steam_id":76561198120974644,"connected_time":1170000000000,"state":"active","ping":74},{"user_id":216,"name":"fresco","steam_id":76561199101199477,"connected_time":757000000000,"state":"active","ping":65},{"user_id":204,"name":"BoblinTheGoblin","steam_id":76561199002981323,"connected_time":1874000000000,"state":"active","ping":71},{"user_id":188,"name":"Totouri","steam_id":76561198004229789,"connected_time":3349000000000,"state":"active","ping":60},{"user_id":205,"name":"GlingGlop95","steam_id":76561198386865528,"connected_time":1771000000000,"state":"active","ping":89},{"user_id":206,"name":"Fatpoob","steam_id":76561198056730096,"connected_time":1381000000000,"state":"active","ping":53},{"user_id":210,"name":"callum","steam_id":76561198070918366,"connected_time":1064000000000,"state":"active","ping":61},{"user_id":176,"name":"bagel cream cheese","steam_id":76561198017954785,"connected_time":4060000000000,"state":"active","ping":73},{"user_id":143,"name":"Plunderphonic","steam_id":76561198062565784,"connected_time":5870000000000,"state":"active","ping":64},{"user_id":211,"name":"LynnLantern","steam_id":76561198116326726,"connected_time":1039000000000,"state":"active","ping":54},{"user_id":127,"name":"DeadErebus","steam_id":76561198286117045,"connected_time":7022000000000,"state":"active","ping":37},{"user_id":218,"name":"Disco Fever","steam_id":76561198069532215,"connected_time":393000000000,"state":"active","ping":73},{"user_id":219,"name":"paimon","steam_id":76561197962607364,"connected_time":387000000000,"state":"active","ping":74},{"user_id":213,"name":"HollyBlocky","steam_id":76561198030156100,"connected_time":997000000000,"state":"active","ping":69},{"user_id":217,"name":"inshallah","steam_id":76561198165212575,"connected_time":456000000000,"state":"active","ping":83},{"user_id":177,"name":"Grababy","steam_id":76561198137914000,"connected_time":4038000000000,"state":"active","ping":74},{"user_id":199,"name":"Luucyf3r","steam_id":76561198141820085,"connected_time":2586000000000,"state":"active","ping":85},{"user_id":167,"name":"Fudgely","steam_id":76561198039425862,"connected_time":4633000000000,"state":"active","ping":76},{"user_id":200,"name":"START PRAYIN BOY","steam_id":76561198089173996,"connected_time":2583000000000,"state":"active","ping":85},{"user_id":203,"name":"Fightin Cow","steam_id":76561198080941486,"connected_time":2310000000000,"state":"active","ping":80},{"user_id":220,"name":"TacoMan4Life","steam_id":76561198832562728,"connected_time":197000000000,"state":"active","ping":114}]},{"server_id":36,"name":"Uncletopia | Chicago | 5 | All Maps","name_short":"chi-5","host":"chi-2.us.uncletopia.com","port":27015,"enabled":true,"region":"us-central","cc":"us","latitude":41.881832,"longitude":-87.62318,"reserved":0,"last_update":"0001-01-01T00:00:00Z","name_a2s":"Uncletopia | Chicago | 5 | All Maps","protocol":17,"map":"koth_viaduct","folder":"tf","game":"Team Fortress","app_id":440,"player_count":0,"max_players":24,"Bots":0,"server_type":"Dedicated","server_os":"Linux","password":true,"vac":true,"version":"7961495","steam_id":85568392924866362,"keywords":["cp","nocrits","nodmgspread","uncletopia"],"game_id":440,"stv_port":27016,"stv_name":"Uncletopia | Chicago | 5 | All Maps | STV","players":null},{"server_id":37,"name":"Uncletopia | Chicago | 6 | All Maps","name_short":"chi-6","host":"chi-2.us.uncletopia.com","port":27025,"enabled":true,"region":"us-central","cc":"us","latitude":41.881832,"longitude":-87.62318,"reserved":0,"last_update":"0001-01-01T00:00:00Z","name_a2s":"Uncletopia | Chicago | 6 | All Maps","protocol":17,"map":"cp_mountainlab","folder":"tf","game":"Team Fortress","app_id":440,"player_count":0,"max_players":24,"Bots":0,"server_type":"Dedicated","server_os":"Linux","password":true,"vac":true,"version":"7961495","steam_id":85568392924866363,"keywords":["cp","nocrits","nodmgspread","uncletopia"],"game_id":440,"stv_port":27026,"stv_name":"Uncletopia | Chicago | 6 | All Maps | STV","players":null},{"server_id":38,"name":"Uncletopia | Chicago | 7 | Stopwatch","name_short":"chi-7","host":"chi-2.us.uncletopia.com","port":27035,"enabled":true,"region":"us-central","cc":"us","latitude":41.881832,"longitude":-87.62318,"reserved":0,"last_update":"0001-01-01T00:00:00Z","name_a2s":"Uncletopia | Chicago | 7 | Stopwatch","protocol":17,"map":"pl_badwater","folder":"tf","game":"Team Fortress","app_id":440,"player_count":0,"max_players":24,"Bots":0,"server_type":"Dedicated","server_os":"Linux","password":true,"vac":true,"version":"7961495","steam_id":85568392924866364,"keywords":["nocrits","nodmgspread","payload","uncletopia"],"game_id":440,"stv_port":27036,"stv_name":"Uncletopia | Chicago | 7 | Stopwatch | STV","players":null},{"server_id":39,"name":"Uncletopia | Chicago | 8 | Community","name_short":"chi-8","host":"chi-2.us.uncletopia.com","port":27045,"enabled":true,"region":"us-central","cc":"us","latitude":41.881832,"longitude":-87.62318,"reserved":0,"last_update":"0001-01-01T00:00:00Z","name_a2s":"Uncletopia | Chicago | 8 | Community","protocol":17,"map":"pl_pier","folder":"tf","game":"Team Fortress","app_id":440,"player_count":0,"max_players":24,"Bots":0,"server_type":"Dedicated","server_os":"Linux","password":true,"vac":true,"version":"7961495","steam_id":85568392924866365,"keywords":["nocrits","nodmgspread","payload","uncletopia"],"game_id":440,"stv_port":27046,"stv_name":"Uncletopia | Chicago | 8 | Community | STV","players":null},{"server_id":8,"name":"Uncletopia | Dallas | 1 | All Maps","name_short":"dal-1","host":"dal-1.us.uncletopia.com","port":27015,"enabled":true,"region":"us-central","cc":"us","latitude":32.779167,"longitude":-96.80889,"reserved":0,"last_update":"0001-01-01T00:00:00Z","name_a2s":"Uncletopia | Dallas | 1 | All Maps","protocol":17,"map":"pl_badwater","folder":"tf","game":"Team Fortress","app_id":440,"player_count":24,"max_players":24,"Bots":0,"server_type":"Dedicated","server_os":"Linux","password":true,"vac":true,"version":"7961495","steam_id":85568392924469986,"keywords":["nocrits","nodmgspread","payload","uncletopia"],"game_id":440,"stv_port":27016,"stv_name":"Uncletopia | Dallas | 1 | All Maps | STV","players":[{"user_id":134,"name":"the12xu","steam_id":76561198197086561,"connected_time":2542000000000,"state":"active","ping":95},{"user_id":83,"name":"Kraftlos","steam_id":76561198074350350,"connected_time":6434000000000,"state":"active","ping":98},{"user_id":151,"name":"Nuniya :3","steam_id":76561198334596188,"connected_time":589000000000,"state":"active","ping":89},{"user_id":131,"name":"hamletespacial","steam_id":76561199084414649,"connected_time":2689000000000,"state":"active","ping":51},{"user_id":153,"name":"JayRawgTV","steam_id":76561198044402840,"connected_time":174000000000,"state":"active","ping":47},{"user_id":152,"name":"GLG.Liz","steam_id":76561198021957956,"connected_time":407000000000,"state":"active","ping":51},{"user_id":125,"name":"who is gavin?","steam_id":76561198069415057,"connected_time":3541000000000,"state":"active","ping":76},{"user_id":16,"name":"mkl","steam_id":76561197986401685,"connected_time":11683000000000,"state":"active","ping":56},{"user_id":145,"name":"Avem","steam_id":76561198058763710,"connected_time":1033000000000,"state":"active","ping":76},{"user_id":148,"name":"Kiwi","steam_id":76561198162162816,"connected_time":630000000000,"state":"active","ping":232},{"user_id":135,"name":"ena - d","steam_id":76561198072329335,"connected_time":2540000000000,"state":"active","ping":136},{"user_id":73,"name":"corviraptor!!!!!!","steam_id":76561198058284392,"connected_time":8051000000000,"state":"active","ping":57},{"user_id":127,"name":"Lemonade Juice","steam_id":76561198402892608,"connected_time":3042000000000,"state":"active","ping":74},{"user_id":70,"name":"Moonflower ✦","steam_id":76561198191782483,"connected_time":8392000000000,"state":"active","ping":56},{"user_id":143,"name":"Equinox","steam_id":76561198274279754,"connected_time":1665000000000,"state":"active","ping":112},{"user_id":81,"name":"Dragus","steam_id":76561198032967285,"connected_time":6505000000000,"state":"active","ping":76},{"user_id":137,"name":"the keebler","steam_id":76561199486326945,"connected_time":2510000000000,"state":"active","ping":76},{"user_id":140,"name":"Caught a Thundah","steam_id":76561198054495572,"connected_time":2035000000000,"state":"active","ping":54},{"user_id":154,"name":"pim","steam_id":76561198095163441,"connected_time":146000000000,"state":"active","ping":48},{"user_id":142,"name":"Junk","steam_id":76561198024382753,"connected_time":1751000000000,"state":"active","ping":66},{"user_id":149,"name":"FunkyTortoise","steam_id":76561198199327225,"connected_time":608000000000,"state":"active","ping":84},{"user_id":128,"name":"VOLCON","steam_id":76561198116023052,"connected_time":3037000000000,"state":"active","ping":62},{"user_id":132,"name":"PIPPIN","steam_id":76561199013202758,"connected_time":2667000000000,"state":"active","ping":76},{"user_id":150,"name":"(TPT) Ghost","steam_id":76561198123262873,"connected_time":608000000000,"state":"active","ping":98}]},{"server_id":108,"name":"Uncletopia | Dallas | 2 | All Maps","name_short":"dal-2","host":"dal-1.us.uncletopia.com","port":27025,"enabled":true,"region":"us-central","cc":"us","latitude":32.779167,"longitude":-96.80889,"reserved":0,"last_update":"0001-01-01T00:00:00Z","name_a2s":"Uncletopia | Dallas | 2 | All Maps","protocol":17,"map":"cp_powerhouse","folder":"tf","game":"Team Fortress","app_id":440,"player_count":24,"max_players":24,"Bots":0,"server_type":"Dedicated","server_os":"Linux","password":true,"vac":true,"version":"7961495","steam_id":85568392924469988,"keywords":["cp","nocrits","nodmgspread","uncletopia"],"game_id":440,"stv_port":27026,"stv_name":"Uncletopia | Dallas | 2 | All Maps | STV","players":[{"user_id":220,"name":"Punk Bitch","steam_id":76561198111259720,"connected_time":1600000000000,"state":"active","ping":81},{"user_id":140,"name":"Username","steam_id":76561198198918781,"connected_time":8006000000000,"state":"active","ping":125},{"user_id":221,"name":"JAKandBEL","steam_id":76561198213060931,"connected_time":1578000000000,"state":"active","ping":82},{"user_id":178,"name":"Engineer Gaming","steam_id":76561198146456461,"connected_time":5207000000000,"state":"active","ping":109},{"user_id":216,"name":"chabotnick","steam_id":76561198010729008,"connected_time":2188000000000,"state":"active","ping":73},{"user_id":187,"name":"Mint Jelly","steam_id":76561197991286751,"connected_time":4567000000000,"state":"active","ping":63},{"user_id":233,"name":"The Irish Ghost","steam_id":76561199021970654,"connected_time":371000000000,"state":"active","ping":77},{"user_id":217,"name":"Cocksneed Fartin","steam_id":76561198126675787,"connected_time":2039000000000,"state":"active","ping":55},{"user_id":227,"name":"HappySmiles1010","steam_id":76561199202300463,"connected_time":1116000000000,"state":"active","ping":92},{"user_id":232,"name":"tydogzilla","steam_id":76561198054254518,"connected_time":395000000000,"state":"active","ping":79},{"user_id":120,"name":"Jerk Tryhard (roleplay)","steam_id":76561199470538309,"connected_time":9273000000000,"state":"active","ping":82},{"user_id":125,"name":"Mellou","steam_id":76561198212048740,"connected_time":8436000000000,"state":"active","ping":44},{"user_id":224,"name":"Andrew's Taint","steam_id":76561198131400543,"connected_time":1531000000000,"state":"active","ping":71},{"user_id":225,"name":"Rock Kickass","steam_id":76561198450510841,"connected_time":1517000000000,"state":"active","ping":93},{"user_id":215,"name":"CHAI","steam_id":76561198119556082,"connected_time":2233000000000,"state":"active","ping":82},{"user_id":219,"name":"Kazo","steam_id":76561198061355255,"connected_time":1622000000000,"state":"active","ping":105},{"user_id":218,"name":"Corv1d","steam_id":76561198809386579,"connected_time":1787000000000,"state":"active","ping":77},{"user_id":193,"name":"Spinch","steam_id":76561198296224166,"connected_time":3547000000000,"state":"active","ping":82},{"user_id":200,"name":"Buttons :)","steam_id":76561198139478534,"connected_time":3197000000000,"state":"active","ping":131},{"user_id":159,"name":"Beau","steam_id":76561198162587622,"connected_time":6441000000000,"state":"active","ping":97},{"user_id":228,"name":"twizted","steam_id":76561197960407274,"connected_time":1057000000000,"state":"active","ping":98},{"user_id":230,"name":"NFL.com","steam_id":76561198113405376,"connected_time":559000000000,"state":"active","ping":86},{"user_id":201,"name":"men kisser","steam_id":76561199026721822,"connected_time":3180000000000,"state":"active","ping":89},{"user_id":202,"name":"IronCosmo","steam_id":76561198156171221,"connected_time":3146000000000,"state":"active","ping":62}]},{"server_id":404,"name":"Uncletopia | Dallas | 3 | All Maps","name_short":"dal-3","host":"dal-1.us.uncletopia.com","port":27035,"enabled":true,"region":"us-central","cc":"us","latitude":32.779167,"longitude":-96.80889,"reserved":0,"last_update":"0001-01-01T00:00:00Z","name_a2s":"Uncletopia | Dallas | 3 | All Maps","protocol":17,"map":"koth_lakeside_final","folder":"tf","game":"Team Fortress","app_id":440,"player_count":0,"max_players":24,"Bots":0,"server_type":"Dedicated","server_os":"Linux","password":true,"vac":true,"version":"7961495","steam_id":85568392924515219,"keywords":["cp","nocrits","nodmgspread","uncletopia"],"game_id":440,"stv_port":27036,"stv_name":"Uncletopia | Dallas | 3 | All Maps | STV","players":null},{"server_id":405,"name":"Uncletopia | Dallas | 4 | Community","name_short":"dal-4","host":"dal-1.us.uncletopia.com","port":27045,"enabled":true,"region":"us-central","cc":"us","latitude":32.779167,"longitude":-96.80889,"reserved":0,"last_update":"0001-01-01T00:00:00Z","name_a2s":"Uncletopia | Dallas | 4 | Community","protocol":17,"map":"pl_pier","folder":"tf","game":"Team Fortress","app_id":440,"player_count":0,"max_players":24,"Bots":0,"server_type":"Dedicated","server_os":"Linux","password":true,"vac":true,"version":"7961495","steam_id":85568392924515220,"keywords":["nocrits","nodmgspread","payload","uncletopia"],"game_id":440,"stv_port":27046,"stv_name":"Uncletopia | Dallas | 4 | Community | STV","players":null},{"server_id":5,"name":"Uncletopia | Frankfurt | 1 | All Maps","name_short":"frk-1","host":"frk-1.de.uncletopia.com","port":27015,"enabled":true,"region":"eu","cc":"de","latitude":50.110924,"longitude":8.682127,"reserved":0,"last_update":"0001-01-01T00:00:00Z","name_a2s":"Uncletopia | Frankfurt | 1 | All Maps","protocol":17,"map":"pl_upward","folder":"tf","game":"Team Fortress","app_id":440,"player_count":24,"max_players":24,"Bots":0,"server_type":"Dedicated","server_os":"Linux","password":true,"vac":true,"version":"7961495","steam_id":85568392924469989,"keywords":["nocrits","nodmgspread","payload","uncletopia"],"game_id":440,"stv_port":27016,"stv_name":"Uncletopia | Frankfurt | 1 | All Maps | STV","players":[{"user_id":724,"name":"heavy sings (real)","steam_id":76561199023804405,"connected_time":1024000000000,"state":"active","ping":72},{"user_id":725,"name":"xiiski","steam_id":76561198152387747,"connected_time":995000000000,"state":"active","ping":89},{"user_id":726,"name":"AsianPersuasion","steam_id":76561198202112536,"connected_time":987000000000,"state":"active","ping":70},{"user_id":717,"name":"Spinya","steam_id":76561198086653667,"connected_time":1501000000000,"state":"active","ping":68},{"user_id":718,"name":"donatofina","steam_id":76561198353497885,"connected_time":1496000000000,"state":"active","ping":87},{"user_id":734,"name":"Ozzie","steam_id":76561197992915315,"connected_time":404000000000,"state":"active","ping":75},{"user_id":710,"name":"Accuser of the Brethren","steam_id":76561198132922827,"connected_time":2222000000000,"state":"active","ping":45},{"user_id":722,"name":"UCC bock","steam_id":76561198971554341,"connected_time":1041000000000,"state":"active","ping":56},{"user_id":720,"name":"Dantezx","steam_id":76561198324487498,"connected_time":1174000000000,"state":"active","ping":83},{"user_id":738,"name":"micro","steam_id":76561199186605424,"connected_time":344000000000,"state":"active","ping":153},{"user_id":702,"name":"Jiant","steam_id":76561198374998274,"connected_time":2620000000000,"state":"active","ping":89},{"user_id":716,"name":"cheriberry","steam_id":76561198093577036,"connected_time":1566000000000,"state":"active","ping":59},{"user_id":711,"name":"MEOWRON","steam_id":76561198423803012,"connected_time":2199000000000,"state":"active","ping":63},{"user_id":736,"name":"Hanni","steam_id":76561198374117962,"connected_time":399000000000,"state":"active","ping":65},{"user_id":715,"name":"Carl","steam_id":76561198045638738,"connected_time":1964000000000,"state":"active","ping":69},{"user_id":723,"name":"Real (Real)","steam_id":76561198323425034,"connected_time":1037000000000,"state":"active","ping":70},{"user_id":728,"name":"STiNGHAN","steam_id":76561198023989090,"connected_time":973000000000,"state":"active","ping":65},{"user_id":598,"name":"soney","steam_id":76561198121177512,"connected_time":11425000000000,"state":"active","ping":69},{"user_id":712,"name":"silak","steam_id":76561198150001174,"connected_time":2184000000000,"state":"active","ping":67},{"user_id":729,"name":"Un4given","steam_id":76561198147078303,"connected_time":902000000000,"state":"active","ping":76},{"user_id":730,"name":"gus","steam_id":76561198209316492,"connected_time":893000000000,"state":"active","ping":167},{"user_id":719,"name":"Nimson","steam_id":76561199113209358,"connected_time":1256000000000,"state":"active","ping":89},{"user_id":731,"name":"smell my pussy","steam_id":76561198077421906,"connected_time":881000000000,"state":"active","ping":51},{"user_id":739,"name":"clozz","steam_id":76561198135315083,"connected_time":285000000000,"state":"active","ping":85}]},{"server_id":110,"name":"Uncletopia | Frankfurt | 2 | All Maps","name_short":"frk-2","host":"frk-1.de.uncletopia.com","port":27025,"enabled":true,"region":"eu","cc":"de","latitude":50.110924,"longitude":8.682127,"reserved":0,"last_update":"0001-01-01T00:00:00Z","name_a2s":"Uncletopia | Frankfurt | 2 | All Maps","protocol":17,"map":"pl_borneo","folder":"tf","game":"Team Fortress","app_id":440,"player_count":24,"max_players":24,"Bots":0,"server_type":"Dedicated","server_os":"Linux","password":true,"vac":true,"version":"7961495","steam_id":85568392924469990,"keywords":["nocrits","nodmgspread","payload","uncletopia"],"game_id":440,"stv_port":27026,"stv_name":"Uncletopia | Frankfurt | 2 | All Maps | STV","players":[{"user_id":388,"name":"sniper's kangaroo wife","steam_id":76561198334042273,"connected_time":1196000000000,"state":"active","ping":70},{"user_id":376,"name":"highest noon","steam_id":76561199103959197,"connected_time":2082000000000,"state":"active","ping":85},{"user_id":394,"name":"mhib","steam_id":76561198048037379,"connected_time":525000000000,"state":"active","ping":70},{"user_id":380,"name":"boob","steam_id":76561199149307190,"connected_time":1523000000000,"state":"active","ping":74},{"user_id":381,"name":"EpicMario","steam_id":76561199126779645,"connected_time":1505000000000,"state":"active","ping":69},{"user_id":402,"name":"Alcobra","steam_id":76561198134154962,"connected_time":31000000000,"state":"active","ping":105},{"user_id":373,"name":"Krabs","steam_id":76561198161679477,"connected_time":2273000000000,"state":"active","ping":59},{"user_id":393,"name":"install gentoo","steam_id":76561198185257982,"connected_time":909000000000,"state":"active","ping":82},{"user_id":366,"name":"ash","steam_id":76561198004728744,"connected_time":2427000000000,"state":"active","ping":45},{"user_id":396,"name":"mugshot","steam_id":76561198363841749,"connected_time":435000000000,"state":"active","ping":69},{"user_id":384,"name":"twpsyn","steam_id":76561198057121917,"connected_time":1409000000000,"state":"active","ping":86},{"user_id":374,"name":"waluigi","steam_id":76561198215809251,"connected_time":2260000000000,"state":"active","ping":56},{"user_id":390,"name":"Purpl3 Scout","steam_id":76561198083663337,"connected_time":1052000000000,"state":"active","ping":72},{"user_id":364,"name":"Knösta","steam_id":76561198143422139,"connected_time":2595000000000,"state":"active","ping":108},{"user_id":385,"name":"Vi100 Dol7","steam_id":76561198118137461,"connected_time":1388000000000,"state":"active","ping":82},{"user_id":375,"name":"WrathNSpeed","steam_id":76561198390944504,"connected_time":2217000000000,"state":"active","ping":96},{"user_id":346,"name":"Leviticus Cornwall","steam_id":76561197993702685,"connected_time":3931000000000,"state":"active","ping":88},{"user_id":332,"name":"JaneDoe","steam_id":76561198067081506,"connected_time":4984000000000,"state":"active","ping":90},{"user_id":386,"name":"KUPOOOO","steam_id":76561198088963031,"connected_time":1387000000000,"state":"active","ping":72},{"user_id":397,"name":"GrzMik","steam_id":76561198061951968,"connected_time":402000000000,"state":"active","ping":82},{"user_id":398,"name":"Syd","steam_id":76561198020515027,"connected_time":399000000000,"state":"active","ping":88},{"user_id":337,"name":"Raven","steam_id":76561198036076305,"connected_time":4360000000000,"state":"active","ping":52},{"user_id":399,"name":"Piss Man","steam_id":76561199446367874,"connected_time":393000000000,"state":"active","ping":151},{"user_id":401,"name":"Shogg","steam_id":76561198056382237,"connected_time":147000000000,"state":"active","ping":75}]},{"server_id":308,"name":"Uncletopia | Frankfurt | 3 | All Maps","name_short":"frk-3","host":"frk-1.de.uncletopia.com","port":27035,"enabled":true,"region":"eu","cc":"de","latitude":50.110924,"longitude":8.682127,"reserved":0,"last_update":"0001-01-01T00:00:00Z","name_a2s":"Uncletopia | Frankfurt | 3 | All Maps","protocol":17,"map":"pl_upward","folder":"tf","game":"Team Fortress","app_id":440,"player_count":24,"max_players":24,"Bots":0,"server_type":"Dedicated","server_os":"Linux","password":true,"vac":true,"version":"7961495","steam_id":85568392924504274,"keywords":["nocrits","nodmgspread","payload","uncletopia"],"game_id":440,"stv_port":27036,"stv_name":"Uncletopia | Frankfurt | 3 | All Maps | STV","players":[{"user_id":530,"name":"Dream","steam_id":76561198802024369,"connected_time":364000000000,"state":"active","ping":48},{"user_id":509,"name":"☭TheDevilsEye☭","steam_id":76561198017379398,"connected_time":1673000000000,"state":"active","ping":77},{"user_id":521,"name":"_Alonso","steam_id":76561198041893314,"connected_time":775000000000,"state":"active","ping":52},{"user_id":507,"name":"Outer","steam_id":76561199085041734,"connected_time":1850000000000,"state":"active","ping":99},{"user_id":531,"name":"Snowmotion","steam_id":76561198075022454,"connected_time":308000000000,"state":"active","ping":61},{"user_id":517,"name":"F4.exe","steam_id":76561198278822807,"connected_time":1035000000000,"state":"active","ping":71},{"user_id":439,"name":"Watermelon","steam_id":76561198078349914,"connected_time":5831000000000,"state":"active","ping":61},{"user_id":518,"name":"Sosig","steam_id":76561199012155377,"connected_time":865000000000,"state":"active","ping":42},{"user_id":532,"name":"angry russian man","steam_id":76561198386712795,"connected_time":283000000000,"state":"active","ping":65},{"user_id":536,"name":"NotChloe","steam_id":76561198080658092,"connected_time":90000000000,"state":"active","ping":76},{"user_id":535,"name":"Sorry","steam_id":76561198040722720,"connected_time":156000000000,"state":"active","ping":145},{"user_id":476,"name":"Kenny Savage","steam_id":76561199049383900,"connected_time":4040000000000,"state":"active","ping":75},{"user_id":450,"name":"Milk Thrower","steam_id":76561198115071980,"connected_time":4748000000000,"state":"active","ping":177},{"user_id":504,"name":"jarate kamikaze","steam_id":76561199036865103,"connected_time":2099000000000,"state":"active","ping":87},{"user_id":514,"name":"Der Herr Doktor","steam_id":76561198119476089,"connected_time":1373000000000,"state":"active","ping":53},{"user_id":445,"name":"Fikou","steam_id":76561198119383418,"connected_time":4802000000000,"state":"active","ping":62},{"user_id":525,"name":"Joe","steam_id":76561198061717026,"connected_time":601000000000,"state":"active","ping":57},{"user_id":526,"name":"Pestilence","steam_id":76561198140938904,"connected_time":559000000000,"state":"active","ping":71},{"user_id":533,"name":"_420_StopItDudeCmon","steam_id":76561197997146481,"connected_time":265000000000,"state":"active","ping":55},{"user_id":527,"name":"Armand","steam_id":76561198236126774,"connected_time":544000000000,"state":"active","ping":66},{"user_id":534,"name":"Käärijä","steam_id":76561198126634202,"connected_time":262000000000,"state":"active","ping":74},{"user_id":515,"name":"snakeghoul","steam_id":76561199018056408,"connected_time":1351000000000,"state":"active","ping":72},{"user_id":516,"name":"pardner","steam_id":76561198451471161,"connected_time":1335000000000,"state":"active","ping":73},{"user_id":528,"name":"Rolloden","steam_id":76561198069414404,"connected_time":533000000000,"state":"active","ping":63}]},{"server_id":309,"name":"Uncletopia | Frankfurt | 4 | All Maps","name_short":"frk-4","host":"frk-1.de.uncletopia.com","port":27045,"enabled":true,"region":"eu","cc":"de","latitude":50.110924,"longitude":8.682127,"reserved":0,"last_update":"0001-01-01T00:00:00Z","name_a2s":"Uncletopia | Frankfurt | 4 | All Maps","protocol":17,"map":"pl_borneo","folder":"tf","game":"Team Fortress","app_id":440,"player_count":24,"max_players":24,"Bots":0,"server_type":"Dedicated","server_os":"Linux","password":true,"vac":true,"version":"7961495","steam_id":85568392924504275,"keywords":["nocrits","nodmgspread","payload","uncletopia"],"game_id":440,"stv_port":27046,"stv_name":"Uncletopia | Frankfurt | 4 | All Maps | STV","players":[{"user_id":293,"name":"President013","steam_id":76561198107233527,"connected_time":3895000000000,"state":"active","ping":86},{"user_id":310,"name":"Atomix","steam_id":76561198127352880,"connected_time":2037000000000,"state":"active","ping":66},{"user_id":337,"name":"Revenant","steam_id":76561198253503043,"connected_time":244000000000,"state":"active","ping":64},{"user_id":287,"name":"Ephix","steam_id":76561197977164055,"connected_time":4654000000000,"state":"active","ping":45},{"user_id":314,"name":"LǘcКγ کŦriкξ","steam_id":76561198057723275,"connected_time":1878000000000,"state":"active","ping":52},{"user_id":339,"name":"dawgamez","steam_id":76561198089293509,"connected_time":182000000000,"state":"active","ping":172},{"user_id":311,"name":"Fer De Lancer","steam_id":76561198091367098,"connected_time":2011000000000,"state":"active","ping":80},{"user_id":338,"name":"Hyppy ja liipasin pohjaan :D","steam_id":76561198080669698,"connected_time":236000000000,"state":"active","ping":83},{"user_id":313,"name":"Gurgula","steam_id":76561198021253678,"connected_time":1995000000000,"state":"active","ping":59},{"user_id":315,"name":"FoxKyo","steam_id":76561198038651735,"connected_time":1867000000000,"state":"active","ping":151},{"user_id":316,"name":"Dragon Gaming TF2","steam_id":76561198083299674,"connected_time":1863000000000,"state":"active","ping":97},{"user_id":317,"name":"Lyxfex","steam_id":76561198050166082,"connected_time":1828000000000,"state":"active","ping":147},{"user_id":346,"name":"PSQS","steam_id":76561198185321557,"connected_time":33000000000,"state":"active","ping":38},{"user_id":272,"name":"GogsCrunchyNuts","steam_id":76561198150599213,"connected_time":5794000000000,"state":"active","ping":94},{"user_id":320,"name":"Sandells blåa piller https://y","steam_id":76561198061122902,"connected_time":1611000000000,"state":"active","ping":76},{"user_id":332,"name":"Maybe","steam_id":76561198274455278,"connected_time":879000000000,"state":"active","ping":75},{"user_id":335,"name":"snacks","steam_id":76561198184674173,"connected_time":607000000000,"state":"active","ping":92},{"user_id":341,"name":"rummy","steam_id":76561197997573379,"connected_time":166000000000,"state":"active","ping":60},{"user_id":322,"name":"HeerDerHeren","steam_id":76561198043810980,"connected_time":1591000000000,"state":"active","ping":69},{"user_id":344,"name":"George W Bush","steam_id":76561198846784757,"connected_time":106000000000,"state":"active","ping":72},{"user_id":323,"name":"Jenjove","steam_id":76561199079701223,"connected_time":1575000000000,"state":"active","ping":148},{"user_id":324,"name":"No Further Appeasement","steam_id":76561198050737972,"connected_time":1567000000000,"state":"active","ping":71},{"user_id":327,"name":"brother mother banditcamp.com","steam_id":76561198159311322,"connected_time":1526000000000,"state":"active","ping":66},{"user_id":345,"name":"FarisKO","steam_id":76561198259234555,"connected_time":94000000000,"state":"active","ping":179}]},{"server_id":310,"name":"Uncletopia | Frankfurt | 5 | All Maps","name_short":"frk-5","host":"frk-1.de.uncletopia.com","port":27055,"enabled":true,"region":"eu","cc":"de","latitude":50.110924,"longitude":8.682127,"reserved":0,"last_update":"0001-01-01T00:00:00Z","name_a2s":"Uncletopia | Frankfurt | 5 | All Maps","protocol":17,"map":"pl_pier","folder":"tf","game":"Team Fortress","app_id":440,"player_count":24,"max_players":24,"Bots":0,"server_type":"Dedicated","server_os":"Linux","password":true,"vac":true,"version":"7961495","steam_id":85568392924504277,"keywords":["nocrits","nodmgspread","payload","uncletopia"],"game_id":440,"stv_port":27056,"stv_name":"Uncletopia | Frankfurt | 5 | All Maps | STV","players":[{"user_id":618,"name":"pine cone","steam_id":76561198168254686,"connected_time":430000000000,"state":"active","ping":77},{"user_id":597,"name":"Kenny","steam_id":76561198994898206,"connected_time":1505000000000,"state":"active","ping":72},{"user_id":608,"name":"Sparky","steam_id":76561198036754195,"connected_time":1098000000000,"state":"active","ping":40},{"user_id":606,"name":"worgeral","steam_id":76561198050781898,"connected_time":1166000000000,"state":"active","ping":64},{"user_id":584,"name":"Internetowy Pies","steam_id":76561198005719732,"connected_time":2685000000000,"state":"active","ping":65},{"user_id":630,"name":"feller","steam_id":76561198139303045,"connected_time":61000000000,"state":"active","ping":89},{"user_id":619,"name":"Neko","steam_id":76561198075690128,"connected_time":376000000000,"state":"active","ping":55},{"user_id":562,"name":"1374361948765194813269871","steam_id":76561198147277460,"connected_time":4020000000000,"state":"active","ping":59},{"user_id":601,"name":"Zenhard","steam_id":76561198099744014,"connected_time":1274000000000,"state":"active","ping":85},{"user_id":609,"name":"Combat Wombat","steam_id":76561197994720068,"connected_time":1093000000000,"state":"active","ping":72},{"user_id":620,"name":"Big Money Alex","steam_id":76561198160225334,"connected_time":223000000000,"state":"active","ping":141},{"user_id":604,"name":"r","steam_id":76561198239927434,"connected_time":1226000000000,"state":"active","ping":60},{"user_id":626,"name":"PybroShark","steam_id":76561198127015829,"connected_time":132000000000,"state":"active","ping":172},{"user_id":628,"name":"Chambersite the Wizard","steam_id":76561198197022399,"connected_time":113000000000,"state":"active","ping":71},{"user_id":592,"name":"AI | Davidoscki","steam_id":76561198129166046,"connected_time":1837000000000,"state":"active","ping":101},{"user_id":529,"name":"noot","steam_id":76561198148074472,"connected_time":7037000000000,"state":"active","ping":35},{"user_id":622,"name":"tuna","steam_id":76561198086630630,"connected_time":154000000000,"state":"active","ping":55},{"user_id":574,"name":"DiracDeltaFunction","steam_id":76561199201624841,"connected_time":3101000000000,"state":"active","ping":84},{"user_id":627,"name":"manure merchant","steam_id":76561198010109316,"connected_time":132000000000,"state":"active","ping":58},{"user_id":563,"name":"Landan","steam_id":76561198102048004,"connected_time":4013000000000,"state":"active","ping":70},{"user_id":611,"name":"Malsi","steam_id":76561199061284165,"connected_time":1030000000000,"state":"active","ping":120},{"user_id":612,"name":"Sch","steam_id":76561198071341689,"connected_time":928000000000,"state":"active","ping":71},{"user_id":624,"name":"Albon","steam_id":76561198060378881,"connected_time":149000000000,"state":"active","ping":60},{"user_id":625,"name":"padillacampos","steam_id":76561198161923970,"connected_time":145000000000,"state":"active","ping":81}]},{"server_id":311,"name":"Uncletopia | Frankfurt | 6 | All Maps","name_short":"frk-6","host":"frk-1.de.uncletopia.com","port":27065,"enabled":true,"region":"eu","cc":"de","latitude":50.110924,"longitude":8.682127,"reserved":0,"last_update":"0001-01-01T00:00:00Z","name_a2s":"Uncletopia | Frankfurt | 6 | All Maps","protocol":17,"map":"cp_sunshine","folder":"tf","game":"Team Fortress","app_id":440,"player_count":24,"max_players":24,"Bots":0,"server_type":"Dedicated","server_os":"Linux","password":true,"vac":true,"version":"7961495","steam_id":85568392924504278,"keywords":["cp","nocrits","nodmgspread","uncletopia"],"game_id":440,"stv_port":27066,"stv_name":"Uncletopia | Frankfurt | 6 | All Maps | STV","players":[{"user_id":427,"name":"Osek","steam_id":76561197972646003,"connected_time":2323000000000,"state":"active","ping":66},{"user_id":459,"name":"ADIDAS Ambassador","steam_id":76561199160940548,"connected_time":659000000000,"state":"active","ping":72},{"user_id":274,"name":"SuntanPikachu","steam_id":76561198121242476,"connected_time":14537000000000,"state":"active","ping":73},{"user_id":400,"name":"yes","steam_id":76561198276086010,"connected_time":5194000000000,"state":"active","ping":103},{"user_id":446,"name":"Imulion","steam_id":76561198069644748,"connected_time":1200000000000,"state":"active","ping":45},{"user_id":444,"name":"hat does not equal skill","steam_id":76561198070962612,"connected_time":1477000000000,"state":"active","ping":95},{"user_id":447,"name":"Doffney","steam_id":76561198163942669,"connected_time":1200000000000,"state":"active","ping":59},{"user_id":453,"name":"FilipeLuk","steam_id":76561198150675438,"connected_time":857000000000,"state":"active","ping":68},{"user_id":460,"name":"VIN WEASEL","steam_id":76561198014387066,"connected_time":513000000000,"state":"active","ping":47},{"user_id":450,"name":"glyph","steam_id":76561197980736364,"connected_time":1081000000000,"state":"active","ping":74},{"user_id":431,"name":"G O R E F R I E N D","steam_id":76561197989403556,"connected_time":1984000000000,"state":"active","ping":80},{"user_id":451,"name":"Subterranean","steam_id":76561198106684566,"connected_time":971000000000,"state":"active","ping":75},{"user_id":452,"name":"I Love Filtered Water","steam_id":76561198016042113,"connected_time":921000000000,"state":"active","ping":80},{"user_id":424,"name":"Jimmy Poppadopolos","steam_id":76561198044825612,"connected_time":3221000000000,"state":"active","ping":67},{"user_id":415,"name":"H-say","steam_id":76561198177400362,"connected_time":4089000000000,"state":"active","ping":80},{"user_id":462,"name":"blazevicaziz","steam_id":76561199413017544,"connected_time":182000000000,"state":"active","ping":70},{"user_id":387,"name":"Merca #savetf2","steam_id":76561198088782472,"connected_time":6018000000000,"state":"active","ping":54},{"user_id":455,"name":"Mentlegen","steam_id":76561198064764010,"connected_time":842000000000,"state":"active","ping":106},{"user_id":417,"name":"CRITICAL_HIT!","steam_id":76561198349330393,"connected_time":4081000000000,"state":"active","ping":66},{"user_id":425,"name":"Razef","steam_id":76561198030309484,"connected_time":3178000000000,"state":"active","ping":70},{"user_id":435,"name":"SirClyan","steam_id":76561199196651938,"connected_time":1924000000000,"state":"active","ping":73},{"user_id":458,"name":"LeGerooo","steam_id":76561199110422160,"connected_time":751000000000,"state":"active","ping":90},{"user_id":422,"name":"Nurse=Leave","steam_id":76561198103323356,"connected_time":3707000000000,"state":"active","ping":55},{"user_id":461,"name":"MP2K","steam_id":76561199094657435,"connected_time":352000000000,"state":"active","ping":85}]},{"server_id":23,"name":"Uncletopia | Frankfurt | 7 | Stopwatch","name_short":"frk-7","host":"frk-1.de.uncletopia.com","port":27075,"enabled":true,"region":"eu","cc":"de","latitude":50.110924,"longitude":8.682127,"reserved":0,"last_update":"0001-01-01T00:00:00Z","name_a2s":"Uncletopia | Frankfurt | 7 | Stopwatch","protocol":17,"map":"workshop/koth_ramjam_rc1.ugc459778887","folder":"tf","game":"Team Fortress","app_id":440,"player_count":0,"max_players":24,"Bots":0,"server_type":"Dedicated","server_os":"Linux","password":true,"vac":true,"version":"7961495","steam_id":85568392924742827,"keywords":["cp","nocrits","nodmgspread","uncletopia"],"game_id":440,"stv_port":27076,"stv_name":"Uncletopia | Frankfurt | 7 | Stopwatch | STV","players":null},{"server_id":24,"name":"Uncletopia | Frankfurt | 8 | Community","name_short":"frk-8","host":"frk-1.de.uncletopia.com","port":27085,"enabled":true,"region":"eu","cc":"de","latitude":50.110924,"longitude":8.682127,"reserved":0,"last_update":"0001-01-01T00:00:00Z","name_a2s":"Uncletopia | Frankfurt | 8 | Community","protocol":17,"map":"workshop/pl_cactuscanyon_redux_final2.ugc2579644293","folder":"tf","game":"Team Fortress","app_id":440,"player_count":0,"max_players":24,"Bots":0,"server_type":"Dedicated","server_os":"Linux","password":true,"vac":true,"version":"7961495","steam_id":85568392924742828,"keywords":["nocrits","nodmgspread","payload","uncletopia"],"game_id":440,"stv_port":27086,"stv_name":"Uncletopia | Frankfurt | 8 | Community | STV","players":null},{"server_id":202,"name":"Uncletopia | Hong Kong | 1 | All Maps","name_short":"hgk-1","host":"hgk-1.hk.uncletopia.com","port":27015,"enabled":true,"region":"asia","cc":"hk","latitude":22.302711,"longitude":114.177216,"reserved":0,"last_update":"0001-01-01T00:00:00Z","name_a2s":"Uncletopia | Hong Kong | 1 | All Maps","protocol":17,"map":"koth_king","folder":"tf","game":"Team Fortress","app_id":440,"player_count":0,"max_players":24,"Bots":0,"server_type":"Dedicated","server_os":"Linux","password":true,"vac":true,"version":"7961495","steam_id":85568392924494504,"keywords":["cp","nocrits","nodmgspread","uncletopia"],"game_id":440,"stv_port":27016,"stv_name":"Uncletopia | Hong Kong | 1 | All Maps | STV","players":null},{"server_id":1,"name":"Uncletopia | Los Angeles | 1 | All Maps","name_short":"lax-1","host":"lax-1.us.uncletopia.com","port":27015,"enabled":true,"region":"us-west","cc":"us","latitude":33.94279,"longitude":-118.41004,"reserved":0,"last_update":"0001-01-01T00:00:00Z","name_a2s":"Uncletopia | Los Angeles | 1 | All Maps","protocol":17,"map":"koth_viaduct","folder":"tf","game":"Team Fortress","app_id":440,"player_count":0,"max_players":24,"Bots":0,"server_type":"Dedicated","server_os":"Linux","password":true,"vac":true,"version":"7961495","steam_id":85568392924469991,"keywords":["cp","nocrits","nodmgspread","uncletopia"],"game_id":440,"stv_port":27016,"stv_name":"Uncletopia | Los Angeles | 1 | All Maps | STV","players":null},{"server_id":112,"name":"Uncletopia | Los Angeles | 2 | All Maps","name_short":"lax-2","host":"lax-1.us.uncletopia.com","port":27025,"enabled":true,"region":"us-west","cc":"us","latitude":33.94279,"longitude":-118.41004,"reserved":0,"last_update":"0001-01-01T00:00:00Z","name_a2s":"Uncletopia | Los Angeles | 2 | All Maps","protocol":17,"map":"koth_viaduct","folder":"tf","game":"Team Fortress","app_id":440,"player_count":0,"max_players":24,"Bots":0,"server_type":"Dedicated","server_os":"Linux","password":true,"vac":true,"version":"7961495","steam_id":85568392924469992,"keywords":["cp","nocrits","nodmgspread","uncletopia"],"game_id":440,"stv_port":27026,"stv_name":"Uncletopia | Los Angeles | 2 | All Maps | STV","players":null},{"server_id":324,"name":"Uncletopia | Los Angeles | 3 | All Maps","name_short":"lax-3","host":"lax-1.us.uncletopia.com","port":27035,"enabled":true,"region":"us-west","cc":"us","latitude":33.94279,"longitude":-118.41004,"reserved":0,"last_update":"0001-01-01T00:00:00Z","name_a2s":"Uncletopia | Los Angeles | 3 | All Maps","protocol":17,"map":"pl_barnblitz","folder":"tf","game":"Team Fortress","app_id":440,"player_count":0,"max_players":24,"Bots":0,"server_type":"Dedicated","server_os":"Linux","password":true,"vac":true,"version":"7961495","steam_id":85568392924510198,"keywords":["nocrits","nodmgspread","payload","uncletopia"],"game_id":440,"stv_port":27036,"stv_name":"Uncletopia | Los Angeles | 3 | All Maps | STV","players":null},{"server_id":25,"name":"Uncletopia | Los Angeles | 4 | Stopwatch","name_short":"lax-4","host":"lax-1.us.uncletopia.com","port":27045,"enabled":true,"region":"us-west","cc":"us","latitude":33.94279,"longitude":-118.41004,"reserved":0,"last_update":"0001-01-01T00:00:00Z","name_a2s":"Uncletopia | Los Angeles | 4 | Stopwatch","protocol":17,"map":"pl_barnblitz","folder":"tf","game":"Team Fortress","app_id":440,"player_count":0,"max_players":24,"Bots":0,"server_type":"Dedicated","server_os":"Linux","password":true,"vac":true,"version":"7961495","steam_id":85568392924510199,"keywords":["nocrits","nodmgspread","payload","uncletopia"],"game_id":440,"stv_port":27046,"stv_name":"Uncletopia | Los Angeles | 4 | Stopwatch | STV","players":null},{"server_id":11,"name":"Uncletopia | London | 1 | All Maps","name_short":"lon-1","host":"lon-1.uk.uncletopia.com","port":27015,"enabled":true,"region":"eu","cc":"gb","latitude":51.509865,"longitude":-0.118092,"reserved":0,"last_update":"0001-01-01T00:00:00Z","name_a2s":"Uncletopia | London | 1 | All Maps","protocol":17,"map":"pl_swiftwater_final1","folder":"tf","game":"Team Fortress","app_id":440,"player_count":24,"max_players":24,"Bots":0,"server_type":"Dedicated","server_os":"Linux","password":true,"vac":true,"version":"7961495","steam_id":85568392924367362,"keywords":["nocrits","nodmgspread","payload","uncletopia"],"game_id":440,"stv_port":27016,"stv_name":"Uncletopia | London | 1 | All Maps | STV","players":[{"user_id":831,"name":"sprinkle ✧* ༝","steam_id":76561198055871696,"connected_time":1764000000000,"state":"active","ping":44},{"user_id":621,"name":"Vershal Smershal","steam_id":76561198116223995,"connected_time":5591000000000,"state":"active","ping":59},{"user_id":850,"name":"Ljubi Te Brat . . .","steam_id":76561198054582971,"connected_time":17000000000,"state":"spawning","ping":75},{"user_id":625,"name":"rigel_","steam_id":76561198148640847,"connected_time":5405000000000,"state":"active","ping":89},{"user_id":786,"name":"Çodar","steam_id":76561198235518444,"connected_time":2475000000000,"state":"active","ping":35},{"user_id":848,"name":"sora (live :3)","steam_id":76561198096547662,"connected_time":37000000000,"state":"active","ping":51},{"user_id":782,"name":"owlsie","steam_id":76561198094883280,"connected_time":2500000000000,"state":"active","ping":68},{"user_id":849,"name":"Stefman","steam_id":76561199025104038,"connected_time":25000000000,"state":"spawning","ping":44},{"user_id":650,"name":"e9 4 ever","steam_id":76561198890193313,"connected_time":3862000000000,"state":"active","ping":59},{"user_id":790,"name":"Clown :o)","steam_id":76561198074657015,"connected_time":2456000000000,"state":"active","ping":57},{"user_id":832,"name":"map","steam_id":76561198370196400,"connected_time":1559000000000,"state":"active","ping":86},{"user_id":799,"name":"TomNoSocks","steam_id":76561198114071046,"connected_time":2431000000000,"state":"active","ping":65},{"user_id":640,"name":"Derpina (she/they)","steam_id":76561198106049954,"connected_time":3894000000000,"state":"active","ping":75},{"user_id":841,"name":"Boil em mash em","steam_id":76561198026508026,"connected_time":585000000000,"state":"active","ping":75},{"user_id":792,"name":"i.kill.four.sport","steam_id":76561198080912087,"connected_time":2451000000000,"state":"active","ping":62},{"user_id":645,"name":"pro kilar of nobas","steam_id":76561198079277466,"connected_time":3878000000000,"state":"active","ping":74},{"user_id":836,"name":"stroyo on ttv","steam_id":76561198409592046,"connected_time":819000000000,"state":"active","ping":55},{"user_id":747,"name":"♡ Birdy ♡","steam_id":76561198139632682,"connected_time":3002000000000,"state":"active","ping":82},{"user_id":830,"name":"silversteellady","steam_id":76561198166953966,"connected_time":2054000000000,"state":"active","ping":78},{"user_id":802,"name":"whimsy.","steam_id":76561198878171763,"connected_time":2401000000000,"state":"active","ping":46},{"user_id":839,"name":"⚧aura⚧","steam_id":76561198066258544,"connected_time":805000000000,"state":"active","ping":60},{"user_id":647,"name":"Planet Schmanet Janet","steam_id":76561198130270161,"connected_time":3873000000000,"state":"active","ping":58},{"user_id":578,"name":"albert","steam_id":76561198353496134,"connected_time":8613000000000,"state":"active","ping":61},{"user_id":847,"name":"agent youppii","steam_id":76561198055264447,"connected_time":172000000000,"state":"active","ping":54}]},{"server_id":114,"name":"Uncletopia | London | 2 | All Maps","name_short":"lon-2","host":"lon-1.uk.uncletopia.com","port":27025,"enabled":true,"region":"eu","cc":"gb","latitude":51.509865,"longitude":-0.118092,"reserved":0,"last_update":"0001-01-01T00:00:00Z","name_a2s":"Uncletopia | London | 2 | All Maps","protocol":17,"map":"pl_snowycoast","folder":"tf","game":"Team Fortress","app_id":440,"player_count":24,"max_players":24,"Bots":0,"server_type":"Dedicated","server_os":"Linux","password":true,"vac":true,"version":"7961495","steam_id":85568392924470941,"keywords":["nocrits","nodmgspread","payload","uncletopia"],"game_id":440,"stv_port":27026,"stv_name":"Uncletopia | London | 2 | All Maps | STV","players":[{"user_id":350,"name":"BadFemboy","steam_id":76561198072320671,"connected_time":160000000000,"state":"active","ping":33},{"user_id":338,"name":"Emilio Juarez","steam_id":76561198179693110,"connected_time":1261000000000,"state":"active","ping":47},{"user_id":343,"name":"Voodoo D Child","steam_id":76561198094569373,"connected_time":774000000000,"state":"active","ping":93},{"user_id":349,"name":"mary","steam_id":76561198014828037,"connected_time":285000000000,"state":"active","ping":53},{"user_id":296,"name":"flamingosaurus","steam_id":76561198051455397,"connected_time":6194000000000,"state":"active","ping":45},{"user_id":321,"name":"tafelpoot","steam_id":76561198080036024,"connected_time":4095000000000,"state":"active","ping":51},{"user_id":344,"name":"Swip3r","steam_id":76561198039789772,"connected_time":716000000000,"state":"active","ping":44},{"user_id":309,"name":"Violent_Raccoons","steam_id":76561199006002337,"connected_time":5020000000000,"state":"active","ping":54},{"user_id":325,"name":"AWildTamim","steam_id":76561198048060652,"connected_time":3203000000000,"state":"active","ping":45},{"user_id":331,"name":"bowchika wowa #SlavaUkraine","steam_id":76561198159564550,"connected_time":2547000000000,"state":"active","ping":71},{"user_id":327,"name":"sp00ky","steam_id":76561198809887201,"connected_time":3083000000000,"state":"active","ping":47},{"user_id":347,"name":"Eat It Up Worms Hero","steam_id":76561198259956719,"connected_time":468000000000,"state":"active","ping":145},{"user_id":335,"name":"Ghost","steam_id":76561198110914180,"connected_time":2131000000000,"state":"active","ping":118},{"user_id":324,"name":"Pyrolander","steam_id":76561198050785450,"connected_time":3706000000000,"state":"active","ping":55},{"user_id":328,"name":"average enjoyer","steam_id":76561198988985546,"connected_time":3076000000000,"state":"active","ping":72},{"user_id":329,"name":"Severeburrito16","steam_id":76561198353155991,"connected_time":3070000000000,"state":"active","ping":129},{"user_id":193,"name":"soil.dirt.earth","steam_id":76561198014377623,"connected_time":14343000000000,"state":"active","ping":34},{"user_id":323,"name":"Engineer Chad","steam_id":76561199487629652,"connected_time":3829000000000,"state":"active","ping":74},{"user_id":342,"name":"Caelestis","steam_id":76561198170017997,"connected_time":844000000000,"state":"active","ping":71},{"user_id":308,"name":"Cool Ranch© Flavoured Pretzel","steam_id":76561198097130024,"connected_time":5140000000000,"state":"active","ping":59},{"user_id":333,"name":"Akroview","steam_id":76561198025506967,"connected_time":2193000000000,"state":"active","ping":67},{"user_id":318,"name":"FoOzTV","steam_id":76561197998636728,"connected_time":4539000000000,"state":"active","ping":60},{"user_id":346,"name":"Tort","steam_id":76561198329646769,"connected_time":581000000000,"state":"active","ping":57},{"user_id":336,"name":"Drunkenkidney","steam_id":76561197995116708,"connected_time":1920000000000,"state":"active","ping":71}]},{"server_id":320,"name":"Uncletopia | London | 3 | All Maps","name_short":"lon-3","host":"lon-1.uk.uncletopia.com","port":27035,"enabled":true,"region":"eu","cc":"gb","latitude":51.509865,"longitude":-0.118092,"reserved":0,"last_update":"0001-01-01T00:00:00Z","name_a2s":"Uncletopia | London | 3 | All Maps","protocol":17,"map":"pl_frontier_final","folder":"tf","game":"Team Fortress","app_id":440,"player_count":25,"max_players":24,"Bots":0,"server_type":"Dedicated","server_os":"Linux","password":true,"vac":true,"version":"7961495","steam_id":85568392924510192,"keywords":["nocrits","nodmgspread","payload","uncletopia"],"game_id":440,"stv_port":27036,"stv_name":"Uncletopia | London | 3 | All Maps | STV","players":[{"user_id":174,"name":"Beanie","steam_id":76561198173882658,"connected_time":6984000000000,"state":"active","ping":47},{"user_id":237,"name":"wraithmyashole","steam_id":76561199182356255,"connected_time":659000000000,"state":"active","ping":67},{"user_id":244,"name":"elchi","steam_id":76561198009531752,"connected_time":561000000000,"state":"active","ping":45},{"user_id":199,"name":"Relic","steam_id":76561199499093258,"connected_time":4768000000000,"state":"active","ping":74},{"user_id":250,"name":"Vince","steam_id":76561199103000131,"connected_time":295000000000,"state":"active","ping":44},{"user_id":252,"name":"Ve stylu","steam_id":76561198218257120,"connected_time":13000000000,"state":"spawning","ping":61},{"user_id":213,"name":"TreatFly","steam_id":76561198069707362,"connected_time":3307000000000,"state":"active","ping":56},{"user_id":235,"name":"Leoi6","steam_id":76561198269484105,"connected_time":1161000000000,"state":"active","ping":37},{"user_id":210,"name":"lillunya ♡","steam_id":76561198330418866,"connected_time":3778000000000,"state":"active","ping":70},{"user_id":215,"name":"(1)crimson","steam_id":76561198208349835,"connected_time":3165000000000,"state":"active","ping":66},{"user_id":176,"name":"skittish maiden","steam_id":76561198096856475,"connected_time":6646000000000,"state":"active","ping":59},{"user_id":241,"name":"Ullr","steam_id":76561198140547483,"connected_time":571000000000,"state":"active","ping":45},{"user_id":223,"name":"AftiksPL","steam_id":76561198875182686,"connected_time":2056000000000,"state":"active","ping":96},{"user_id":242,"name":"D_Ink","steam_id":76561198267716662,"connected_time":570000000000,"state":"active","ping":34},{"user_id":243,"name":"Haha?","steam_id":76561198056882245,"connected_time":568000000000,"state":"active","ping":48},{"user_id":246,"name":"Agro | KritzKast","steam_id":76561197970498549,"connected_time":551000000000,"state":"active","ping":45},{"user_id":247,"name":"Plith","steam_id":76561198027499887,"connected_time":538000000000,"state":"active","ping":52},{"user_id":151,"name":"Fallen","steam_id":76561199445283186,"connected_time":8319000000000,"state":"active","ping":125},{"user_id":249,"name":"willus212","steam_id":76561199182615246,"connected_time":433000000000,"state":"active","ping":81},{"user_id":234,"name":"Duane Adelier","steam_id":76561198132233372,"connected_time":1180000000000,"state":"active","ping":35},{"user_id":86,"name":"JSX","steam_id":76561198039097662,"connected_time":12205000000000,"state":"active","ping":80},{"user_id":222,"name":"deez","steam_id":76561198831476915,"connected_time":2104000000000,"state":"active","ping":56},{"user_id":230,"name":"Zetself","steam_id":76561198085251568,"connected_time":1783000000000,"state":"active","ping":66},{"user_id":236,"name":"The Mighty Anus","steam_id":76561198001206982,"connected_time":951000000000,"state":"active","ping":52},{"user_id":253,"name":"learning how 2 golf","steam_id":76561198040690770,"connected_time":12000000000,"state":"spawning","ping":41}]},{"server_id":321,"name":"Uncletopia | London | 4 | All Maps","name_short":"lon-4","host":"lon-1.uk.uncletopia.com","port":27045,"enabled":true,"region":"eu","cc":"gb","latitude":51.509865,"longitude":-0.118092,"reserved":0,"last_update":"0001-01-01T00:00:00Z","name_a2s":"Uncletopia | London | 4 | All Maps","protocol":17,"map":"cp_dustbowl","folder":"tf","game":"Team Fortress","app_id":440,"player_count":23,"max_players":24,"Bots":0,"server_type":"Dedicated","server_os":"Linux","password":true,"vac":true,"version":"7961495","steam_id":85568392924510193,"keywords":["cp","nocrits","nodmgspread","uncletopia"],"game_id":440,"stv_port":27046,"stv_name":"Uncletopia | London | 4 | All Maps | STV","players":[{"user_id":14,"name":"Sad Potato","steam_id":76561198239654762,"connected_time":8781000000000,"state":"active","ping":38},{"user_id":114,"name":"joosssh","steam_id":76561198072130805,"connected_time":1494000000000,"state":"active","ping":55},{"user_id":109,"name":"AIDS","steam_id":76561198111124604,"connected_time":2008000000000,"state":"active","ping":68},{"user_id":77,"name":"Watcher","steam_id":76561198090298178,"connected_time":4688000000000,"state":"active","ping":58},{"user_id":96,"name":"MrKampfCookie","steam_id":76561198085490175,"connected_time":2944000000000,"state":"active","ping":57},{"user_id":50,"name":"Zerius","steam_id":76561198044235220,"connected_time":7564000000000,"state":"active","ping":76},{"user_id":128,"name":"LuckyHappyGuy","steam_id":76561198353023996,"connected_time":472000000000,"state":"active","ping":69},{"user_id":115,"name":"SpicyBoi","steam_id":76561198137845321,"connected_time":1490000000000,"state":"active","ping":61},{"user_id":113,"name":"bongo","steam_id":76561198015489880,"connected_time":1552000000000,"state":"active","ping":44},{"user_id":78,"name":"Reiyo the Interloper","steam_id":76561198155092485,"connected_time":4673000000000,"state":"active","ping":67},{"user_id":129,"name":"yum","steam_id":76561199103766971,"connected_time":237000000000,"state":"active","ping":139},{"user_id":116,"name":"big lady","steam_id":76561197971716998,"connected_time":1469000000000,"state":"active","ping":61},{"user_id":110,"name":"Jeryx","steam_id":76561197995602803,"connected_time":1749000000000,"state":"active","ping":89},{"user_id":117,"name":"SimplyJarvis","steam_id":76561198000654287,"connected_time":1416000000000,"state":"active","ping":61},{"user_id":108,"name":"Batters🌸","steam_id":76561198927992205,"connected_time":2129000000000,"state":"active","ping":53},{"user_id":92,"name":"Nag","steam_id":76561197970488206,"connected_time":3228000000000,"state":"active","ping":66},{"user_id":49,"name":"Ady Pádlo","steam_id":76561198263104437,"connected_time":7692000000000,"state":"active","ping":84},{"user_id":119,"name":"L4gman","steam_id":76561198048227040,"connected_time":1011000000000,"state":"active","ping":70},{"user_id":123,"name":"please do not the cat","steam_id":76561198089003514,"connected_time":691000000000,"state":"active","ping":53},{"user_id":118,"name":"Winthworth","steam_id":76561198344675206,"connected_time":1359000000000,"state":"active","ping":58},{"user_id":52,"name":"2006 Mitsubishi Lancer","steam_id":76561198036632498,"connected_time":7486000000000,"state":"active","ping":45},{"user_id":124,"name":"Voks_","steam_id":76561198159687785,"connected_time":663000000000,"state":"active","ping":78},{"user_id":102,"name":"Larry Penus","steam_id":76561198207546233,"connected_time":2707000000000,"state":"active","ping":43}]},{"server_id":21,"name":"Uncletopia | London | 5 | All Maps","name_short":"lon-5","host":"lon-1.uk.uncletopia.com","port":27055,"enabled":true,"region":"eu","cc":"gb","latitude":51.509865,"longitude":-0.118092,"reserved":0,"last_update":"0001-01-01T00:00:00Z","name_a2s":"Uncletopia | London | 5 | All Maps","protocol":17,"map":"cp_steel","folder":"tf","game":"Team Fortress","app_id":440,"player_count":24,"max_players":24,"Bots":0,"server_type":"Dedicated","server_os":"Linux","password":true,"vac":true,"version":"7961495","steam_id":85568392924742829,"keywords":["cp","nocrits","nodmgspread","uncletopia"],"game_id":440,"stv_port":27056,"stv_name":"Uncletopia | London | 5 | All Maps | STV","players":[{"user_id":146,"name":"Neottious","steam_id":76561198113700383,"connected_time":990000000000,"state":"active","ping":77},{"user_id":123,"name":"Charlie Brown","steam_id":76561199378865926,"connected_time":2550000000000,"state":"active","ping":115},{"user_id":158,"name":"Fnif","steam_id":76561197987988100,"connected_time":403000000000,"state":"active","ping":68},{"user_id":147,"name":"im not a femboy i swear","steam_id":76561198441084881,"connected_time":975000000000,"state":"active","ping":68},{"user_id":148,"name":"Juan Solo","steam_id":76561198018688536,"connected_time":971000000000,"state":"active","ping":131},{"user_id":121,"name":"Holofightz Nene","steam_id":76561198226788392,"connected_time":2620000000000,"state":"active","ping":61},{"user_id":122,"name":"Baron","steam_id":76561198021901783,"connected_time":2603000000000,"state":"active","ping":55},{"user_id":144,"name":"Fabric","steam_id":76561198118742661,"connected_time":1084000000000,"state":"active","ping":89},{"user_id":125,"name":"WHUSSKEY","steam_id":76561198137827441,"connected_time":2515000000000,"state":"active","ping":80},{"user_id":139,"name":"tacungus","steam_id":76561198041416682,"connected_time":1497000000000,"state":"active","ping":54},{"user_id":149,"name":"Horo","steam_id":76561198009504508,"connected_time":901000000000,"state":"active","ping":62},{"user_id":141,"name":"Melon","steam_id":76561198085630318,"connected_time":1307000000000,"state":"active","ping":61},{"user_id":157,"name":"3 6 9","steam_id":76561198203992985,"connected_time":519000000000,"state":"active","ping":59},{"user_id":156,"name":"Niyaah","steam_id":76561198110209191,"connected_time":591000000000,"state":"active","ping":62},{"user_id":140,"name":"kai","steam_id":76561198044847532,"connected_time":1485000000000,"state":"active","ping":43},{"user_id":138,"name":"Tavish","steam_id":76561197971486686,"connected_time":1650000000000,"state":"active","ping":71},{"user_id":143,"name":"Teecho","steam_id":76561197995269610,"connected_time":1097000000000,"state":"active","ping":58},{"user_id":142,"name":"Enddramon","steam_id":76561198169461084,"connected_time":1269000000000,"state":"active","ping":161},{"user_id":64,"name":"(MAC) [BN] Crazyking","steam_id":76561198001668616,"connected_time":8500000000000,"state":"active","ping":59},{"user_id":66,"name":"Demicore","steam_id":76561197976922136,"connected_time":7954000000000,"state":"active","ping":71},{"user_id":159,"name":"xGolden","steam_id":76561198143075007,"connected_time":383000000000,"state":"active","ping":74},{"user_id":153,"name":"Slazaa","steam_id":76561197993252446,"connected_time":816000000000,"state":"active","ping":47},{"user_id":154,"name":"tapeworms!","steam_id":76561198069649097,"connected_time":814000000000,"state":"active","ping":51},{"user_id":133,"name":"maniac-baker","steam_id":76561198076966730,"connected_time":2283000000000,"state":"active","ping":46}]},{"server_id":22,"name":"Uncletopia | London | 6 | All Maps","name_short":"lon-6","host":"lon-1.uk.uncletopia.com","port":27065,"enabled":true,"region":"eu","cc":"gb","latitude":51.509865,"longitude":-0.118092,"reserved":0,"last_update":"0001-01-01T00:00:00Z","name_a2s":"Uncletopia | London | 6 | All Maps","protocol":17,"map":"pl_badwater","folder":"tf","game":"Team Fortress","app_id":440,"player_count":24,"max_players":24,"Bots":0,"server_type":"Dedicated","server_os":"Linux","password":true,"vac":true,"version":"7961495","steam_id":85568392924742830,"keywords":["nocrits","nodmgspread","payload","uncletopia"],"game_id":440,"stv_port":27066,"stv_name":"Uncletopia | London | 6 | All Maps | STV","players":[{"user_id":144,"name":"Cerulean","steam_id":76561199139643353,"connected_time":430000000000,"state":"active","ping":65},{"user_id":62,"name":"Minimi","steam_id":76561198873850443,"connected_time":5370000000000,"state":"active","ping":40},{"user_id":154,"name":"Gremy","steam_id":76561199159833742,"connected_time":134000000000,"state":"active","ping":49},{"user_id":143,"name":"legalize glue","steam_id":76561198191369066,"connected_time":452000000000,"state":"active","ping":127},{"user_id":146,"name":"outlaw","steam_id":76561198323805289,"connected_time":396000000000,"state":"active","ping":30},{"user_id":74,"name":"veem04","steam_id":76561198044546800,"connected_time":4853000000000,"state":"active","ping":90},{"user_id":31,"name":"[P-roc] BadJacKS","steam_id":76561197972666377,"connected_time":6263000000000,"state":"active","ping":61},{"user_id":140,"name":"hawkblob","steam_id":76561198803720565,"connected_time":1105000000000,"state":"active","ping":74},{"user_id":109,"name":"bug","steam_id":76561198118412910,"connected_time":2378000000000,"state":"active","ping":58},{"user_id":147,"name":"puck","steam_id":76561198121260981,"connected_time":385000000000,"state":"active","ping":43},{"user_id":148,"name":"nug","steam_id":76561198055396568,"connected_time":384000000000,"state":"active","ping":51},{"user_id":129,"name":"The Boss","steam_id":76561198426522902,"connected_time":1734000000000,"state":"active","ping":56},{"user_id":123,"name":"obi","steam_id":76561198040154461,"connected_time":1789000000000,"state":"active","ping":71},{"user_id":153,"name":"sarcasticsatan69","steam_id":76561198407566842,"connected_time":195000000000,"state":"active","ping":58},{"user_id":42,"name":"Pinkchup","steam_id":76561198106802803,"connected_time":6108000000000,"state":"active","ping":79},{"user_id":124,"name":"Borat","steam_id":76561198122226417,"connected_time":1777000000000,"state":"active","ping":28},{"user_id":137,"name":"Diamhair","steam_id":76561198109020178,"connected_time":1340000000000,"state":"active","ping":71},{"user_id":149,"name":"DUNKADOBALLZ","steam_id":76561198397500752,"connected_time":356000000000,"state":"active","ping":138},{"user_id":150,"name":"Greyhunter","steam_id":76561197960884202,"connected_time":354000000000,"state":"active","ping":30},{"user_id":151,"name":"isicju","steam_id":76561198828782165,"connected_time":344000000000,"state":"active","ping":56},{"user_id":152,"name":".pandemiC","steam_id":76561198015941460,"connected_time":337000000000,"state":"active","ping":104},{"user_id":142,"name":"zayd","steam_id":76561198895235231,"connected_time":528000000000,"state":"active","ping":60},{"user_id":130,"name":"jovi_","steam_id":76561198449280552,"connected_time":1729000000000,"state":"active","ping":51},{"user_id":91,"name":"Marcel","steam_id":76561198348686648,"connected_time":3847000000000,"state":"active","ping":47}]},{"server_id":40,"name":"Uncletopia | London | 7 | Stopwatch","name_short":"lon-7","host":"lon-1.uk.uncletopia.com","port":27075,"enabled":true,"region":"eu","cc":"gb","latitude":51.509865,"longitude":-0.118092,"reserved":0,"last_update":"0001-01-01T00:00:00Z","name_a2s":"Uncletopia | London | 7 | Stopwatch","protocol":17,"map":"pl_swiftwater_final1","folder":"tf","game":"Team Fortress","app_id":440,"player_count":3,"max_players":24,"Bots":0,"server_type":"Dedicated","server_os":"Linux","password":true,"vac":true,"version":"7961495","steam_id":85568392924964314,"keywords":["nocrits","nodmgspread","payload","uncletopia"],"game_id":440,"stv_port":27076,"stv_name":"Uncletopia | London | 7 | Stopwatch | STV","players":[{"user_id":6,"name":"A_GingerIdiot","steam_id":76561198313306026,"connected_time":5862000000000,"state":"active","ping":49},{"user_id":7,"name":"Tispy","steam_id":76561199207410049,"connected_time":5691000000000,"state":"active","ping":84},{"user_id":26,"name":"Willo2ty","steam_id":76561198820497101,"connected_time":3662000000000,"state":"active","ping":52}]},{"server_id":41,"name":"Uncletopia | London | 8 | Community","name_short":"lon-8","host":"lon-1.uk.uncletopia.com","port":27085,"enabled":true,"region":"eu","cc":"gb","latitude":51.509865,"longitude":-0.118092,"reserved":0,"last_update":"0001-01-01T00:00:00Z","name_a2s":"Uncletopia | London | 8 | Community","protocol":17,"map":"workshop/pl_cactuscanyon_redux_final2.ugc2579644293","folder":"tf","game":"Team Fortress","app_id":440,"player_count":0,"max_players":24,"Bots":0,"server_type":"Dedicated","server_os":"Linux","password":true,"vac":true,"version":"7961495","steam_id":85568392924964315,"keywords":["nocrits","nodmgspread","payload","uncletopia"],"game_id":440,"stv_port":27086,"stv_name":"Uncletopia | London | 8 | Community | STV","players":null},{"server_id":300,"name":"Uncletopia | Montréal | 1 | One Thousand Uncles","name_short":"mtl-1","host":"mtl-1.ca.uncletopia.com","port":27015,"enabled":true,"region":"us-east","cc":"ca","latitude":45.50889,"longitude":-73.56167,"reserved":0,"last_update":"0001-01-01T00:00:00Z","name_a2s":"","protocol":0,"map":"","folder":"","game":"","app_id":0,"player_count":12,"max_players":0,"Bots":0,"server_type":"","server_os":"","password":false,"vac":false,"version":"","steam_id":0,"keywords":null,"game_id":0,"stv_port":0,"stv_name":"","players":[{"user_id":89,"name":"Waaagh!","steam_id":76561197995317887,"connected_time":3017000000000,"state":"active","ping":35},{"user_id":128,"name":"meistjr","steam_id":76561198077240093,"connected_time":1287000000000,"state":"active","ping":121},{"user_id":127,"name":"FercoButter | F4 Enjoyer","steam_id":76561198062982729,"connected_time":1673000000000,"state":"active","ping":58},{"user_id":84,"name":"generic blue proto","steam_id":76561199000149623,"connected_time":5286000000000,"state":"active","ping":90},{"user_id":88,"name":"AlejandritoXDS","steam_id":76561199147041246,"connected_time":3208000000000,"state":"active","ping":131},{"user_id":133,"name":"DeepDive","steam_id":76561198140542184,"connected_time":730000000000,"state":"active","ping":47},{"user_id":138,"name":"Lil-Chanka","steam_id":76561199009724257,"connected_time":8000000000,"state":"spawning","ping":172},{"user_id":125,"name":"the BIG BOI","steam_id":76561199433957660,"connected_time":2297000000000,"state":"active","ping":56},{"user_id":126,"name":"Adam?","steam_id":76561198845952472,"connected_time":2075000000000,"state":"active","ping":75},{"user_id":129,"name":"Iron_Dave_Qc","steam_id":76561198159325213,"connected_time":894000000000,"state":"active","ping":35},{"user_id":131,"name":"rb_quick","steam_id":76561197992053677,"connected_time":828000000000,"state":"active","ping":175},{"user_id":136,"name":"Windup Monkey in a Human Suit","steam_id":76561198119501444,"connected_time":373000000000,"state":"active","ping":96}]},{"server_id":301,"name":"Uncletopia | Montréal | 2 | One Thousand Uncles","name_short":"mtl-2","host":"mtl-1.ca.uncletopia.com","port":27025,"enabled":true,"region":"us-east","cc":"ca","latitude":45.50889,"longitude":-73.56167,"reserved":0,"last_update":"0001-01-01T00:00:00Z","name_a2s":"","protocol":0,"map":"","folder":"","game":"","app_id":0,"player_count":0,"max_players":0,"Bots":0,"server_type":"","server_os":"","password":false,"vac":false,"version":"","steam_id":0,"keywords":null,"game_id":0,"stv_port":0,"stv_name":"","players":null},{"server_id":302,"name":"Uncletopia | Montréal | 3 | One Thousand Uncles","name_short":"mtl-3","host":"mtl-1.ca.uncletopia.com","port":27035,"enabled":true,"region":"us-east","cc":"ca","latitude":45.50889,"longitude":-73.56167,"reserved":0,"last_update":"0001-01-01T00:00:00Z","name_a2s":"","protocol":0,"map":"","folder":"","game":"","app_id":0,"player_count":0,"max_players":0,"Bots":0,"server_type":"","server_os":"","password":false,"vac":false,"version":"","steam_id":0,"keywords":null,"game_id":0,"stv_port":0,"stv_name":"","players":null},{"server_id":13,"name":"Uncletopia | New York City | 1 | All Maps","name_short":"nyc-1","host":"nyc-1.us.uncletopia.com","port":27015,"enabled":true,"region":"us-east","cc":"us","latitude":40.73061,"longitude":-73.93524,"reserved":0,"last_update":"0001-01-01T00:00:00Z","name_a2s":"Uncletopia | New York City | 1 | All Maps","protocol":17,"map":"cp_dustbowl","folder":"tf","game":"Team Fortress","app_id":440,"player_count":24,"max_players":24,"Bots":0,"server_type":"Dedicated","server_os":"Linux","password":true,"vac":true,"version":"7961495","steam_id":85568392924469993,"keywords":["cp","nocrits","nodmgspread","uncletopia"],"game_id":440,"stv_port":27016,"stv_name":"Uncletopia | New York City | 1 | All Maps | STV","players":[{"user_id":92,"name":"carrot cake","steam_id":76561198055174915,"connected_time":759000000000,"state":"active","ping":74},{"user_id":98,"name":"swooce","steam_id":76561198156232484,"connected_time":550000000000,"state":"active","ping":67},{"user_id":100,"name":"Top Frog","steam_id":76561198072793446,"connected_time":239000000000,"state":"active","ping":72},{"user_id":89,"name":"Larry Laffer","steam_id":76561198046832069,"connected_time":1004000000000,"state":"active","ping":43},{"user_id":32,"name":"Nexusuxen","steam_id":76561198117547131,"connected_time":4192000000000,"state":"active","ping":83},{"user_id":93,"name":"bigSMALL","steam_id":76561198964101426,"connected_time":738000000000,"state":"active","ping":44},{"user_id":30,"name":"custodian","steam_id":76561198058793778,"connected_time":4290000000000,"state":"active","ping":58},{"user_id":94,"name":"JustADuck","steam_id":76561198311260943,"connected_time":734000000000,"state":"active","ping":75},{"user_id":66,"name":"ndvr (femboy (REAL))","steam_id":76561199379200102,"connected_time":2106000000000,"state":"active","ping":55},{"user_id":87,"name":"Garlic","steam_id":76561198357375007,"connected_time":1113000000000,"state":"active","ping":123},{"user_id":71,"name":"spherewithahat","steam_id":76561199122192660,"connected_time":1779000000000,"state":"active","ping":58},{"user_id":99,"name":"AlmondMilk","steam_id":76561198151229725,"connected_time":421000000000,"state":"active","ping":98},{"user_id":72,"name":"BiggSlorp","steam_id":76561199130776156,"connected_time":1688000000000,"state":"active","ping":61},{"user_id":47,"name":"Just a BLU Toon","steam_id":76561198273199771,"connected_time":3053000000000,"state":"active","ping":68},{"user_id":49,"name":"Mike","steam_id":76561198000179928,"connected_time":2921000000000,"state":"active","ping":59},{"user_id":65,"name":"Strange Diplomat","steam_id":76561198428191920,"connected_time":2165000000000,"state":"active","ping":116},{"user_id":101,"name":"Femboy Medic Main","steam_id":76561198268225109,"connected_time":109000000000,"state":"active","ping":81},{"user_id":90,"name":"Bacchus","steam_id":76561198113244990,"connected_time":785000000000,"state":"active","ping":75},{"user_id":97,"name":"confetti","steam_id":76561198335140490,"connected_time":621000000000,"state":"active","ping":76},{"user_id":69,"name":"smk","steam_id":76561198068027379,"connected_time":2083000000000,"state":"active","ping":144},{"user_id":61,"name":"Java_Siege_","steam_id":76561199090000728,"connected_time":2375000000000,"state":"active","ping":75},{"user_id":80,"name":"Markowave","steam_id":76561199262244343,"connected_time":1495000000000,"state":"active","ping":53},{"user_id":88,"name":"Menachem","steam_id":76561198041226420,"connected_time":1084000000000,"state":"active","ping":68},{"user_id":96,"name":"Classic","steam_id":76561198215293509,"connected_time":720000000000,"state":"active","ping":75}]},{"server_id":14,"name":"Uncletopia | New York City | 2 | All Maps","name_short":"nyc-2","host":"nyc-1.us.uncletopia.com","port":27025,"enabled":true,"region":"us-east","cc":"us","latitude":40.73061,"longitude":-73.93524,"reserved":0,"last_update":"0001-01-01T00:00:00Z","name_a2s":"Uncletopia | New York City | 2 | All Maps","protocol":17,"map":"cp_egypt_final","folder":"tf","game":"Team Fortress","app_id":440,"player_count":24,"max_players":24,"Bots":0,"server_type":"Dedicated","server_os":"Linux","password":true,"vac":true,"version":"7961495","steam_id":85568392924469994,"keywords":["cp","nocrits","nodmgspread","uncletopia"],"game_id":440,"stv_port":27026,"stv_name":"Uncletopia | New York City | 2 | All Maps | STV","players":[{"user_id":111,"name":"my monitor is off","steam_id":76561198148905570,"connected_time":2359000000000,"state":"active","ping":77},{"user_id":134,"name":"Viewie","steam_id":76561198280108853,"connected_time":1550000000000,"state":"active","ping":70},{"user_id":137,"name":"Foolery","steam_id":76561199035860945,"connected_time":1343000000000,"state":"active","ping":63},{"user_id":146,"name":"TrashBoat","steam_id":76561199089671432,"connected_time":706000000000,"state":"active","ping":80},{"user_id":116,"name":"JakeTheSnake2007","steam_id":76561199101642283,"connected_time":2149000000000,"state":"active","ping":85},{"user_id":108,"name":"The Sorrow of Dandy","steam_id":76561198005551894,"connected_time":2494000000000,"state":"active","ping":93},{"user_id":65,"name":"loscemo","steam_id":76561197994884609,"connected_time":6118000000000,"state":"active","ping":68},{"user_id":112,"name":"Mythius","steam_id":76561198401392472,"connected_time":2356000000000,"state":"active","ping":75},{"user_id":156,"name":"hummbird","steam_id":76561198327686110,"connected_time":341000000000,"state":"active","ping":67},{"user_id":152,"name":"SmalGuy","steam_id":76561199202967055,"connected_time":401000000000,"state":"active","ping":67},{"user_id":139,"name":"Geronimo Jones","steam_id":76561198066904836,"connected_time":1310000000000,"state":"active","ping":76},{"user_id":155,"name":"Drake the Pixel","steam_id":76561198131824401,"connected_time":372000000000,"state":"active","ping":35},{"user_id":147,"name":"incredirocks","steam_id":76561198061079993,"connected_time":626000000000,"state":"active","ping":60},{"user_id":150,"name":"Nash","steam_id":76561198056871257,"connected_time":524000000000,"state":"active","ping":58},{"user_id":149,"name":"Joan The Kisaragi Cat","steam_id":76561199370650064,"connected_time":620000000000,"state":"active","ping":99},{"user_id":129,"name":"４０ ＦＰＳ","steam_id":76561198272394965,"connected_time":1696000000000,"state":"active","ping":113},{"user_id":122,"name":"ZariaGalaxy","steam_id":76561198089441300,"connected_time":1862000000000,"state":"active","ping":54},{"user_id":123,"name":"jxh300","steam_id":76561199196579894,"connected_time":1861000000000,"state":"active","ping":63},{"user_id":157,"name":"Do'h I Missed!","steam_id":76561198145320480,"connected_time":277000000000,"state":"active","ping":101},{"user_id":125,"name":"CabezaGrande","steam_id":76561197972555502,"connected_time":1859000000000,"state":"active","ping":81},{"user_id":144,"name":"Space Lizard","steam_id":76561198056798193,"connected_time":808000000000,"state":"active","ping":95},{"user_id":127,"name":"Showdown Benzy","steam_id":76561198202086601,"connected_time":1822000000000,"state":"active","ping":91},{"user_id":159,"name":"Chicken","steam_id":76561198855273194,"connected_time":5000000000,"state":"spawning","ping":74},{"user_id":154,"name":"phone","steam_id":76561198029268743,"connected_time":392000000000,"state":"active","ping":57}]},{"server_id":15,"name":"Uncletopia | New York City | 3 | Stopwatch","name_short":"nyc-3","host":"nyc-1.us.uncletopia.com","port":27035,"enabled":true,"region":"us-east","cc":"us","latitude":40.73061,"longitude":-73.93524,"reserved":0,"last_update":"0001-01-01T00:00:00Z","name_a2s":"Uncletopia | New York City | 3 | Stopwatch","protocol":17,"map":"workshop/pl_barnblitz_pro7.ugc582280235","folder":"tf","game":"Team Fortress","app_id":440,"player_count":0,"max_players":24,"Bots":0,"server_type":"Dedicated","server_os":"Linux","password":true,"vac":true,"version":"7961495","steam_id":85568392924742820,"keywords":["nocrits","nodmgspread","payload","uncletopia"],"game_id":440,"stv_port":27036,"stv_name":"Uncletopia | New York City | 3 | Stopwatch | STV","players":null},{"server_id":16,"name":"Uncletopia | New York City | 4 | Community","name_short":"nyc-4","host":"nyc-1.us.uncletopia.com","port":27045,"enabled":true,"region":"us-east","cc":"us","latitude":40.73061,"longitude":-73.93524,"reserved":0,"last_update":"0001-01-01T00:00:00Z","name_a2s":"Uncletopia | New York City | 4 | Community","protocol":17,"map":"workshop/koth_synthetic_rc6a.ugc1549817316","folder":"tf","game":"Team Fortress","app_id":440,"player_count":0,"max_players":24,"Bots":0,"server_type":"Dedicated","server_os":"Linux","password":true,"vac":true,"version":"7961495","steam_id":85568392924742821,"keywords":["cp","nocrits","nodmgspread","uncletopia"],"game_id":440,"stv_port":27046,"stv_name":"Uncletopia | New York City | 4 | Community | STV","players":null},{"server_id":142,"name":"Uncletopia | São Paulo | 1 | All Maps","name_short":"sao-1","host":"sao-1.br.uncletopia.com","port":27015,"enabled":true,"region":"sa","cc":"br","latitude":-23.533773,"longitude":-46.62529,"reserved":0,"last_update":"0001-01-01T00:00:00Z","name_a2s":"Uncletopia | São Paulo | 1 | All Maps","protocol":17,"map":"koth_lakeside_final","folder":"tf","game":"Team Fortress","app_id":440,"player_count":0,"max_players":24,"Bots":0,"server_type":"Dedicated","server_os":"Linux","password":true,"vac":true,"version":"7961495","steam_id":85568392924469996,"keywords":["cp","nocrits","nodmgspread","uncletopia"],"game_id":440,"stv_port":27016,"stv_name":"Uncletopia | São Paulo | 1 | All Maps | STV","players":null},{"server_id":143,"name":"Uncletopia | São Paulo | 2 | Community","name_short":"sao-2","host":"sao-2.br.uncletopia.com","port":27015,"enabled":true,"region":"sa","cc":"br","latitude":-23.533773,"longitude":-46.62529,"reserved":0,"last_update":"0001-01-01T00:00:00Z","name_a2s":"Uncletopia | São Paulo | 2 | Community","protocol":17,"map":"workshop/koth_product_final.ugc454272353","folder":"tf","game":"Team Fortress","app_id":440,"player_count":0,"max_players":24,"Bots":0,"server_type":"Dedicated","server_os":"Linux","password":true,"vac":true,"version":"7961495","steam_id":85568392924485349,"keywords":["cp","nocrits","nodmgspread","uncletopia"],"game_id":440,"stv_port":27016,"stv_name":"Uncletopia | São Paulo | 2 | Community | STV","players":null},{"server_id":7,"name":"Uncletopia | Seattle | 1 | All Maps","name_short":"sea-1","host":"sea-1.us.uncletopia.com","port":27015,"enabled":true,"region":"us-west","cc":"us","latitude":47.608013,"longitude":-122.33517,"reserved":0,"last_update":"0001-01-01T00:00:00Z","name_a2s":"Uncletopia | Seattle | 1 | All Maps","protocol":17,"map":"pl_frontier_final","folder":"tf","game":"Team Fortress","app_id":440,"player_count":24,"max_players":24,"Bots":0,"server_type":"Dedicated","server_os":"Linux","password":true,"vac":true,"version":"7961495","steam_id":85568392924469997,"keywords":["nocrits","nodmgspread","payload","uncletopia"],"game_id":440,"stv_port":27016,"stv_name":"Uncletopia | Seattle | 1 | All Maps | STV","players":[{"user_id":101,"name":"Morse","steam_id":76561198039944542,"connected_time":1053000000000,"state":"active","ping":54},{"user_id":46,"name":"DaddyGalaxy","steam_id":76561198139697796,"connected_time":4652000000000,"state":"active","ping":51},{"user_id":104,"name":"bear1boss fan","steam_id":76561198047850813,"connected_time":774000000000,"state":"active","ping":45},{"user_id":35,"name":"theManMan","steam_id":76561199488457138,"connected_time":5383000000000,"state":"active","ping":55},{"user_id":105,"name":"Taco+Taco=Burrito","steam_id":76561198063128663,"connected_time":773000000000,"state":"active","ping":60},{"user_id":72,"name":"«Dᵃʳᵏ.,,.Tᵉᵐᵖ»","steam_id":76561198018185884,"connected_time":2789000000000,"state":"active","ping":41},{"user_id":75,"name":"personal taco trainer","steam_id":76561198064260235,"connected_time":2476000000000,"state":"active","ping":96},{"user_id":109,"name":"bigchungusgaming(real)","steam_id":76561198273392037,"connected_time":657000000000,"state":"active","ping":78},{"user_id":78,"name":"Youngblood5780","steam_id":76561198113934410,"connected_time":2218000000000,"state":"active","ping":83},{"user_id":93,"name":"Keamy","steam_id":76561199471434875,"connected_time":1464000000000,"state":"active","ping":45},{"user_id":102,"name":"Sly Marbo","steam_id":76561198135271741,"connected_time":1031000000000,"state":"active","ping":62},{"user_id":110,"name":"Yoshidube","steam_id":76561198352675680,"connected_time":644000000000,"state":"active","ping":138},{"user_id":98,"name":"Reed the Flame Shadow","steam_id":76561198348354629,"connected_time":1330000000000,"state":"active","ping":81},{"user_id":56,"name":"no vc no c","steam_id":76561197989503095,"connected_time":3784000000000,"state":"active","ping":156},{"user_id":96,"name":"Nom Skirrett","steam_id":76561198014600788,"connected_time":1377000000000,"state":"active","ping":69},{"user_id":107,"name":"Bus!","steam_id":76561199082304859,"connected_time":759000000000,"state":"active","ping":50},{"user_id":94,"name":"ryanzandorLX","steam_id":76561199068623664,"connected_time":1461000000000,"state":"active","ping":51},{"user_id":81,"name":"replaycoding","steam_id":76561198289737954,"connected_time":2014000000000,"state":"active","ping":42},{"user_id":97,"name":"Sunshine","steam_id":76561198885528098,"connected_time":1340000000000,"state":"active","ping":128},{"user_id":83,"name":"Jukebox","steam_id":76561198043930636,"connected_time":1933000000000,"state":"active","ping":55},{"user_id":108,"name":"jack_airshots","steam_id":76561198252328518,"connected_time":741000000000,"state":"active","ping":88},{"user_id":88,"name":"Dr. Koch","steam_id":76561198225887056,"connected_time":1801000000000,"state":"active","ping":114},{"user_id":89,"name":"SneekiCheekiQbone","steam_id":76561198045077980,"connected_time":1712000000000,"state":"active","ping":77},{"user_id":112,"name":"ClickNate","steam_id":76561198380027912,"connected_time":504000000000,"state":"active","ping":108}]},{"server_id":119,"name":"Uncletopia | Seattle | 2 | All Maps","name_short":"sea-2","host":"sea-1.us.uncletopia.com","port":27025,"enabled":true,"region":"us-west","cc":"us","latitude":47.608013,"longitude":-122.33517,"reserved":0,"last_update":"0001-01-01T00:00:00Z","name_a2s":"Uncletopia | Seattle | 2 | All Maps","protocol":17,"map":"cp_process_final","folder":"tf","game":"Team Fortress","app_id":440,"player_count":0,"max_players":24,"Bots":0,"server_type":"Dedicated","server_os":"Linux","password":true,"vac":true,"version":"7961495","steam_id":85568392924469998,"keywords":["cp","nocrits","nodmgspread","uncletopia"],"game_id":440,"stv_port":27026,"stv_name":"Uncletopia | Seattle | 2 | All Maps | STV","players":null},{"server_id":406,"name":"Uncletopia | Seattle | 3 | Stopwatch","name_short":"sea-3","host":"sea-1.us.uncletopia.com","port":27035,"enabled":true,"region":"us-west","cc":"us","latitude":47.608013,"longitude":-122.33517,"reserved":0,"last_update":"0001-01-01T00:00:00Z","name_a2s":"Uncletopia | Seattle | 3 | Stopwatch","protocol":17,"map":"pl_pier","folder":"tf","game":"Team Fortress","app_id":440,"player_count":0,"max_players":24,"Bots":0,"server_type":"Dedicated","server_os":"Linux","password":true,"vac":true,"version":"7961495","steam_id":85568392924515217,"keywords":["nocrits","nodmgspread","payload","uncletopia"],"game_id":440,"stv_port":27036,"stv_name":"Uncletopia | Seattle | 3 | Stopwatch | STV","players":null},{"server_id":17,"name":"Uncletopia | San Francisco | 1 | All Maps","name_short":"sfo-1","host":"sfo-1.us.uncletopia.com","port":27015,"enabled":true,"region":"us-west","cc":"us","latitude":37.77397,"longitude":-122.4313,"reserved":0,"last_update":"0001-01-01T00:00:00Z","name_a2s":"Uncletopia | San Francisco | 1 | All Maps","protocol":17,"map":"koth_cascade","folder":"tf","game":"Team Fortress","app_id":440,"player_count":0,"max_players":24,"Bots":0,"server_type":"Dedicated","server_os":"Linux","password":true,"vac":true,"version":"7961495","steam_id":85568392924469999,"keywords":["cp","nocrits","nodmgspread","uncletopia"],"game_id":440,"stv_port":27016,"stv_name":"Uncletopia | San Francisco | 1 | All Maps | STV","players":null},{"server_id":18,"name":"Uncletopia | San Francisco | 2 | All Maps","name_short":"sfo-2","host":"sfo-1.us.uncletopia.com","port":27025,"enabled":true,"region":"us-west","cc":"us","latitude":37.77397,"longitude":-122.4313,"reserved":0,"last_update":"0001-01-01T00:00:00Z","name_a2s":"Uncletopia | San Francisco | 2 | All Maps","protocol":17,"map":"cp_dustbowl","folder":"tf","game":"Team Fortress","app_id":440,"player_count":24,"max_players":24,"Bots":0,"server_type":"Dedicated","server_os":"Linux","password":true,"vac":true,"version":"7961495","steam_id":85568392924470000,"keywords":["cp","nocrits","nodmgspread","uncletopia"],"game_id":440,"stv_port":27026,"stv_name":"Uncletopia | San Francisco | 2 | All Maps | STV","players":[{"user_id":112,"name":"Supersonic","steam_id":76561198042167127,"connected_time":4408000000000,"state":"active","ping":67},{"user_id":147,"name":"Brastion","steam_id":76561198257707303,"connected_time":1811000000000,"state":"active","ping":84},{"user_id":146,"name":"FunnyGoomba","steam_id":76561198279865229,"connected_time":1878000000000,"state":"active","ping":62},{"user_id":111,"name":"Yokogaijin Jr.","steam_id":76561199124647094,"connected_time":4497000000000,"state":"active","ping":49},{"user_id":158,"name":"usedhalfcart","steam_id":76561198072621852,"connected_time":1068000000000,"state":"active","ping":82},{"user_id":148,"name":"Laxoloni","steam_id":76561199197045700,"connected_time":1682000000000,"state":"active","ping":69},{"user_id":175,"name":"Slimey","steam_id":76561199200969139,"connected_time":613000000000,"state":"active","ping":89},{"user_id":128,"name":"BlazedBunny","steam_id":76561198243610560,"connected_time":3552000000000,"state":"active","ping":88},{"user_id":178,"name":"nugit74","steam_id":76561198325736178,"connected_time":552000000000,"state":"active","ping":60},{"user_id":159,"name":"͓͓̝͙̠̝͖͉̥C͂͑ͬ͛͋̿","steam_id":76561198423390455,"connected_time":1001000000000,"state":"active","ping":81},{"user_id":44,"name":"MORE BOUNCE TO THE OUNCE","steam_id":76561198243399336,"connected_time":8736000000000,"state":"active","ping":53},{"user_id":143,"name":"CALsHero09","steam_id":76561198155881095,"connected_time":2674000000000,"state":"active","ping":117},{"user_id":164,"name":"Catscr","steam_id":76561198076589280,"connected_time":842000000000,"state":"active","ping":114},{"user_id":152,"name":"Vaudeville Villain","steam_id":76561197991063996,"connected_time":1249000000000,"state":"active","ping":102},{"user_id":153,"name":"Bandit","steam_id":76561199087543553,"connected_time":1244000000000,"state":"active","ping":66},{"user_id":160,"name":"johnny","steam_id":76561198050225055,"connected_time":959000000000,"state":"active","ping":59},{"user_id":165,"name":"Bluedemon","steam_id":76561199212058684,"connected_time":791000000000,"state":"active","ping":59},{"user_id":155,"name":"Juicy","steam_id":76561198049220780,"connected_time":1169000000000,"state":"active","ping":60},{"user_id":180,"name":"Spam The Alien","steam_id":76561199122290968,"connected_time":407000000000,"state":"active","ping":85},{"user_id":168,"name":"Sack Stomper","steam_id":76561198154616010,"connected_time":722000000000,"state":"active","ping":123},{"user_id":176,"name":"ScoutBox","steam_id":76561198111539895,"connected_time":597000000000,"state":"active","ping":58},{"user_id":177,"name":"Wilma","steam_id":76561198138420251,"connected_time":594000000000,"state":"active","ping":119},{"user_id":179,"name":"Dr.Pig","steam_id":76561198069496754,"connected_time":538000000000,"state":"active","ping":99},{"user_id":92,"name":"Chimp Peen's Revunge","steam_id":76561198165778514,"connected_time":5829000000000,"state":"active","ping":86}]},{"server_id":19,"name":"Uncletopia | San Francisco | 3 | Stopwatch","name_short":"sfo-3","host":"sfo-1.us.uncletopia.com","port":27035,"enabled":true,"region":"us-west","cc":"us","latitude":37.77397,"longitude":-122.4313,"reserved":0,"last_update":"0001-01-01T00:00:00Z","name_a2s":"Uncletopia | San Francisco | 3 | Stopwatch","protocol":17,"map":"pl_pier","folder":"tf","game":"Team Fortress","app_id":440,"player_count":0,"max_players":24,"Bots":0,"server_type":"Dedicated","server_os":"Linux","password":true,"vac":true,"version":"7961495","steam_id":85568392924742824,"keywords":["nocrits","nodmgspread","payload","uncletopia"],"game_id":440,"stv_port":27036,"stv_name":"Uncletopia | San Francisco | 3 | Stopwatch | STV","players":null},{"server_id":20,"name":"Uncletopia | San Francisco | 4 | Community","name_short":"sfo-4","host":"sfo-1.us.uncletopia.com","port":27045,"enabled":true,"region":"us-west","cc":"us","latitude":37.77397,"longitude":-122.4313,"reserved":0,"last_update":"0001-01-01T00:00:00Z","name_a2s":"Uncletopia | San Francisco | 4 | Community","protocol":17,"map":"pl_pier","folder":"tf","game":"Team Fortress","app_id":440,"player_count":0,"max_players":24,"Bots":0,"server_type":"Dedicated","server_os":"Linux","password":true,"vac":true,"version":"7961495","steam_id":85568392924742826,"keywords":["nocrits","nodmgspread","payload","uncletopia"],"game_id":440,"stv_port":27046,"stv_name":"Uncletopia | San Francisco | 4 | Community | STV","players":null},{"server_id":141,"name":"Uncletopia | Sydney | 1 | All Maps","name_short":"syd-1","host":"syd-1.au.uncletopia.com","port":27015,"enabled":true,"region":"au","cc":"au","latitude":-33.865143,"longitude":151.2099,"reserved":0,"last_update":"0001-01-01T00:00:00Z","name_a2s":"Uncletopia | Sydney | 1 | All Maps","protocol":17,"map":"koth_viaduct","folder":"tf","game":"Team Fortress","app_id":440,"player_count":0,"max_players":24,"Bots":0,"server_type":"Dedicated","server_os":"Linux","password":true,"vac":true,"version":"7961495","steam_id":85568392924470001,"keywords":["cp","nocrits","nodmgspread","uncletopia"],"game_id":440,"stv_port":27016,"stv_name":"Uncletopia | Sydney | 1 | All Maps | STV","players":null},{"server_id":123,"name":"Uncletopia | Sydney | 2 | All Maps","name_short":"syd-2","host":"syd-1.au.uncletopia.com","port":27025,"enabled":true,"region":"au","cc":"au","latitude":-33.865143,"longitude":151.2099,"reserved":0,"last_update":"0001-01-01T00:00:00Z","name_a2s":"Uncletopia | Sydney | 2 | All Maps","protocol":17,"map":"koth_lakeside_final","folder":"tf","game":"Team Fortress","app_id":440,"player_count":0,"max_players":24,"Bots":0,"server_type":"Dedicated","server_os":"Linux","password":true,"vac":true,"version":"7961495","steam_id":85568392924470002,"keywords":["cp","nocrits","nodmgspread","uncletopia"],"game_id":440,"stv_port":27026,"stv_name":"Uncletopia | Sydney | 2 | All Maps | STV","players":null},{"server_id":395,"name":"Uncletopia | Sydney | 3 | All Maps","name_short":"syd-3","host":"syd-1.au.uncletopia.com","port":27035,"enabled":true,"region":"au","cc":"au","latitude":-33.865143,"longitude":151.2099,"reserved":0,"last_update":"0001-01-01T00:00:00Z","name_a2s":"Uncletopia | Sydney | 3 | All Maps","protocol":17,"map":"pl_frontier_final","folder":"tf","game":"Team Fortress","app_id":440,"player_count":0,"max_players":24,"Bots":0,"server_type":"Dedicated","server_os":"Linux","password":true,"vac":true,"version":"7961495","steam_id":85568392925194467,"keywords":["nocrits","nodmgspread","payload","uncletopia"],"game_id":440,"stv_port":27036,"stv_name":"Uncletopia | Sydney | 3 | All Maps | STV","players":null},{"server_id":396,"name":"Uncletopia | Sydney | 4 | All Maps","name_short":"syd-4","host":"syd-1.au.uncletopia.com","port":27045,"enabled":true,"region":"au","cc":"au","latitude":-33.865143,"longitude":151.2099,"reserved":0,"last_update":"0001-01-01T00:00:00Z","name_a2s":"Uncletopia | Sydney | 4 | All Maps","protocol":17,"map":"cp_process_final","folder":"tf","game":"Team Fortress","app_id":440,"player_count":0,"max_players":24,"Bots":0,"server_type":"Dedicated","server_os":"Linux","password":true,"vac":true,"version":"7961495","steam_id":85568392925397958,"keywords":["cp","nocrits","nodmgspread","uncletopia"],"game_id":440,"stv_port":27046,"stv_name":"Uncletopia | Sydney | 4 | All Maps | STV","players":null},{"server_id":58,"name":"Uncletopia | Sydney | 5 | Stopwatch","name_short":"syd-5","host":"syd-1.au.uncletopia.com","port":27055,"enabled":true,"region":"au","cc":"au","latitude":-33.865143,"longitude":151.2099,"reserved":0,"last_update":"0001-01-01T00:00:00Z","name_a2s":"Uncletopia | Sydney | 5 | Stopwatch","protocol":17,"map":"pl_frontier_final","folder":"tf","game":"Team Fortress","app_id":440,"player_count":0,"max_players":24,"Bots":0,"server_type":"Dedicated","server_os":"Linux","password":true,"vac":true,"version":"7961495","steam_id":85568392925397959,"keywords":["nocrits","nodmgspread","payload","uncletopia"],"game_id":440,"stv_port":27056,"stv_name":"Uncletopia | Sydney | 5 | Stopwatch | STV","players":null},{"server_id":59,"name":"Uncletopia | Sydney | 6 | Community","name_short":"syd-6","host":"syd-1.au.uncletopia.com","port":27065,"enabled":true,"region":"au","cc":"au","latitude":-33.865143,"longitude":151.2099,"reserved":0,"last_update":"0001-01-01T00:00:00Z","name_a2s":"Uncletopia | Sydney | 6 | Community","protocol":17,"map":"cp_sunshine","folder":"tf","game":"Team Fortress","app_id":440,"player_count":0,"max_players":24,"Bots":0,"server_type":"Dedicated","server_os":"Linux","password":true,"vac":true,"version":"7961495","steam_id":85568392925397960,"keywords":["cp","nocrits","nodmgspread","uncletopia"],"game_id":440,"stv_port":27066,"stv_name":"Uncletopia | Sydney | 6 | Community | STV","players":null},{"server_id":49,"name":"Uncletopia | Warsaw | 1 | One Thousand Uncles","name_short":"waw-1","host":"waw-1.pl.uncletopia.com","port":27015,"enabled":true,"region":"eu","cc":"pl","latitude":52.2297,"longitude":21.017532,"reserved":0,"last_update":"0001-01-01T00:00:00Z","name_a2s":"Uncletopia | Warsaw | 1 | One Thousand Uncles","protocol":17,"map":"cp_mercenarypark","folder":"tf","game":"Team Fortress","app_id":440,"player_count":0,"max_players":32,"Bots":0,"server_type":"Dedicated","server_os":"Linux","password":true,"vac":true,"version":"7961495","steam_id":85568392925397850,"keywords":["alltalk","cp","danepve","increased_maxplayers","nocrits","norespawntime","uncletopia"],"game_id":440,"stv_port":0,"stv_name":"","players":null},{"server_id":50,"name":"Uncletopia | Warsaw | 2 | One Thousand Uncles","name_short":"waw-2","host":"waw-1.pl.uncletopia.com","port":27025,"enabled":true,"region":"eu","cc":"pl","latitude":52.2297,"longitude":21.017532,"reserved":0,"last_update":"0001-01-01T00:00:00Z","name_a2s":"Uncletopia | Warsaw | 2 | One Thousand Uncles","protocol":17,"map":"pl_thundermountain","folder":"tf","game":"Team Fortress","app_id":440,"player_count":27,"max_players":32,"Bots":16,"server_type":"Dedicated","server_os":"Linux","password":true,"vac":true,"version":"7961495","steam_id":85568392925397851,"keywords":["alltalk","bots","danepve","increased_maxplayers","nocrits","norespawntime","payload","uncletopia"],"game_id":440,"stv_port":0,"stv_name":"","players":[{"user_id":361,"name":"bp","steam_id":76561197988192258,"connected_time":839000000000,"state":"active","ping":62},{"user_id":347,"name":"KaruBiznjek","steam_id":76561198043898118,"connected_time":3656000000000,"state":"active","ping":88},{"user_id":359,"name":"CurlyPaty - [YouTube]","steam_id":76561198125025171,"connected_time":1229000000000,"state":"active","ping":33},{"user_id":350,"name":"Sir Kiops","steam_id":76561198022769275,"connected_time":2976000000000,"state":"active","ping":106},{"user_id":364,"name":"cebula","steam_id":76561199144310843,"connected_time":284000000000,"state":"active","ping":41},{"user_id":353,"name":"Piquesque","steam_id":76561198286763046,"connected_time":2575000000000,"state":"active","ping":120},{"user_id":358,"name":"Bartis","steam_id":76561198119512221,"connected_time":1674000000000,"state":"active","ping":60},{"user_id":355,"name":"OutOfDucks","steam_id":76561198166376227,"connected_time":1957000000000,"state":"active","ping":81},{"user_id":356,"name":"sha'lls ba'ved","steam_id":76561198866358613,"connected_time":1875000000000,"state":"active","ping":187},{"user_id":360,"name":"Darkie","steam_id":76561198000388812,"connected_time":1001000000000,"state":"active","ping":124},{"user_id":365,"name":"bENtO","steam_id":76561198082076676,"connected_time":94000000000,"state":"active","ping":57}]},{"server_id":51,"name":"Uncletopia | Warsaw | 3 | All Maps","name_short":"waw-3","host":"waw-1.pl.uncletopia.com","port":27035,"enabled":true,"region":"eu","cc":"pl","latitude":52.2297,"longitude":21.017532,"reserved":0,"last_update":"0001-01-01T00:00:00Z","name_a2s":"Uncletopia | Warsaw | 3 | All Maps","protocol":17,"map":"pl_swiftwater_final1","folder":"tf","game":"Team Fortress","app_id":440,"player_count":0,"max_players":24,"Bots":0,"server_type":"Dedicated","server_os":"Linux","password":true,"vac":true,"version":"7961495","steam_id":85568392925397852,"keywords":["nocrits","nodmgspread","payload","uncletopia"],"game_id":440,"stv_port":27036,"stv_name":"Uncletopia | Warsaw | 3 | All Maps | STV","players":null},{"server_id":52,"name":"Uncletopia | Warsaw | 4 | All Maps","name_short":"waw-4","host":"waw-1.pl.uncletopia.com","port":27045,"enabled":true,"region":"eu","cc":"pl","latitude":52.2297,"longitude":21.017532,"reserved":0,"last_update":"0001-01-01T00:00:00Z","name_a2s":"Uncletopia | Warsaw | 4 | All Maps","protocol":17,"map":"koth_cascade","folder":"tf","game":"Team Fortress","app_id":440,"player_count":0,"max_players":24,"Bots":0,"server_type":"Dedicated","server_os":"Linux","password":true,"vac":true,"version":"7961495","steam_id":85568392925397853,"keywords":["cp","nocrits","nodmgspread","uncletopia"],"game_id":440,"stv_port":27046,"stv_name":"Uncletopia | Warsaw | 4 | All Maps | STV","players":null},{"server_id":53,"name":"Uncletopia | Warsaw | 5 | Stopwatch","name_short":"waw-5","host":"waw-1.pl.uncletopia.com","port":27055,"enabled":true,"region":"eu","cc":"pl","latitude":52.2297,"longitude":21.017532,"reserved":0,"last_update":"0001-01-01T00:00:00Z","name_a2s":"Uncletopia | Warsaw | 5 | Stopwatch","protocol":17,"map":"cp_sunshine","folder":"tf","game":"Team Fortress","app_id":440,"player_count":0,"max_players":24,"Bots":0,"server_type":"Dedicated","server_os":"Linux","password":true,"vac":true,"version":"7961495","steam_id":85568392925397854,"keywords":["cp","nocrits","nodmgspread","uncletopia"],"game_id":440,"stv_port":27056,"stv_name":"Uncletopia | Warsaw | 5 | Stopwatch | STV","players":null},{"server_id":54,"name":"Uncletopia | Warsaw | 6 | Community","name_short":"waw-6","host":"waw-1.pl.uncletopia.com","port":27065,"enabled":true,"region":"eu","cc":"pl","latitude":52.2297,"longitude":21.017532,"reserved":0,"last_update":"0001-01-01T00:00:00Z","name_a2s":"Uncletopia | Warsaw | 6 | Community","protocol":17,"map":"workshop/cp_indulge.ugc528106646","folder":"tf","game":"Team Fortress","app_id":440,"player_count":0,"max_players":24,"Bots":0,"server_type":"Dedicated","server_os":"Linux","password":true,"vac":true,"version":"7961495","steam_id":85568392925397856,"keywords":["cp","nocrits","nodmgspread","uncletopia"],"game_id":440,"stv_port":27066,"stv_name":"Uncletopia | Warsaw | 6 | Community | STV","players":null}]}