{"status":true,"message":"","result":[{"server_id":9,"name":"Uncletopia | Atlanta | 1 | All Maps","name_short":"atl-1","host":"atl-1.us.uncletopia.com","port":27015,"enabled":true,"region":"us-east","cc":"us","latitude":33.753746,"longitude":-84.38633,"reserved":0,"last_update":"0001-01-01T00:00:00Z","name_a2s":"Uncletopia | Atlanta | 1 | All Maps","protocol":17,"map":"koth_suijin","folder":"tf","game":"Team Fortress","app_id":440,"player_count":1,"max_players":24,"Bots":0,"server_type":"Dedicated","server_os":"Linux","password":true,"vac":true,"version":"7708610","steam_id":85568392924469982,"keywords":["cp","nocrits","nodmgspread","uncletopia"],"game_id":440,"stv_port":27016,"stv_name":"Uncletopia | Atlanta | 1 | All Maps | STV","players":[{"user_id":17,"name":"Madkiller Max","steam_id":76561197974470705,"connected_time":524000000000,"state":"active","ping":56}]},{"server_id":400,"name":"Uncletopia | Atlanta | 3 | All Maps","name_short":"atl-3","host":"atl-1.us.uncletopia.com","port":27035,"enabled":true,"region":"us-east","cc":"us","latitude":33.753746,"longitude":-84.38633,"reserved":0,"last_update":"0001-01-01T00:00:00Z","name_a2s":"Uncletopia | Atlanta | 3 | All Maps","protocol":17,"map":"koth_highpass","folder":"tf","game":"Team Fortress","app_id":440,"player_count":0,"max_players":24,"Bots":0,"server_type":"Dedicated","server_os":"Linux","password":true,"vac":true,"version":"7708610","steam_id":85568392924515187,"keywords":["cp","nocrits","nodmgspread","uncletopia"],"game_id":440,"stv_port":27036,"stv_name":"Uncletopia | Atlanta | 3 | All Maps | STV","players":null},{"server_id":401,"name":"Uncletopia | Atlanta | 4 | No Payload","name_short":"atl-4","host":"atl-1.us.uncletopia.com","port":27045,"enabled":true,"region":"us-east","cc":"us","latitude":33.753746,"longitude":-84.38633,"reserved":0,"last_update":"0001-01-01T00:00:00Z","name_a2s":"Uncletopia | Atlanta | 4 | No Payload","protocol":17,"map":"cp_altitude","folder":"tf","game":"Team Fortress","app_id":440,"player_count":0,"max_players":24,"Bots":0,"server_type":"Dedicated","server_os":"Linux","password":true,"vac":true,"version":"7708610","steam_id":85568392924515188,"keywords":["cp","nocrits","nodmgspread","uncletopia"],"game_id":440,"stv_port":27046,"stv_name":"Uncletopia | Atlanta | 4 | No Payload | STV","players":null},{"server_id":2,"name":"Uncletopia | Chicago | 1 | All Maps","name_short":"chi-1","host":"chi-1.us.uncletopia.com","port":27015,"enabled":true,"region":"us-central","cc":"us","latitude":41.881832,"longitude":-87.62318,"reserved":0,"last_update":"0001-01-01T00:00:00Z","name_a2s":"Uncletopia | Chicago | 1 | All Maps","protocol":17,"map":"cp_process_final","folder":"tf","game":"Team Fortress","app_id":440,"player_count":24,"max_players":24,"Bots":0,"server_type":"Dedicated","server_os":"Linux","password":true,"vac":true,"version":"7708610","steam_id":85568392924469984,"keywords":["cp","nocrits","nodmgspread","uncletopia"],"game_id":440,"stv_port":27016,"stv_name":"Uncletopia | Chicago | 1 | All Maps | STV","players":[{"user_id":82,"name":"Rasputia","steam_id":76561198132051047,"connected_time":6205000000000,"state":"active","ping":106},{"user_id":149,"name":"dust","steam_id":76561198045218909,"connected_time":149000000000,"state":"active","ping":88},{"user_id":131,"name":"kibble","steam_id":76561198239909096,"connected_time":1348000000000,"state":"active","ping":66},{"user_id":120,"name":"paj","steam_id":76561198080026026,"connected_time":3130000000000,"state":"active","ping":92},{"user_id":6,"name":"Atlas","steam_id":76561198127975050,"connected_time":11580000000000,"state":"active","ping":62},{"user_id":122,"name":"Dill","steam_id":76561197985091914,"connected_time":2846000000000,"state":"active","ping":58},{"user_id":144,"name":"Drachma","steam_id":76561198007310514,"connected_time":951000000000,"state":"active","ping":54},{"user_id":132,"name":"Scorpie Doodle","steam_id":76561198021845763,"connected_time":1340000000000,"state":"active","ping":53},{"user_id":133,"name":"Clean","steam_id":76561198061224922,"connected_time":1319000000000,"state":"active","ping":75},{"user_id":116,"name":"Cozy","steam_id":76561198003807560,"connected_time":3493000000000,"state":"active","ping":169},{"user_id":108,"name":"username","steam_id":76561198130826890,"connected_time":4593000000000,"state":"active","ping":85},{"user_id":14,"name":"defcon","steam_id":76561198100656328,"connected_time":11558000000000,"state":"active","ping":77},{"user_id":114,"name":"ÒwÓ","steam_id":76561197997304387,"connected_time":3498000000000,"state":"active","ping":68},{"user_id":121,"name":"DJ Chalice","steam_id":76561197974872458,"connected_time":3116000000000,"state":"active","ping":62},{"user_id":147,"name":"Scut","steam_id":76561198973734291,"connected_time":668000000000,"state":"active","ping":93},{"user_id":127,"name":"Ruusty","steam_id":76561198327249755,"connected_time":2284000000000,"state":"active","ping":56},{"user_id":123,"name":"Rusty","steam_id":76561197972625397,"connected_time":2565000000000,"state":"active","ping":72},{"user_id":119,"name":"Neil Degrassy","steam_id":76561198132980934,"connected_time":3269000000000,"state":"active","ping":57},{"user_id":25,"name":"177013","steam_id":76561198072303290,"connected_time":11473000000000,"state":"active","ping":62},{"user_id":126,"name":"SnowStorm","steam_id":76561198095817025,"connected_time":2510000000000,"state":"active","ping":48},{"user_id":57,"name":"ඞ","steam_id":76561198275101482,"connected_time":9131000000000,"state":"active","ping":137},{"user_id":125,"name":"Mr. Tickle","steam_id":76561198126684647,"connected_time":2524000000000,"state":"active","ping":60},{"user_id":130,"name":"The BeamNG Mattress","steam_id":76561198026640869,"connected_time":1359000000000,"state":"active","ping":82},{"user_id":102,"name":"Splinto","steam_id":76561198111260488,"connected_time":5020000000000,"state":"active","ping":55}]},{"server_id":106,"name":"Uncletopia | Chicago | 2 | All Maps","name_short":"chi-2","host":"chi-1.us.uncletopia.com","port":27025,"enabled":true,"region":"us-central","cc":"us","latitude":41.881832,"longitude":-87.62318,"reserved":0,"last_update":"0001-01-01T00:00:00Z","name_a2s":"Uncletopia | Chicago | 2 | All Maps","protocol":17,"map":"pl_barnblitz","folder":"tf","game":"Team Fortress","app_id":440,"player_count":0,"max_players":24,"Bots":0,"server_type":"Dedicated","server_os":"Linux","password":true,"vac":true,"version":"7708610","steam_id":85568392924469985,"keywords":["nocrits","nodmgspread","payload","uncletopia"],"game_id":440,"stv_port":27026,"stv_name":"Uncletopia | Chicago | 2 | All Maps | STV","players":null},{"server_id":402,"name":"Uncletopia | Chicago | 3 | All Maps","name_short":"chi-3","host":"chi-1.us.uncletopia.com","port":27035,"enabled":true,"region":"us-central","cc":"us","latitude":41.881832,"longitude":-87.62318,"reserved":0,"last_update":"0001-01-01T00:00:00Z","name_a2s":"Uncletopia | Chicago | 3 | All Maps","protocol":17,"map":"cp_dustbowl","folder":"tf","game":"Team Fortress","app_id":440,"player_count":0,"max_players":24,"Bots":0,"server_type":"Dedicated","server_os":"Linux","password":true,"vac":true,"version":"7708610","steam_id":85568392924515191,"keywords":["cp","nocrits","nodmgspread","uncletopia"],"game_id":440,"stv_port":0,"stv_name":"","players":null},{"server_id":403,"name":"Uncletopia | Chicago | 4 | All Maps","name_short":"chi-4","host":"chi-1.us.uncletopia.com","port":27045,"enabled":true,"region":"us-central","cc":"us","latitude":41.881832,"longitude":-87.62318,"reserved":0,"last_update":"0001-01-01T00:00:00Z","name_a2s":"Uncletopia | Chicago | 4 | All Maps","protocol":17,"map":"koth_lakeside_final","folder":"tf","game":"Team Fortress","app_id":440,"player_count":0,"max_players":24,"Bots":0,"server_type":"Dedicated","server_os":"Linux","password":true,"vac":true,"version":"7708610","steam_id":85568392924515193,"keywords":["cp","nocrits","nodmgspread","uncletopia"],"game_id":440,"stv_port":27046,"stv_name":"Uncletopia | Chicago | 4 | All Maps | STV","players":null},{"server_id":36,"name":"Uncletopia | Chicago | 5 | All Maps","name_short":"chi-5","host":"chi-2.us.uncletopia.com","port":27015,"enabled":true,"region":"us-central","cc":"us","latitude":41.881832,"longitude":-87.62318,"reserved":0,"last_update":"0001-01-01T00:00:00Z","name_a2s":"Uncletopia | Chicago | 5 | All Maps","protocol":17,"map":"cp_snakewater_final1","folder":"tf","game":"Team Fortress","app_id":440,"player_count":0,"max_players":24,"Bots":0,"server_type":"Dedicated","server_os":"Linux","password":true,"vac":true,"version":"7708610","steam_id":85568392924866362,"keywords":["cp","nocrits","nodmgspread","uncletopia"],"game_id":440,"stv_port":0,"stv_name":"","players":null},{"server_id":37,"name":"Uncletopia | Chicago | 6 | All Maps","name_short":"chi-6","host":"chi-2.us.uncletopia.com","port":27025,"enabled":true,"region":"us-central","cc":"us","latitude":41.881832,"longitude":-87.62318,"reserved":0,"last_update":"0001-01-01T00:00:00Z","name_a2s":"Uncletopia | Chicago | 6 | All Maps","protocol":17,"map":"koth_cascade","folder":"tf","game":"Team Fortress","app_id":440,"player_count":0,"max_players":24,"Bots":0,"server_type":"Dedicated","server_os":"Linux","password":true,"vac":true,"version":"7708610","steam_id":85568392924866363,"keywords":["cp","nocrits","nodmgspread","uncletopia"],"game_id":440,"stv_port":0,"stv_name":"","players":null},{"server_id":38,"name":"Uncletopia | Chicago | 7 | No Payload","name_short":"chi-7","host":"chi-2.us.uncletopia.com","port":27035,"enabled":true,"region":"us-central","cc":"us","latitude":41.881832,"longitude":-87.62318,"reserved":0,"last_update":"0001-01-01T00:00:00Z","name_a2s":"Uncletopia | Chicago | 7 | No Payload","protocol":17,"map":"koth_viaduct","folder":"tf","game":"Team Fortress","app_id":440,"player_count":0,"max_players":24,"Bots":0,"server_type":"Dedicated","server_os":"Linux","password":true,"vac":true,"version":"7708610","steam_id":85568392924866364,"keywords":["cp","nocrits","nodmgspread","uncletopia"],"game_id":440,"stv_port":0,"stv_name":"","players":null},{"server_id":39,"name":"Uncletopia | Chicago | 8 | Community","name_short":"chi-8","host":"chi-2.us.uncletopia.com","port":27045,"enabled":true,"region":"us-central","cc":"us","latitude":41.881832,"longitude":-87.62318,"reserved":0,"last_update":"0001-01-01T00:00:00Z","name_a2s":"Uncletopia | Chicago | 8 | Community","protocol":17,"map":"pl_pier","folder":"tf","game":"Team Fortress","app_id":440,"player_count":0,"max_players":24,"Bots":0,"server_type":"Dedicated","server_os":"Linux","password":true,"vac":true,"version":"7708610","steam_id":85568392924866365,"keywords":["nocrits","nodmgspread","payload","uncletopia"],"game_id":440,"stv_port":0,"stv_name":"","players":null},{"server_id":8,"name":"Uncletopia | Dallas | 1 | All Maps","name_short":"dal-1","host":"dal-1.us.uncletopia.com","port":27015,"enabled":true,"region":"us-central","cc":"us","latitude":32.779167,"longitude":-96.80889,"reserved":0,"last_update":"0001-01-01T00:00:00Z","name_a2s":"Uncletopia | Dallas | 1 | All Maps","protocol":17,"map":"pl_upward","folder":"tf","game":"Team Fortress","app_id":440,"player_count":12,"max_players":24,"Bots":0,"server_type":"Dedicated","server_os":"Linux","password":true,"vac":true,"version":"7708610","steam_id":85568392924469986,"keywords":["nocrits","nodmgspread","payload","uncletopia"],"game_id":440,"stv_port":27016,"stv_name":"Uncletopia | Dallas | 1 | All Maps | STV","players":[{"user_id":3,"name":"Viperbro_FGC #SaveTF2","steam_id":76561198140863068,"connected_time":902000000000,"state":"active","ping":67},{"user_id":14,"name":"motherfucker 2.0","steam_id":76561198141189209,"connected_time":148000000000,"state":"active","ping":42},{"user_id":5,"name":"Fewny","steam_id":76561198225977000,"connected_time":696000000000,"state":"active","ping":88},{"user_id":10,"name":"Tecumseh","steam_id":76561198395023947,"connected_time":513000000000,"state":"active","ping":78},{"user_id":7,"name":"BIGGEST MAC","steam_id":76561198847517098,"connected_time":631000000000,"state":"active","ping":98},{"user_id":11,"name":"Fred McFrizzle","steam_id":76561198085117424,"connected_time":508000000000,"state":"active","ping":90},{"user_id":12,"name":"The Gremlin","steam_id":76561198419066993,"connected_time":453000000000,"state":"active","ping":99},{"user_id":13,"name":"Skippies","steam_id":76561198131280715,"connected_time":212000000000,"state":"active","ping":81},{"user_id":15,"name":"Ψ","steam_id":76561198293893486,"connected_time":100000000000,"state":"active","ping":82},{"user_id":16,"name":"Len","steam_id":76561199141913673,"connected_time":71000000000,"state":"active","ping":62},{"user_id":17,"name":"Deev","steam_id":76561199066929188,"connected_time":17000000000,"state":"active","ping":112},{"user_id":18,"name":"Just An Orange","steam_id":76561199126059126,"connected_time":4000000000,"state":"spawning","ping":80}]},{"server_id":108,"name":"Uncletopia | Dallas | 2 | All Maps","name_short":"dal-2","host":"dal-1.us.uncletopia.com","port":27025,"enabled":true,"region":"us-central","cc":"us","latitude":32.779167,"longitude":-96.80889,"reserved":0,"last_update":"0001-01-01T00:00:00Z","name_a2s":"Uncletopia | Dallas | 2 | All Maps","protocol":17,"map":"pl_barnblitz","folder":"tf","game":"Team Fortress","app_id":440,"player_count":0,"max_players":24,"Bots":0,"server_type":"Dedicated","server_os":"Linux","password":true,"vac":true,"version":"7708610","steam_id":85568392924469988,"keywords":["nocrits","nodmgspread","payload","uncletopia"],"game_id":440,"stv_port":0,"stv_name":"","players":null},{"server_id":5,"name":"Uncletopia | Frankfurt | 1 | All Maps","name_short":"frk-1","host":"frk-1.de.uncletopia.com","port":27015,"enabled":true,"region":"eu","cc":"de","latitude":50.110924,"longitude":8.682127,"reserved":0,"last_update":"0001-01-01T00:00:00Z","name_a2s":"Uncletopia | Frankfurt | 1 | All Maps","protocol":17,"map":"pl_barnblitz","folder":"tf","game":"Team Fortress","app_id":440,"player_count":24,"max_players":24,"Bots":0,"server_type":"Dedicated","server_os":"Linux","password":true,"vac":true,"version":"7708610","steam_id":85568392924469989,"keywords":["nocrits","nodmgspread","payload","uncletopia"],"game_id":440,"stv_port":27016,"stv_name":"Uncletopia | Frankfurt | 1 | All Maps | STV","players":[{"user_id":148,"name":"desperate rogue","steam_id":76561199016050401,"connected_time":1806000000000,"state":"active","ping":138},{"user_id":150,"name":"тукку ирма","steam_id":76561197998715016,"connected_time":997000000000,"state":"active","ping":57},{"user_id":142,"name":"doktorspiele","steam_id":76561199057953617,"connected_time":2071000000000,"state":"active","ping":60},{"user_id":140,"name":"Nick (Mute banned on Uncletopia","steam_id":76561198036109469,"connected_time":2254000000000,"state":"active","ping":89},{"user_id":138,"name":"lil goobling #lootget","steam_id":76561198081559669,"connected_time":2293000000000,"state":"active","ping":74},{"user_id":124,"name":"Spinach_Tropphy","steam_id":76561198807233328,"connected_time":2649000000000,"state":"active","ping":55},{"user_id":158,"name":"fogings","steam_id":76561198044165284,"connected_time":180000000000,"state":"active","ping":45},{"user_id":153,"name":"filo","steam_id":76561198103633797,"connected_time":373000000000,"state":"active","ping":77},{"user_id":116,"name":"Kareem","steam_id":76561198364462049,"connected_time":3478000000000,"state":"active","ping":105},{"user_id":31,"name":"Dunboi","steam_id":76561198120949216,"connected_time":7657000000000,"state":"active","ping":58},{"user_id":103,"name":"kbbq","steam_id":76561198346638308,"connected_time":3781000000000,"state":"active","ping":53},{"user_id":133,"name":"Löysä Masa","steam_id":76561198343396172,"connected_time":2452000000000,"state":"active","ping":100},{"user_id":137,"name":"who bvilding they bbc","steam_id":76561198106049954,"connected_time":2402000000000,"state":"active","ping":80},{"user_id":149,"name":"Silent Person","steam_id":76561198107763537,"connected_time":1327000000000,"state":"active","ping":74},{"user_id":134,"name":"SvbK","steam_id":76561198201478866,"connected_time":2449000000000,"state":"active","ping":75},{"user_id":75,"name":"DeCypher","steam_id":76561198171992619,"connected_time":5638000000000,"state":"active","ping":59},{"user_id":135,"name":"ZazyLou_","steam_id":76561198411134617,"connected_time":2445000000000,"state":"active","ping":68},{"user_id":159,"name":"Dolcelatte","steam_id":76561198038501770,"connected_time":143000000000,"state":"active","ping":46},{"user_id":154,"name":"tzino","steam_id":76561199076883472,"connected_time":321000000000,"state":"active","ping":71},{"user_id":136,"name":"AleXandriX","steam_id":76561198035203950,"connected_time":2440000000000,"state":"active","ping":61},{"user_id":155,"name":"R1gged_","steam_id":76561198122742118,"connected_time":312000000000,"state":"active","ping":72},{"user_id":156,"name":"ribs","steam_id":76561198354735240,"connected_time":307000000000,"state":"active","ping":68},{"user_id":157,"name":"Brothu","steam_id":76561198095120859,"connected_time":304000000000,"state":"active","ping":64},{"user_id":141,"name":"Maxmen","steam_id":76561198188541510,"connected_time":2254000000000,"state":"active","ping":134}]},{"server_id":110,"name":"Uncletopia | Frankfurt | 2 | All Maps","name_short":"frk-2","host":"frk-1.de.uncletopia.com","port":27025,"enabled":true,"region":"eu","cc":"de","latitude":50.110924,"longitude":8.682127,"reserved":0,"last_update":"0001-01-01T00:00:00Z","name_a2s":"Uncletopia | Frankfurt | 2 | All Maps","protocol":17,"map":"pl_borneo","folder":"tf","game":"Team Fortress","app_id":440,"player_count":24,"max_players":24,"Bots":0,"server_type":"Dedicated","server_os":"Linux","password":true,"vac":true,"version":"7708610","steam_id":85568392924469990,"keywords":["nocrits","nodmgspread","payload","uncletopia"],"game_id":440,"stv_port":27026,"stv_name":"Uncletopia | Frankfurt | 2 | All Maps | STV","players":[{"user_id":160,"name":"Vitamin Weee","steam_id":76561199183937747,"connected_time":718000000000,"state":"active","ping":70},{"user_id":114,"name":"Jovy Kujoh","steam_id":76561198410598772,"connected_time":3576000000000,"state":"active","ping":64},{"user_id":138,"name":"Animatic","steam_id":76561198186421601,"connected_time":2507000000000,"state":"active","ping":166},{"user_id":88,"name":"Redmailbox","steam_id":76561198042930322,"connected_time":5506000000000,"state":"active","ping":60},{"user_id":146,"name":"Perämiehenä","steam_id":76561197968945306,"connected_time":1632000000000,"state":"active","ping":73},{"user_id":147,"name":"Dr Doe Gaming","steam_id":76561199104748293,"connected_time":1567000000000,"state":"active","ping":77},{"user_id":132,"name":"Saint","steam_id":76561198003296382,"connected_time":2978000000000,"state":"active","ping":64},{"user_id":148,"name":"VERS","steam_id":76561198884232373,"connected_time":1565000000000,"state":"active","ping":46},{"user_id":149,"name":"ОrangePortals","steam_id":76561198282172748,"connected_time":1552000000000,"state":"active","ping":105},{"user_id":150,"name":"After8","steam_id":76561198090750865,"connected_time":1524000000000,"state":"active","ping":63},{"user_id":111,"name":"RockFrenzy","steam_id":76561198005428050,"connected_time":3712000000000,"state":"active","ping":60},{"user_id":162,"name":"E_WM","steam_id":76561198283432737,"connected_time":704000000000,"state":"active","ping":96},{"user_id":152,"name":"relaxtionfuel","steam_id":76561198868673990,"connected_time":1475000000000,"state":"active","ping":170},{"user_id":122,"name":"F2P gameing","steam_id":76561198834713682,"connected_time":3288000000000,"state":"active","ping":72},{"user_id":153,"name":"Нечуй-Левицький","steam_id":76561198870926865,"connected_time":1468000000000,"state":"active","ping":59},{"user_id":157,"name":"Umbro","steam_id":76561198087930438,"connected_time":1234000000000,"state":"active","ping":74},{"user_id":159,"name":"stonebum","steam_id":76561198057004606,"connected_time":802000000000,"state":"active","ping":60},{"user_id":124,"name":"amogus","steam_id":76561198119439177,"connected_time":3258000000000,"state":"active","ping":60},{"user_id":154,"name":"Umberto Bossi","steam_id":76561198136150267,"connected_time":1450000000000,"state":"active","ping":64},{"user_id":166,"name":"Timo010","steam_id":76561198832395256,"connected_time":338000000000,"state":"active","ping":75},{"user_id":156,"name":"Neytan","steam_id":76561198027024747,"connected_time":1405000000000,"state":"active","ping":117},{"user_id":129,"name":"クマ","steam_id":76561197993892057,"connected_time":3145000000000,"state":"active","ping":81},{"user_id":164,"name":"Gordon Birdman","steam_id":76561198013382324,"connected_time":597000000000,"state":"active","ping":76},{"user_id":103,"name":"tuukka","steam_id":76561198890409949,"connected_time":4654000000000,"state":"active","ping":104}]},{"server_id":308,"name":"Uncletopia | Frankfurt | 3 | All Maps","name_short":"frk-3","host":"frk-1.de.uncletopia.com","port":27035,"enabled":true,"region":"eu","cc":"de","latitude":50.110924,"longitude":8.682127,"reserved":0,"last_update":"0001-01-01T00:00:00Z","name_a2s":"Uncletopia | Frankfurt | 3 | All Maps","protocol":17,"map":"koth_cascade","folder":"tf","game":"Team Fortress","app_id":440,"player_count":0,"max_players":24,"Bots":0,"server_type":"Dedicated","server_os":"Linux","password":true,"vac":true,"version":"7708610","steam_id":85568392924504274,"keywords":["cp","nocrits","nodmgspread","uncletopia"],"game_id":440,"stv_port":0,"stv_name":"","players":null},{"server_id":309,"name":"Uncletopia | Frankfurt | 4 | All Maps","name_short":"frk-4","host":"frk-1.de.uncletopia.com","port":27045,"enabled":true,"region":"eu","cc":"de","latitude":50.110924,"longitude":8.682127,"reserved":0,"last_update":"0001-01-01T00:00:00Z","name_a2s":"Uncletopia | Frankfurt | 4 | All Maps","protocol":17,"map":"koth_highpass","folder":"tf","game":"Team Fortress","app_id":440,"player_count":0,"max_players":24,"Bots":0,"server_type":"Dedicated","server_os":"Linux","password":true,"vac":true,"version":"7708610","steam_id":85568392924504275,"keywords":["cp","nocrits","nodmgspread","uncletopia"],"game_id":440,"stv_port":27046,"stv_name":"Uncletopia | Frankfurt | 4 | All Maps | STV","players":null},{"server_id":310,"name":"Uncletopia | Frankfurt | 5 | All Maps","name_short":"frk-5","host":"frk-1.de.uncletopia.com","port":27055,"enabled":true,"region":"eu","cc":"de","latitude":50.110924,"longitude":8.682127,"reserved":0,"last_update":"0001-01-01T00:00:00Z","name_a2s":"Uncletopia | Frankfurt | 5 | All Maps","protocol":17,"map":"koth_cascade","folder":"tf","game":"Team Fortress","app_id":440,"player_count":0,"max_players":24,"Bots":0,"server_type":"Dedicated","server_os":"Linux","password":true,"vac":true,"version":"7708610","steam_id":85568392924504277,"keywords":["cp","nocrits","nodmgspread","uncletopia"],"game_id":440,"stv_port":0,"stv_name":"","players":null},{"server_id":311,"name":"Uncletopia | Frankfurt | 6 | All Maps","name_short":"frk-6","host":"frk-1.de.uncletopia.com","port":27065,"enabled":true,"region":"eu","cc":"de","latitude":50.110924,"longitude":8.682127,"reserved":0,"last_update":"0001-01-01T00:00:00Z","name_a2s":"Uncletopia | Frankfurt | 6 | All Maps","protocol":17,"map":"cp_snakewater_final1","folder":"tf","game":"Team Fortress","app_id":440,"player_count":0,"max_players":24,"Bots":0,"server_type":"Dedicated","server_os":"Linux","password":true,"vac":true,"version":"7708610","steam_id":85568392924504278,"keywords":["cp","nocrits","nodmgspread","uncletopia"],"game_id":440,"stv_port":27066,"stv_name":"Uncletopia | Frankfurt | 6 | All Maps | STV","players":null},{"server_id":23,"name":"Uncletopia | Frankfurt | 7 | No Payload","name_short":"frk-7","host":"frk-1.de.uncletopia.com","port":27075,"enabled":true,"region":"eu","cc":"de","latitude":50.110924,"longitude":8.682127,"reserved":0,"last_update":"0001-01-01T00:00:00Z","name_a2s":"Uncletopia | Frankfurt | 7 | No Payload","protocol":17,"map":"cp_gullywash_final1","folder":"tf","game":"Team Fortress","app_id":440,"player_count":24,"max_players":24,"Bots":0,"server_type":"Dedicated","server_os":"Linux","password":true,"vac":true,"version":"7708610","steam_id":85568392924742827,"keywords":["cp","nocrits","nodmgspread","uncletopia"],"game_id":440,"stv_port":27076,"stv_name":"Uncletopia | Frankfurt | 7 | No Payload | STV","players":[{"user_id":66,"name":"Connor McFilip","steam_id":76561198107965067,"connected_time":360000000000,"state":"active","ping":50},{"user_id":70,"name":"Hooggers","steam_id":76561198120447741,"connected_time":180000000000,"state":"active","ping":96},{"user_id":63,"name":"Scoob","steam_id":76561198799955153,"connected_time":512000000000,"state":"active","ping":98},{"user_id":59,"name":"Blat","steam_id":76561199013233409,"connected_time":677000000000,"state":"active","ping":80},{"user_id":25,"name":"Him","steam_id":76561198086400484,"connected_time":2250000000000,"state":"active","ping":71},{"user_id":61,"name":"[-[     ]|\\\\===//|[     ]-]","steam_id":76561198049687798,"connected_time":622000000000,"state":"active","ping":52},{"user_id":22,"name":"[UiF] BafTac r/f*ckcars","steam_id":76561198060547050,"connected_time":2270000000000,"state":"active","ping":51},{"user_id":57,"name":"DefaultKoala","steam_id":76561198059141147,"connected_time":699000000000,"state":"active","ping":165},{"user_id":24,"name":"[UiF] Sgt. Beebo","steam_id":76561198061094637,"connected_time":2260000000000,"state":"active","ping":48},{"user_id":27,"name":"robbob","steam_id":76561198137375391,"connected_time":2206000000000,"state":"active","ping":71},{"user_id":69,"name":"Ecy","steam_id":76561198110756682,"connected_time":307000000000,"state":"active","ping":51},{"user_id":65,"name":"Rory","steam_id":76561198354037580,"connected_time":464000000000,"state":"active","ping":52},{"user_id":53,"name":"xXdoge gaming 42069Xx","steam_id":76561198372971096,"connected_time":1017000000000,"state":"active","ping":65},{"user_id":58,"name":"Bart simpson","steam_id":76561198380666998,"connected_time":692000000000,"state":"active","ping":164},{"user_id":32,"name":"Waffles","steam_id":76561199086942763,"connected_time":1926000000000,"state":"active","ping":80},{"user_id":35,"name":"Arturias","steam_id":76561198188720263,"connected_time":1752000000000,"state":"active","ping":47},{"user_id":37,"name":"I-I","steam_id":76561198267969436,"connected_time":1684000000000,"state":"active","ping":60},{"user_id":46,"name":"CitroenSM","steam_id":76561199071383249,"connected_time":1258000000000,"state":"active","ping":134},{"user_id":62,"name":":3","steam_id":76561198036486671,"connected_time":587000000000,"state":"active","ping":60},{"user_id":54,"name":"Sham!","steam_id":76561198050434275,"connected_time":772000000000,"state":"active","ping":53},{"user_id":47,"name":"Ace","steam_id":76561198453289465,"connected_time":1244000000000,"state":"active","ping":74},{"user_id":71,"name":"El_Kommadante","steam_id":76561198079551685,"connected_time":9000000000,"state":"spawning","ping":100},{"user_id":49,"name":"Tymqs","steam_id":76561198186541753,"connected_time":1208000000000,"state":"active","ping":92},{"user_id":55,"name":"Marukuso","steam_id":76561198154229845,"connected_time":742000000000,"state":"active","ping":70}]},{"server_id":24,"name":"Uncletopia | Frankfurt | 8 | Community","name_short":"frk-8","host":"frk-1.de.uncletopia.com","port":27085,"enabled":true,"region":"eu","cc":"de","latitude":50.110924,"longitude":8.682127,"reserved":0,"last_update":"0001-01-01T00:00:00Z","name_a2s":"Uncletopia | Frankfurt | 8 | Community","protocol":17,"map":"workshop/pl_vigil_rc9.ugc1266210012","folder":"tf","game":"Team Fortress","app_id":440,"player_count":0,"max_players":24,"Bots":0,"server_type":"Dedicated","server_os":"Linux","password":true,"vac":true,"version":"7708610","steam_id":85568392924742828,"keywords":["nocrits","nodmgspread","payload","uncletopia"],"game_id":440,"stv_port":27086,"stv_name":"Uncletopia | Frankfurt | 8 | Community | STV","players":null},{"server_id":202,"name":"Uncletopia | Hong Kong | 1 | All Maps","name_short":"hgk-1","host":"hgk-1.hk.uncletopia.com","port":27015,"enabled":true,"region":"asia","cc":"hk","latitude":22.302711,"longitude":114.177216,"reserved":0,"last_update":"0001-01-01T00:00:00Z","name_a2s":"Uncletopia | Hong Kong | 1 | All Maps","protocol":17,"map":"pl_frontier_final","folder":"tf","game":"Team Fortress","app_id":440,"player_count":24,"max_players":24,"Bots":0,"server_type":"Dedicated","server_os":"Linux","password":true,"vac":true,"version":"7708610","steam_id":85568392924494504,"keywords":["nocrits","nodmgspread","payload","uncletopia"],"game_id":440,"stv_port":27016,"stv_name":"Uncletopia | Hong Kong | 1 | All Maps | STV","players":[{"user_id":539,"name":"raping and rapping","steam_id":76561198442507642,"connected_time":2093000000000,"state":"active","ping":76},{"user_id":542,"name":"greeny","steam_id":76561198024666371,"connected_time":2061000000000,"state":"active","ping":87},{"user_id":538,"name":"yhn","steam_id":76561198413116920,"connected_time":2097000000000,"state":"active","ping":81},{"user_id":540,"name":"Feelsbad","steam_id":76561198132207861,"connected_time":2092000000000,"state":"active","ping":107},{"user_id":524,"name":"val or something idk","steam_id":76561198981897135,"connected_time":3469000000000,"state":"active","ping":85},{"user_id":502,"name":"Banana Milk","steam_id":76561198005156257,"connected_time":4718000000000,"state":"active","ping":126},{"user_id":525,"name":"Michael Scott","steam_id":76561198023082794,"connected_time":3457000000000,"state":"active","ping":46},{"user_id":546,"name":"瑛祺寶寶","steam_id":76561198048928746,"connected_time":586000000000,"state":"active","ping":44},{"user_id":541,"name":"Talkk More","steam_id":76561198305424433,"connected_time":2088000000000,"state":"active","ping":79},{"user_id":528,"name":"여름","steam_id":76561198274438558,"connected_time":3152000000000,"state":"active","ping":83},{"user_id":551,"name":"Paragon","steam_id":76561197983816430,"connected_time":150000000000,"state":"active","ping":133},{"user_id":390,"name":"table","steam_id":76561198055553140,"connected_time":13499000000000,"state":"active","ping":170},{"user_id":549,"name":"Male Detected!","steam_id":76561199082459598,"connected_time":157000000000,"state":"active","ping":91},{"user_id":545,"name":"Momoxhien","steam_id":76561198414997429,"connected_time":1553000000000,"state":"active","ping":62},{"user_id":523,"name":"bonito borzoi","steam_id":76561198230213828,"connected_time":3619000000000,"state":"active","ping":70},{"user_id":412,"name":"AmaiToxic","steam_id":76561199122491157,"connected_time":11139000000000,"state":"active","ping":67},{"user_id":532,"name":"母の肉団子","steam_id":76561198069561896,"connected_time":2120000000000,"state":"active","ping":44},{"user_id":533,"name":"Hallucates","steam_id":76561198872636453,"connected_time":2116000000000,"state":"active","ping":98},{"user_id":467,"name":"UwU","steam_id":76561198823521095,"connected_time":7634000000000,"state":"active","ping":48},{"user_id":477,"name":"Wakiiiz","steam_id":76561198850134590,"connected_time":6877000000000,"state":"active","ping":59},{"user_id":529,"name":"unironicallylearning2pipejesus","steam_id":76561198116054243,"connected_time":2523000000000,"state":"active","ping":53},{"user_id":535,"name":"the big man","steam_id":76561198412329672,"connected_time":2114000000000,"state":"active","ping":97},{"user_id":536,"name":"17","steam_id":76561198241530712,"connected_time":2113000000000,"state":"active","ping":59},{"user_id":537,"name":"4G. Turbo.RF4","steam_id":76561199061012484,"connected_time":2112000000000,"state":"active","ping":83}]},{"server_id":1,"name":"Uncletopia | Los Angeles | 1 | All Maps","name_short":"lax-1","host":"lax-1.us.uncletopia.com","port":27015,"enabled":true,"region":"us-west","cc":"us","latitude":33.94279,"longitude":-118.41004,"reserved":0,"last_update":"0001-01-01T00:00:00Z","name_a2s":"Uncletopia | Los Angeles | 1 | All Maps","protocol":17,"map":"cp_process_final","folder":"tf","game":"Team Fortress","app_id":440,"player_count":0,"max_players":24,"Bots":0,"server_type":"Dedicated","server_os":"Linux","password":true,"vac":true,"version":"7708610","steam_id":85568392924469991,"keywords":["cp","nocrits","nodmgspread","uncletopia"],"game_id":440,"stv_port":0,"stv_name":"","players":null},{"server_id":112,"name":"Uncletopia | Los Angeles | 2 | All Maps","name_short":"lax-2","host":"lax-1.us.uncletopia.com","port":27025,"enabled":true,"region":"us-west","cc":"us","latitude":33.94279,"longitude":-118.41004,"reserved":0,"last_update":"0001-01-01T00:00:00Z","name_a2s":"Uncletopia | Los Angeles | 2 | All Maps","protocol":17,"map":"cp_altitude","folder":"tf","game":"Team Fortress","app_id":440,"player_count":0,"max_players":24,"Bots":0,"server_type":"Dedicated","server_os":"Linux","password":true,"vac":true,"version":"7708610","steam_id":85568392924469992,"keywords":["cp","nocrits","nodmgspread","uncletopia"],"game_id":440,"stv_port":0,"stv_name":"","players":null},{"server_id":324,"name":"Uncletopia | Los Angeles | 3 | All Maps","name_short":"lax-3","host":"lax-1.us.uncletopia.com","port":27035,"enabled":true,"region":"us-west","cc":"us","latitude":33.94279,"longitude":-118.41004,"reserved":0,"last_update":"0001-01-01T00:00:00Z","name_a2s":"Uncletopia | Los Angeles | 3 | All Maps","protocol":17,"map":"cp_altitude","folder":"tf","game":"Team Fortress","app_id":440,"player_count":0,"max_players":24,"Bots":0,"server_type":"Dedicated","server_os":"Linux","password":true,"vac":true,"version":"7708610","steam_id":85568392924510198,"keywords":["cp","nocrits","nodmgspread","uncletopia"],"game_id":440,"stv_port":0,"stv_name":"","players":null},{"server_id":25,"name":"Uncletopia | Los Angeles | 4 | No Payload","name_short":"lax-4","host":"lax-1.us.uncletopia.com","port":27045,"enabled":true,"region":"us-west","cc":"us","latitude":33.94279,"longitude":-118.41004,"reserved":0,"last_update":"0001-01-01T00:00:00Z","name_a2s":"Uncletopia | Los Angeles | 4 | No Payload","protocol":17,"map":"pl_upward","folder":"tf","game":"Team Fortress","app_id":440,"player_count":0,"max_players":24,"Bots":0,"server_type":"Dedicated","server_os":"Linux","password":true,"vac":true,"version":"7708610","steam_id":85568392924510199,"keywords":["nocrits","nodmgspread","payload","uncletopia"],"game_id":440,"stv_port":0,"stv_name":"","players":null},{"server_id":11,"name":"Uncletopia | London | 1 | All Maps","name_short":"lon-1","host":"lon-1.uk.uncletopia.com","port":27015,"enabled":true,"region":"eu","cc":"gb","latitude":51.509865,"longitude":-0.118092,"reserved":0,"last_update":"0001-01-01T00:00:00Z","name_a2s":"Uncletopia | London | 1 | All Maps","protocol":17,"map":"pl_snowycoast","folder":"tf","game":"Team Fortress","app_id":440,"player_count":0,"max_players":24,"Bots":0,"server_type":"Dedicated","server_os":"Linux","password":true,"vac":true,"version":"7708610","steam_id":85568392924367362,"keywords":["nocrits","nodmgspread","payload","uncletopia"],"game_id":440,"stv_port":27016,"stv_name":"Uncletopia | London | 1 | All Maps | STV","players":null},{"server_id":114,"name":"Uncletopia | London | 2 | All Maps","name_short":"lon-2","host":"lon-1.uk.uncletopia.com","port":27025,"enabled":true,"region":"eu","cc":"gb","latitude":51.509865,"longitude":-0.118092,"reserved":0,"last_update":"0001-01-01T00:00:00Z","name_a2s":"Uncletopia | London | 2 | All Maps","protocol":17,"map":"koth_cascade","folder":"tf","game":"Team Fortress","app_id":440,"player_count":0,"max_players":24,"Bots":0,"server_type":"Dedicated","server_os":"Linux","password":true,"vac":true,"version":"7708610","steam_id":85568392924470941,"keywords":["cp","nocrits","nodmgspread","uncletopia"],"game_id":440,"stv_port":27026,"stv_name":"Uncletopia | London | 2 | All Maps | STV","players":null},{"server_id":320,"name":"Uncletopia | London | 3 | All Maps","name_short":"lon-3","host":"lon-1.uk.uncletopia.com","port":27035,"enabled":true,"region":"eu","cc":"gb","latitude":51.509865,"longitude":-0.118092,"reserved":0,"last_update":"0001-01-01T00:00:00Z","name_a2s":"Uncletopia | London | 3 | All Maps","protocol":17,"map":"pl_borneo","folder":"tf","game":"Team Fortress","app_id":440,"player_count":24,"max_players":24,"Bots":0,"server_type":"Dedicated","server_os":"Linux","password":true,"vac":true,"version":"7708610","steam_id":85568392924510192,"keywords":["nocrits","nodmgspread","payload","uncletopia"],"game_id":440,"stv_port":27036,"stv_name":"Uncletopia | London | 3 | All Maps | STV","players":[{"user_id":50,"name":"The Funny Cat 面白い猫","steam_id":76561198439978112,"connected_time":187000000000,"state":"active","ping":106},{"user_id":10,"name":"randomoneye","steam_id":76561199380157176,"connected_time":1714000000000,"state":"active","ping":86},{"user_id":48,"name":"Kanade♥転生","steam_id":76561198093289042,"connected_time":239000000000,"state":"active","ping":67},{"user_id":15,"name":"Muffin Mcswagot ඞ","steam_id":76561198055394835,"connected_time":972000000000,"state":"active","ping":74},{"user_id":17,"name":"Iron_Dave_Qc","steam_id":76561198159325213,"connected_time":831000000000,"state":"active","ping":121},{"user_id":18,"name":"Sriddec","steam_id":76561199093847660,"connected_time":754000000000,"state":"active","ping":71},{"user_id":44,"name":"Rasmusson [29th ID]","steam_id":76561198191451713,"connected_time":322000000000,"state":"active","ping":82},{"user_id":21,"name":"jürgen","steam_id":76561198107460765,"connected_time":704000000000,"state":"active","ping":44},{"user_id":22,"name":"♥ Cute Fag ♥","steam_id":76561198203658069,"connected_time":690000000000,"state":"active","ping":59},{"user_id":24,"name":"kinshasa","steam_id":76561198187128898,"connected_time":647000000000,"state":"active","ping":75},{"user_id":31,"name":"greater benadryl addict","steam_id":76561198203486600,"connected_time":575000000000,"state":"active","ping":45},{"user_id":52,"name":"scrongleshimmies","steam_id":76561199258405922,"connected_time":68000000000,"state":"active","ping":165},{"user_id":27,"name":"Stepoface","steam_id":76561198091569863,"connected_time":622000000000,"state":"active","ping":65},{"user_id":28,"name":"john fluidmasterballwasher doe","steam_id":76561199006462039,"connected_time":617000000000,"state":"active","ping":58},{"user_id":29,"name":"Españaa","steam_id":76561198879587832,"connected_time":608000000000,"state":"active","ping":72},{"user_id":30,"name":"Burgoo_King","steam_id":76561198133572225,"connected_time":583000000000,"state":"active","ping":75},{"user_id":49,"name":"ULTIMATE_GORDON","steam_id":76561198044470038,"connected_time":209000000000,"state":"active","ping":32},{"user_id":37,"name":"Инспектор Атас","steam_id":76561199175688390,"connected_time":547000000000,"state":"active","ping":84},{"user_id":45,"name":"Tuxedo Terrorist","steam_id":76561199015038728,"connected_time":317000000000,"state":"active","ping":47},{"user_id":53,"name":"beurgeur","steam_id":76561198872426314,"connected_time":60000000000,"state":"active","ping":36},{"user_id":36,"name":"PrinceGrotle","steam_id":76561198206131603,"connected_time":550000000000,"state":"active","ping":142},{"user_id":51,"name":"Markein","steam_id":76561198360754280,"connected_time":167000000000,"state":"active","ping":53},{"user_id":39,"name":"there are 6 kids in my basement","steam_id":76561198237489960,"connected_time":544000000000,"state":"active","ping":86},{"user_id":54,"name":"Pandamonia","steam_id":76561198237125154,"connected_time":57000000000,"state":"active","ping":138}]},{"server_id":321,"name":"Uncletopia | London | 4 | All Maps","name_short":"lon-4","host":"lon-1.uk.uncletopia.com","port":27045,"enabled":true,"region":"eu","cc":"gb","latitude":51.509865,"longitude":-0.118092,"reserved":0,"last_update":"0001-01-01T00:00:00Z","name_a2s":"Uncletopia | London | 4 | All Maps","protocol":17,"map":"pl_swiftwater_final1","folder":"tf","game":"Team Fortress","app_id":440,"player_count":3,"max_players":24,"Bots":0,"server_type":"Dedicated","server_os":"Linux","password":true,"vac":true,"version":"7708610","steam_id":85568392924510193,"keywords":["nocrits","nodmgspread","payload","uncletopia"],"game_id":440,"stv_port":27046,"stv_name":"Uncletopia | London | 4 | All Maps | STV","players":[{"user_id":16,"name":"Don_Bibon","steam_id":76561198374345060,"connected_time":665000000000,"state":"active","ping":99},{"user_id":17,"name":"jesus0004","steam_id":76561198300074730,"connected_time":650000000000,"state":"active","ping":91},{"user_id":18,"name":"ChrisMightShootYou","steam_id":76561199002764196,"connected_time":88000000000,"state":"active","ping":88}]},{"server_id":21,"name":"Uncletopia | London | 5 | All Maps","name_short":"lon-5","host":"lon-1.uk.uncletopia.com","port":27055,"enabled":true,"region":"eu","cc":"gb","latitude":51.509865,"longitude":-0.118092,"reserved":0,"last_update":"0001-01-01T00:00:00Z","name_a2s":"Uncletopia | London | 5 | All Maps","protocol":17,"map":"pl_borneo","folder":"tf","game":"Team Fortress","app_id":440,"player_count":24,"max_players":24,"Bots":0,"server_type":"Dedicated","server_os":"Linux","password":true,"vac":true,"version":"7708610","steam_id":85568392924742829,"keywords":["nocrits","nodmgspread","payload","uncletopia"],"game_id":440,"stv_port":27056,"stv_name":"Uncletopia | London | 5 | All Maps | STV","players":[{"user_id":49,"name":"Bottomest","steam_id":76561198091734693,"connected_time":3191000000000,"state":"active","ping":74},{"user_id":88,"name":"Revettah","steam_id":76561198040442214,"connected_time":1676000000000,"state":"active","ping":44},{"user_id":5,"name":"WonderVaflya","steam_id":76561198077281374,"connected_time":5202000000000,"state":"active","ping":74},{"user_id":106,"name":"Soggoboggo","steam_id":76561199145210786,"connected_time":586000000000,"state":"active","ping":48},{"user_id":91,"name":"When Life gives you Lemons","steam_id":76561198318290663,"connected_time":1451000000000,"state":"active","ping":47},{"user_id":93,"name":"Roboolet","steam_id":76561198107353953,"connected_time":1244000000000,"state":"active","ping":48},{"user_id":94,"name":"Derek Pappalardo Gaming","steam_id":76561198215428069,"connected_time":1213000000000,"state":"active","ping":61},{"user_id":103,"name":"jolie rouge","steam_id":76561197988085026,"connected_time":863000000000,"state":"active","ping":72},{"user_id":87,"name":"Nomad994","steam_id":76561198051908201,"connected_time":1726000000000,"state":"active","ping":87},{"user_id":100,"name":"Kahvi","steam_id":76561198723244199,"connected_time":1095000000000,"state":"active","ping":77},{"user_id":84,"name":"AsuX","steam_id":76561197990333289,"connected_time":1973000000000,"state":"active","ping":60},{"user_id":101,"name":"Kane","steam_id":76561198447582701,"connected_time":959000000000,"state":"active","ping":34},{"user_id":59,"name":"Nassu","steam_id":76561198147367577,"connected_time":2852000000000,"state":"active","ping":160},{"user_id":71,"name":"average ultiduo medic","steam_id":76561198103285012,"connected_time":2514000000000,"state":"active","ping":60},{"user_id":63,"name":"Smag","steam_id":76561198153675141,"connected_time":2742000000000,"state":"active","ping":51},{"user_id":95,"name":"jp-karam","steam_id":76561198048947685,"connected_time":1193000000000,"state":"active","ping":48},{"user_id":82,"name":"F1-M","steam_id":76561198198409875,"connected_time":2154000000000,"state":"active","ping":123},{"user_id":25,"name":"ciliorkun18","steam_id":76561198228942500,"connected_time":4582000000000,"state":"active","ping":91},{"user_id":102,"name":"Nikoverya ( ニコベルヤ )","steam_id":76561198116910061,"connected_time":933000000000,"state":"active","ping":89},{"user_id":104,"name":"Bones","steam_id":76561198065081225,"connected_time":860000000000,"state":"active","ping":44},{"user_id":105,"name":"Simping for Pizza-san","steam_id":76561198067204908,"connected_time":851000000000,"state":"active","ping":56},{"user_id":99,"name":"PlayYourCardsRight","steam_id":76561199193367863,"connected_time":1099000000000,"state":"active","ping":75},{"user_id":108,"name":"Caskye","steam_id":76561198165430888,"connected_time":223000000000,"state":"active","ping":83},{"user_id":107,"name":"ghostie","steam_id":76561199097303487,"connected_time":290000000000,"state":"active","ping":48}]},{"server_id":22,"name":"Uncletopia | London | 6 | All Maps","name_short":"lon-6","host":"lon-1.uk.uncletopia.com","port":27065,"enabled":true,"region":"eu","cc":"gb","latitude":51.509865,"longitude":-0.118092,"reserved":0,"last_update":"0001-01-01T00:00:00Z","name_a2s":"Uncletopia | London | 6 | All Maps","protocol":17,"map":"pl_frontier_final","folder":"tf","game":"Team Fortress","app_id":440,"player_count":17,"max_players":24,"Bots":0,"server_type":"Dedicated","server_os":"Linux","password":true,"vac":true,"version":"7708610","steam_id":85568392924742830,"keywords":["nocrits","nodmgspread","payload","uncletopia"],"game_id":440,"stv_port":27066,"stv_name":"Uncletopia | London | 6 | All Maps | STV","players":[{"user_id":404,"name":"Farmercy","steam_id":76561198000038039,"connected_time":987000000000,"state":"active","ping":60},{"user_id":413,"name":"Saddam Hussein","steam_id":76561198167904809,"connected_time":257000000000,"state":"active","ping":80},{"user_id":414,"name":"jamkel #savetf2","steam_id":76561199088464666,"connected_time":101000000000,"state":"active","ping":105},{"user_id":376,"name":"htraB","steam_id":76561198043122677,"connected_time":3651000000000,"state":"active","ping":60},{"user_id":415,"name":"Blacksheep","steam_id":76561198019621063,"connected_time":19000000000,"state":"spawning","ping":56},{"user_id":405,"name":"MagusCubed","steam_id":76561198083973944,"connected_time":928000000000,"state":"active","ping":45},{"user_id":402,"name":"SCooler27","steam_id":76561199200454579,"connected_time":1114000000000,"state":"active","ping":71},{"user_id":399,"name":"Shawty","steam_id":76561198256704286,"connected_time":1291000000000,"state":"active","ping":61},{"user_id":388,"name":"hulluheppu1","steam_id":76561198093458326,"connected_time":2010000000000,"state":"active","ping":73},{"user_id":410,"name":"LOBZIK","steam_id":76561198114830120,"connected_time":519000000000,"state":"active","ping":75},{"user_id":407,"name":"PhantomStriker","steam_id":76561199116689935,"connected_time":632000000000,"state":"active","ping":72},{"user_id":396,"name":"Circular","steam_id":76561198001536710,"connected_time":1753000000000,"state":"active","ping":45},{"user_id":340,"name":"Joseph Stalin LFT","steam_id":76561198033199746,"connected_time":5682000000000,"state":"active","ping":46},{"user_id":397,"name":"Splarvis","steam_id":76561198007792525,"connected_time":1726000000000,"state":"active","ping":42},{"user_id":389,"name":"Weeb","steam_id":76561198297928869,"connected_time":1904000000000,"state":"active","ping":46},{"user_id":398,"name":"you (DK)","steam_id":76561198061472971,"connected_time":1717000000000,"state":"active","ping":64},{"user_id":400,"name":"Bob_Tostas","steam_id":76561198249006560,"connected_time":1258000000000,"state":"active","ping":78}]},{"server_id":40,"name":"Uncletopia | London | 7 | No Payload","name_short":"lon-7","host":"lon-1.uk.uncletopia.com","port":27075,"enabled":true,"region":"eu","cc":"gb","latitude":51.509865,"longitude":-0.118092,"reserved":0,"last_update":"0001-01-01T00:00:00Z","name_a2s":"Uncletopia | London | 7 | No Payload","protocol":17,"map":"plr_hightower","folder":"tf","game":"Team Fortress","app_id":440,"player_count":0,"max_players":24,"Bots":0,"server_type":"Dedicated","server_os":"Linux","password":true,"vac":true,"version":"7708610","steam_id":85568392924964314,"keywords":["nocrits","nodmgspread","payload","uncletopia"],"game_id":440,"stv_port":27076,"stv_name":"Uncletopia | London | 7 | No Payload | STV","players":null},{"server_id":41,"name":"Uncletopia | London | 8 | Community","name_short":"lon-8","host":"lon-1.uk.uncletopia.com","port":27085,"enabled":true,"region":"eu","cc":"gb","latitude":51.509865,"longitude":-0.118092,"reserved":0,"last_update":"0001-01-01T00:00:00Z","name_a2s":"Uncletopia | London | 8 | Community","protocol":17,"map":"cp_snakewater_final1","folder":"tf","game":"Team Fortress","app_id":440,"player_count":0,"max_players":24,"Bots":0,"server_type":"Dedicated","server_os":"Linux","password":true,"vac":true,"version":"7708610","steam_id":85568392924964315,"keywords":["cp","nocrits","nodmgspread","uncletopia"],"game_id":440,"stv_port":0,"stv_name":"","players":null},{"server_id":300,"name":"Uncletopia | Montréal | 1 | All Maps","name_short":"mtl-1","host":"mtl-1.ca.uncletopia.com","port":27015,"enabled":true,"region":"us-east","cc":"ca","latitude":45.50889,"longitude":-73.56167,"reserved":0,"last_update":"0001-01-01T00:00:00Z","name_a2s":"Uncletopia | Montréal | 1 | All Maps","protocol":17,"map":"koth_cascade","folder":"tf","game":"Team Fortress","app_id":440,"player_count":0,"max_players":24,"Bots":0,"server_type":"Dedicated","server_os":"Linux","password":true,"vac":true,"version":"7708610","steam_id":85568392924500087,"keywords":["cp","nocrits","nodmgspread","uncletopia"],"game_id":440,"stv_port":27016,"stv_name":"Uncletopia | Montréal | 1 | All Maps | STV","players":null},{"server_id":301,"name":"Uncletopia | Montréal | 2 | All Maps","name_short":"mtl-2","host":"mtl-1.ca.uncletopia.com","port":27025,"enabled":true,"region":"us-east","cc":"ca","latitude":45.50889,"longitude":-73.56167,"reserved":0,"last_update":"0001-01-01T00:00:00Z","name_a2s":"Uncletopia | Montréal | 2 | All Maps","protocol":17,"map":"pl_frontier_final","folder":"tf","game":"Team Fortress","app_id":440,"player_count":0,"max_players":24,"Bots":0,"server_type":"Dedicated","server_os":"Linux","password":true,"vac":true,"version":"7708610","steam_id":85568392924500088,"keywords":["nocrits","nodmgspread","payload","uncletopia"],"game_id":440,"stv_port":0,"stv_name":"","players":null},{"server_id":302,"name":"Uncletopia | Montréal | 3 | All Maps","name_short":"mtl-3","host":"mtl-1.ca.uncletopia.com","port":27035,"enabled":true,"region":"us-east","cc":"ca","latitude":45.50889,"longitude":-73.56167,"reserved":0,"last_update":"0001-01-01T00:00:00Z","name_a2s":"Uncletopia | Montréal | 3 | All Maps","protocol":17,"map":"pl_snowycoast","folder":"tf","game":"Team Fortress","app_id":440,"player_count":0,"max_players":24,"Bots":0,"server_type":"Dedicated","server_os":"Linux","password":true,"vac":true,"version":"7708610","steam_id":85568392924500089,"keywords":["nocrits","nodmgspread","payload","uncletopia"],"game_id":440,"stv_port":0,"stv_name":"","players":null},{"server_id":303,"name":"Uncletopia | Montréal | 4 | No Payload","name_short":"mtl-4","host":"mtl-1.ca.uncletopia.com","port":27045,"enabled":true,"region":"us-east","cc":"ca","latitude":45.50889,"longitude":-73.56167,"reserved":0,"last_update":"0001-01-01T00:00:00Z","name_a2s":"Uncletopia | Montréal | 4 | No Payload","protocol":17,"map":"pl_frontier_final","folder":"tf","game":"Team Fortress","app_id":440,"player_count":0,"max_players":24,"Bots":0,"server_type":"Dedicated","server_os":"Linux","password":true,"vac":true,"version":"7708610","steam_id":85568392924500090,"keywords":["nocrits","nodmgspread","payload","uncletopia"],"game_id":440,"stv_port":0,"stv_name":"","players":null},{"server_id":13,"name":"Uncletopia | New York City | 1 | All Maps","name_short":"nyc-1","host":"nyc-1.us.uncletopia.com","port":27015,"enabled":true,"region":"us-east","cc":"us","latitude":40.73061,"longitude":-73.93524,"reserved":0,"last_update":"0001-01-01T00:00:00Z","name_a2s":"Uncletopia | New York City | 1 | All Maps","protocol":17,"map":"koth_highpass","folder":"tf","game":"Team Fortress","app_id":440,"player_count":0,"max_players":24,"Bots":0,"server_type":"Dedicated","server_os":"Linux","password":true,"vac":true,"version":"7708610","steam_id":85568392924469993,"keywords":["cp","nocrits","nodmgspread","uncletopia"],"game_id":440,"stv_port":27016,"stv_name":"Uncletopia | New York City | 1 | All Maps | STV","players":null},{"server_id":14,"name":"Uncletopia | New York City | 2 | All Maps","name_short":"nyc-2","host":"nyc-1.us.uncletopia.com","port":27025,"enabled":true,"region":"us-east","cc":"us","latitude":40.73061,"longitude":-73.93524,"reserved":0,"last_update":"0001-01-01T00:00:00Z","name_a2s":"Uncletopia | New York City | 2 | All Maps","protocol":17,"map":"pl_pier","folder":"tf","game":"Team Fortress","app_id":440,"player_count":0,"max_players":24,"Bots":0,"server_type":"Dedicated","server_os":"Linux","password":true,"vac":true,"version":"7708610","steam_id":85568392924469994,"keywords":["nocrits","nodmgspread","payload","uncletopia"],"game_id":440,"stv_port":27026,"stv_name":"Uncletopia | New York City | 2 | All Maps | STV","players":null},{"server_id":15,"name":"Uncletopia | New York City | 3 | All Maps","name_short":"nyc-3","host":"nyc-1.us.uncletopia.com","port":27035,"enabled":true,"region":"us-east","cc":"us","latitude":40.73061,"longitude":-73.93524,"reserved":0,"last_update":"0001-01-01T00:00:00Z","name_a2s":"Uncletopia | New York City | 3 | All Maps","protocol":17,"map":"cp_sunshine","folder":"tf","game":"Team Fortress","app_id":440,"player_count":0,"max_players":24,"Bots":0,"server_type":"Dedicated","server_os":"Linux","password":true,"vac":true,"version":"7708610","steam_id":85568392924742820,"keywords":["cp","nocrits","nodmgspread","uncletopia"],"game_id":440,"stv_port":0,"stv_name":"","players":null},{"server_id":16,"name":"Uncletopia | New York City | 4 | Community","name_short":"nyc-4","host":"nyc-1.us.uncletopia.com","port":27045,"enabled":true,"region":"us-east","cc":"us","latitude":40.73061,"longitude":-73.93524,"reserved":0,"last_update":"0001-01-01T00:00:00Z","name_a2s":"Uncletopia | New York City | 4 | Community","protocol":17,"map":"pl_badwater","folder":"tf","game":"Team Fortress","app_id":440,"player_count":0,"max_players":24,"Bots":0,"server_type":"Dedicated","server_os":"Linux","password":true,"vac":true,"version":"7708610","steam_id":85568392924742821,"keywords":["nocrits","nodmgspread","payload","uncletopia"],"game_id":440,"stv_port":0,"stv_name":"","players":null},{"server_id":142,"name":"Uncletopia | São Paulo | 1 | All Maps","name_short":"sao-1","host":"sao-1.br.uncletopia.com","port":27015,"enabled":true,"region":"sa","cc":"br","latitude":-23.533773,"longitude":-46.62529,"reserved":0,"last_update":"0001-01-01T00:00:00Z","name_a2s":"Uncletopia | São Paulo | 1 | All Maps","protocol":17,"map":"pl_upward","folder":"tf","game":"Team Fortress","app_id":440,"player_count":10,"max_players":24,"Bots":0,"server_type":"Dedicated","server_os":"Linux","password":true,"vac":true,"version":"7708610","steam_id":85568392924469996,"keywords":["nocrits","nodmgspread","payload","uncletopia"],"game_id":440,"stv_port":27016,"stv_name":"Uncletopia | São Paulo | 1 | All Maps | STV","players":[{"user_id":34,"name":"♥nott♥","steam_id":76561198289358663,"connected_time":716000000000,"state":"active","ping":49},{"user_id":35,"name":"Momo","steam_id":76561198143438576,"connected_time":627000000000,"state":"active","ping":34},{"user_id":7,"name":"khauz","steam_id":76561198162767783,"connected_time":5637000000000,"state":"active","ping":57},{"user_id":38,"name":"heisenberg","steam_id":76561199440401458,"connected_time":423000000000,"state":"active","ping":33},{"user_id":37,"name":"ThisIsTheRealRAFAEL","steam_id":76561198875962372,"connected_time":455000000000,"state":"active","ping":38},{"user_id":13,"name":"Edge","steam_id":76561198850405241,"connected_time":4633000000000,"state":"active","ping":42},{"user_id":39,"name":"Matheus Alves(Youtuber)","steam_id":76561198163920834,"connected_time":274000000000,"state":"active","ping":54},{"user_id":19,"name":"[-LC-] Sir Crusher","steam_id":76561198124065641,"connected_time":3239000000000,"state":"active","ping":72},{"user_id":20,"name":"Thompy","steam_id":76561199409024712,"connected_time":3226000000000,"state":"active","ping":51},{"user_id":27,"name":"CoronelSaas","steam_id":76561199281128588,"connected_time":2647000000000,"state":"active","ping":74}]},{"server_id":143,"name":"Uncletopia | São Paulo | 2 | All Maps","name_short":"sao-2","host":"sao-2.br.uncletopia.com","port":27015,"enabled":true,"region":"sa","cc":"br","latitude":-23.533773,"longitude":-46.62529,"reserved":0,"last_update":"0001-01-01T00:00:00Z","name_a2s":"Uncletopia | São Paulo | 2 | All Maps","protocol":17,"map":"koth_lakeside_final","folder":"tf","game":"Team Fortress","app_id":440,"player_count":0,"max_players":24,"Bots":0,"server_type":"Dedicated","server_os":"Linux","password":true,"vac":true,"version":"7708610","steam_id":85568392924485349,"keywords":["cp","nocrits","nodmgspread","uncletopia"],"game_id":440,"stv_port":0,"stv_name":"","players":null},{"server_id":7,"name":"Uncletopia | Seattle | 1 | All Maps","name_short":"sea-1","host":"sea-1.us.uncletopia.com","port":27015,"enabled":true,"region":"us-west","cc":"us","latitude":47.608013,"longitude":-122.33517,"reserved":0,"last_update":"0001-01-01T00:00:00Z","name_a2s":"Uncletopia | Seattle | 1 | All Maps","protocol":17,"map":"koth_cascade","folder":"tf","game":"Team Fortress","app_id":440,"player_count":0,"max_players":24,"Bots":0,"server_type":"Dedicated","server_os":"Linux","password":true,"vac":true,"version":"7708610","steam_id":85568392924469997,"keywords":["cp","nocrits","nodmgspread","uncletopia"],"game_id":440,"stv_port":0,"stv_name":"","players":null},{"server_id":119,"name":"Uncletopia | Seattle | 2 | All Maps","name_short":"sea-2","host":"sea-1.us.uncletopia.com","port":27025,"enabled":true,"region":"us-west","cc":"us","latitude":47.608013,"longitude":-122.33517,"reserved":0,"last_update":"0001-01-01T00:00:00Z","name_a2s":"Uncletopia | Seattle | 2 | All Maps","protocol":17,"map":"cp_process_final","folder":"tf","game":"Team Fortress","app_id":440,"player_count":1,"max_players":24,"Bots":0,"server_type":"Dedicated","server_os":"Linux","password":true,"vac":true,"version":"7708610","steam_id":85568392924469998,"keywords":["cp","nocrits","nodmgspread","uncletopia"],"game_id":440,"stv_port":0,"stv_name":"","players":[{"user_id":3,"name":"Pigg_master","steam_id":76561199388075545,"connected_time":490000000000,"state":"active","ping":50}]},{"server_id":17,"name":"Uncletopia | San Francisco | 1 | All Maps","name_short":"sfo-1","host":"sfo-1.us.uncletopia.com","port":27015,"enabled":true,"region":"us-west","cc":"us","latitude":37.77397,"longitude":-122.4313,"reserved":0,"last_update":"0001-01-01T00:00:00Z","name_a2s":"Uncletopia | San Francisco | 1 | All Maps","protocol":17,"map":"cp_sunshine","folder":"tf","game":"Team Fortress","app_id":440,"player_count":0,"max_players":24,"Bots":0,"server_type":"Dedicated","server_os":"Linux","password":true,"vac":true,"version":"7708610","steam_id":85568392924469999,"keywords":["cp","nocrits","nodmgspread","uncletopia"],"game_id":440,"stv_port":0,"stv_name":"","players":null},{"server_id":18,"name":"Uncletopia | San Francisco | 2 | All Maps","name_short":"sfo-2","host":"sfo-1.us.uncletopia.com","port":27025,"enabled":true,"region":"us-west","cc":"us","latitude":37.77397,"longitude":-122.4313,"reserved":0,"last_update":"0001-01-01T00:00:00Z","name_a2s":"Uncletopia | San Francisco | 2 | All Maps","protocol":17,"map":"koth_cascade","folder":"tf","game":"Team Fortress","app_id":440,"player_count":0,"max_players":24,"Bots":0,"server_type":"Dedicated","server_os":"Linux","password":true,"vac":true,"version":"7708610","steam_id":85568392924470000,"keywords":["cp","nocrits","nodmgspread","uncletopia"],"game_id":440,"stv_port":0,"stv_name":"","players":null},{"server_id":19,"name":"Uncletopia | San Francisco | 3 | No Payload","name_short":"sfo-3","host":"sfo-1.us.uncletopia.com","port":27035,"enabled":true,"region":"us-west","cc":"us","latitude":37.77397,"longitude":-122.4313,"reserved":0,"last_update":"0001-01-01T00:00:00Z","name_a2s":"Uncletopia | San Francisco | 3 | No Payload","protocol":17,"map":"cp_snakewater_final1","folder":"tf","game":"Team Fortress","app_id":440,"player_count":0,"max_players":24,"Bots":0,"server_type":"Dedicated","server_os":"Linux","password":true,"vac":true,"version":"7708610","steam_id":85568392924742824,"keywords":["cp","nocrits","nodmgspread","uncletopia"],"game_id":440,"stv_port":0,"stv_name":"","players":null},{"server_id":20,"name":"Uncletopia | San Francisco | 4 | Community","name_short":"sfo-4","host":"sfo-1.us.uncletopia.com","port":27045,"enabled":true,"region":"us-west","cc":"us","latitude":37.77397,"longitude":-122.4313,"reserved":0,"last_update":"0001-01-01T00:00:00Z","name_a2s":"Uncletopia | San Francisco | 4 | Community","protocol":17,"map":"pl_barnblitz","folder":"tf","game":"Team Fortress","app_id":440,"player_count":0,"max_players":24,"Bots":0,"server_type":"Dedicated","server_os":"Linux","password":true,"vac":true,"version":"7708610","steam_id":85568392924742826,"keywords":["nocrits","nodmgspread","payload","uncletopia"],"game_id":440,"stv_port":0,"stv_name":"","players":null},{"server_id":141,"name":"Uncletopia | Sydney | 1 | All Maps","name_short":"syd-1","host":"syd-1.au.uncletopia.com","port":27015,"enabled":true,"region":"au","cc":"au","latitude":-33.865143,"longitude":151.2099,"reserved":0,"last_update":"0001-01-01T00:00:00Z","name_a2s":"Uncletopia | Sydney | 1 | All Maps","protocol":17,"map":"cp_mountainlab","folder":"tf","game":"Team Fortress","app_id":440,"player_count":0,"max_players":24,"Bots":0,"server_type":"Dedicated","server_os":"Linux","password":true,"vac":true,"version":"7708610","steam_id":85568392924470001,"keywords":["cp","nocrits","nodmgspread","uncletopia"],"game_id":440,"stv_port":27016,"stv_name":"Uncletopia | Sydney | 1 | All Maps | STV","players":null},{"server_id":123,"name":"Uncletopia | Sydney | 2 | All Maps","name_short":"syd-2","host":"syd-1.au.uncletopia.com","port":27025,"enabled":true,"region":"au","cc":"au","latitude":-33.865143,"longitude":151.2099,"reserved":0,"last_update":"0001-01-01T00:00:00Z","name_a2s":"Uncletopia | Sydney | 2 | All Maps","protocol":17,"map":"koth_cascade","folder":"tf","game":"Team Fortress","app_id":440,"player_count":0,"max_players":24,"Bots":0,"server_type":"Dedicated","server_os":"Linux","password":true,"vac":true,"version":"7708610","steam_id":85568392924470002,"keywords":["cp","nocrits","nodmgspread","uncletopia"],"game_id":440,"stv_port":27026,"stv_name":"Uncletopia | Sydney | 2 | All Maps | STV","players":null},{"server_id":395,"name":"Uncletopia | Sydney | 3 | All Maps","name_short":"syd-3","host":"syd-1.au.uncletopia.com","port":27035,"enabled":true,"region":"au","cc":"au","latitude":-33.865143,"longitude":151.2099,"reserved":0,"last_update":"0001-01-01T00:00:00Z","name_a2s":"Uncletopia | Sydney | 3 | All Maps","protocol":17,"map":"pl_barnblitz","folder":"tf","game":"Team Fortress","app_id":440,"player_count":0,"max_players":24,"Bots":0,"server_type":"Dedicated","server_os":"Linux","password":true,"vac":true,"version":"7708610","steam_id":85568392925194467,"keywords":["nocrits","nodmgspread","payload","uncletopia"],"game_id":440,"stv_port":27036,"stv_name":"Uncletopia | Sydney | 3 | All Maps | STV","players":null},{"server_id":396,"name":"Uncletopia | Sydney | 4 | All Maps","name_short":"syd-4","host":"syd-1.au.uncletopia.com","port":27045,"enabled":true,"region":"au","cc":"au","latitude":-33.865143,"longitude":151.2099,"reserved":0,"last_update":"0001-01-01T00:00:00Z","name_a2s":"Uncletopia | Sydney | 4 | All Maps","protocol":17,"map":"koth_cascade","folder":"tf","game":"Team Fortress","app_id":440,"player_count":0,"max_players":24,"Bots":0,"server_type":"Dedicated","server_os":"Linux","password":true,"vac":true,"version":"7708610","steam_id":85568392925397958,"keywords":["cp","nocrits","nodmgspread","uncletopia"],"game_id":440,"stv_port":27046,"stv_name":"Uncletopia | Sydney | 4 | All Maps | STV","players":null},{"server_id":58,"name":"Uncletopia | Sydney | 5 | No Payload","name_short":"syd-5","host":"syd-1.au.uncletopia.com","port":27055,"enabled":true,"region":"au","cc":"au","latitude":-33.865143,"longitude":151.2099,"reserved":0,"last_update":"0001-01-01T00:00:00Z","name_a2s":"Uncletopia | Sydney | 5 | No Payload","protocol":17,"map":"koth_cascade","folder":"tf","game":"Team Fortress","app_id":440,"player_count":0,"max_players":24,"Bots":0,"server_type":"Dedicated","server_os":"Linux","password":true,"vac":true,"version":"7708610","steam_id":85568392925397959,"keywords":["cp","nocrits","nodmgspread","uncletopia"],"game_id":440,"stv_port":0,"stv_name":"","players":null},{"server_id":59,"name":"Uncletopia | Sydney | 6 | Community","name_short":"syd-6","host":"syd-1.au.uncletopia.com","port":27065,"enabled":true,"region":"au","cc":"au","latitude":-33.865143,"longitude":151.2099,"reserved":0,"last_update":"0001-01-01T00:00:00Z","name_a2s":"Uncletopia | Sydney | 6 | Community","protocol":17,"map":"workshop/rd_asteroid_redux_rc9.ugc2154902912","folder":"tf","game":"Team Fortress","app_id":440,"player_count":0,"max_players":24,"Bots":0,"server_type":"Dedicated","server_os":"Linux","password":true,"vac":true,"version":"7708610","steam_id":85568392925397960,"keywords":["beta","nocrits","nodmgspread","rd","uncletopia"],"game_id":440,"stv_port":27066,"stv_name":"Uncletopia | Sydney | 6 | Community | STV","players":null},{"server_id":49,"name":"Uncletopia | Warsaw | 1 | All Maps","name_short":"waw-1","host":"waw-1.pl.uncletopia.com","port":27015,"enabled":true,"region":"eu","cc":"pl","latitude":52.2297,"longitude":21.017532,"reserved":0,"last_update":"0001-01-01T00:00:00Z","name_a2s":"Uncletopia | Warsaw | 1 | All Maps","protocol":17,"map":"pl_frontier_final","folder":"tf","game":"Team Fortress","app_id":440,"player_count":0,"max_players":24,"Bots":0,"server_type":"Dedicated","server_os":"Linux","password":true,"vac":true,"version":"7708610","steam_id":85568392925397850,"keywords":["nocrits","nodmgspread","payload","uncletopia"],"game_id":440,"stv_port":27016,"stv_name":"Uncletopia | Warsaw | 1 | All Maps | STV","players":null},{"server_id":50,"name":"Uncletopia | Warsaw | 2 | All Maps","name_short":"waw-2","host":"waw-1.pl.uncletopia.com","port":27025,"enabled":true,"region":"eu","cc":"pl","latitude":52.2297,"longitude":21.017532,"reserved":0,"last_update":"0001-01-01T00:00:00Z","name_a2s":"Uncletopia | Warsaw | 2 | All Maps","protocol":17,"map":"pl_frontier_final","folder":"tf","game":"Team Fortress","app_id":440,"player_count":0,"max_players":24,"Bots":0,"server_type":"Dedicated","server_os":"Linux","password":true,"vac":true,"version":"7708610","steam_id":85568392925397851,"keywords":["nocrits","nodmgspread","payload","uncletopia"],"game_id":440,"stv_port":27026,"stv_name":"Uncletopia | Warsaw | 2 | All Maps | STV","players":null},{"server_id":51,"name":"Uncletopia | Warsaw | 3 | All Maps","name_short":"waw-3","host":"waw-1.pl.uncletopia.com","port":27035,"enabled":true,"region":"eu","cc":"pl","latitude":52.2297,"longitude":21.017532,"reserved":0,"last_update":"0001-01-01T00:00:00Z","name_a2s":"Uncletopia | Warsaw | 3 | All Maps","protocol":17,"map":"koth_cascade","folder":"tf","game":"Team Fortress","app_id":440,"player_count":0,"max_players":24,"Bots":0,"server_type":"Dedicated","server_os":"Linux","password":true,"vac":true,"version":"7708610","steam_id":85568392925397852,"keywords":["cp","nocrits","nodmgspread","uncletopia"],"game_id":440,"stv_port":0,"stv_name":"","players":null},{"server_id":52,"name":"Uncletopia | Warsaw | 4 | All Maps","name_short":"waw-4","host":"waw-1.pl.uncletopia.com","port":27045,"enabled":true,"region":"eu","cc":"pl","latitude":52.2297,"longitude":21.017532,"reserved":0,"last_update":"0001-01-01T00:00:00Z","name_a2s":"Uncletopia | Warsaw | 4 | All Maps","protocol":17,"map":"cp_mountainlab","folder":"tf","game":"Team Fortress","app_id":440,"player_count":0,"max_players":24,"Bots":0,"server_type":"Dedicated","server_os":"Linux","password":true,"vac":true,"version":"7708610","steam_id":85568392925397853,"keywords":["cp","nocrits","nodmgspread","uncletopia"],"game_id":440,"stv_port":0,"stv_name":"","players":null},{"server_id":53,"name":"Uncletopia | Warsaw | 5 | No Payload","name_short":"waw-5","host":"waw-1.pl.uncletopia.com","port":27055,"enabled":true,"region":"eu","cc":"pl","latitude":52.2297,"longitude":21.017532,"reserved":0,"last_update":"0001-01-01T00:00:00Z","name_a2s":"Uncletopia | Warsaw | 5 | No Payload","protocol":17,"map":"cp_dustbowl","folder":"tf","game":"Team Fortress","app_id":440,"player_count":0,"max_players":24,"Bots":0,"server_type":"Dedicated","server_os":"Linux","password":true,"vac":true,"version":"7708610","steam_id":85568392925397854,"keywords":["cp","nocrits","nodmgspread","uncletopia"],"game_id":440,"stv_port":0,"stv_name":"","players":null},{"server_id":54,"name":"Uncletopia | Warsaw | 6 | Community","name_short":"waw-6","host":"waw-1.pl.uncletopia.com","port":27065,"enabled":true,"region":"eu","cc":"pl","latitude":52.2297,"longitude":21.017532,"reserved":0,"last_update":"0001-01-01T00:00:00Z","name_a2s":"Uncletopia | Warsaw | 6 | Community","protocol":17,"map":"koth_highpass","folder":"tf","game":"Team Fortress","app_id":440,"player_count":0,"max_players":24,"Bots":0,"server_type":"Dedicated","server_os":"Linux","password":true,"vac":true,"version":"7708610","steam_id":85568392925397856,"keywords":["cp","nocrits","nodmgspread","uncletopia"],"game_id":440,"stv_port":0,"stv_name":"","players":null}]}