{"status":true,"message":"","result":[{"server_id":9,"name":"Uncletopia | Atlanta | 1 | All Maps","name_short":"atl-1","host":"atl-1.us.uncletopia.com","port":27015,"enabled":true,"region":"us-east","cc":"us","latitude":33.753746,"longitude":-84.38633,"reserved":0,"last_update":"0001-01-01T00:00:00Z","name_a2s":"Uncletopia | Atlanta | 1 | All Maps","protocol":17,"map":"pl_snowycoast","folder":"tf","game":"Team Fortress","app_id":440,"player_count":0,"max_players":24,"Bots":0,"server_type":"Dedicated","server_os":"Linux","password":true,"vac":true,"version":"7742253","steam_id":85568392924469982,"keywords":["nocrits","nodmgspread","payload","uncletopia"],"game_id":440,"stv_port":27016,"stv_name":"Uncletopia | Atlanta | 1 | All Maps | STV","players":null},{"server_id":400,"name":"Uncletopia | Atlanta | 3 | Stopwatch Beta","name_short":"atl-3","host":"atl-1.us.uncletopia.com","port":27035,"enabled":true,"region":"us-east","cc":"us","latitude":33.753746,"longitude":-84.38633,"reserved":0,"last_update":"0001-01-01T00:00:00Z","name_a2s":"Uncletopia | Atlanta | 3 | Stopwatch Beta","protocol":17,"map":"pl_pier","folder":"tf","game":"Team Fortress","app_id":440,"player_count":0,"max_players":24,"Bots":0,"server_type":"Dedicated","server_os":"Linux","password":true,"vac":true,"version":"7742253","steam_id":85568392924515187,"keywords":["nocrits","nodmgspread","payload","uncletopia"],"game_id":440,"stv_port":27036,"stv_name":"Uncletopia | Atlanta | 3 | Stopwatch Beta | STV","players":null},{"server_id":401,"name":"Uncletopia | Atlanta | 4 | No Payload","name_short":"atl-4","host":"atl-1.us.uncletopia.com","port":27045,"enabled":true,"region":"us-east","cc":"us","latitude":33.753746,"longitude":-84.38633,"reserved":0,"last_update":"0001-01-01T00:00:00Z","name_a2s":"Uncletopia | Atlanta | 4 | No Payload","protocol":17,"map":"pl_pier","folder":"tf","game":"Team Fortress","app_id":440,"player_count":0,"max_players":24,"Bots":0,"server_type":"Dedicated","server_os":"Linux","password":true,"vac":true,"version":"7723704","steam_id":85568392924515188,"keywords":["nocrits","nodmgspread","payload","uncletopia"],"game_id":440,"stv_port":27046,"stv_name":"Uncletopia | Atlanta | 4 | No Payload | STV","players":null},{"server_id":2,"name":"Uncletopia | Chicago | 1 | All Maps","name_short":"chi-1","host":"chi-1.us.uncletopia.com","port":27015,"enabled":true,"region":"us-central","cc":"us","latitude":41.881832,"longitude":-87.62318,"reserved":0,"last_update":"0001-01-01T00:00:00Z","name_a2s":"Uncletopia | Chicago | 1 | All Maps","protocol":17,"map":"koth_highpass","folder":"tf","game":"Team Fortress","app_id":440,"player_count":0,"max_players":24,"Bots":0,"server_type":"Dedicated","server_os":"Linux","password":true,"vac":true,"version":"7742253","steam_id":85568392924469984,"keywords":["cp","nocrits","nodmgspread","uncletopia"],"game_id":440,"stv_port":27016,"stv_name":"Uncletopia | Chicago | 1 | All Maps | STV","players":null},{"server_id":106,"name":"Uncletopia | Chicago | 2 | All Maps","name_short":"chi-2","host":"chi-1.us.uncletopia.com","port":27025,"enabled":true,"region":"us-central","cc":"us","latitude":41.881832,"longitude":-87.62318,"reserved":0,"last_update":"0001-01-01T00:00:00Z","name_a2s":"Uncletopia | Chicago | 2 | All Maps","protocol":17,"map":"pl_snowycoast","folder":"tf","game":"Team Fortress","app_id":440,"player_count":0,"max_players":24,"Bots":0,"server_type":"Dedicated","server_os":"Linux","password":true,"vac":true,"version":"7742253","steam_id":85568392924469985,"keywords":["nocrits","nodmgspread","payload","uncletopia"],"game_id":440,"stv_port":27026,"stv_name":"Uncletopia | Chicago | 2 | All Maps | STV","players":null},{"server_id":402,"name":"Uncletopia | Chicago | 3 | All Maps","name_short":"chi-3","host":"chi-1.us.uncletopia.com","port":27035,"enabled":true,"region":"us-central","cc":"us","latitude":41.881832,"longitude":-87.62318,"reserved":0,"last_update":"0001-01-01T00:00:00Z","name_a2s":"Uncletopia | Chicago | 3 | All Maps","protocol":17,"map":"koth_viaduct","folder":"tf","game":"Team Fortress","app_id":440,"player_count":0,"max_players":24,"Bots":0,"server_type":"Dedicated","server_os":"Linux","password":true,"vac":true,"version":"7742253","steam_id":85568392924515191,"keywords":["cp","nocrits","nodmgspread","uncletopia"],"game_id":440,"stv_port":27036,"stv_name":"Uncletopia | Chicago | 3 | All Maps | STV","players":null},{"server_id":403,"name":"Uncletopia | Chicago | 4 | All Maps","name_short":"chi-4","host":"chi-1.us.uncletopia.com","port":27045,"enabled":true,"region":"us-central","cc":"us","latitude":41.881832,"longitude":-87.62318,"reserved":0,"last_update":"0001-01-01T00:00:00Z","name_a2s":"Uncletopia | Chicago | 4 | All Maps","protocol":17,"map":"koth_lakeside_final","folder":"tf","game":"Team Fortress","app_id":440,"player_count":1,"max_players":24,"Bots":0,"server_type":"Dedicated","server_os":"Linux","password":true,"vac":true,"version":"7742253","steam_id":85568392924515193,"keywords":["cp","nocrits","nodmgspread","uncletopia"],"game_id":440,"stv_port":27046,"stv_name":"Uncletopia | Chicago | 4 | All Maps | STV","players":[{"user_id":3,"name":"Cleveland Brown","steam_id":76561199401598364,"connected_time":337000000000,"state":"active","ping":74}]},{"server_id":36,"name":"Uncletopia | Chicago | 5 | All Maps","name_short":"chi-5","host":"chi-2.us.uncletopia.com","port":27015,"enabled":true,"region":"us-central","cc":"us","latitude":41.881832,"longitude":-87.62318,"reserved":0,"last_update":"0001-01-01T00:00:00Z","name_a2s":"Uncletopia | Chicago | 5 | All Maps","protocol":17,"map":"pl_borneo","folder":"tf","game":"Team Fortress","app_id":440,"player_count":0,"max_players":24,"Bots":0,"server_type":"Dedicated","server_os":"Linux","password":true,"vac":true,"version":"7742253","steam_id":85568392924866362,"keywords":["nocrits","nodmgspread","payload","uncletopia"],"game_id":440,"stv_port":27016,"stv_name":"Uncletopia | Chicago | 5 | All Maps | STV","players":null},{"server_id":37,"name":"Uncletopia | Chicago | 6 | All Maps","name_short":"chi-6","host":"chi-2.us.uncletopia.com","port":27025,"enabled":true,"region":"us-central","cc":"us","latitude":41.881832,"longitude":-87.62318,"reserved":0,"last_update":"0001-01-01T00:00:00Z","name_a2s":"Uncletopia | Chicago | 6 | All Maps","protocol":17,"map":"cp_sunshine","folder":"tf","game":"Team Fortress","app_id":440,"player_count":0,"max_players":24,"Bots":0,"server_type":"Dedicated","server_os":"Linux","password":true,"vac":true,"version":"7742253","steam_id":85568392924866363,"keywords":["cp","nocrits","nodmgspread","uncletopia"],"game_id":440,"stv_port":27026,"stv_name":"Uncletopia | Chicago | 6 | All Maps | STV","players":null},{"server_id":38,"name":"Uncletopia | Chicago | 7 | Stopwatch Beta","name_short":"chi-7","host":"chi-2.us.uncletopia.com","port":27035,"enabled":true,"region":"us-central","cc":"us","latitude":41.881832,"longitude":-87.62318,"reserved":0,"last_update":"0001-01-01T00:00:00Z","name_a2s":"Uncletopia | Chicago | 7 | Stopwatch Beta","protocol":17,"map":"koth_lakeside_final","folder":"tf","game":"Team Fortress","app_id":440,"player_count":0,"max_players":24,"Bots":0,"server_type":"Dedicated","server_os":"Linux","password":true,"vac":true,"version":"7742253","steam_id":85568392924866364,"keywords":["cp","nocrits","nodmgspread","uncletopia"],"game_id":440,"stv_port":27036,"stv_name":"Uncletopia | Chicago | 7 | Stopwatch Beta | STV","players":null},{"server_id":39,"name":"Uncletopia | Chicago | 8 | Community","name_short":"chi-8","host":"chi-2.us.uncletopia.com","port":27045,"enabled":true,"region":"us-central","cc":"us","latitude":41.881832,"longitude":-87.62318,"reserved":0,"last_update":"0001-01-01T00:00:00Z","name_a2s":"Uncletopia | Chicago | 8 | Community","protocol":17,"map":"koth_lakeside_final","folder":"tf","game":"Team Fortress","app_id":440,"player_count":0,"max_players":24,"Bots":0,"server_type":"Dedicated","server_os":"Linux","password":true,"vac":true,"version":"7742253","steam_id":85568392924866365,"keywords":["cp","nocrits","nodmgspread","uncletopia"],"game_id":440,"stv_port":27046,"stv_name":"Uncletopia | Chicago | 8 | Community | STV","players":null},{"server_id":8,"name":"Uncletopia | Dallas | 1 | All Maps","name_short":"dal-1","host":"dal-1.us.uncletopia.com","port":27015,"enabled":true,"region":"us-central","cc":"us","latitude":32.779167,"longitude":-96.80889,"reserved":0,"last_update":"0001-01-01T00:00:00Z","name_a2s":"Uncletopia | Dallas | 1 | All Maps","protocol":17,"map":"cp_mountainlab","folder":"tf","game":"Team Fortress","app_id":440,"player_count":0,"max_players":24,"Bots":0,"server_type":"Dedicated","server_os":"Linux","password":true,"vac":true,"version":"7742253","steam_id":85568392924469986,"keywords":["cp","nocrits","nodmgspread","uncletopia"],"game_id":440,"stv_port":27016,"stv_name":"Uncletopia | Dallas | 1 | All Maps | STV","players":null},{"server_id":108,"name":"Uncletopia | Dallas | 2 | All Maps","name_short":"dal-2","host":"dal-1.us.uncletopia.com","port":27025,"enabled":true,"region":"us-central","cc":"us","latitude":32.779167,"longitude":-96.80889,"reserved":0,"last_update":"0001-01-01T00:00:00Z","name_a2s":"Uncletopia | Dallas | 2 | All Maps","protocol":17,"map":"cp_mountainlab","folder":"tf","game":"Team Fortress","app_id":440,"player_count":0,"max_players":24,"Bots":0,"server_type":"Dedicated","server_os":"Linux","password":true,"vac":true,"version":"7742253","steam_id":85568392924469988,"keywords":["cp","nocrits","nodmgspread","uncletopia"],"game_id":440,"stv_port":27026,"stv_name":"Uncletopia | Dallas | 2 | All Maps | STV","players":null},{"server_id":5,"name":"Uncletopia | Frankfurt | 1 | All Maps","name_short":"frk-1","host":"frk-1.de.uncletopia.com","port":27015,"enabled":true,"region":"eu","cc":"de","latitude":50.110924,"longitude":8.682127,"reserved":0,"last_update":"0001-01-01T00:00:00Z","name_a2s":"Uncletopia | Frankfurt | 1 | All Maps","protocol":17,"map":"pl_frontier_final","folder":"tf","game":"Team Fortress","app_id":440,"player_count":24,"max_players":24,"Bots":0,"server_type":"Dedicated","server_os":"Linux","password":true,"vac":true,"version":"7742253","steam_id":85568392924469989,"keywords":["nocrits","nodmgspread","payload","uncletopia"],"game_id":440,"stv_port":27016,"stv_name":"Uncletopia | Frankfurt | 1 | All Maps | STV","players":[{"user_id":337,"name":"AwterSix","steam_id":76561198042561678,"connected_time":1907000000000,"state":"active","ping":50},{"user_id":329,"name":"Autism","steam_id":76561197988822029,"connected_time":3449000000000,"state":"active","ping":80},{"user_id":360,"name":"Vezage","steam_id":76561198064916164,"connected_time":662000000000,"state":"active","ping":72},{"user_id":354,"name":"Moobin","steam_id":76561198099999156,"connected_time":923000000000,"state":"active","ping":64},{"user_id":353,"name":"JJstar","steam_id":76561199087720713,"connected_time":986000000000,"state":"active","ping":92},{"user_id":331,"name":"The Lime Degen","steam_id":76561198839259306,"connected_time":3319000000000,"state":"active","ping":96},{"user_id":315,"name":"üòà COCKDESTROYER üòà","steam_id":76561198042846999,"connected_time":4147000000000,"state":"active","ping":67},{"user_id":302,"name":"justajem101","steam_id":76561199228510573,"connected_time":4945000000000,"state":"active","ping":74},{"user_id":368,"name":"Alkatraz :D","steam_id":76561198400102386,"connected_time":166000000000,"state":"active","ping":72},{"user_id":372,"name":"Klutz","steam_id":76561199466998211,"connected_time":43000000000,"state":"active","ping":191},{"user_id":336,"name":"KGiorgios_Bully","steam_id":76561198825392728,"connected_time":2059000000000,"state":"active","ping":119},{"user_id":365,"name":"poshto;))","steam_id":76561198106182078,"connected_time":401000000000,"state":"active","ping":99},{"user_id":369,"name":"punchmypotatoes","steam_id":76561198091255731,"connected_time":153000000000,"state":"active","ping":68},{"user_id":357,"name":"Artock","steam_id":76561198808599713,"connected_time":769000000000,"state":"active","ping":82},{"user_id":330,"name":"Voksenlokker","steam_id":76561197981700445,"connected_time":3334000000000,"state":"active","ping":55},{"user_id":371,"name":"Pahlberg","steam_id":76561198208547929,"connected_time":84000000000,"state":"active","ping":80},{"user_id":352,"name":"PLUTO","steam_id":76561198312436128,"connected_time":1089000000000,"state":"active","ping":119},{"user_id":366,"name":"muZ","steam_id":76561198060145190,"connected_time":395000000000,"state":"active","ping":55},{"user_id":363,"name":"Ali","steam_id":76561199133701271,"connected_time":574000000000,"state":"active","ping":77},{"user_id":332,"name":"cat","steam_id":76561199403426930,"connected_time":3242000000000,"state":"active","ping":57},{"user_id":328,"name":"Œî*Alpha.","steam_id":76561197974129208,"connected_time":3540000000000,"state":"active","ping":48},{"user_id":367,"name":".::[SerafeTTiN]::.","steam_id":76561198009471724,"connected_time":318000000000,"state":"active","ping":91},{"user_id":272,"name":"Psychicpie","steam_id":76561198126065206,"connected_time":7172000000000,"state":"active","ping":49},{"user_id":346,"name":"Animatic","steam_id":76561198186421601,"connected_time":1697000000000,"state":"active","ping":174}]},{"server_id":110,"name":"Uncletopia | Frankfurt | 2 | All Maps","name_short":"frk-2","host":"frk-1.de.uncletopia.com","port":27025,"enabled":true,"region":"eu","cc":"de","latitude":50.110924,"longitude":8.682127,"reserved":0,"last_update":"0001-01-01T00:00:00Z","name_a2s":"Uncletopia | Frankfurt | 2 | All Maps","protocol":17,"map":"cp_sunshine","folder":"tf","game":"Team Fortress","app_id":440,"player_count":23,"max_players":24,"Bots":0,"server_type":"Dedicated","server_os":"Linux","password":true,"vac":true,"version":"7742253","steam_id":85568392924469990,"keywords":["cp","nocrits","nodmgspread","uncletopia"],"game_id":440,"stv_port":27026,"stv_name":"Uncletopia | Frankfurt | 2 | All Maps | STV","players":[{"user_id":189,"name":"grip","steam_id":76561198088201976,"connected_time":2576000000000,"state":"active","ping":45},{"user_id":227,"name":"Frigidaire","steam_id":76561198849587677,"connected_time":985000000000,"state":"active","ping":69},{"user_id":179,"name":"Penis Contortionist","steam_id":76561198073663784,"connected_time":4261000000000,"state":"active","ping":50},{"user_id":214,"name":"FhOsAn","steam_id":76561198057418427,"connected_time":1651000000000,"state":"active","ping":69},{"user_id":215,"name":"thekoolest88","steam_id":76561199022415672,"connected_time":1649000000000,"state":"active","ping":148},{"user_id":237,"name":"Brinier","steam_id":76561199012604288,"connected_time":126000000000,"state":"active","ping":46},{"user_id":233,"name":"the joy of recycling","steam_id":76561198138509827,"connected_time":577000000000,"state":"active","ping":82},{"user_id":209,"name":"St√ºmpy","steam_id":76561198255904077,"connected_time":1681000000000,"state":"active","ping":50},{"user_id":78,"name":"poliakov.noam","steam_id":76561199259322961,"connected_time":10489000000000,"state":"active","ping":99},{"user_id":231,"name":"gaming","steam_id":76561198054146505,"connected_time":846000000000,"state":"active","ping":56},{"user_id":228,"name":"Dogghi","steam_id":76561197993516047,"connected_time":969000000000,"state":"active","ping":45},{"user_id":226,"name":"MidnightMoth","steam_id":76561198842238362,"connected_time":1005000000000,"state":"active","ping":82},{"user_id":236,"name":"spindel","steam_id":76561198148671379,"connected_time":198000000000,"state":"active","ping":64},{"user_id":167,"name":"Stareye","steam_id":76561198410061585,"connected_time":4623000000000,"state":"active","ping":72},{"user_id":186,"name":"„Äå‚óÜRaku‚Ä¢ „Äç","steam_id":76561198059283183,"connected_time":2611000000000,"state":"active","ping":75},{"user_id":185,"name":"ü§®ü§®ü§®ü§®ü§®ü§®ü§®\ufffd\ufffd\ufffd","steam_id":76561198072916231,"connected_time":2751000000000,"state":"active","ping":84},{"user_id":197,"name":"ŒöŒëŒ°ŒüŒõŒüŒ£ ŒúŒëŒ°ŒöŒüŒ£","steam_id":76561198155149163,"connected_time":2197000000000,"state":"active","ping":83},{"user_id":229,"name":"¬øŒª Yuri","steam_id":76561198019829178,"connected_time":963000000000,"state":"active","ping":61},{"user_id":230,"name":"widzZz","steam_id":76561197972820255,"connected_time":955000000000,"state":"active","ping":46},{"user_id":198,"name":"lisivi","steam_id":76561198365503306,"connected_time":2193000000000,"state":"active","ping":55},{"user_id":232,"name":"Drojdier","steam_id":76561198080789836,"connected_time":830000000000,"state":"active","ping":91},{"user_id":220,"name":"breakfast","steam_id":76561198106049954,"connected_time":1624000000000,"state":"active","ping":83},{"user_id":223,"name":"fazer","steam_id":76561199121283698,"connected_time":1509000000000,"state":"active","ping":56}]},{"server_id":308,"name":"Uncletopia | Frankfurt | 3 | All Maps","name_short":"frk-3","host":"frk-1.de.uncletopia.com","port":27035,"enabled":true,"region":"eu","cc":"de","latitude":50.110924,"longitude":8.682127,"reserved":0,"last_update":"0001-01-01T00:00:00Z","name_a2s":"Uncletopia | Frankfurt | 3 | All Maps","protocol":17,"map":"pl_borneo","folder":"tf","game":"Team Fortress","app_id":440,"player_count":23,"max_players":24,"Bots":0,"server_type":"Dedicated","server_os":"Linux","password":true,"vac":true,"version":"7742253","steam_id":85568392924504274,"keywords":["nocrits","nodmgspread","payload","uncletopia"],"game_id":440,"stv_port":27036,"stv_name":"Uncletopia | Frankfurt | 3 | All Maps | STV","players":[{"user_id":125,"name":"just a cat","steam_id":76561198328023740,"connected_time":798000000000,"state":"active","ping":46},{"user_id":128,"name":"foursixsixseven","steam_id":76561199123727043,"connected_time":160000000000,"state":"active","ping":149},{"user_id":119,"name":"Zhong Xina","steam_id":76561198228064312,"connected_time":1522000000000,"state":"active","ping":69},{"user_id":129,"name":"Nibbenji2077","steam_id":76561199219663655,"connected_time":136000000000,"state":"active","ping":113},{"user_id":122,"name":".vibe","steam_id":76561199334880197,"connected_time":1311000000000,"state":"active","ping":73},{"user_id":113,"name":"Combat Wombat","steam_id":76561197994720068,"connected_time":1846000000000,"state":"active","ping":62},{"user_id":130,"name":"Breadcrab","steam_id":76561198015924039,"connected_time":93000000000,"state":"active","ping":59},{"user_id":131,"name":"jaMie","steam_id":76561198170148783,"connected_time":86000000000,"state":"active","ping":52},{"user_id":83,"name":"Lamorfomeba","steam_id":76561199063593524,"connected_time":4515000000000,"state":"active","ping":65},{"user_id":132,"name":"Minimi","steam_id":76561198873850443,"connected_time":73000000000,"state":"active","ping":58},{"user_id":133,"name":"Lag","steam_id":76561198159360376,"connected_time":63000000000,"state":"active","ping":53},{"user_id":134,"name":"Mass","steam_id":76561198432195204,"connected_time":48000000000,"state":"active","ping":48},{"user_id":135,"name":"Mr. Fox","steam_id":76561198803610709,"connected_time":45000000000,"state":"active","ping":107},{"user_id":120,"name":"Nakano","steam_id":76561198866569125,"connected_time":1440000000000,"state":"active","ping":84},{"user_id":114,"name":"X45Y","steam_id":76561198112534025,"connected_time":1837000000000,"state":"active","ping":44},{"user_id":118,"name":"Iva","steam_id":76561198254963150,"connected_time":1526000000000,"state":"active","ping":57},{"user_id":127,"name":"System","steam_id":76561199442503973,"connected_time":441000000000,"state":"active","ping":34},{"user_id":136,"name":"‚ò£Strale‚ò£","steam_id":76561198026578820,"connected_time":43000000000,"state":"active","ping":66},{"user_id":46,"name":"Mor'du","steam_id":76561198274105878,"connected_time":7710000000000,"state":"active","ping":72},{"user_id":137,"name":"MackerelFD","steam_id":76561198371488571,"connected_time":22000000000,"state":"active","ping":65},{"user_id":138,"name":"DOMAIN","steam_id":76561199095640319,"connected_time":14000000000,"state":"spawning","ping":78},{"user_id":106,"name":"Sgt. VARD","steam_id":76561198329576763,"connected_time":3580000000000,"state":"active","ping":75},{"user_id":121,"name":"Cobb Salads","steam_id":76561197971140507,"connected_time":1344000000000,"state":"active","ping":74}]},{"server_id":309,"name":"Uncletopia | Frankfurt | 4 | All Maps","name_short":"frk-4","host":"frk-1.de.uncletopia.com","port":27045,"enabled":true,"region":"eu","cc":"de","latitude":50.110924,"longitude":8.682127,"reserved":0,"last_update":"0001-01-01T00:00:00Z","name_a2s":"Uncletopia | Frankfurt | 4 | All Maps","protocol":17,"map":"pl_borneo","folder":"tf","game":"Team Fortress","app_id":440,"player_count":24,"max_players":24,"Bots":0,"server_type":"Dedicated","server_os":"Linux","password":true,"vac":true,"version":"7742253","steam_id":85568392924504275,"keywords":["nocrits","nodmgspread","payload","uncletopia"],"game_id":440,"stv_port":27046,"stv_name":"Uncletopia | Frankfurt | 4 | All Maps | STV","players":[{"user_id":123,"name":"LordTrap.exe","steam_id":76561198318089716,"connected_time":8760000000000,"state":"active","ping":59},{"user_id":229,"name":"Ixion","steam_id":76561198041660675,"connected_time":1362000000000,"state":"active","ping":73},{"user_id":230,"name":"Martox :3","steam_id":76561198445279911,"connected_time":1295000000000,"state":"active","ping":117},{"user_id":226,"name":"foxer gaming","steam_id":76561199215835095,"connected_time":1373000000000,"state":"active","ping":61},{"user_id":178,"name":"Nidja","steam_id":76561198258232615,"connected_time":4793000000000,"state":"active","ping":69},{"user_id":211,"name":"Doctor Sex","steam_id":76561199027785550,"connected_time":2866000000000,"state":"active","ping":57},{"user_id":180,"name":"Saul Goodman","steam_id":76561199001074475,"connected_time":4784000000000,"state":"active","ping":63},{"user_id":249,"name":"DE4DS3C","steam_id":76561198869218678,"connected_time":143000000000,"state":"active","ping":66},{"user_id":222,"name":"Trollface [·¥ô-Œº]","steam_id":76561198418538887,"connected_time":1525000000000,"state":"active","ping":90},{"user_id":240,"name":"rokee","steam_id":76561199216557606,"connected_time":716000000000,"state":"active","ping":93},{"user_id":246,"name":"Tywhip","steam_id":76561199207545191,"connected_time":273000000000,"state":"active","ping":60},{"user_id":220,"name":"Zoran Snajper","steam_id":76561198312564061,"connected_time":2252000000000,"state":"active","ping":73},{"user_id":228,"name":"meppo","steam_id":76561198165773900,"connected_time":1367000000000,"state":"active","ping":61},{"user_id":242,"name":"Dolcelatte","steam_id":76561198038501770,"connected_time":699000000000,"state":"active","ping":50},{"user_id":241,"name":"trolololgaming3","steam_id":76561199187441897,"connected_time":709000000000,"state":"active","ping":206},{"user_id":233,"name":"r06u3","steam_id":76561198254099253,"connected_time":1269000000000,"state":"active","ping":183},{"user_id":243,"name":"100 IQ gaming","steam_id":76561198948719596,"connected_time":695000000000,"state":"active","ping":60},{"user_id":251,"name":"Mr.Fosty","steam_id":76561198045212783,"connected_time":51000000000,"state":"active","ping":85},{"user_id":248,"name":"demomallet","steam_id":76561199382535912,"connected_time":251000000000,"state":"active","ping":66},{"user_id":244,"name":"rokeesy","steam_id":76561198143826450,"connected_time":693000000000,"state":"active","ping":160},{"user_id":238,"name":"bigwish | bmod.tf","steam_id":76561197997859723,"connected_time":942000000000,"state":"active","ping":72},{"user_id":239,"name":"F1-M","steam_id":76561198198409875,"connected_time":748000000000,"state":"active","ping":125},{"user_id":236,"name":"3szalontaizsombor","steam_id":76561199466675810,"connected_time":1245000000000,"state":"active","ping":71},{"user_id":247,"name":"Marko Rutto","steam_id":76561198124226614,"connected_time":268000000000,"state":"active","ping":62}]},{"server_id":310,"name":"Uncletopia | Frankfurt | 5 | All Maps","name_short":"frk-5","host":"frk-1.de.uncletopia.com","port":27055,"enabled":true,"region":"eu","cc":"de","latitude":50.110924,"longitude":8.682127,"reserved":0,"last_update":"0001-01-01T00:00:00Z","name_a2s":"Uncletopia | Frankfurt | 5 | All Maps","protocol":17,"map":"pl_frontier_final","folder":"tf","game":"Team Fortress","app_id":440,"player_count":24,"max_players":24,"Bots":0,"server_type":"Dedicated","server_os":"Linux","password":true,"vac":true,"version":"7742253","steam_id":85568392924504277,"keywords":["nocrits","nodmgspread","payload","uncletopia"],"game_id":440,"stv_port":27056,"stv_name":"Uncletopia | Frankfurt | 5 | All Maps | STV","players":[{"user_id":70,"name":"Mao Zedong","steam_id":76561198347020945,"connected_time":4618000000000,"state":"active","ping":109},{"user_id":71,"name":"sHIFTINGvORTEX","steam_id":76561198231648332,"connected_time":4472000000000,"state":"active","ping":75},{"user_id":105,"name":"Hoffa","steam_id":76561197963748995,"connected_time":1174000000000,"state":"active","ping":61},{"user_id":49,"name":"Duck Dodgers","steam_id":76561198074141905,"connected_time":5061000000000,"state":"active","ping":60},{"user_id":119,"name":"Gromit","steam_id":76561198080904842,"connected_time":115000000000,"state":"active","ping":93},{"user_id":39,"name":"usmanov.inc","steam_id":76561198263734652,"connected_time":5444000000000,"state":"active","ping":106},{"user_id":114,"name":"Z4p4d","steam_id":76561198011755675,"connected_time":305000000000,"state":"active","ping":75},{"user_id":90,"name":"‚ô£–ë—Ä–µ–¥–æ–≤—ã–π –ú–µ—Å—è—Ü","steam_id":76561198796404149,"connected_time":3081000000000,"state":"active","ping":101},{"user_id":91,"name":"jt7","steam_id":76561198073655162,"connected_time":3028000000000,"state":"active","ping":68},{"user_id":99,"name":"O=(‚Äò-‚ÄôQ)","steam_id":76561198069685870,"connected_time":2382000000000,"state":"active","ping":79},{"user_id":98,"name":"bro.","steam_id":76561198053394831,"connected_time":2550000000000,"state":"active","ping":57},{"user_id":48,"name":"Danilka","steam_id":76561199222725839,"connected_time":5112000000000,"state":"active","ping":113},{"user_id":112,"name":"ricorno","steam_id":76561199441603388,"connected_time":371000000000,"state":"active","ping":78},{"user_id":94,"name":"ABBMM","steam_id":76561198275457864,"connected_time":2895000000000,"state":"active","ping":45},{"user_id":103,"name":"wouris","steam_id":76561198876188003,"connected_time":1184000000000,"state":"active","ping":60},{"user_id":55,"name":"Jack","steam_id":76561198358015863,"connected_time":4905000000000,"state":"active","ping":77},{"user_id":97,"name":"VIN WEASEL","steam_id":76561198014387066,"connected_time":2629000000000,"state":"active","ping":50},{"user_id":57,"name":"Ale","steam_id":76561198908841078,"connected_time":4880000000000,"state":"active","ping":87},{"user_id":107,"name":"Good Ol' Frank","steam_id":76561198118490202,"connected_time":1161000000000,"state":"active","ping":63},{"user_id":83,"name":"Umbro","steam_id":76561198087930438,"connected_time":3604000000000,"state":"active","ping":79},{"user_id":111,"name":"Dr. Shultz","steam_id":76561198076852989,"connected_time":442000000000,"state":"active","ping":76},{"user_id":110,"name":"666sammy","steam_id":76561198016607625,"connected_time":540000000000,"state":"active","ping":99},{"user_id":88,"name":"subway vergil","steam_id":76561199110064166,"connected_time":3214000000000,"state":"active","ping":76},{"user_id":113,"name":"Gandalf67","steam_id":76561198297447327,"connected_time":370000000000,"state":"active","ping":75}]},{"server_id":311,"name":"Uncletopia | Frankfurt | 6 | All Maps","name_short":"frk-6","host":"frk-1.de.uncletopia.com","port":27065,"enabled":true,"region":"eu","cc":"de","latitude":50.110924,"longitude":8.682127,"reserved":0,"last_update":"0001-01-01T00:00:00Z","name_a2s":"Uncletopia | Frankfurt | 6 | All Maps","protocol":17,"map":"koth_lakeside_final","folder":"tf","game":"Team Fortress","app_id":440,"player_count":0,"max_players":24,"Bots":0,"server_type":"Dedicated","server_os":"Linux","password":true,"vac":true,"version":"7742253","steam_id":85568392924504278,"keywords":["cp","nocrits","nodmgspread","uncletopia"],"game_id":440,"stv_port":27066,"stv_name":"Uncletopia | Frankfurt | 6 | All Maps | STV","players":null},{"server_id":23,"name":"Uncletopia | Frankfurt | 7 | Stopwatch Beta","name_short":"frk-7","host":"frk-1.de.uncletopia.com","port":27075,"enabled":true,"region":"eu","cc":"de","latitude":50.110924,"longitude":8.682127,"reserved":0,"last_update":"0001-01-01T00:00:00Z","name_a2s":"Uncletopia | Frankfurt | 7 | Stopwatch Beta","protocol":17,"map":"pl_badwater","folder":"tf","game":"Team Fortress","app_id":440,"player_count":0,"max_players":24,"Bots":0,"server_type":"Dedicated","server_os":"Linux","password":true,"vac":true,"version":"7742253","steam_id":85568392924742827,"keywords":["nocrits","nodmgspread","payload","uncletopia"],"game_id":440,"stv_port":27076,"stv_name":"Uncletopia | Frankfurt | 7 | Stopwatch Beta | STV","players":null},{"server_id":24,"name":"Uncletopia | Frankfurt | 8 | Community","name_short":"frk-8","host":"frk-1.de.uncletopia.com","port":27085,"enabled":true,"region":"eu","cc":"de","latitude":50.110924,"longitude":8.682127,"reserved":0,"last_update":"0001-01-01T00:00:00Z","name_a2s":"Uncletopia | Frankfurt | 8 | Community","protocol":17,"map":"koth_cascade","folder":"tf","game":"Team Fortress","app_id":440,"player_count":0,"max_players":24,"Bots":0,"server_type":"Dedicated","server_os":"Linux","password":true,"vac":true,"version":"7742253","steam_id":85568392924742828,"keywords":["cp","nocrits","nodmgspread","uncletopia"],"game_id":440,"stv_port":27086,"stv_name":"Uncletopia | Frankfurt | 8 | Community | STV","players":null},{"server_id":202,"name":"Uncletopia | Hong Kong | 1 | All Maps","name_short":"hgk-1","host":"hgk-1.hk.uncletopia.com","port":27015,"enabled":true,"region":"asia","cc":"hk","latitude":22.302711,"longitude":114.177216,"reserved":0,"last_update":"0001-01-01T00:00:00Z","name_a2s":"Uncletopia | Hong Kong | 1 | All Maps","protocol":17,"map":"pl_barnblitz","folder":"tf","game":"Team Fortress","app_id":440,"player_count":23,"max_players":24,"Bots":0,"server_type":"Dedicated","server_os":"Linux","password":true,"vac":true,"version":"7742253","steam_id":85568392924494504,"keywords":["nocrits","nodmgspread","payload","uncletopia"],"game_id":440,"stv_port":27016,"stv_name":"Uncletopia | Hong Kong | 1 | All Maps | STV","players":[{"user_id":849,"name":"Haaland","steam_id":76561198828469491,"connected_time":281000000000,"state":"connecting","ping":0},{"user_id":834,"name":"IOR","steam_id":76561199010718657,"connected_time":945000000000,"state":"active","ping":72},{"user_id":850,"name":"sixith","steam_id":76561198292336517,"connected_time":248000000000,"state":"active","ping":69},{"user_id":813,"name":"Puddin","steam_id":76561198140052918,"connected_time":2350000000000,"state":"active","ping":87},{"user_id":826,"name":"Hallelujah","steam_id":76561199024326941,"connected_time":1296000000000,"state":"active","ping":98},{"user_id":796,"name":"T.","steam_id":76561198337887896,"connected_time":3603000000000,"state":"active","ping":77},{"user_id":827,"name":"Walking Ted.","steam_id":76561198008544426,"connected_time":1013000000000,"state":"active","ping":49},{"user_id":845,"name":"Orion","steam_id":76561198855213118,"connected_time":431000000000,"state":"active","ping":40},{"user_id":831,"name":"m1ko-  ‚ùÄ‚ùÜ","steam_id":76561198337154745,"connected_time":975000000000,"state":"active","ping":80},{"user_id":812,"name":"Ïø†ÌÇ§","steam_id":76561197997220367,"connected_time":2436000000000,"state":"active","ping":46},{"user_id":852,"name":"‚ô°","steam_id":76561198400698408,"connected_time":144000000000,"state":"active","ping":133},{"user_id":824,"name":"Mori","steam_id":76561198430817360,"connected_time":1461000000000,"state":"active","ping":39},{"user_id":829,"name":"Momoxhien","steam_id":76561198414997429,"connected_time":998000000000,"state":"active","ping":62},{"user_id":804,"name":"LimitsUP_","steam_id":76561199104828789,"connected_time":3038000000000,"state":"active","ping":101},{"user_id":814,"name":"Antzen","steam_id":76561198041343470,"connected_time":2334000000000,"state":"active","ping":60},{"user_id":815,"name":"„Åµ„Çè„Åµ„ÇèÊØõÂ∏É","steam_id":76561198088403016,"connected_time":2330000000000,"state":"active","ping":134},{"user_id":833,"name":"jeremy","steam_id":76561199221611345,"connected_time":970000000000,"state":"active","ping":111},{"user_id":782,"name":"Buttman","steam_id":76561198044693388,"connected_time":5005000000000,"state":"active","ping":45},{"user_id":854,"name":"ÂØπ‰∏çËµ∑,Ëøô‰∏™Áî®Êà∑‰∏çÂ≠òÂú®","steam_id":76561199073796475,"connected_time":68000000000,"state":"active","ping":225},{"user_id":637,"name":"Bertengkar","steam_id":76561198213031155,"connected_time":15149000000000,"state":"active","ping":97},{"user_id":805,"name":"VaporeonSimp69","steam_id":76561198823521095,"connected_time":2909000000000,"state":"active","ping":50},{"user_id":817,"name":"wota bota","steam_id":76561198173345911,"connected_time":2220000000000,"state":"active","ping":68},{"user_id":837,"name":"IFUDGISTICX","steam_id":76561199105415893,"connected_time":755000000000,"state":"active","ping":113}]},{"server_id":1,"name":"Uncletopia | Los Angeles | 1 | All Maps","name_short":"lax-1","host":"lax-1.us.uncletopia.com","port":27015,"enabled":true,"region":"us-west","cc":"us","latitude":33.94279,"longitude":-118.41004,"reserved":0,"last_update":"0001-01-01T00:00:00Z","name_a2s":"Uncletopia | Los Angeles | 1 | All Maps","protocol":17,"map":"cp_dustbowl","folder":"tf","game":"Team Fortress","app_id":440,"player_count":0,"max_players":24,"Bots":0,"server_type":"Dedicated","server_os":"Linux","password":true,"vac":true,"version":"7742253","steam_id":85568392924469991,"keywords":["cp","nocrits","nodmgspread","uncletopia"],"game_id":440,"stv_port":27016,"stv_name":"Uncletopia | Los Angeles | 1 | All Maps | STV","players":null},{"server_id":112,"name":"Uncletopia | Los Angeles | 2 | All Maps","name_short":"lax-2","host":"lax-1.us.uncletopia.com","port":27025,"enabled":true,"region":"us-west","cc":"us","latitude":33.94279,"longitude":-118.41004,"reserved":0,"last_update":"0001-01-01T00:00:00Z","name_a2s":"Uncletopia | Los Angeles | 2 | All Maps","protocol":17,"map":"pl_frontier_final","folder":"tf","game":"Team Fortress","app_id":440,"player_count":0,"max_players":24,"Bots":0,"server_type":"Dedicated","server_os":"Linux","password":true,"vac":true,"version":"7742253","steam_id":85568392924469992,"keywords":["nocrits","nodmgspread","payload","uncletopia"],"game_id":440,"stv_port":27026,"stv_name":"Uncletopia | Los Angeles | 2 | All Maps | STV","players":null},{"server_id":324,"name":"Uncletopia | Los Angeles | 3 | All Maps","name_short":"lax-3","host":"lax-1.us.uncletopia.com","port":27035,"enabled":true,"region":"us-west","cc":"us","latitude":33.94279,"longitude":-118.41004,"reserved":0,"last_update":"0001-01-01T00:00:00Z","name_a2s":"Uncletopia | Los Angeles | 3 | All Maps","protocol":17,"map":"cp_snakewater_final1","folder":"tf","game":"Team Fortress","app_id":440,"player_count":0,"max_players":24,"Bots":0,"server_type":"Dedicated","server_os":"Linux","password":true,"vac":true,"version":"7742253","steam_id":85568392924510198,"keywords":["cp","nocrits","nodmgspread","uncletopia"],"game_id":440,"stv_port":27036,"stv_name":"Uncletopia | Los Angeles | 3 | All Maps | STV","players":null},{"server_id":25,"name":"Uncletopia | Los Angeles | 4 | Stopwatch Beta","name_short":"lax-4","host":"lax-1.us.uncletopia.com","port":27045,"enabled":true,"region":"us-west","cc":"us","latitude":33.94279,"longitude":-118.41004,"reserved":0,"last_update":"0001-01-01T00:00:00Z","name_a2s":"Uncletopia | Los Angeles | 4 | Stopwatch Beta","protocol":17,"map":"cp_snakewater_final1","folder":"tf","game":"Team Fortress","app_id":440,"player_count":0,"max_players":24,"Bots":0,"server_type":"Dedicated","server_os":"Linux","password":true,"vac":true,"version":"7742253","steam_id":85568392924510199,"keywords":["cp","nocrits","nodmgspread","uncletopia"],"game_id":440,"stv_port":27046,"stv_name":"Uncletopia | Los Angeles | 4 | Stopwatch Beta | STV","players":null},{"server_id":11,"name":"Uncletopia | London | 1 | All Maps","name_short":"lon-1","host":"lon-1.uk.uncletopia.com","port":27015,"enabled":true,"region":"eu","cc":"gb","latitude":51.509865,"longitude":-0.118092,"reserved":0,"last_update":"0001-01-01T00:00:00Z","name_a2s":"Uncletopia | London | 1 | All Maps","protocol":17,"map":"pl_borneo","folder":"tf","game":"Team Fortress","app_id":440,"player_count":24,"max_players":24,"Bots":0,"server_type":"Dedicated","server_os":"Linux","password":true,"vac":true,"version":"7742253","steam_id":85568392924367362,"keywords":["nocrits","nodmgspread","payload","uncletopia"],"game_id":440,"stv_port":27016,"stv_name":"Uncletopia | London | 1 | All Maps | STV","players":[{"user_id":381,"name":"BOT Jeremus","steam_id":76561198072981684,"connected_time":944000000000,"state":"active","ping":45},{"user_id":356,"name":"Loki_Drummer","steam_id":76561199088024048,"connected_time":2875000000000,"state":"active","ping":54},{"user_id":368,"name":"Kard","steam_id":76561198191894926,"connected_time":2731000000000,"state":"active","ping":103},{"user_id":357,"name":"Pumello","steam_id":76561198143305625,"connected_time":2870000000000,"state":"active","ping":95},{"user_id":378,"name":"Zeemii","steam_id":76561198809299581,"connected_time":2171000000000,"state":"active","ping":113},{"user_id":345,"name":"juni","steam_id":76561198036504214,"connected_time":4501000000000,"state":"active","ping":58},{"user_id":299,"name":"smrk","steam_id":76561198066926098,"connected_time":7584000000000,"state":"active","ping":60},{"user_id":371,"name":"chocolate flavoured femboy","steam_id":76561198819353867,"connected_time":2653000000000,"state":"active","ping":38},{"user_id":337,"name":"MtnDew","steam_id":76561199100059743,"connected_time":5193000000000,"state":"active","ping":113},{"user_id":383,"name":"Hotgamerdad","steam_id":76561198085940613,"connected_time":743000000000,"state":"active","ping":56},{"user_id":323,"name":"Fallen Champion","steam_id":76561198089360711,"connected_time":6371000000000,"state":"active","ping":76},{"user_id":373,"name":"2006 yƒ±lƒ±nda ocaƒüƒ± a√ßtƒ±m","steam_id":76561198059535856,"connected_time":2366000000000,"state":"active","ping":164},{"user_id":359,"name":"MonoAko| RIP Rick May","steam_id":76561198119529099,"connected_time":2860000000000,"state":"active","ping":78},{"user_id":382,"name":"Mr Prince","steam_id":76561199006591691,"connected_time":916000000000,"state":"active","ping":51},{"user_id":364,"name":"Landsknecht","steam_id":76561199293036742,"connected_time":2817000000000,"state":"active","ping":60},{"user_id":363,"name":"It hurts when i pee (real)","steam_id":76561198139404261,"connected_time":2827000000000,"state":"active","ping":45},{"user_id":270,"name":"Pyrolander","steam_id":76561198050785450,"connected_time":8872000000000,"state":"active","ping":54},{"user_id":352,"name":"Echo of Abyss","steam_id":76561198981841782,"connected_time":3191000000000,"state":"active","ping":75},{"user_id":385,"name":"CrazicalCX","steam_id":76561199184138900,"connected_time":612000000000,"state":"active","ping":45},{"user_id":375,"name":"obscure","steam_id":76561198119532381,"connected_time":2321000000000,"state":"active","ping":49},{"user_id":376,"name":"breadlikeme.","steam_id":76561198133532980,"connected_time":2297000000000,"state":"active","ping":47},{"user_id":365,"name":"GodLike969","steam_id":76561198092287947,"connected_time":2809000000000,"state":"active","ping":125},{"user_id":384,"name":"Boooooooooooooooooonk g@ng","steam_id":76561198082141598,"connected_time":709000000000,"state":"active","ping":45},{"user_id":343,"name":"Hedj","steam_id":76561198108369687,"connected_time":5096000000000,"state":"active","ping":45}]},{"server_id":114,"name":"Uncletopia | London | 2 | All Maps","name_short":"lon-2","host":"lon-1.uk.uncletopia.com","port":27025,"enabled":true,"region":"eu","cc":"gb","latitude":51.509865,"longitude":-0.118092,"reserved":0,"last_update":"0001-01-01T00:00:00Z","name_a2s":"Uncletopia | London | 2 | All Maps","protocol":17,"map":"pl_upward","folder":"tf","game":"Team Fortress","app_id":440,"player_count":24,"max_players":24,"Bots":0,"server_type":"Dedicated","server_os":"Linux","password":true,"vac":true,"version":"7742253","steam_id":85568392924470941,"keywords":["nocrits","nodmgspread","payload","uncletopia"],"game_id":440,"stv_port":27026,"stv_name":"Uncletopia | London | 2 | All Maps | STV","players":[{"user_id":337,"name":"Fella","steam_id":76561199090136355,"connected_time":215000000000,"state":"active","ping":64},{"user_id":338,"name":"sammeh","steam_id":76561198879773477,"connected_time":193000000000,"state":"active","ping":55},{"user_id":313,"name":"c","steam_id":76561197986672188,"connected_time":1302000000000,"state":"active","ping":47},{"user_id":320,"name":"Hydro","steam_id":76561199081791855,"connected_time":1042000000000,"state":"active","ping":60},{"user_id":314,"name":"Leituga","steam_id":76561198051127598,"connected_time":1295000000000,"state":"active","ping":80},{"user_id":329,"name":"Val23","steam_id":76561198099480715,"connected_time":929000000000,"state":"active","ping":47},{"user_id":260,"name":"Thesis","steam_id":76561199308784371,"connected_time":6428000000000,"state":"active","ping":54},{"user_id":322,"name":"agent creep","steam_id":76561198059933595,"connected_time":1013000000000,"state":"active","ping":48},{"user_id":296,"name":"OnyxAngel","steam_id":76561198799166408,"connected_time":3597000000000,"state":"active","ping":47},{"user_id":336,"name":"bob","steam_id":76561198974161184,"connected_time":231000000000,"state":"active","ping":139},{"user_id":332,"name":"CarrotFlowers","steam_id":76561198154714698,"connected_time":614000000000,"state":"active","ping":50},{"user_id":267,"name":"SoupER","steam_id":76561198063056668,"connected_time":5601000000000,"state":"active","ping":34},{"user_id":335,"name":"kpn","steam_id":76561198063512694,"connected_time":280000000000,"state":"active","ping":58},{"user_id":333,"name":"–ì–¥–µ –º–æ—Ä–µ?","steam_id":76561197979625544,"connected_time":521000000000,"state":"active","ping":91},{"user_id":316,"name":"theres a bomb in my tea","steam_id":76561199134149296,"connected_time":1223000000000,"state":"active","ping":147},{"user_id":289,"name":"lark","steam_id":76561198091724522,"connected_time":3915000000000,"state":"active","ping":49},{"user_id":330,"name":"Searching...","steam_id":76561198191078771,"connected_time":681000000000,"state":"active","ping":74},{"user_id":334,"name":"Jendos","steam_id":76561198026471272,"connected_time":317000000000,"state":"active","ping":108},{"user_id":324,"name":"Jane","steam_id":76561198904910888,"connected_time":1007000000000,"state":"active","ping":143},{"user_id":305,"name":"Kahvi","steam_id":76561198723244199,"connected_time":2205000000000,"state":"active","ping":75},{"user_id":288,"name":"Saken","steam_id":76561198049075295,"connected_time":3930000000000,"state":"active","ping":59},{"user_id":326,"name":"agent weirdo","steam_id":76561198105707824,"connected_time":982000000000,"state":"active","ping":103},{"user_id":238,"name":".quickfast.","steam_id":76561199438900919,"connected_time":8483000000000,"state":"active","ping":50},{"user_id":173,"name":"Welder","steam_id":76561198355300561,"connected_time":14260000000000,"state":"active","ping":73}]},{"server_id":320,"name":"Uncletopia | London | 3 | All Maps","name_short":"lon-3","host":"lon-1.uk.uncletopia.com","port":27035,"enabled":true,"region":"eu","cc":"gb","latitude":51.509865,"longitude":-0.118092,"reserved":0,"last_update":"0001-01-01T00:00:00Z","name_a2s":"Uncletopia | London | 3 | All Maps","protocol":17,"map":"pl_borneo","folder":"tf","game":"Team Fortress","app_id":440,"player_count":22,"max_players":24,"Bots":0,"server_type":"Dedicated","server_os":"Linux","password":true,"vac":true,"version":"7742253","steam_id":85568392924510192,"keywords":["nocrits","nodmgspread","payload","uncletopia"],"game_id":440,"stv_port":27036,"stv_name":"Uncletopia | London | 3 | All Maps | STV","players":[{"user_id":96,"name":"Exe_Red","steam_id":76561198154952759,"connected_time":1130000000000,"state":"active","ping":75},{"user_id":118,"name":"GazerBazer","steam_id":76561198879107565,"connected_time":37000000000,"state":"active","ping":88},{"user_id":81,"name":"wheelie bin","steam_id":76561198040040328,"connected_time":1673000000000,"state":"active","ping":46},{"user_id":119,"name":"exploding hampter","steam_id":76561198355799860,"connected_time":0,"state":"connecting","ping":0},{"user_id":73,"name":"Jack","steam_id":76561198325505238,"connected_time":2238000000000,"state":"active","ping":79},{"user_id":32,"name":"Sneaky boi","steam_id":76561199195985387,"connected_time":3180000000000,"state":"active","ping":90},{"user_id":105,"name":"Blondie","steam_id":76561198080631634,"connected_time":592000000000,"state":"active","ping":56},{"user_id":115,"name":"Craig Crusade","steam_id":76561199225918086,"connected_time":295000000000,"state":"active","ping":39},{"user_id":113,"name":"The CEO of LGBTQIA+","steam_id":76561199083743586,"connected_time":341000000000,"state":"active","ping":89},{"user_id":112,"name":"Wehemmesu","steam_id":76561199446098244,"connected_time":354000000000,"state":"active","ping":78},{"user_id":107,"name":"Ardello","steam_id":76561198864484125,"connected_time":540000000000,"state":"active","ping":92},{"user_id":117,"name":"hawas","steam_id":76561198208762008,"connected_time":75000000000,"state":"active","ping":62},{"user_id":109,"name":"pryate","steam_id":76561198135960359,"connected_time":491000000000,"state":"active","ping":42},{"user_id":99,"name":"Engie gaming","steam_id":76561198003366826,"connected_time":1018000000000,"state":"active","ping":63},{"user_id":44,"name":"Dan1el Gam1ng","steam_id":76561198970762992,"connected_time":2966000000000,"state":"active","ping":75},{"user_id":68,"name":"a Cat that cry","steam_id":76561198134378108,"connected_time":2375000000000,"state":"active","ping":69},{"user_id":110,"name":"Roon","steam_id":76561198191983045,"connected_time":488000000000,"state":"active","ping":61},{"user_id":58,"name":"Frazzles","steam_id":76561199228009586,"connected_time":2504000000000,"state":"active","ping":48},{"user_id":93,"name":"RedFog","steam_id":76561198284713081,"connected_time":1189000000000,"state":"active","ping":48},{"user_id":104,"name":"Jasperatus","steam_id":76561198196733750,"connected_time":792000000000,"state":"active","ping":69},{"user_id":84,"name":"apple","steam_id":76561198116932635,"connected_time":1650000000000,"state":"active","ping":42},{"user_id":94,"name":"Marioalexsan","steam_id":76561198125512367,"connected_time":1188000000000,"state":"active","ping":83}]},{"server_id":321,"name":"Uncletopia | London | 4 | All Maps","name_short":"lon-4","host":"lon-1.uk.uncletopia.com","port":27045,"enabled":true,"region":"eu","cc":"gb","latitude":51.509865,"longitude":-0.118092,"reserved":0,"last_update":"0001-01-01T00:00:00Z","name_a2s":"Uncletopia | London | 4 | All Maps","protocol":17,"map":"koth_highpass","folder":"tf","game":"Team Fortress","app_id":440,"player_count":0,"max_players":24,"Bots":0,"server_type":"Dedicated","server_os":"Linux","password":true,"vac":true,"version":"7742253","steam_id":85568392924510193,"keywords":["cp","nocrits","nodmgspread","uncletopia"],"game_id":440,"stv_port":27046,"stv_name":"Uncletopia | London | 4 | All Maps | STV","players":null},{"server_id":21,"name":"Uncletopia | London | 5 | All Maps","name_short":"lon-5","host":"lon-1.uk.uncletopia.com","port":27055,"enabled":true,"region":"eu","cc":"gb","latitude":51.509865,"longitude":-0.118092,"reserved":0,"last_update":"0001-01-01T00:00:00Z","name_a2s":"Uncletopia | London | 5 | All Maps","protocol":17,"map":"koth_highpass","folder":"tf","game":"Team Fortress","app_id":440,"player_count":0,"max_players":24,"Bots":0,"server_type":"Dedicated","server_os":"Linux","password":true,"vac":true,"version":"7742253","steam_id":85568392924742829,"keywords":["cp","nocrits","nodmgspread","uncletopia"],"game_id":440,"stv_port":27056,"stv_name":"Uncletopia | London | 5 | All Maps | STV","players":null},{"server_id":22,"name":"Uncletopia | London | 6 | All Maps","name_short":"lon-6","host":"lon-1.uk.uncletopia.com","port":27065,"enabled":true,"region":"eu","cc":"gb","latitude":51.509865,"longitude":-0.118092,"reserved":0,"last_update":"0001-01-01T00:00:00Z","name_a2s":"Uncletopia | London | 6 | All Maps","protocol":17,"map":"pl_badwater","folder":"tf","game":"Team Fortress","app_id":440,"player_count":22,"max_players":24,"Bots":0,"server_type":"Dedicated","server_os":"Linux","password":true,"vac":true,"version":"7742253","steam_id":85568392924742830,"keywords":["nocrits","nodmgspread","payload","uncletopia"],"game_id":440,"stv_port":27066,"stv_name":"Uncletopia | London | 6 | All Maps | STV","players":[{"user_id":52,"name":"[G.E.W.P.] | Gr0t0s","steam_id":76561198157368331,"connected_time":3000000000,"state":"spawning","ping":86},{"user_id":12,"name":"Redkiller","steam_id":76561199453655288,"connected_time":1756000000000,"state":"active","ping":112},{"user_id":13,"name":"MarkBV","steam_id":76561198427014506,"connected_time":1685000000000,"state":"active","ping":148},{"user_id":16,"name":"chopsticks","steam_id":76561198045899345,"connected_time":1541000000000,"state":"active","ping":108},{"user_id":17,"name":"Butt Fangs Fetish","steam_id":76561198038130063,"connected_time":1506000000000,"state":"active","ping":76},{"user_id":18,"name":"Havelyn","steam_id":76561198036159862,"connected_time":1471000000000,"state":"active","ping":136},{"user_id":19,"name":"Dumb Monkey‚Ñ¢","steam_id":76561198270165797,"connected_time":1396000000000,"state":"active","ping":52},{"user_id":20,"name":"quadr","steam_id":76561198871716755,"connected_time":1379000000000,"state":"active","ping":96},{"user_id":26,"name":"GOOFY AHH","steam_id":76561199152065544,"connected_time":1134000000000,"state":"active","ping":54},{"user_id":22,"name":"Stinky64","steam_id":76561198389725889,"connected_time":1344000000000,"state":"active","ping":63},{"user_id":53,"name":"ZOMBINŒ£","steam_id":76561198151057964,"connected_time":2000000000,"state":"spawning","ping":73},{"user_id":48,"name":"Tugazu","steam_id":76561198144223649,"connected_time":437000000000,"state":"active","ping":61},{"user_id":31,"name":"aureloancea39","steam_id":76561199063325956,"connected_time":906000000000,"state":"active","ping":82},{"user_id":46,"name":"wicked","steam_id":76561198164376035,"connected_time":597000000000,"state":"active","ping":73},{"user_id":42,"name":"porridge","steam_id":76561198044585737,"connected_time":736000000000,"state":"active","ping":41},{"user_id":51,"name":"Femboy Gaming","steam_id":76561198174108515,"connected_time":43000000000,"state":"active","ping":46},{"user_id":34,"name":"‚ú™ Sneaky Goat","steam_id":76561198073218119,"connected_time":853000000000,"state":"active","ping":76},{"user_id":35,"name":"Nixsidus","steam_id":76561198192442130,"connected_time":824000000000,"state":"active","ping":77},{"user_id":36,"name":"piss salesman","steam_id":76561199039228131,"connected_time":798000000000,"state":"spawning","ping":141},{"user_id":37,"name":"i \u003c3 poptarts #saveTF2","steam_id":76561199057354397,"connected_time":780000000000,"state":"active","ping":124},{"user_id":50,"name":"suna militisto","steam_id":76561198352926998,"connected_time":101000000000,"state":"active","ping":116},{"user_id":41,"name":"wickEd_","steam_id":76561198048068999,"connected_time":747000000000,"state":"active","ping":135}]},{"server_id":40,"name":"Uncletopia | London | 7 | No Payload","name_short":"lon-7","host":"lon-1.uk.uncletopia.com","port":27075,"enabled":true,"region":"eu","cc":"gb","latitude":51.509865,"longitude":-0.118092,"reserved":0,"last_update":"0001-01-01T00:00:00Z","name_a2s":"Uncletopia | London | 7 | No Payload","protocol":17,"map":"koth_viaduct","folder":"tf","game":"Team Fortress","app_id":440,"player_count":0,"max_players":24,"Bots":0,"server_type":"Dedicated","server_os":"Linux","password":true,"vac":true,"version":"7742253","steam_id":85568392924964314,"keywords":["cp","nocrits","nodmgspread","uncletopia"],"game_id":440,"stv_port":27076,"stv_name":"Uncletopia | London | 7 | No Payload | STV","players":null},{"server_id":41,"name":"Uncletopia | London | 8 | Community","name_short":"lon-8","host":"lon-1.uk.uncletopia.com","port":27085,"enabled":true,"region":"eu","cc":"gb","latitude":51.509865,"longitude":-0.118092,"reserved":0,"last_update":"0001-01-01T00:00:00Z","name_a2s":"Uncletopia | London | 8 | Community","protocol":17,"map":"workshop/cp_sulfur_rc2.ugc619869471","folder":"tf","game":"Team Fortress","app_id":440,"player_count":0,"max_players":24,"Bots":0,"server_type":"Dedicated","server_os":"Linux","password":true,"vac":true,"version":"7742253","steam_id":85568392924964315,"keywords":["cp","nocrits","nodmgspread","uncletopia"],"game_id":440,"stv_port":27086,"stv_name":"Uncletopia | London | 8 | Community | STV","players":null},{"server_id":300,"name":"Uncletopia | Montr√©al | 1 | All Maps","name_short":"mtl-1","host":"mtl-1.ca.uncletopia.com","port":27015,"enabled":true,"region":"us-east","cc":"ca","latitude":45.50889,"longitude":-73.56167,"reserved":0,"last_update":"0001-01-01T00:00:00Z","name_a2s":"Uncletopia | Montr√©al | 1 | All Maps","protocol":17,"map":"cp_snakewater_final1","folder":"tf","game":"Team Fortress","app_id":440,"player_count":0,"max_players":24,"Bots":0,"server_type":"Dedicated","server_os":"Linux","password":true,"vac":true,"version":"7742253","steam_id":85568392924500087,"keywords":["cp","nocrits","nodmgspread","uncletopia"],"game_id":440,"stv_port":27016,"stv_name":"Uncletopia | Montr√©al | 1 | All Maps | STV","players":null},{"server_id":301,"name":"Uncletopia | Montr√©al | 2 | All Maps","name_short":"mtl-2","host":"mtl-1.ca.uncletopia.com","port":27025,"enabled":true,"region":"us-east","cc":"ca","latitude":45.50889,"longitude":-73.56167,"reserved":0,"last_update":"0001-01-01T00:00:00Z","name_a2s":"Uncletopia | Montr√©al | 2 | All Maps","protocol":17,"map":"koth_highpass","folder":"tf","game":"Team Fortress","app_id":440,"player_count":0,"max_players":24,"Bots":0,"server_type":"Dedicated","server_os":"Linux","password":true,"vac":true,"version":"7742253","steam_id":85568392924500088,"keywords":["cp","nocrits","nodmgspread","uncletopia"],"game_id":440,"stv_port":27026,"stv_name":"Uncletopia | Montr√©al | 2 | All Maps | STV","players":null},{"server_id":302,"name":"Uncletopia | Montr√©al | 3 | All Maps","name_short":"mtl-3","host":"mtl-1.ca.uncletopia.com","port":27035,"enabled":true,"region":"us-east","cc":"ca","latitude":45.50889,"longitude":-73.56167,"reserved":0,"last_update":"0001-01-01T00:00:00Z","name_a2s":"Uncletopia | Montr√©al | 3 | All Maps","protocol":17,"map":"cp_mountainlab","folder":"tf","game":"Team Fortress","app_id":440,"player_count":0,"max_players":24,"Bots":0,"server_type":"Dedicated","server_os":"Linux","password":true,"vac":true,"version":"7742253","steam_id":85568392924500089,"keywords":["cp","nocrits","nodmgspread","uncletopia"],"game_id":440,"stv_port":27036,"stv_name":"Uncletopia | Montr√©al | 3 | All Maps | STV","players":null},{"server_id":303,"name":"Uncletopia | Montr√©al | 4 | No Payload","name_short":"mtl-4","host":"mtl-1.ca.uncletopia.com","port":27045,"enabled":true,"region":"us-east","cc":"ca","latitude":45.50889,"longitude":-73.56167,"reserved":0,"last_update":"0001-01-01T00:00:00Z","name_a2s":"Uncletopia | Montr√©al | 4 | No Payload","protocol":17,"map":"cp_snakewater_final1","folder":"tf","game":"Team Fortress","app_id":440,"player_count":0,"max_players":24,"Bots":0,"server_type":"Dedicated","server_os":"Linux","password":true,"vac":true,"version":"7742253","steam_id":85568392924500090,"keywords":["cp","nocrits","nodmgspread","uncletopia"],"game_id":440,"stv_port":27046,"stv_name":"Uncletopia | Montr√©al | 4 | No Payload | STV","players":null},{"server_id":13,"name":"Uncletopia | New York City | 1 | All Maps","name_short":"nyc-1","host":"nyc-1.us.uncletopia.com","port":27015,"enabled":true,"region":"us-east","cc":"us","latitude":40.73061,"longitude":-73.93524,"reserved":0,"last_update":"0001-01-01T00:00:00Z","name_a2s":"Uncletopia | New York City | 1 | All Maps","protocol":17,"map":"pl_upward","folder":"tf","game":"Team Fortress","app_id":440,"player_count":24,"max_players":24,"Bots":0,"server_type":"Dedicated","server_os":"Linux","password":true,"vac":true,"version":"7742253","steam_id":85568392924469993,"keywords":["nocrits","nodmgspread","payload","uncletopia"],"game_id":440,"stv_port":27016,"stv_name":"Uncletopia | New York City | 1 | All Maps | STV","players":[{"user_id":47,"name":"Sirebellum","steam_id":76561199012778952,"connected_time":2046000000000,"state":"active","ping":73},{"user_id":34,"name":"NoShen","steam_id":76561198147434663,"connected_time":2751000000000,"state":"active","ping":63},{"user_id":86,"name":"Dexter","steam_id":76561198050149035,"connected_time":339000000000,"state":"active","ping":50},{"user_id":56,"name":"Ergo Lith","steam_id":76561198042056228,"connected_time":1426000000000,"state":"active","ping":63},{"user_id":90,"name":"Spazzid","steam_id":76561199445100850,"connected_time":102000000000,"state":"active","ping":74},{"user_id":43,"name":"dreamySylph","steam_id":76561199000573308,"connected_time":2248000000000,"state":"active","ping":38},{"user_id":88,"name":"bdkaine1","steam_id":76561198133545467,"connected_time":338000000000,"state":"active","ping":57},{"user_id":50,"name":"uncle kringle gaming","steam_id":76561198063024859,"connected_time":1927000000000,"state":"active","ping":57},{"user_id":49,"name":"Deltale","steam_id":76561198443042790,"connected_time":1954000000000,"state":"active","ping":121},{"user_id":48,"name":"the ebic gamner","steam_id":76561199220801849,"connected_time":2022000000000,"state":"active","ping":138},{"user_id":32,"name":"nnobi","steam_id":76561198878729277,"connected_time":2824000000000,"state":"active","ping":69},{"user_id":64,"name":"stalkerino","steam_id":76561198126044467,"connected_time":1113000000000,"state":"active","ping":179},{"user_id":52,"name":"Bing Chilling","steam_id":76561198140651185,"connected_time":1917000000000,"state":"active","ping":91},{"user_id":89,"name":"[TF2Apples] Intense Green Apple","steam_id":76561198803561622,"connected_time":337000000000,"state":"active","ping":72},{"user_id":74,"name":"KORF","steam_id":76561197981904410,"connected_time":610000000000,"state":"active","ping":76},{"user_id":57,"name":"Feral Juul","steam_id":76561198306965757,"connected_time":1280000000000,"state":"active","ping":97},{"user_id":60,"name":"surgeon_c","steam_id":76561198029343009,"connected_time":1150000000000,"state":"active","ping":80},{"user_id":72,"name":"ThatGuyFromClass","steam_id":76561198445601688,"connected_time":880000000000,"state":"active","ping":82},{"user_id":62,"name":"beag√°n","steam_id":76561198051966142,"connected_time":1132000000000,"state":"active","ping":61},{"user_id":63,"name":"Kiss Master","steam_id":76561198289572271,"connected_time":1119000000000,"state":"active","ping":77},{"user_id":69,"name":"The Sparkman","steam_id":76561198045029810,"connected_time":913000000000,"state":"active","ping":139},{"user_id":85,"name":"Ashric","steam_id":76561198044655935,"connected_time":359000000000,"state":"active","ping":60},{"user_id":68,"name":"'LaxAttack","steam_id":76561198044129346,"connected_time":1065000000000,"state":"active","ping":60},{"user_id":73,"name":"RomanticOtter","steam_id":76561198099499113,"connected_time":880000000000,"state":"active","ping":80}]},{"server_id":14,"name":"Uncletopia | New York City | 2 | All Maps","name_short":"nyc-2","host":"nyc-1.us.uncletopia.com","port":27025,"enabled":true,"region":"us-east","cc":"us","latitude":40.73061,"longitude":-73.93524,"reserved":0,"last_update":"0001-01-01T00:00:00Z","name_a2s":"Uncletopia | New York City | 2 | All Maps","protocol":17,"map":"cp_altitude","folder":"tf","game":"Team Fortress","app_id":440,"player_count":0,"max_players":24,"Bots":0,"server_type":"Dedicated","server_os":"Linux","password":true,"vac":true,"version":"7742253","steam_id":85568392924469994,"keywords":["cp","nocrits","nodmgspread","uncletopia"],"game_id":440,"stv_port":27026,"stv_name":"Uncletopia | New York City | 2 | All Maps | STV","players":null},{"server_id":15,"name":"Uncletopia | New York City | 3 | Stopwatch Beta","name_short":"nyc-3","host":"nyc-1.us.uncletopia.com","port":27035,"enabled":true,"region":"us-east","cc":"us","latitude":40.73061,"longitude":-73.93524,"reserved":0,"last_update":"0001-01-01T00:00:00Z","name_a2s":"Uncletopia | New York City | 3 | Stopwatch Beta","protocol":17,"map":"pl_pier","folder":"tf","game":"Team Fortress","app_id":440,"player_count":0,"max_players":24,"Bots":0,"server_type":"Dedicated","server_os":"Linux","password":true,"vac":true,"version":"7742253","steam_id":85568392924742820,"keywords":["nocrits","nodmgspread","payload","uncletopia"],"game_id":440,"stv_port":27036,"stv_name":"Uncletopia | New York City | 3 | Stopwatch Beta | STV","players":null},{"server_id":16,"name":"Uncletopia | New York City | 4 | Community","name_short":"nyc-4","host":"nyc-1.us.uncletopia.com","port":27045,"enabled":true,"region":"us-east","cc":"us","latitude":40.73061,"longitude":-73.93524,"reserved":0,"last_update":"0001-01-01T00:00:00Z","name_a2s":"Uncletopia | New York City | 4 | Community","protocol":17,"map":"koth_viaduct","folder":"tf","game":"Team Fortress","app_id":440,"player_count":0,"max_players":24,"Bots":0,"server_type":"Dedicated","server_os":"Linux","password":true,"vac":true,"version":"7742253","steam_id":85568392924742821,"keywords":["cp","nocrits","nodmgspread","uncletopia"],"game_id":440,"stv_port":27046,"stv_name":"Uncletopia | New York City | 4 | Community | STV","players":null},{"server_id":142,"name":"Uncletopia | S√£o Paulo | 1 | All Maps","name_short":"sao-1","host":"sao-1.br.uncletopia.com","port":27015,"enabled":true,"region":"sa","cc":"br","latitude":-23.533773,"longitude":-46.62529,"reserved":0,"last_update":"0001-01-01T00:00:00Z","name_a2s":"Uncletopia | S√£o Paulo | 1 | All Maps","protocol":17,"map":"koth_viaduct","folder":"tf","game":"Team Fortress","app_id":440,"player_count":0,"max_players":24,"Bots":0,"server_type":"Dedicated","server_os":"Linux","password":true,"vac":true,"version":"7742253","steam_id":85568392924469996,"keywords":["cp","nocrits","nodmgspread","uncletopia"],"game_id":440,"stv_port":27016,"stv_name":"Uncletopia | S√£o Paulo | 1 | All Maps | STV","players":null},{"server_id":143,"name":"Uncletopia | S√£o Paulo | 2 | All Maps","name_short":"sao-2","host":"sao-2.br.uncletopia.com","port":27015,"enabled":true,"region":"sa","cc":"br","latitude":-23.533773,"longitude":-46.62529,"reserved":0,"last_update":"0001-01-01T00:00:00Z","name_a2s":"Uncletopia | S√£o Paulo | 2 | All Maps","protocol":17,"map":"koth_viaduct","folder":"tf","game":"Team Fortress","app_id":440,"player_count":0,"max_players":24,"Bots":0,"server_type":"Dedicated","server_os":"Linux","password":true,"vac":true,"version":"7742253","steam_id":85568392924485349,"keywords":["cp","nocrits","nodmgspread","uncletopia"],"game_id":440,"stv_port":27016,"stv_name":"Uncletopia | S√£o Paulo | 2 | All Maps | STV","players":null},{"server_id":7,"name":"Uncletopia | Seattle | 1 | All Maps","name_short":"sea-1","host":"sea-1.us.uncletopia.com","port":27015,"enabled":true,"region":"us-west","cc":"us","latitude":47.608013,"longitude":-122.33517,"reserved":0,"last_update":"0001-01-01T00:00:00Z","name_a2s":"Uncletopia | Seattle | 1 | All Maps","protocol":17,"map":"pl_frontier_final","folder":"tf","game":"Team Fortress","app_id":440,"player_count":23,"max_players":24,"Bots":0,"server_type":"Dedicated","server_os":"Linux","password":true,"vac":true,"version":"7742253","steam_id":85568392924469997,"keywords":["nocrits","nodmgspread","payload","uncletopia"],"game_id":440,"stv_port":27016,"stv_name":"Uncletopia | Seattle | 1 | All Maps | STV","players":[{"user_id":33,"name":"RelatableiLLness","steam_id":76561198441669772,"connected_time":310000000000,"state":"active","ping":126},{"user_id":4,"name":"adrian œÄ","steam_id":76561198199503462,"connected_time":788000000000,"state":"active","ping":70},{"user_id":5,"name":"A Random Guy","steam_id":76561198052725191,"connected_time":788000000000,"state":"active","ping":84},{"user_id":24,"name":"Abomination","steam_id":76561198167974713,"connected_time":464000000000,"state":"active","ping":104},{"user_id":7,"name":"overgrown teakettle","steam_id":76561198059041027,"connected_time":784000000000,"state":"active","ping":55},{"user_id":8,"name":"jon","steam_id":76561198065314212,"connected_time":784000000000,"state":"active","ping":63},{"user_id":9,"name":"Rappitor","steam_id":76561198105613110,"connected_time":771000000000,"state":"active","ping":117},{"user_id":10,"name":"Eggs","steam_id":76561199094378158,"connected_time":768000000000,"state":"active","ping":98},{"user_id":11,"name":"Futa Lover","steam_id":76561198056775795,"connected_time":755000000000,"state":"active","ping":122},{"user_id":12,"name":"Soap Man","steam_id":76561198000490235,"connected_time":754000000000,"state":"active","ping":65},{"user_id":13,"name":"Dantihere TTV","steam_id":76561199003107869,"connected_time":754000000000,"state":"active","ping":86},{"user_id":14,"name":"grandmas horny pills","steam_id":76561198446477539,"connected_time":746000000000,"state":"active","ping":70},{"user_id":20,"name":"Astroa","steam_id":76561199190565830,"connected_time":619000000000,"state":"active","ping":114},{"user_id":16,"name":"IPlayGamez","steam_id":76561198041387508,"connected_time":716000000000,"state":"active","ping":126},{"user_id":23,"name":"shrimp","steam_id":76561198092401427,"connected_time":469000000000,"state":"active","ping":112},{"user_id":18,"name":"Prestoneon003","steam_id":76561198348279581,"connected_time":661000000000,"state":"active","ping":96},{"user_id":19,"name":"Siggator","steam_id":76561198363754779,"connected_time":650000000000,"state":"active","ping":105},{"user_id":29,"name":"ACasualWalnut","steam_id":76561198811827496,"connected_time":372000000000,"state":"active","ping":115},{"user_id":26,"name":"ATL1 | to4st","steam_id":76561198981009008,"connected_time":449000000000,"state":"active","ping":105},{"user_id":27,"name":"Vladikr1","steam_id":76561198401495362,"connected_time":430000000000,"state":"active","ping":103},{"user_id":28,"name":"daemon","steam_id":76561198001541433,"connected_time":387000000000,"state":"active","ping":105},{"user_id":34,"name":"River Rat","steam_id":76561198116383976,"connected_time":242000000000,"state":"active","ping":62},{"user_id":36,"name":"threatening","steam_id":76561199074875663,"connected_time":198000000000,"state":"active","ping":162}]},{"server_id":119,"name":"Uncletopia | Seattle | 2 | All Maps","name_short":"sea-2","host":"sea-1.us.uncletopia.com","port":27025,"enabled":true,"region":"us-west","cc":"us","latitude":47.608013,"longitude":-122.33517,"reserved":0,"last_update":"0001-01-01T00:00:00Z","name_a2s":"Uncletopia | Seattle | 2 | All Maps","protocol":17,"map":"cp_sunshine","folder":"tf","game":"Team Fortress","app_id":440,"player_count":0,"max_players":24,"Bots":0,"server_type":"Dedicated","server_os":"Linux","password":true,"vac":true,"version":"7742253","steam_id":85568392924469998,"keywords":["cp","nocrits","nodmgspread","uncletopia"],"game_id":440,"stv_port":27026,"stv_name":"Uncletopia | Seattle | 2 | All Maps | STV","players":null},{"server_id":406,"name":"Uncletopia | Seattle | 3 | Stopwatch Beta","name_short":"sea-3","host":"sea-1.us.uncletopia.com","port":27035,"enabled":true,"region":"us-west","cc":"us","latitude":47.608013,"longitude":-122.33517,"reserved":0,"last_update":"0001-01-01T00:00:00Z","name_a2s":"Uncletopia | Seattle | 3 | Stopwatch Beta","protocol":17,"map":"cp_altitude","folder":"tf","game":"Team Fortress","app_id":440,"player_count":0,"max_players":24,"Bots":0,"server_type":"Dedicated","server_os":"Linux","password":true,"vac":true,"version":"7742253","steam_id":85568392924515217,"keywords":["cp","nocrits","nodmgspread","uncletopia"],"game_id":440,"stv_port":27036,"stv_name":"Uncletopia | Seattle | 3 | Stopwatch Beta | STV","players":null},{"server_id":17,"name":"Uncletopia | San Francisco | 1 | All Maps","name_short":"sfo-1","host":"sfo-1.us.uncletopia.com","port":27015,"enabled":true,"region":"us-west","cc":"us","latitude":37.77397,"longitude":-122.4313,"reserved":0,"last_update":"0001-01-01T00:00:00Z","name_a2s":"Uncletopia | San Francisco | 1 | All Maps","protocol":17,"map":"pl_snowycoast","folder":"tf","game":"Team Fortress","app_id":440,"player_count":0,"max_players":24,"Bots":0,"server_type":"Dedicated","server_os":"Linux","password":true,"vac":true,"version":"7742253","steam_id":85568392924469999,"keywords":["nocrits","nodmgspread","payload","uncletopia"],"game_id":440,"stv_port":27016,"stv_name":"Uncletopia | San Francisco | 1 | All Maps | STV","players":null},{"server_id":18,"name":"Uncletopia | San Francisco | 2 | All Maps","name_short":"sfo-2","host":"sfo-1.us.uncletopia.com","port":27025,"enabled":true,"region":"us-west","cc":"us","latitude":37.77397,"longitude":-122.4313,"reserved":0,"last_update":"0001-01-01T00:00:00Z","name_a2s":"Uncletopia | San Francisco | 2 | All Maps","protocol":17,"map":"cp_altitude","folder":"tf","game":"Team Fortress","app_id":440,"player_count":0,"max_players":24,"Bots":0,"server_type":"Dedicated","server_os":"Linux","password":true,"vac":true,"version":"7742253","steam_id":85568392924470000,"keywords":["cp","nocrits","nodmgspread","uncletopia"],"game_id":440,"stv_port":27026,"stv_name":"Uncletopia | San Francisco | 2 | All Maps | STV","players":null},{"server_id":19,"name":"Uncletopia | San Francisco | 3 | Stopwatch Beta","name_short":"sfo-3","host":"sfo-1.us.uncletopia.com","port":27035,"enabled":true,"region":"us-west","cc":"us","latitude":37.77397,"longitude":-122.4313,"reserved":0,"last_update":"0001-01-01T00:00:00Z","name_a2s":"Uncletopia | San Francisco | 3 | Stopwatch Beta","protocol":17,"map":"cp_snakewater_final1","folder":"tf","game":"Team Fortress","app_id":440,"player_count":0,"max_players":24,"Bots":0,"server_type":"Dedicated","server_os":"Linux","password":true,"vac":true,"version":"7742253","steam_id":85568392924742824,"keywords":["cp","nocrits","nodmgspread","uncletopia"],"game_id":440,"stv_port":27036,"stv_name":"Uncletopia | San Francisco | 3 | Stopwatch Beta | STV","players":null},{"server_id":20,"name":"Uncletopia | San Francisco | 4 | Community","name_short":"sfo-4","host":"sfo-1.us.uncletopia.com","port":27045,"enabled":true,"region":"us-west","cc":"us","latitude":37.77397,"longitude":-122.4313,"reserved":0,"last_update":"0001-01-01T00:00:00Z","name_a2s":"Uncletopia | San Francisco | 4 | Community","protocol":17,"map":"cp_dustbowl","folder":"tf","game":"Team Fortress","app_id":440,"player_count":0,"max_players":24,"Bots":0,"server_type":"Dedicated","server_os":"Linux","password":true,"vac":true,"version":"7742253","steam_id":85568392924742826,"keywords":["cp","nocrits","nodmgspread","uncletopia"],"game_id":440,"stv_port":27046,"stv_name":"Uncletopia | San Francisco | 4 | Community | STV","players":null},{"server_id":141,"name":"Uncletopia | Sydney | 1 | All Maps","name_short":"syd-1","host":"syd-1.au.uncletopia.com","port":27015,"enabled":true,"region":"au","cc":"au","latitude":-33.865143,"longitude":151.2099,"reserved":0,"last_update":"0001-01-01T00:00:00Z","name_a2s":"Uncletopia | Sydney | 1 | All Maps","protocol":17,"map":"koth_highpass","folder":"tf","game":"Team Fortress","app_id":440,"player_count":0,"max_players":24,"Bots":0,"server_type":"Dedicated","server_os":"Linux","password":true,"vac":true,"version":"7742253","steam_id":85568392924470001,"keywords":["cp","nocrits","nodmgspread","uncletopia"],"game_id":440,"stv_port":27016,"stv_name":"Uncletopia | Sydney | 1 | All Maps | STV","players":null},{"server_id":123,"name":"Uncletopia | Sydney | 2 | All Maps","name_short":"syd-2","host":"syd-1.au.uncletopia.com","port":27025,"enabled":true,"region":"au","cc":"au","latitude":-33.865143,"longitude":151.2099,"reserved":0,"last_update":"0001-01-01T00:00:00Z","name_a2s":"Uncletopia | Sydney | 2 | All Maps","protocol":17,"map":"koth_viaduct","folder":"tf","game":"Team Fortress","app_id":440,"player_count":19,"max_players":24,"Bots":0,"server_type":"Dedicated","server_os":"Linux","password":true,"vac":true,"version":"7742253","steam_id":85568392924470002,"keywords":["cp","nocrits","nodmgspread","uncletopia"],"game_id":440,"stv_port":27026,"stv_name":"Uncletopia | Sydney | 2 | All Maps | STV","players":[{"user_id":621,"name":"Wake'n'Bake'n'Make'n'Bacon","steam_id":76561198061960926,"connected_time":25000000000,"state":"active","ping":87},{"user_id":606,"name":"spacewielder","steam_id":76561198155133814,"connected_time":646000000000,"state":"active","ping":87},{"user_id":582,"name":"dog on prog","steam_id":76561197986589854,"connected_time":1852000000000,"state":"active","ping":52},{"user_id":475,"name":"ben","steam_id":76561198223331996,"connected_time":8425000000000,"state":"active","ping":62},{"user_id":591,"name":"Ne1son","steam_id":76561198085020252,"connected_time":1127000000000,"state":"active","ping":71},{"user_id":608,"name":"BleachE","steam_id":76561199203154252,"connected_time":604000000000,"state":"active","ping":94},{"user_id":607,"name":"Void_Robin","steam_id":76561198855798566,"connected_time":630000000000,"state":"active","ping":66},{"user_id":597,"name":"tommyinit dream smp fan","steam_id":76561198280237790,"connected_time":909000000000,"state":"active","ping":66},{"user_id":602,"name":"Dr Crazii","steam_id":76561198067775226,"connected_time":785000000000,"state":"active","ping":81},{"user_id":604,"name":"im holding mid btw","steam_id":76561198062505286,"connected_time":734000000000,"state":"active","ping":51},{"user_id":610,"name":"Derpy Aura","steam_id":76561198120588565,"connected_time":519000000000,"state":"active","ping":57},{"user_id":613,"name":"Certified Virgin","steam_id":76561198295183353,"connected_time":240000000000,"state":"active","ping":76},{"user_id":502,"name":"Blazey ‰ºäÈÅî ÊîøÂÆó","steam_id":76561197971082275,"connected_time":6782000000000,"state":"active","ping":123},{"user_id":614,"name":"Soru","steam_id":76561198010844786,"connected_time":228000000000,"state":"active","ping":60},{"user_id":615,"name":"SwimAye","steam_id":76561199446895229,"connected_time":223000000000,"state":"active","ping":87},{"user_id":617,"name":"Hot Yoga Instructor","steam_id":76561199163801558,"connected_time":162000000000,"state":"active","ping":47},{"user_id":619,"name":"kief","steam_id":76561198201371959,"connected_time":142000000000,"state":"active","ping":95},{"user_id":620,"name":"Question","steam_id":76561198179226539,"connected_time":141000000000,"state":"active","ping":97},{"user_id":577,"name":"A threat unbeknownst","steam_id":76561198293776102,"connected_time":2066000000000,"state":"active","ping":38}]},{"server_id":395,"name":"Uncletopia | Sydney | 3 | All Maps","name_short":"syd-3","host":"syd-1.au.uncletopia.com","port":27035,"enabled":true,"region":"au","cc":"au","latitude":-33.865143,"longitude":151.2099,"reserved":0,"last_update":"0001-01-01T00:00:00Z","name_a2s":"Uncletopia | Sydney | 3 | All Maps","protocol":17,"map":"koth_highpass","folder":"tf","game":"Team Fortress","app_id":440,"player_count":0,"max_players":24,"Bots":0,"server_type":"Dedicated","server_os":"Linux","password":true,"vac":true,"version":"7742253","steam_id":85568392925194467,"keywords":["cp","nocrits","nodmgspread","uncletopia"],"game_id":440,"stv_port":27036,"stv_name":"Uncletopia | Sydney | 3 | All Maps | STV","players":null},{"server_id":396,"name":"Uncletopia | Sydney | 4 | All Maps","name_short":"syd-4","host":"syd-1.au.uncletopia.com","port":27045,"enabled":true,"region":"au","cc":"au","latitude":-33.865143,"longitude":151.2099,"reserved":0,"last_update":"0001-01-01T00:00:00Z","name_a2s":"Uncletopia | Sydney | 4 | All Maps","protocol":17,"map":"koth_lakeside_final","folder":"tf","game":"Team Fortress","app_id":440,"player_count":0,"max_players":24,"Bots":0,"server_type":"Dedicated","server_os":"Linux","password":true,"vac":true,"version":"7742253","steam_id":85568392925397958,"keywords":["cp","nocrits","nodmgspread","uncletopia"],"game_id":440,"stv_port":27046,"stv_name":"Uncletopia | Sydney | 4 | All Maps | STV","players":null},{"server_id":58,"name":"Uncletopia | Sydney | 5 | Stopwatch Beta","name_short":"syd-5","host":"syd-1.au.uncletopia.com","port":27055,"enabled":true,"region":"au","cc":"au","latitude":-33.865143,"longitude":151.2099,"reserved":0,"last_update":"0001-01-01T00:00:00Z","name_a2s":"Uncletopia | Sydney | 5 | Stopwatch Beta","protocol":17,"map":"workshop/koth_ashville_final.ugc2130459942","folder":"tf","game":"Team Fortress","app_id":440,"player_count":0,"max_players":24,"Bots":0,"server_type":"Dedicated","server_os":"Linux","password":true,"vac":true,"version":"7742253","steam_id":85568392925397959,"keywords":["cp","nocrits","nodmgspread","uncletopia"],"game_id":440,"stv_port":27056,"stv_name":"Uncletopia | Sydney | 5 | Stopwatch Beta | STV","players":null},{"server_id":59,"name":"Uncletopia | Sydney | 6 | Community","name_short":"syd-6","host":"syd-1.au.uncletopia.com","port":27065,"enabled":true,"region":"au","cc":"au","latitude":-33.865143,"longitude":151.2099,"reserved":0,"last_update":"0001-01-01T00:00:00Z","name_a2s":"Uncletopia | Sydney | 6 | Community","protocol":17,"map":"workshop/koth_slaughter_rc1.ugc1712845210","folder":"tf","game":"Team Fortress","app_id":440,"player_count":0,"max_players":24,"Bots":0,"server_type":"Dedicated","server_os":"Linux","password":true,"vac":true,"version":"7742253","steam_id":85568392925397960,"keywords":["cp","nocrits","nodmgspread","uncletopia"],"game_id":440,"stv_port":27066,"stv_name":"Uncletopia | Sydney | 6 | Community | STV","players":null},{"server_id":49,"name":"Uncletopia | Warsaw | 1 | All Maps","name_short":"waw-1","host":"waw-1.pl.uncletopia.com","port":27015,"enabled":true,"region":"eu","cc":"pl","latitude":52.2297,"longitude":21.017532,"reserved":0,"last_update":"0001-01-01T00:00:00Z","name_a2s":"","protocol":0,"map":"","folder":"","game":"","app_id":0,"player_count":0,"max_players":0,"Bots":0,"server_type":"","server_os":"","password":false,"vac":false,"version":"","steam_id":0,"keywords":null,"game_id":0,"stv_port":0,"stv_name":"","players":null},{"server_id":50,"name":"Uncletopia | Warsaw | 2 | All Maps","name_short":"waw-2","host":"waw-1.pl.uncletopia.com","port":27025,"enabled":true,"region":"eu","cc":"pl","latitude":52.2297,"longitude":21.017532,"reserved":0,"last_update":"0001-01-01T00:00:00Z","name_a2s":"Uncletopia | Warsaw | 2 | All Maps","protocol":17,"map":"pl_pier","folder":"tf","game":"Team Fortress","app_id":440,"player_count":0,"max_players":24,"Bots":0,"server_type":"Dedicated","server_os":"Linux","password":true,"vac":true,"version":"7742253","steam_id":85568392925397851,"keywords":["nocrits","nodmgspread","payload","uncletopia"],"game_id":440,"stv_port":27026,"stv_name":"Uncletopia | Warsaw | 2 | All Maps | STV","players":null},{"server_id":51,"name":"Uncletopia | Warsaw | 3 | All Maps","name_short":"waw-3","host":"waw-1.pl.uncletopia.com","port":27035,"enabled":true,"region":"eu","cc":"pl","latitude":52.2297,"longitude":21.017532,"reserved":0,"last_update":"0001-01-01T00:00:00Z","name_a2s":"Uncletopia | Warsaw | 3 | All Maps","protocol":17,"map":"koth_lakeside_final","folder":"tf","game":"Team Fortress","app_id":440,"player_count":9,"max_players":24,"Bots":0,"server_type":"Dedicated","server_os":"Linux","password":true,"vac":true,"version":"7742253","steam_id":85568392925397852,"keywords":["cp","nocrits","nodmgspread","uncletopia"],"game_id":440,"stv_port":27036,"stv_name":"Uncletopia | Warsaw | 3 | All Maps | STV","players":[{"user_id":5,"name":"Microwave","steam_id":76561199466540837,"connected_time":89000000000,"state":"active","ping":66},{"user_id":4,"name":"‚ô• Cirno ‚ô•","steam_id":76561198834982738,"connected_time":101000000000,"state":"active","ping":67},{"user_id":6,"name":"cum 2","steam_id":76561198010075638,"connected_time":85000000000,"state":"active","ping":75},{"user_id":7,"name":"yui","steam_id":76561198107961644,"connected_time":71000000000,"state":"active","ping":74},{"user_id":8,"name":"Random Cap","steam_id":76561198129271321,"connected_time":68000000000,"state":"active","ping":56},{"user_id":9,"name":"NinjaBash","steam_id":76561198366068367,"connected_time":40000000000,"state":"active","ping":74},{"user_id":10,"name":"Kyoko","steam_id":76561198836610427,"connected_time":28000000000,"state":"active","ping":62},{"user_id":13,"name":"jakov inwestowaƒá","steam_id":76561198052282542,"connected_time":12000000000,"state":"active","ping":116},{"user_id":12,"name":"BlinkedUp","steam_id":76561198249985618,"connected_time":15000000000,"state":"active","ping":41}]},{"server_id":52,"name":"Uncletopia | Warsaw | 4 | All Maps","name_short":"waw-4","host":"waw-1.pl.uncletopia.com","port":27045,"enabled":true,"region":"eu","cc":"pl","latitude":52.2297,"longitude":21.017532,"reserved":0,"last_update":"0001-01-01T00:00:00Z","name_a2s":"Uncletopia | Warsaw | 4 | All Maps","protocol":17,"map":"pl_borneo","folder":"tf","game":"Team Fortress","app_id":440,"player_count":0,"max_players":24,"Bots":0,"server_type":"Dedicated","server_os":"Linux","password":true,"vac":true,"version":"7742253","steam_id":85568392925397853,"keywords":["nocrits","nodmgspread","payload","uncletopia"],"game_id":440,"stv_port":27046,"stv_name":"Uncletopia | Warsaw | 4 | All Maps | STV","players":null},{"server_id":53,"name":"Uncletopia | Warsaw | 5 | Stopwatch Beta","name_short":"waw-5","host":"waw-1.pl.uncletopia.com","port":27055,"enabled":true,"region":"eu","cc":"pl","latitude":52.2297,"longitude":21.017532,"reserved":0,"last_update":"0001-01-01T00:00:00Z","name_a2s":"Uncletopia | Warsaw | 5 | Stopwatch Beta","protocol":17,"map":"pl_swiftwater_final1","folder":"tf","game":"Team Fortress","app_id":440,"player_count":0,"max_players":24,"Bots":0,"server_type":"Dedicated","server_os":"Linux","password":true,"vac":true,"version":"7742253","steam_id":85568392925397854,"keywords":["nocrits","nodmgspread","payload","uncletopia"],"game_id":440,"stv_port":27056,"stv_name":"Uncletopia | Warsaw | 5 | Stopwatch Beta | STV","players":null},{"server_id":54,"name":"Uncletopia | Warsaw | 6 | Community","name_short":"waw-6","host":"waw-1.pl.uncletopia.com","port":27065,"enabled":true,"region":"eu","cc":"pl","latitude":52.2297,"longitude":21.017532,"reserved":0,"last_update":"0001-01-01T00:00:00Z","name_a2s":"Uncletopia | Warsaw | 6 | Community","protocol":17,"map":"koth_highpass","folder":"tf","game":"Team Fortress","app_id":440,"player_count":0,"max_players":24,"Bots":0,"server_type":"Dedicated","server_os":"Linux","password":true,"vac":true,"version":"7742253","steam_id":85568392925397856,"keywords":["cp","nocrits","nodmgspread","uncletopia"],"game_id":440,"stv_port":27066,"stv_name":"Uncletopia | Warsaw | 6 | Community | STV","players":null}]}