{"status":true,"message":"","result":[{"server_id":9,"name":"Uncletopia | Atlanta | 1 | All Maps","name_short":"atl-1","host":"atl-1.us.uncletopia.com","port":27015,"enabled":true,"region":"us-east","cc":"us","latitude":33.753746,"longitude":-84.38633,"reserved":0,"last_update":"0001-01-01T00:00:00Z","name_a2s":"Uncletopia | Atlanta | 1 | All Maps","protocol":17,"map":"koth_cascade","folder":"tf","game":"Team Fortress","app_id":440,"player_count":24,"max_players":24,"Bots":0,"server_type":"Dedicated","server_os":"Linux","password":true,"vac":true,"version":"7961495","steam_id":85568392924469982,"keywords":["cp","nocrits","nodmgspread","uncletopia"],"game_id":440,"stv_port":27016,"stv_name":"Uncletopia | Atlanta | 1 | All Maps | STV","players":[{"user_id":110,"name":"Tokyo_Timeshift_","steam_id":76561198048677523,"connected_time":776000000000,"state":"active","ping":75},{"user_id":36,"name":"Congcrab","steam_id":76561198078687685,"connected_time":5673000000000,"state":"active","ping":70},{"user_id":60,"name":"kohlhagen","steam_id":76561198120440587,"connected_time":3392000000000,"state":"active","ping":47},{"user_id":38,"name":"William Wallace","steam_id":76561199343316814,"connected_time":5047000000000,"state":"active","ping":56},{"user_id":74,"name":"Estrogenizing Burger King Burge","steam_id":76561198083882597,"connected_time":2122000000000,"state":"active","ping":60},{"user_id":42,"name":"Pango","steam_id":76561198069811545,"connected_time":4314000000000,"state":"active","ping":40},{"user_id":44,"name":"Fuc sihht","steam_id":76561198883304912,"connected_time":4189000000000,"state":"active","ping":148},{"user_id":116,"name":"why","steam_id":76561199059732212,"connected_time":130000000000,"state":"active","ping":56},{"user_id":109,"name":"luxin","steam_id":76561198399383047,"connected_time":779000000000,"state":"active","ping":58},{"user_id":48,"name":"gulch","steam_id":76561199227946025,"connected_time":4017000000000,"state":"active","ping":86},{"user_id":76,"name":"C.AK.E","steam_id":76561198842801197,"connected_time":1457000000000,"state":"active","ping":73},{"user_id":50,"name":"Albino Jellyfish","steam_id":76561198208561097,"connected_time":3994000000000,"state":"active","ping":55},{"user_id":77,"name":"sentry turret","steam_id":76561198327057433,"connected_time":1451000000000,"state":"active","ping":86},{"user_id":87,"name":"freyja","steam_id":76561198249206656,"connected_time":1196000000000,"state":"active","ping":84},{"user_id":114,"name":"lu","steam_id":76561198080731872,"connected_time":194000000000,"state":"active","ping":72},{"user_id":73,"name":"Funny Valentine","steam_id":76561199013611915,"connected_time":2384000000000,"state":"active","ping":51},{"user_id":64,"name":"Sooch","steam_id":76561198007043697,"connected_time":3230000000000,"state":"active","ping":95},{"user_id":68,"name":"Allister","steam_id":76561197999823352,"connected_time":2975000000000,"state":"active","ping":67},{"user_id":72,"name":"dietcokefan42","steam_id":76561198135307995,"connected_time":2736000000000,"state":"active","ping":75},{"user_id":67,"name":"Pluto*","steam_id":76561198338593690,"connected_time":3029000000000,"state":"active","ping":67},{"user_id":112,"name":"I Eat Runners","steam_id":76561198308044205,"connected_time":205000000000,"state":"active","ping":56},{"user_id":115,"name":"Dread Pierat Squeaks","steam_id":76561198413602368,"connected_time":193000000000,"state":"active","ping":48},{"user_id":71,"name":"Mysterious Stranger","steam_id":76561198212044371,"connected_time":2761000000000,"state":"active","ping":70},{"user_id":107,"name":"creeeeeee","steam_id":76561198392539722,"connected_time":855000000000,"state":"active","ping":77}]},{"server_id":104,"name":"Uncletopia | Atlanta | 2 | All Maps","name_short":"atl-2","host":"atl-1.us.uncletopia.com","port":27025,"enabled":true,"region":"us-east","cc":"us","latitude":33.753746,"longitude":-84.38633,"reserved":0,"last_update":"0001-01-01T00:00:00Z","name_a2s":"Uncletopia | Atlanta | 2 | All Maps","protocol":17,"map":"koth_cascade","folder":"tf","game":"Team Fortress","app_id":440,"player_count":0,"max_players":24,"Bots":0,"server_type":"Dedicated","server_os":"Linux","password":true,"vac":true,"version":"7961495","steam_id":85568392924469983,"keywords":["cp","nocrits","nodmgspread","uncletopia"],"game_id":440,"stv_port":27026,"stv_name":"Uncletopia | Atlanta | 2 | All Maps | STV","players":null},{"server_id":400,"name":"Uncletopia | Atlanta | 3 | Stopwatch","name_short":"atl-3","host":"atl-1.us.uncletopia.com","port":27035,"enabled":true,"region":"us-east","cc":"us","latitude":33.753746,"longitude":-84.38633,"reserved":0,"last_update":"0001-01-01T00:00:00Z","name_a2s":"Uncletopia | Atlanta | 3 | Stopwatch","protocol":17,"map":"pl_badwater","folder":"tf","game":"Team Fortress","app_id":440,"player_count":0,"max_players":24,"Bots":0,"server_type":"Dedicated","server_os":"Linux","password":true,"vac":true,"version":"7961495","steam_id":85568392924515187,"keywords":["nocrits","nodmgspread","payload","uncletopia"],"game_id":440,"stv_port":27036,"stv_name":"Uncletopia | Atlanta | 3 | Stopwatch | STV","players":null},{"server_id":401,"name":"Uncletopia | Atlanta | 4 | Community","name_short":"atl-4","host":"atl-1.us.uncletopia.com","port":27045,"enabled":true,"region":"us-east","cc":"us","latitude":33.753746,"longitude":-84.38633,"reserved":0,"last_update":"0001-01-01T00:00:00Z","name_a2s":"Uncletopia | Atlanta | 4 | Community","protocol":17,"map":"workshop/cp_sulfur_rc2.ugc619869471","folder":"tf","game":"Team Fortress","app_id":440,"player_count":0,"max_players":24,"Bots":0,"server_type":"Dedicated","server_os":"Linux","password":true,"vac":true,"version":"7961495","steam_id":85568392924515188,"keywords":["cp","nocrits","nodmgspread","uncletopia"],"game_id":440,"stv_port":27046,"stv_name":"Uncletopia | Atlanta | 4 | Community | STV","players":null},{"server_id":2,"name":"Uncletopia | Chicago | 1 | All Maps","name_short":"chi-1","host":"chi-1.us.uncletopia.com","port":27015,"enabled":true,"region":"us-central","cc":"us","latitude":41.881832,"longitude":-87.62318,"reserved":0,"last_update":"0001-01-01T00:00:00Z","name_a2s":"Uncletopia | Chicago | 1 | All Maps","protocol":17,"map":"pl_thundermountain","folder":"tf","game":"Team Fortress","app_id":440,"player_count":23,"max_players":24,"Bots":0,"server_type":"Dedicated","server_os":"Linux","password":true,"vac":true,"version":"7961495","steam_id":85568392924469984,"keywords":["nocrits","nodmgspread","payload","uncletopia"],"game_id":440,"stv_port":27016,"stv_name":"Uncletopia | Chicago | 1 | All Maps | STV","players":[{"user_id":260,"name":"Grim","steam_id":76561198225241776,"connected_time":196000000000,"state":"active","ping":88},{"user_id":255,"name":"lucky","steam_id":76561198323426623,"connected_time":259000000000,"state":"active","ping":92},{"user_id":241,"name":"SandHanitizer","steam_id":76561198234676500,"connected_time":1171000000000,"state":"active","ping":71},{"user_id":256,"name":"Merpling","steam_id":76561198048272047,"connected_time":232000000000,"state":"active","ping":84},{"user_id":185,"name":"Û†Ä°Û†Ä°Û†Ä°Û†Ä°Û†Ä°Û†Ä°Û†Ä°\ufffd\ufffd\ufffd","steam_id":76561199485571016,"connected_time":5860000000000,"state":"active","ping":67},{"user_id":238,"name":"‰Ω†ÂΩìÊàëÂÇªÂïä·ïï(‚ó†⁄º‚ó†)·ïó","steam_id":76561198155185583,"connected_time":1989000000000,"state":"active","ping":58},{"user_id":232,"name":"ADRIEN BRODY","steam_id":76561198009299473,"connected_time":2488000000000,"state":"active","ping":65},{"user_id":242,"name":"ìÜèCayenne Pepper ìÜè","steam_id":76561198124881810,"connected_time":1158000000000,"state":"active","ping":118},{"user_id":263,"name":"Breakaway","steam_id":76561198089308523,"connected_time":101000000000,"state":"active","ping":89},{"user_id":244,"name":"09robcraft2","steam_id":76561199073189184,"connected_time":1135000000000,"state":"active","ping":59},{"user_id":227,"name":"Tibalt Nyahuma","steam_id":76561198034779431,"connected_time":2867000000000,"state":"active","ping":72},{"user_id":229,"name":"An Unhappy Clown","steam_id":76561198175516514,"connected_time":2709000000000,"state":"active","ping":75},{"user_id":231,"name":"Trusty","steam_id":76561198035444237,"connected_time":2526000000000,"state":"active","ping":68},{"user_id":257,"name":"The Foolish Samurai","steam_id":76561198094494945,"connected_time":231000000000,"state":"active","ping":105},{"user_id":253,"name":"Legit_Jaxer","steam_id":76561198172234053,"connected_time":317000000000,"state":"active","ping":125},{"user_id":262,"name":"Villain_7","steam_id":76561198985858094,"connected_time":126000000000,"state":"active","ping":61},{"user_id":251,"name":"techchase rorschach test","steam_id":76561198408159536,"connected_time":324000000000,"state":"active","ping":50},{"user_id":236,"name":"teleport goblin 2","steam_id":76561198882404753,"connected_time":2007000000000,"state":"active","ping":80},{"user_id":259,"name":"The Terio Lebron","steam_id":76561199085731190,"connected_time":224000000000,"state":"active","ping":115},{"user_id":237,"name":"Mushroom","steam_id":76561198980693043,"connected_time":1996000000000,"state":"active","ping":61},{"user_id":209,"name":"ACK","steam_id":76561198130390689,"connected_time":3962000000000,"state":"active","ping":109},{"user_id":261,"name":"Socialist Warrior","steam_id":76561198085664421,"connected_time":185000000000,"state":"active","ping":59},{"user_id":250,"name":"Ras","steam_id":76561198123546775,"connected_time":328000000000,"state":"active","ping":85}]},{"server_id":106,"name":"Uncletopia | Chicago | 2 | All Maps","name_short":"chi-2","host":"chi-1.us.uncletopia.com","port":27025,"enabled":true,"region":"us-central","cc":"us","latitude":41.881832,"longitude":-87.62318,"reserved":0,"last_update":"0001-01-01T00:00:00Z","name_a2s":"Uncletopia | Chicago | 2 | All Maps","protocol":17,"map":"pl_barnblitz","folder":"tf","game":"Team Fortress","app_id":440,"player_count":24,"max_players":24,"Bots":0,"server_type":"Dedicated","server_os":"Linux","password":true,"vac":true,"version":"7961495","steam_id":85568392924469985,"keywords":["nocrits","nodmgspread","payload","uncletopia"],"game_id":440,"stv_port":27026,"stv_name":"Uncletopia | Chicago | 2 | All Maps | STV","players":[{"user_id":15,"name":"TomySoris","steam_id":76561198344938697,"connected_time":1932000000000,"state":"active","ping":66},{"user_id":50,"name":"Furrio","steam_id":76561198174104607,"connected_time":958000000000,"state":"active","ping":75},{"user_id":7,"name":"Coolbreadguy","steam_id":76561198139544202,"connected_time":2370000000000,"state":"active","ping":99},{"user_id":8,"name":"Spooko","steam_id":76561198838582643,"connected_time":2365000000000,"state":"active","ping":66},{"user_id":21,"name":"Hektur Salmondchonka","steam_id":76561198136982572,"connected_time":1585000000000,"state":"active","ping":104},{"user_id":58,"name":"TurtledoveJones","steam_id":76561198010200051,"connected_time":3000000000,"state":"spawning","ping":45},{"user_id":11,"name":"Xrath","steam_id":76561198220741860,"connected_time":2339000000000,"state":"active","ping":73},{"user_id":51,"name":"Gotta Move That Gear Up","steam_id":76561197993467034,"connected_time":900000000000,"state":"active","ping":51},{"user_id":32,"name":"Fred Durst's #1 Fan","steam_id":76561198282395338,"connected_time":1311000000000,"state":"active","ping":67},{"user_id":47,"name":"LVL 4 Dispenser Gaming","steam_id":76561198044244547,"connected_time":1061000000000,"state":"active","ping":76},{"user_id":52,"name":"cbv eagwsewdaefsd","steam_id":76561198304661367,"connected_time":833000000000,"state":"active","ping":71},{"user_id":24,"name":"Headshotsnake","steam_id":76561198067130248,"connected_time":1470000000000,"state":"active","ping":67},{"user_id":48,"name":"whycameback","steam_id":76561198222556872,"connected_time":1056000000000,"state":"active","ping":61},{"user_id":34,"name":"Grasshopper506","steam_id":76561198111633418,"connected_time":1288000000000,"state":"active","ping":70},{"user_id":53,"name":"bazooka_steve","steam_id":76561198040731651,"connected_time":622000000000,"state":"active","ping":76},{"user_id":54,"name":"Tactical Thug","steam_id":76561198393409072,"connected_time":566000000000,"state":"active","ping":81},{"user_id":37,"name":"ImKevin","steam_id":76561198031748642,"connected_time":1267000000000,"state":"active","ping":85},{"user_id":38,"name":"giacomo","steam_id":76561198058560798,"connected_time":1250000000000,"state":"active","ping":57},{"user_id":39,"name":"Oden Derg","steam_id":76561198881543434,"connected_time":1232000000000,"state":"active","ping":105},{"user_id":41,"name":"Feds taught me how to","steam_id":76561198011675372,"connected_time":1219000000000,"state":"active","ping":109},{"user_id":42,"name":"pepsi max and cinemax","steam_id":76561198986534519,"connected_time":1211000000000,"state":"active","ping":91},{"user_id":56,"name":"Paperclip","steam_id":76561198057076337,"connected_time":388000000000,"state":"active","ping":107},{"user_id":44,"name":"ancient chinese footlong","steam_id":76561198347818558,"connected_time":1170000000000,"state":"active","ping":57},{"user_id":49,"name":"Meat Dragon","steam_id":76561198120319256,"connected_time":1055000000000,"state":"active","ping":47}]},{"server_id":402,"name":"Uncletopia | Chicago | 3 | All Maps","name_short":"chi-3","host":"chi-1.us.uncletopia.com","port":27035,"enabled":true,"region":"us-central","cc":"us","latitude":41.881832,"longitude":-87.62318,"reserved":0,"last_update":"0001-01-01T00:00:00Z","name_a2s":"Uncletopia | Chicago | 3 | All Maps","protocol":17,"map":"koth_viaduct","folder":"tf","game":"Team Fortress","app_id":440,"player_count":0,"max_players":24,"Bots":0,"server_type":"Dedicated","server_os":"Linux","password":true,"vac":true,"version":"7961495","steam_id":85568392924515191,"keywords":["cp","nocrits","nodmgspread","uncletopia"],"game_id":440,"stv_port":27036,"stv_name":"Uncletopia | Chicago | 3 | All Maps | STV","players":null},{"server_id":403,"name":"Uncletopia | Chicago | 4 | All Maps","name_short":"chi-4","host":"chi-1.us.uncletopia.com","port":27045,"enabled":true,"region":"us-central","cc":"us","latitude":41.881832,"longitude":-87.62318,"reserved":0,"last_update":"0001-01-01T00:00:00Z","name_a2s":"Uncletopia | Chicago | 4 | All Maps","protocol":17,"map":"cp_mountainlab","folder":"tf","game":"Team Fortress","app_id":440,"player_count":0,"max_players":24,"Bots":0,"server_type":"Dedicated","server_os":"Linux","password":true,"vac":true,"version":"7961495","steam_id":85568392924515193,"keywords":["cp","nocrits","nodmgspread","uncletopia"],"game_id":440,"stv_port":27046,"stv_name":"Uncletopia | Chicago | 4 | All Maps | STV","players":null},{"server_id":36,"name":"Uncletopia | Chicago | 5 | All Maps","name_short":"chi-5","host":"chi-2.us.uncletopia.com","port":27015,"enabled":true,"region":"us-central","cc":"us","latitude":41.881832,"longitude":-87.62318,"reserved":0,"last_update":"0001-01-01T00:00:00Z","name_a2s":"Uncletopia | Chicago | 5 | All Maps","protocol":17,"map":"koth_viaduct","folder":"tf","game":"Team Fortress","app_id":440,"player_count":0,"max_players":24,"Bots":0,"server_type":"Dedicated","server_os":"Linux","password":true,"vac":true,"version":"7961495","steam_id":85568392924866362,"keywords":["cp","nocrits","nodmgspread","uncletopia"],"game_id":440,"stv_port":27016,"stv_name":"Uncletopia | Chicago | 5 | All Maps | STV","players":null},{"server_id":37,"name":"Uncletopia | Chicago | 6 | All Maps","name_short":"chi-6","host":"chi-2.us.uncletopia.com","port":27025,"enabled":true,"region":"us-central","cc":"us","latitude":41.881832,"longitude":-87.62318,"reserved":0,"last_update":"0001-01-01T00:00:00Z","name_a2s":"Uncletopia | Chicago | 6 | All Maps","protocol":17,"map":"pl_frontier_final","folder":"tf","game":"Team Fortress","app_id":440,"player_count":0,"max_players":24,"Bots":0,"server_type":"Dedicated","server_os":"Linux","password":true,"vac":true,"version":"7961495","steam_id":85568392924866363,"keywords":["nocrits","nodmgspread","payload","uncletopia"],"game_id":440,"stv_port":27026,"stv_name":"Uncletopia | Chicago | 6 | All Maps | STV","players":null},{"server_id":38,"name":"Uncletopia | Chicago | 7 | Stopwatch","name_short":"chi-7","host":"chi-2.us.uncletopia.com","port":27035,"enabled":true,"region":"us-central","cc":"us","latitude":41.881832,"longitude":-87.62318,"reserved":0,"last_update":"0001-01-01T00:00:00Z","name_a2s":"Uncletopia | Chicago | 7 | Stopwatch","protocol":17,"map":"workshop/koth_ashville_final.ugc2130459942","folder":"tf","game":"Team Fortress","app_id":440,"player_count":24,"max_players":24,"Bots":0,"server_type":"Dedicated","server_os":"Linux","password":true,"vac":true,"version":"7961495","steam_id":85568392924866364,"keywords":["cp","nocrits","nodmgspread","uncletopia"],"game_id":440,"stv_port":27036,"stv_name":"Uncletopia | Chicago | 7 | Stopwatch | STV","players":[{"user_id":161,"name":"Sicko Mode (Chris Pratt Cover)","steam_id":76561198315786174,"connected_time":380000000000,"state":"active","ping":161},{"user_id":107,"name":"Crocky","steam_id":76561198074285958,"connected_time":4059000000000,"state":"active","ping":70},{"user_id":153,"name":"1000 Ping","steam_id":76561198098330939,"connected_time":826000000000,"state":"active","ping":124},{"user_id":165,"name":"iceetee","steam_id":76561198156275931,"connected_time":218000000000,"state":"active","ping":65},{"user_id":163,"name":"ferdinand","steam_id":76561198437398410,"connected_time":289000000000,"state":"active","ping":72},{"user_id":151,"name":"Team Fortress 2 Gaming","steam_id":76561198056866024,"connected_time":916000000000,"state":"active","ping":106},{"user_id":145,"name":"Ellis","steam_id":76561198102094705,"connected_time":1293000000000,"state":"active","ping":109},{"user_id":160,"name":"Jonah Hill from 21 Jump Street","steam_id":76561198811130843,"connected_time":499000000000,"state":"active","ping":81},{"user_id":126,"name":"DEMO GAMING","steam_id":76561199083833639,"connected_time":2144000000000,"state":"active","ping":84},{"user_id":159,"name":"Shizu","steam_id":76561198045771318,"connected_time":637000000000,"state":"active","ping":52},{"user_id":133,"name":"menk3","steam_id":76561198120888597,"connected_time":1900000000000,"state":"active","ping":72},{"user_id":154,"name":"SanitysEdge","steam_id":76561198130732813,"connected_time":776000000000,"state":"active","ping":99},{"user_id":118,"name":"An Engineer","steam_id":76561198110381643,"connected_time":2609000000000,"state":"active","ping":63},{"user_id":128,"name":"Hunterkio1222","steam_id":76561198240237672,"connected_time":2067000000000,"state":"active","ping":64},{"user_id":108,"name":"The Ham","steam_id":76561198092451804,"connected_time":3907000000000,"state":"active","ping":79},{"user_id":120,"name":"heheeh","steam_id":76561198148059714,"connected_time":2513000000000,"state":"active","ping":65},{"user_id":121,"name":"Shaso1008","steam_id":76561198111957006,"connected_time":2509000000000,"state":"active","ping":118},{"user_id":93,"name":"LerN","steam_id":76561198083463877,"connected_time":4851000000000,"state":"active","ping":48},{"user_id":164,"name":"Hawkborne","steam_id":76561198107249245,"connected_time":247000000000,"state":"active","ping":88},{"user_id":61,"name":"some oak tree","steam_id":76561198119689085,"connected_time":5835000000000,"state":"active","ping":63},{"user_id":138,"name":"Albirdo","steam_id":76561198134650940,"connected_time":1709000000000,"state":"active","ping":66},{"user_id":167,"name":"Sylvain","steam_id":76561198113385271,"connected_time":45000000000,"state":"active","ping":68},{"user_id":136,"name":"Nordie","steam_id":76561198102297774,"connected_time":1787000000000,"state":"active","ping":60},{"user_id":157,"name":"Big Gaming","steam_id":76561199388612046,"connected_time":742000000000,"state":"active","ping":98}]},{"server_id":39,"name":"Uncletopia | Chicago | 8 | Community","name_short":"chi-8","host":"chi-2.us.uncletopia.com","port":27045,"enabled":true,"region":"us-central","cc":"us","latitude":41.881832,"longitude":-87.62318,"reserved":0,"last_update":"0001-01-01T00:00:00Z","name_a2s":"Uncletopia | Chicago | 8 | Community","protocol":17,"map":"workshop/koth_kemptown_rc1.ugc767410655","folder":"tf","game":"Team Fortress","app_id":440,"player_count":0,"max_players":24,"Bots":0,"server_type":"Dedicated","server_os":"Linux","password":true,"vac":true,"version":"7961495","steam_id":85568392924866365,"keywords":["cp","nocrits","nodmgspread","uncletopia"],"game_id":440,"stv_port":27046,"stv_name":"Uncletopia | Chicago | 8 | Community | STV","players":null},{"server_id":8,"name":"Uncletopia | Dallas | 1 | All Maps","name_short":"dal-1","host":"dal-1.us.uncletopia.com","port":27015,"enabled":true,"region":"us-central","cc":"us","latitude":32.779167,"longitude":-96.80889,"reserved":0,"last_update":"0001-01-01T00:00:00Z","name_a2s":"Uncletopia | Dallas | 1 | All Maps","protocol":17,"map":"pl_upward","folder":"tf","game":"Team Fortress","app_id":440,"player_count":23,"max_players":24,"Bots":0,"server_type":"Dedicated","server_os":"Linux","password":true,"vac":true,"version":"7961495","steam_id":85568392924469986,"keywords":["nocrits","nodmgspread","payload","uncletopia"],"game_id":440,"stv_port":27016,"stv_name":"Uncletopia | Dallas | 1 | All Maps | STV","players":[{"user_id":97,"name":"Zaid","steam_id":76561199142840666,"connected_time":2182000000000,"state":"active","ping":148},{"user_id":69,"name":"John Calibur","steam_id":76561197999986606,"connected_time":5631000000000,"state":"active","ping":62},{"user_id":126,"name":"Andy","steam_id":76561198043115724,"connected_time":459000000000,"state":"active","ping":127},{"user_id":113,"name":"dancing walking rearranging fur","steam_id":76561198145275937,"connected_time":1507000000000,"state":"active","ping":67},{"user_id":116,"name":"Bogey","steam_id":76561198096227944,"connected_time":1163000000000,"state":"active","ping":45},{"user_id":112,"name":"Dr. Derp","steam_id":76561198032242494,"connected_time":1562000000000,"state":"active","ping":75},{"user_id":118,"name":"bobbymcbobington","steam_id":76561199089411172,"connected_time":785000000000,"state":"active","ping":122},{"user_id":93,"name":"ssuurrffiinn","steam_id":76561198100942212,"connected_time":2966000000000,"state":"active","ping":75},{"user_id":117,"name":"Salad and Absinthe","steam_id":76561198169915227,"connected_time":861000000000,"state":"active","ping":89},{"user_id":127,"name":"t**** beheader","steam_id":76561199395351700,"connected_time":20000000000,"state":"active","ping":66},{"user_id":103,"name":"cyren caster","steam_id":76561198204509499,"connected_time":2092000000000,"state":"active","ping":99},{"user_id":76,"name":"Regex","steam_id":76561198114723418,"connected_time":4677000000000,"state":"active","ping":85},{"user_id":38,"name":"Cheeseburger","steam_id":76561198044131927,"connected_time":9215000000000,"state":"active","ping":61},{"user_id":109,"name":"hoboways","steam_id":76561198168035195,"connected_time":1845000000000,"state":"active","ping":85},{"user_id":111,"name":"poop","steam_id":76561198105374054,"connected_time":1641000000000,"state":"active","ping":100},{"user_id":119,"name":"PYROIDS","steam_id":76561199178575029,"connected_time":721000000000,"state":"active","ping":71},{"user_id":66,"name":"Beantama","steam_id":76561198986811476,"connected_time":5808000000000,"state":"active","ping":60},{"user_id":121,"name":"Sqiddwr","steam_id":76561197998071622,"connected_time":660000000000,"state":"active","ping":105},{"user_id":77,"name":"Hank Green","steam_id":76561198433360902,"connected_time":4585000000000,"state":"active","ping":99},{"user_id":125,"name":"npc energy","steam_id":76561198035342207,"connected_time":599000000000,"state":"active","ping":60},{"user_id":122,"name":"Kiradias777","steam_id":76561198067176309,"connected_time":653000000000,"state":"active","ping":86},{"user_id":123,"name":"Lock'd","steam_id":76561198170108230,"connected_time":652000000000,"state":"active","ping":60},{"user_id":106,"name":"Dirt_Merchant","steam_id":76561198799368508,"connected_time":2029000000000,"state":"active","ping":83}]},{"server_id":108,"name":"Uncletopia | Dallas | 2 | All Maps","name_short":"dal-2","host":"dal-1.us.uncletopia.com","port":27025,"enabled":true,"region":"us-central","cc":"us","latitude":32.779167,"longitude":-96.80889,"reserved":0,"last_update":"0001-01-01T00:00:00Z","name_a2s":"Uncletopia | Dallas | 2 | All Maps","protocol":17,"map":"cp_snakewater_final1","folder":"tf","game":"Team Fortress","app_id":440,"player_count":0,"max_players":24,"Bots":0,"server_type":"Dedicated","server_os":"Linux","password":true,"vac":true,"version":"7961495","steam_id":85568392924469988,"keywords":["cp","nocrits","nodmgspread","uncletopia"],"game_id":440,"stv_port":27026,"stv_name":"Uncletopia | Dallas | 2 | All Maps | STV","players":null},{"server_id":404,"name":"Uncletopia | Dallas | 3 | All Maps","name_short":"dal-3","host":"dal-1.us.uncletopia.com","port":27035,"enabled":true,"region":"us-central","cc":"us","latitude":32.779167,"longitude":-96.80889,"reserved":0,"last_update":"0001-01-01T00:00:00Z","name_a2s":"Uncletopia | Dallas | 3 | All Maps","protocol":17,"map":"pl_badwater","folder":"tf","game":"Team Fortress","app_id":440,"player_count":0,"max_players":24,"Bots":0,"server_type":"Dedicated","server_os":"Linux","password":true,"vac":true,"version":"7961495","steam_id":85568392924515219,"keywords":["nocrits","nodmgspread","payload","uncletopia"],"game_id":440,"stv_port":27036,"stv_name":"Uncletopia | Dallas | 3 | All Maps | STV","players":null},{"server_id":405,"name":"Uncletopia | Dallas | 4 | Community","name_short":"dal-4","host":"dal-1.us.uncletopia.com","port":27045,"enabled":true,"region":"us-central","cc":"us","latitude":32.779167,"longitude":-96.80889,"reserved":0,"last_update":"0001-01-01T00:00:00Z","name_a2s":"Uncletopia | Dallas | 4 | Community","protocol":17,"map":"pl_pier","folder":"tf","game":"Team Fortress","app_id":440,"player_count":0,"max_players":24,"Bots":0,"server_type":"Dedicated","server_os":"Linux","password":true,"vac":true,"version":"7961495","steam_id":85568392924515220,"keywords":["nocrits","nodmgspread","payload","uncletopia"],"game_id":440,"stv_port":27046,"stv_name":"Uncletopia | Dallas | 4 | Community | STV","players":null},{"server_id":5,"name":"Uncletopia | Frankfurt | 1 | All Maps","name_short":"frk-1","host":"frk-1.de.uncletopia.com","port":27015,"enabled":true,"region":"eu","cc":"de","latitude":50.110924,"longitude":8.682127,"reserved":0,"last_update":"0001-01-01T00:00:00Z","name_a2s":"Uncletopia | Frankfurt | 1 | All Maps","protocol":17,"map":"pl_barnblitz","folder":"tf","game":"Team Fortress","app_id":440,"player_count":24,"max_players":24,"Bots":0,"server_type":"Dedicated","server_os":"Linux","password":true,"vac":true,"version":"7961495","steam_id":85568392924469989,"keywords":["nocrits","nodmgspread","payload","uncletopia"],"game_id":440,"stv_port":27016,"stv_name":"Uncletopia | Frankfurt | 1 | All Maps | STV","players":[{"user_id":139,"name":"Duktigafred","steam_id":76561199211222396,"connected_time":9608000000000,"state":"active","ping":66},{"user_id":265,"name":"LILY-CHAN","steam_id":76561198035085893,"connected_time":1264000000000,"state":"active","ping":100},{"user_id":267,"name":"Gugu gaga","steam_id":76561198161822358,"connected_time":1183000000000,"state":"active","ping":56},{"user_id":269,"name":"Flal","steam_id":76561198453819816,"connected_time":802000000000,"state":"active","ping":56},{"user_id":236,"name":"oriano","steam_id":76561198099916327,"connected_time":3131000000000,"state":"active","ping":61},{"user_id":197,"name":"CumbustiblePunda","steam_id":76561197974274677,"connected_time":5778000000000,"state":"active","ping":53},{"user_id":237,"name":"Mulle Meck","steam_id":76561198088124509,"connected_time":3126000000000,"state":"active","ping":59},{"user_id":214,"name":"‚ùñ RazzorBee","steam_id":76561198092493838,"connected_time":4575000000000,"state":"active","ping":104},{"user_id":200,"name":"Taha","steam_id":76561199259524970,"connected_time":5447000000000,"state":"active","ping":89},{"user_id":215,"name":"Haghehog","steam_id":76561198075729793,"connected_time":4533000000000,"state":"active","ping":127},{"user_id":262,"name":"engie?","steam_id":76561198331852832,"connected_time":1475000000000,"state":"active","ping":153},{"user_id":257,"name":"do you think im gonna heal you?","steam_id":76561199401478121,"connected_time":1883000000000,"state":"active","ping":71},{"user_id":250,"name":"antlionguard","steam_id":76561198072747143,"connected_time":2557000000000,"state":"active","ping":99},{"user_id":275,"name":"Mr Clean","steam_id":76561198355128010,"connected_time":177000000000,"state":"active","ping":81},{"user_id":218,"name":"hazarder","steam_id":76561198005838566,"connected_time":4502000000000,"state":"active","ping":47},{"user_id":263,"name":"angelosnik","steam_id":76561198063053942,"connected_time":1283000000000,"state":"active","ping":119},{"user_id":231,"name":"Conan the Librarian","steam_id":76561198007224654,"connected_time":3474000000000,"state":"active","ping":57},{"user_id":230,"name":"The Storm That Is Approaching","steam_id":76561198982155864,"connected_time":3746000000000,"state":"active","ping":77},{"user_id":271,"name":"3.5 Mefedron Plug","steam_id":76561198969473168,"connected_time":588000000000,"state":"active","ping":83},{"user_id":229,"name":"w presser","steam_id":76561197994600818,"connected_time":3903000000000,"state":"active","ping":45},{"user_id":276,"name":"Powki","steam_id":76561198974462268,"connected_time":28000000000,"state":"spawning","ping":65},{"user_id":261,"name":"M2rtRa","steam_id":76561198111036466,"connected_time":1607000000000,"state":"active","ping":72},{"user_id":266,"name":"fernandobmwm355555","steam_id":76561198086609447,"connected_time":1195000000000,"state":"active","ping":51},{"user_id":273,"name":"7xuf","steam_id":76561199389292226,"connected_time":232000000000,"state":"active","ping":70}]},{"server_id":110,"name":"Uncletopia | Frankfurt | 2 | All Maps","name_short":"frk-2","host":"frk-1.de.uncletopia.com","port":27025,"enabled":true,"region":"eu","cc":"de","latitude":50.110924,"longitude":8.682127,"reserved":0,"last_update":"0001-01-01T00:00:00Z","name_a2s":"Uncletopia | Frankfurt | 2 | All Maps","protocol":17,"map":"pl_barnblitz","folder":"tf","game":"Team Fortress","app_id":440,"player_count":24,"max_players":24,"Bots":0,"server_type":"Dedicated","server_os":"Linux","password":true,"vac":true,"version":"7961495","steam_id":85568392924469990,"keywords":["nocrits","nodmgspread","payload","uncletopia"],"game_id":440,"stv_port":27026,"stv_name":"Uncletopia | Frankfurt | 2 | All Maps | STV","players":[{"user_id":287,"name":"VIN WEASEL","steam_id":76561198014387066,"connected_time":2943000000000,"state":"active","ping":46},{"user_id":296,"name":"Ziomek","steam_id":76561199131735098,"connected_time":2511000000000,"state":"active","ping":74},{"user_id":334,"name":"Soulman25 (FIN)","steam_id":76561198103611974,"connected_time":778000000000,"state":"active","ping":88},{"user_id":342,"name":"Latgaul","steam_id":76561199009145544,"connected_time":103000000000,"state":"active","ping":97},{"user_id":306,"name":"48dripz","steam_id":76561198057040197,"connected_time":2175000000000,"state":"active","ping":56},{"user_id":316,"name":"Symeon","steam_id":76561198324691361,"connected_time":1851000000000,"state":"active","ping":75},{"user_id":315,"name":"$kelly","steam_id":76561198195270894,"connected_time":1879000000000,"state":"active","ping":75},{"user_id":339,"name":"Death's acolyte","steam_id":76561198167539381,"connected_time":161000000000,"state":"active","ping":63},{"user_id":343,"name":"skippy","steam_id":76561198171958773,"connected_time":88000000000,"state":"active","ping":66},{"user_id":340,"name":"Lukas","steam_id":76561198009118452,"connected_time":130000000000,"state":"active","ping":52},{"user_id":330,"name":"Edith","steam_id":76561198867635722,"connected_time":816000000000,"state":"active","ping":138},{"user_id":344,"name":"vi hava en usel regering","steam_id":76561198037978654,"connected_time":86000000000,"state":"active","ping":59},{"user_id":331,"name":"on my way","steam_id":76561198816538971,"connected_time":816000000000,"state":"active","ping":56},{"user_id":337,"name":"void","steam_id":76561198035831433,"connected_time":293000000000,"state":"active","ping":65},{"user_id":345,"name":"Ablativus","steam_id":76561198025698470,"connected_time":61000000000,"state":"active","ping":61},{"user_id":341,"name":"ethan haramm","steam_id":76561199472138537,"connected_time":120000000000,"state":"active","ping":74},{"user_id":327,"name":"A Cat","steam_id":76561199015740181,"connected_time":1278000000000,"state":"active","ping":75},{"user_id":346,"name":"aKENTich","steam_id":76561198062861198,"connected_time":48000000000,"state":"active","ping":103},{"user_id":256,"name":"SuntanPikachu","steam_id":76561198121242476,"connected_time":5473000000000,"state":"active","ping":70},{"user_id":321,"name":"gamerkiddo","steam_id":76561198047380360,"connected_time":1776000000000,"state":"active","ping":50},{"user_id":311,"name":"Wild_Xray26","steam_id":76561198059386050,"connected_time":2075000000000,"state":"active","ping":65},{"user_id":322,"name":"Littleyoshifan","steam_id":76561198445491045,"connected_time":1750000000000,"state":"active","ping":56},{"user_id":324,"name":"Nomad","steam_id":76561198267819704,"connected_time":1598000000000,"state":"active","ping":72},{"user_id":333,"name":"radu","steam_id":76561198067346802,"connected_time":806000000000,"state":"active","ping":60}]},{"server_id":308,"name":"Uncletopia | Frankfurt | 3 | All Maps","name_short":"frk-3","host":"frk-1.de.uncletopia.com","port":27035,"enabled":true,"region":"eu","cc":"de","latitude":50.110924,"longitude":8.682127,"reserved":0,"last_update":"0001-01-01T00:00:00Z","name_a2s":"Uncletopia | Frankfurt | 3 | All Maps","protocol":17,"map":"pl_upward","folder":"tf","game":"Team Fortress","app_id":440,"player_count":24,"max_players":24,"Bots":0,"server_type":"Dedicated","server_os":"Linux","password":true,"vac":true,"version":"7961495","steam_id":85568392924504274,"keywords":["nocrits","nodmgspread","payload","uncletopia"],"game_id":440,"stv_port":27036,"stv_name":"Uncletopia | Frankfurt | 3 | All Maps | STV","players":[{"user_id":169,"name":"clems_05","steam_id":76561198037941676,"connected_time":1440000000000,"state":"active","ping":79},{"user_id":161,"name":"heddwch","steam_id":76561198076097983,"connected_time":1972000000000,"state":"active","ping":79},{"user_id":186,"name":"Wattseyy","steam_id":76561198248567360,"connected_time":70000000000,"state":"active","ping":54},{"user_id":113,"name":"Alyx","steam_id":76561198064654326,"connected_time":5518000000000,"state":"active","ping":52},{"user_id":147,"name":"azzy","steam_id":76561198061293740,"connected_time":3167000000000,"state":"active","ping":78},{"user_id":155,"name":"Relic","steam_id":76561199499093258,"connected_time":2599000000000,"state":"active","ping":60},{"user_id":92,"name":"Aimy","steam_id":76561198798548854,"connected_time":7317000000000,"state":"active","ping":47},{"user_id":98,"name":"putrefied meat","steam_id":76561198280507478,"connected_time":6660000000000,"state":"active","ping":60},{"user_id":176,"name":"angler","steam_id":76561198160202087,"connected_time":597000000000,"state":"active","ping":58},{"user_id":158,"name":"the wagoog","steam_id":76561198354604708,"connected_time":2098000000000,"state":"active","ping":54},{"user_id":179,"name":"goop","steam_id":76561198190073005,"connected_time":564000000000,"state":"active","ping":59},{"user_id":187,"name":"BabyYodaIsMySoda","steam_id":76561198321846861,"connected_time":6000000000,"state":"spawning","ping":110},{"user_id":172,"name":"Colonel Dimanche","steam_id":76561197994792632,"connected_time":943000000000,"state":"active","ping":62},{"user_id":171,"name":"Billen Boer Bart","steam_id":76561198854111713,"connected_time":1395000000000,"state":"active","ping":129},{"user_id":185,"name":"Snaky","steam_id":76561199000954430,"connected_time":323000000000,"state":"active","ping":115},{"user_id":131,"name":"eva","steam_id":76561198054474684,"connected_time":4107000000000,"state":"active","ping":76},{"user_id":107,"name":"professionell pojkmodare","steam_id":76561198163615254,"connected_time":6044000000000,"state":"active","ping":60},{"user_id":144,"name":"IT'S OVER","steam_id":76561198094268619,"connected_time":3200000000000,"state":"active","ping":61},{"user_id":175,"name":"q47tx","steam_id":76561199181333933,"connected_time":795000000000,"state":"active","ping":87},{"user_id":184,"name":"Eric Catman","steam_id":76561198802117294,"connected_time":523000000000,"state":"active","ping":82},{"user_id":135,"name":"DUMBFUCK!!! :3","steam_id":76561198311044984,"connected_time":3865000000000,"state":"active","ping":66},{"user_id":182,"name":"Bobo","steam_id":76561198052308399,"connected_time":530000000000,"state":"active","ping":59},{"user_id":183,"name":"Doriian","steam_id":76561198071438810,"connected_time":526000000000,"state":"active","ping":76},{"user_id":166,"name":"Emrys","steam_id":76561198170781013,"connected_time":1941000000000,"state":"active","ping":77}]},{"server_id":309,"name":"Uncletopia | Frankfurt | 4 | All Maps","name_short":"frk-4","host":"frk-1.de.uncletopia.com","port":27045,"enabled":true,"region":"eu","cc":"de","latitude":50.110924,"longitude":8.682127,"reserved":0,"last_update":"0001-01-01T00:00:00Z","name_a2s":"Uncletopia | Frankfurt | 4 | All Maps","protocol":17,"map":"cp_sunshine","folder":"tf","game":"Team Fortress","app_id":440,"player_count":24,"max_players":24,"Bots":0,"server_type":"Dedicated","server_os":"Linux","password":true,"vac":true,"version":"7961495","steam_id":85568392924504275,"keywords":["cp","nocrits","nodmgspread","uncletopia"],"game_id":440,"stv_port":27046,"stv_name":"Uncletopia | Frankfurt | 4 | All Maps | STV","players":[{"user_id":208,"name":"Skarpy","steam_id":76561198034398376,"connected_time":931000000000,"state":"active","ping":51},{"user_id":170,"name":"I have 42 pipe bombs in my ass","steam_id":76561199111979000,"connected_time":3359000000000,"state":"active","ping":64},{"user_id":179,"name":"worgeral","steam_id":76561198050781898,"connected_time":2735000000000,"state":"active","ping":63},{"user_id":205,"name":"Cranjis McBasketball","steam_id":76561198051290193,"connected_time":1185000000000,"state":"active","ping":61},{"user_id":187,"name":"me (real)","steam_id":76561198013770973,"connected_time":2290000000000,"state":"active","ping":74},{"user_id":197,"name":"engineer drip","steam_id":76561198991032570,"connected_time":1813000000000,"state":"active","ping":89},{"user_id":216,"name":"rada‚ù§ #newrat","steam_id":76561198062362168,"connected_time":192000000000,"state":"active","ping":59},{"user_id":218,"name":"Pats (Gifted items Collector)","steam_id":76561198418538887,"connected_time":110000000000,"state":"active","ping":93},{"user_id":215,"name":"[\u003e\u003c] OTP Uncle Sam","steam_id":76561198186666399,"connected_time":268000000000,"state":"active","ping":82},{"user_id":165,"name":"Remax04","steam_id":76561198377900591,"connected_time":3700000000000,"state":"active","ping":71},{"user_id":207,"name":"The CEO of Sex Inc.","steam_id":76561198385989487,"connected_time":966000000000,"state":"active","ping":104},{"user_id":119,"name":"Lux","steam_id":76561198060417740,"connected_time":7882000000000,"state":"active","ping":45},{"user_id":213,"name":"Pvt. Prinny","steam_id":76561198030278562,"connected_time":419000000000,"state":"active","ping":59},{"user_id":166,"name":"k.","steam_id":76561198258197649,"connected_time":3629000000000,"state":"active","ping":94},{"user_id":167,"name":"WIZARD","steam_id":76561198199570742,"connected_time":3586000000000,"state":"active","ping":93},{"user_id":196,"name":"Udinese Dion","steam_id":76561198067931573,"connected_time":1888000000000,"state":"active","ping":53},{"user_id":209,"name":"Destinys","steam_id":76561198056132894,"connected_time":926000000000,"state":"active","ping":66},{"user_id":190,"name":"Lord of Birds","steam_id":76561198268952995,"connected_time":2192000000000,"state":"active","ping":72},{"user_id":210,"name":"Dƒ´ng.Zh√®n1996","steam_id":76561198152681460,"connected_time":900000000000,"state":"active","ping":70},{"user_id":200,"name":"Carry Krypl","steam_id":76561198136938121,"connected_time":1789000000000,"state":"active","ping":54},{"user_id":178,"name":"PROFILE NAME","steam_id":76561198180056982,"connected_time":2791000000000,"state":"active","ping":65},{"user_id":195,"name":"Bobirulez","steam_id":76561198009125458,"connected_time":2000000000000,"state":"active","ping":81},{"user_id":206,"name":"Sir.JJ","steam_id":76561198020681204,"connected_time":1126000000000,"state":"active","ping":60},{"user_id":115,"name":"Fran","steam_id":76561199070516960,"connected_time":7966000000000,"state":"active","ping":58}]},{"server_id":310,"name":"Uncletopia | Frankfurt | 5 | All Maps","name_short":"frk-5","host":"frk-1.de.uncletopia.com","port":27055,"enabled":true,"region":"eu","cc":"de","latitude":50.110924,"longitude":8.682127,"reserved":0,"last_update":"0001-01-01T00:00:00Z","name_a2s":"Uncletopia | Frankfurt | 5 | All Maps","protocol":17,"map":"cp_dustbowl","folder":"tf","game":"Team Fortress","app_id":440,"player_count":23,"max_players":24,"Bots":0,"server_type":"Dedicated","server_os":"Linux","password":true,"vac":true,"version":"7961495","steam_id":85568392924504277,"keywords":["cp","nocrits","nodmgspread","uncletopia"],"game_id":440,"stv_port":27056,"stv_name":"Uncletopia | Frankfurt | 5 | All Maps | STV","players":[{"user_id":17,"name":"Jesse Dinkman","steam_id":76561198262996078,"connected_time":4521000000000,"state":"active","ping":80},{"user_id":18,"name":"Hostile neighborhood femboy","steam_id":76561198799133372,"connected_time":4514000000000,"state":"active","ping":75},{"user_id":19,"name":"Nils #freemichi","steam_id":76561198254882979,"connected_time":3322000000000,"state":"active","ping":64},{"user_id":61,"name":"Hitotsume","steam_id":76561198129157178,"connected_time":202000000000,"state":"active","ping":89},{"user_id":21,"name":"Just Navlis","steam_id":76561198090479609,"connected_time":3284000000000,"state":"active","ping":44},{"user_id":22,"name":"yajar","steam_id":76561198087763379,"connected_time":3130000000000,"state":"active","ping":165},{"user_id":60,"name":"mr.bertik","steam_id":76561199090893519,"connected_time":215000000000,"state":"active","ping":68},{"user_id":27,"name":"Piesel","steam_id":76561198985453063,"connected_time":2243000000000,"state":"active","ping":72},{"user_id":25,"name":"Friendly Neighbourhood Femboy","steam_id":76561198058531305,"connected_time":2809000000000,"state":"active","ping":49},{"user_id":62,"name":"MrMethor","steam_id":76561198155992717,"connected_time":181000000000,"state":"active","ping":66},{"user_id":48,"name":"Shogun","steam_id":76561198161389997,"connected_time":1357000000000,"state":"active","ping":161},{"user_id":59,"name":"Alegz","steam_id":76561198287810139,"connected_time":250000000000,"state":"active","ping":76},{"user_id":63,"name":"horrors within my comprehension","steam_id":76561198363841749,"connected_time":180000000000,"state":"active","ping":76},{"user_id":58,"name":"Klown Beatbox","steam_id":76561198131125058,"connected_time":318000000000,"state":"active","ping":51},{"user_id":70,"name":"smx","steam_id":76561198401018345,"connected_time":28000000000,"state":"active","ping":80},{"user_id":53,"name":"Tortgamer","steam_id":76561198423709756,"connected_time":835000000000,"state":"active","ping":76},{"user_id":36,"name":"Fizik","steam_id":76561198065548086,"connected_time":1843000000000,"state":"active","ping":69},{"user_id":65,"name":"Sincerelion23","steam_id":76561199467879038,"connected_time":137000000000,"state":"active","ping":68},{"user_id":66,"name":"Smolzie ‡ºº „Å§ ‚óï_‚óï ‡ºΩ„Å§","steam_id":76561198108908175,"connected_time":131000000000,"state":"active","ping":60},{"user_id":68,"name":"xantus","steam_id":76561198803291596,"connected_time":95000000000,"state":"active","ping":77},{"user_id":46,"name":"Dirocks","steam_id":76561198138494815,"connected_time":1579000000000,"state":"active","ping":75},{"user_id":56,"name":"T A N G !","steam_id":76561198090481990,"connected_time":634000000000,"state":"active","ping":74},{"user_id":69,"name":"bryophyta","steam_id":76561197968945306,"connected_time":71000000000,"state":"active","ping":62}]},{"server_id":311,"name":"Uncletopia | Frankfurt | 6 | All Maps","name_short":"frk-6","host":"frk-1.de.uncletopia.com","port":27065,"enabled":true,"region":"eu","cc":"de","latitude":50.110924,"longitude":8.682127,"reserved":0,"last_update":"0001-01-01T00:00:00Z","name_a2s":"Uncletopia | Frankfurt | 6 | All Maps","protocol":17,"map":"pl_snowycoast","folder":"tf","game":"Team Fortress","app_id":440,"player_count":24,"max_players":24,"Bots":0,"server_type":"Dedicated","server_os":"Linux","password":true,"vac":true,"version":"7961495","steam_id":85568392924504278,"keywords":["nocrits","nodmgspread","payload","uncletopia"],"game_id":440,"stv_port":27066,"stv_name":"Uncletopia | Frankfurt | 6 | All Maps | STV","players":[{"user_id":559,"name":"GoatLord1","steam_id":76561198157964544,"connected_time":1866000000000,"state":"active","ping":61},{"user_id":541,"name":"kris","steam_id":76561198120575694,"connected_time":2220000000000,"state":"active","ping":68},{"user_id":558,"name":"Zembis","steam_id":76561198008017918,"connected_time":1893000000000,"state":"active","ping":81},{"user_id":572,"name":"daanvanliempt05","steam_id":76561198355398948,"connected_time":642000000000,"state":"active","ping":51},{"user_id":562,"name":"Proper Noun","steam_id":76561198055264269,"connected_time":1387000000000,"state":"active","ping":74},{"user_id":567,"name":"Soerlssoelss√∂en","steam_id":76561197993060585,"connected_time":1175000000000,"state":"active","ping":69},{"user_id":568,"name":"sHISSUS","steam_id":76561198211063493,"connected_time":1174000000000,"state":"active","ping":58},{"user_id":585,"name":"Xtis","steam_id":76561198043837480,"connected_time":249000000000,"state":"active","ping":74},{"user_id":571,"name":"Cheese","steam_id":76561198146419076,"connected_time":655000000000,"state":"active","ping":60},{"user_id":569,"name":"wiserclub6","steam_id":76561198312144351,"connected_time":1151000000000,"state":"active","ping":96},{"user_id":573,"name":"barker","steam_id":76561198128319767,"connected_time":640000000000,"state":"active","ping":50},{"user_id":589,"name":"Prox","steam_id":76561198351490981,"connected_time":19000000000,"state":"spawning","ping":50},{"user_id":588,"name":"Nittugai","steam_id":76561198067366462,"connected_time":135000000000,"state":"active","ping":60},{"user_id":577,"name":"TOP G","steam_id":76561198138928548,"connected_time":623000000000,"state":"active","ping":51},{"user_id":554,"name":"F4.exe","steam_id":76561198278822807,"connected_time":1935000000000,"state":"active","ping":57},{"user_id":578,"name":"MIGHTY PISS","steam_id":76561198226378616,"connected_time":620000000000,"state":"active","ping":73},{"user_id":544,"name":"Dzieciol","steam_id":76561198160237556,"connected_time":2172000000000,"state":"active","ping":67},{"user_id":534,"name":"just_adhenz1284 #SaveTF2","steam_id":76561198293654671,"connected_time":2691000000000,"state":"active","ping":147},{"user_id":556,"name":"elmstJP ‚Ç™ F4.exe","steam_id":76561197997909480,"connected_time":1903000000000,"state":"active","ping":70},{"user_id":564,"name":"Dominus Di Spiritus","steam_id":76561198200488383,"connected_time":1337000000000,"state":"active","ping":79},{"user_id":551,"name":"Uriziel","steam_id":76561198046950794,"connected_time":2079000000000,"state":"active","ping":88},{"user_id":557,"name":"sareena","steam_id":76561198810194062,"connected_time":1898000000000,"state":"active","ping":79},{"user_id":587,"name":"static","steam_id":76561198836825741,"connected_time":228000000000,"state":"active","ping":52}]},{"server_id":23,"name":"Uncletopia | Frankfurt | 7 | Stopwatch","name_short":"frk-7","host":"frk-1.de.uncletopia.com","port":27075,"enabled":true,"region":"eu","cc":"de","latitude":50.110924,"longitude":8.682127,"reserved":0,"last_update":"0001-01-01T00:00:00Z","name_a2s":"Uncletopia | Frankfurt | 7 | Stopwatch","protocol":17,"map":"pl_upward","folder":"tf","game":"Team Fortress","app_id":440,"player_count":24,"max_players":24,"Bots":0,"server_type":"Dedicated","server_os":"Linux","password":true,"vac":true,"version":"7961495","steam_id":85568392924742827,"keywords":["nocrits","nodmgspread","payload","uncletopia"],"game_id":440,"stv_port":27076,"stv_name":"Uncletopia | Frankfurt | 7 | Stopwatch | STV","players":[{"user_id":728,"name":"alice","steam_id":76561198269200388,"connected_time":2053000000000,"state":"active","ping":87},{"user_id":733,"name":"Tispy","steam_id":76561199207410049,"connected_time":904000000000,"state":"active","ping":71},{"user_id":734,"name":"jjkun786","steam_id":76561199438517484,"connected_time":867000000000,"state":"active","ping":46},{"user_id":736,"name":"Reppy","steam_id":76561198339480413,"connected_time":720000000000,"state":"active","ping":71},{"user_id":738,"name":"Flying skyhigh","steam_id":76561198372971096,"connected_time":670000000000,"state":"active","ping":65},{"user_id":739,"name":"Amon Gus","steam_id":76561199094540960,"connected_time":649000000000,"state":"active","ping":58},{"user_id":740,"name":"Moist Udder","steam_id":76561198425679686,"connected_time":578000000000,"state":"active","ping":154},{"user_id":741,"name":"Karnoffel","steam_id":76561198204171871,"connected_time":531000000000,"state":"active","ping":97},{"user_id":750,"name":"goz","steam_id":76561198155229347,"connected_time":247000000000,"state":"active","ping":46},{"user_id":743,"name":"Kecron","steam_id":76561198135331389,"connected_time":384000000000,"state":"active","ping":82},{"user_id":753,"name":"TylowStar","steam_id":76561198357107806,"connected_time":229000000000,"state":"active","ping":69},{"user_id":745,"name":"Vexu","steam_id":76561198113145846,"connected_time":377000000000,"state":"active","ping":110},{"user_id":746,"name":"-K√∂nig Konrad-","steam_id":76561198305288285,"connected_time":347000000000,"state":"active","ping":96},{"user_id":747,"name":"Naty","steam_id":76561198083488307,"connected_time":337000000000,"state":"active","ping":74},{"user_id":748,"name":"Waifuhaver69","steam_id":76561198130062962,"connected_time":308000000000,"state":"active","ping":49},{"user_id":763,"name":"Big They/Them is watching YOU","steam_id":76561198307598168,"connected_time":63000000000,"state":"active","ping":49},{"user_id":761,"name":"M√ºesli","steam_id":76561198183105149,"connected_time":143000000000,"state":"active","ping":32},{"user_id":754,"name":"haralds.vishnevskis","steam_id":76561199262720486,"connected_time":213000000000,"state":"active","ping":74},{"user_id":762,"name":"Moss","steam_id":76561198970737500,"connected_time":141000000000,"state":"active","ping":60},{"user_id":756,"name":"joey deathrun","steam_id":76561198142070141,"connected_time":211000000000,"state":"active","ping":65},{"user_id":757,"name":"Tekky‚òª","steam_id":76561197990987315,"connected_time":209000000000,"state":"active","ping":57},{"user_id":758,"name":"Michael","steam_id":76561198003146906,"connected_time":205000000000,"state":"active","ping":52},{"user_id":759,"name":"[HOL] Solringen","steam_id":76561198003584681,"connected_time":196000000000,"state":"active","ping":64}]},{"server_id":24,"name":"Uncletopia | Frankfurt | 8 | Community","name_short":"frk-8","host":"frk-1.de.uncletopia.com","port":27085,"enabled":true,"region":"eu","cc":"de","latitude":50.110924,"longitude":8.682127,"reserved":0,"last_update":"0001-01-01T00:00:00Z","name_a2s":"Uncletopia | Frankfurt | 8 | Community","protocol":17,"map":"workshop/pl_fifthcurve_rc1.ugc648227046","folder":"tf","game":"Team Fortress","app_id":440,"player_count":0,"max_players":24,"Bots":0,"server_type":"Dedicated","server_os":"Linux","password":true,"vac":true,"version":"7961495","steam_id":85568392924742828,"keywords":["nocrits","nodmgspread","payload","uncletopia"],"game_id":440,"stv_port":27086,"stv_name":"Uncletopia | Frankfurt | 8 | Community | STV","players":null},{"server_id":202,"name":"Uncletopia | Hong Kong | 1 | All Maps","name_short":"hgk-1","host":"hgk-1.hk.uncletopia.com","port":27015,"enabled":true,"region":"asia","cc":"hk","latitude":22.302711,"longitude":114.177216,"reserved":0,"last_update":"0001-01-01T00:00:00Z","name_a2s":"Uncletopia | Hong Kong | 1 | All Maps","protocol":17,"map":"cp_mountainlab","folder":"tf","game":"Team Fortress","app_id":440,"player_count":0,"max_players":24,"Bots":0,"server_type":"Dedicated","server_os":"Linux","password":true,"vac":true,"version":"7961495","steam_id":85568392924494504,"keywords":["cp","nocrits","nodmgspread","uncletopia"],"game_id":440,"stv_port":27016,"stv_name":"Uncletopia | Hong Kong | 1 | All Maps | STV","players":null},{"server_id":1,"name":"Uncletopia | Los Angeles | 1 | All Maps","name_short":"lax-1","host":"lax-1.us.uncletopia.com","port":27015,"enabled":true,"region":"us-west","cc":"us","latitude":33.94279,"longitude":-118.41004,"reserved":0,"last_update":"0001-01-01T00:00:00Z","name_a2s":"Uncletopia | Los Angeles | 1 | All Maps","protocol":17,"map":"pl_snowycoast","folder":"tf","game":"Team Fortress","app_id":440,"player_count":0,"max_players":24,"Bots":0,"server_type":"Dedicated","server_os":"Linux","password":true,"vac":true,"version":"7961495","steam_id":85568392924469991,"keywords":["nocrits","nodmgspread","payload","uncletopia"],"game_id":440,"stv_port":27016,"stv_name":"Uncletopia | Los Angeles | 1 | All Maps | STV","players":null},{"server_id":112,"name":"Uncletopia | Los Angeles | 2 | All Maps","name_short":"lax-2","host":"lax-1.us.uncletopia.com","port":27025,"enabled":true,"region":"us-west","cc":"us","latitude":33.94279,"longitude":-118.41004,"reserved":0,"last_update":"0001-01-01T00:00:00Z","name_a2s":"Uncletopia | Los Angeles | 2 | All Maps","protocol":17,"map":"pl_badwater","folder":"tf","game":"Team Fortress","app_id":440,"player_count":0,"max_players":24,"Bots":0,"server_type":"Dedicated","server_os":"Linux","password":true,"vac":true,"version":"7961495","steam_id":85568392924469992,"keywords":["nocrits","nodmgspread","payload","uncletopia"],"game_id":440,"stv_port":27026,"stv_name":"Uncletopia | Los Angeles | 2 | All Maps | STV","players":null},{"server_id":324,"name":"Uncletopia | Los Angeles | 3 | All Maps","name_short":"lax-3","host":"lax-1.us.uncletopia.com","port":27035,"enabled":true,"region":"us-west","cc":"us","latitude":33.94279,"longitude":-118.41004,"reserved":0,"last_update":"0001-01-01T00:00:00Z","name_a2s":"Uncletopia | Los Angeles | 3 | All Maps","protocol":17,"map":"pl_frontier_final","folder":"tf","game":"Team Fortress","app_id":440,"player_count":0,"max_players":24,"Bots":0,"server_type":"Dedicated","server_os":"Linux","password":true,"vac":true,"version":"7961495","steam_id":85568392924510198,"keywords":["nocrits","nodmgspread","payload","uncletopia"],"game_id":440,"stv_port":27036,"stv_name":"Uncletopia | Los Angeles | 3 | All Maps | STV","players":null},{"server_id":25,"name":"Uncletopia | Los Angeles | 4 | Stopwatch","name_short":"lax-4","host":"lax-1.us.uncletopia.com","port":27045,"enabled":true,"region":"us-west","cc":"us","latitude":33.94279,"longitude":-118.41004,"reserved":0,"last_update":"0001-01-01T00:00:00Z","name_a2s":"Uncletopia | Los Angeles | 4 | Stopwatch","protocol":17,"map":"pl_barnblitz","folder":"tf","game":"Team Fortress","app_id":440,"player_count":0,"max_players":24,"Bots":0,"server_type":"Dedicated","server_os":"Linux","password":true,"vac":true,"version":"7961495","steam_id":85568392924510199,"keywords":["nocrits","nodmgspread","payload","uncletopia"],"game_id":440,"stv_port":27046,"stv_name":"Uncletopia | Los Angeles | 4 | Stopwatch | STV","players":null},{"server_id":11,"name":"Uncletopia | London | 1 | All Maps","name_short":"lon-1","host":"lon-1.uk.uncletopia.com","port":27015,"enabled":true,"region":"eu","cc":"gb","latitude":51.509865,"longitude":-0.118092,"reserved":0,"last_update":"0001-01-01T00:00:00Z","name_a2s":"Uncletopia | London | 1 | All Maps","protocol":17,"map":"cp_dustbowl","folder":"tf","game":"Team Fortress","app_id":440,"player_count":24,"max_players":24,"Bots":0,"server_type":"Dedicated","server_os":"Linux","password":true,"vac":true,"version":"7961495","steam_id":85568392924367362,"keywords":["cp","nocrits","nodmgspread","uncletopia"],"game_id":440,"stv_port":27016,"stv_name":"Uncletopia | London | 1 | All Maps | STV","players":[{"user_id":265,"name":"lark","steam_id":76561198091724522,"connected_time":3222000000000,"state":"active","ping":51},{"user_id":290,"name":"Andy","steam_id":76561198046918834,"connected_time":1364000000000,"state":"active","ping":63},{"user_id":294,"name":"Temka","steam_id":76561198331323738,"connected_time":981000000000,"state":"active","ping":75},{"user_id":300,"name":"Blar","steam_id":76561198042438229,"connected_time":105000000000,"state":"active","ping":58},{"user_id":239,"name":"Archer","steam_id":76561197994239444,"connected_time":5098000000000,"state":"active","ping":114},{"user_id":282,"name":"Sensei","steam_id":76561198383582429,"connected_time":1870000000000,"state":"active","ping":93},{"user_id":255,"name":"Saken","steam_id":76561198049075295,"connected_time":4580000000000,"state":"active","ping":65},{"user_id":188,"name":"reee","steam_id":76561198117955985,"connected_time":9912000000000,"state":"active","ping":53},{"user_id":238,"name":"TomNoSocks","steam_id":76561198114071046,"connected_time":5203000000000,"state":"active","ping":64},{"user_id":293,"name":"Armolitskiy","steam_id":76561198443646513,"connected_time":1004000000000,"state":"active","ping":135},{"user_id":291,"name":"JohkupohkuXD","steam_id":76561198391108762,"connected_time":1114000000000,"state":"active","ping":89},{"user_id":236,"name":"png.png","steam_id":76561198444446521,"connected_time":5579000000000,"state":"active","ping":111},{"user_id":235,"name":"whimsy.","steam_id":76561198878171763,"connected_time":5610000000000,"state":"active","ping":50},{"user_id":295,"name":"kilo","steam_id":76561198015641339,"connected_time":743000000000,"state":"active","ping":75},{"user_id":287,"name":"androbzik","steam_id":76561199438255231,"connected_time":1613000000000,"state":"active","ping":115},{"user_id":288,"name":"be gay do crime","steam_id":76561198254450468,"connected_time":1534000000000,"state":"active","ping":90},{"user_id":279,"name":"Slifer","steam_id":76561198062255803,"connected_time":1906000000000,"state":"active","ping":67},{"user_id":296,"name":"Leif G.W.","steam_id":76561198366709899,"connected_time":734000000000,"state":"active","ping":64},{"user_id":297,"name":"deadkep","steam_id":76561198097463968,"connected_time":349000000000,"state":"active","ping":71},{"user_id":258,"name":"Rx07","steam_id":76561199013720618,"connected_time":4314000000000,"state":"active","ping":85},{"user_id":292,"name":"map","steam_id":76561198370196400,"connected_time":1032000000000,"state":"active","ping":91},{"user_id":289,"name":"Alpaca","steam_id":76561198029839079,"connected_time":1534000000000,"state":"active","ping":45},{"user_id":273,"name":"rock","steam_id":76561198093488870,"connected_time":2814000000000,"state":"active","ping":63},{"user_id":278,"name":"AuwNina","steam_id":76561198128231464,"connected_time":1927000000000,"state":"active","ping":64}]},{"server_id":114,"name":"Uncletopia | London | 2 | All Maps","name_short":"lon-2","host":"lon-1.uk.uncletopia.com","port":27025,"enabled":true,"region":"eu","cc":"gb","latitude":51.509865,"longitude":-0.118092,"reserved":0,"last_update":"0001-01-01T00:00:00Z","name_a2s":"Uncletopia | London | 2 | All Maps","protocol":17,"map":"koth_lakeside_final","folder":"tf","game":"Team Fortress","app_id":440,"player_count":0,"max_players":24,"Bots":0,"server_type":"Dedicated","server_os":"Linux","password":true,"vac":true,"version":"7961495","steam_id":85568392924470941,"keywords":["cp","nocrits","nodmgspread","uncletopia"],"game_id":440,"stv_port":27026,"stv_name":"Uncletopia | London | 2 | All Maps | STV","players":null},{"server_id":320,"name":"Uncletopia | London | 3 | All Maps","name_short":"lon-3","host":"lon-1.uk.uncletopia.com","port":27035,"enabled":true,"region":"eu","cc":"gb","latitude":51.509865,"longitude":-0.118092,"reserved":0,"last_update":"0001-01-01T00:00:00Z","name_a2s":"Uncletopia | London | 3 | All Maps","protocol":17,"map":"koth_lakeside_final","folder":"tf","game":"Team Fortress","app_id":440,"player_count":6,"max_players":24,"Bots":0,"server_type":"Dedicated","server_os":"Linux","password":true,"vac":true,"version":"7961495","steam_id":85568392924510192,"keywords":["cp","nocrits","nodmgspread","uncletopia"],"game_id":440,"stv_port":27036,"stv_name":"Uncletopia | London | 3 | All Maps | STV","players":[{"user_id":14,"name":"onionmai","steam_id":76561198217786075,"connected_time":525000000000,"state":"active","ping":61},{"user_id":15,"name":"Son Heung-Min","steam_id":76561198314364201,"connected_time":468000000000,"state":"active","ping":62},{"user_id":16,"name":"Darwin's Danger Shield from TF2","steam_id":76561199214163032,"connected_time":363000000000,"state":"active","ping":96},{"user_id":22,"name":"jekk.97","steam_id":76561198146961838,"connected_time":7000000000,"state":"spawning","ping":105},{"user_id":18,"name":"Curls","steam_id":76561198079039937,"connected_time":312000000000,"state":"active","ping":54},{"user_id":21,"name":"Stragnov‚òÜ","steam_id":76561198074702465,"connected_time":204000000000,"state":"active","ping":64}]},{"server_id":321,"name":"Uncletopia | London | 4 | All Maps","name_short":"lon-4","host":"lon-1.uk.uncletopia.com","port":27045,"enabled":true,"region":"eu","cc":"gb","latitude":51.509865,"longitude":-0.118092,"reserved":0,"last_update":"0001-01-01T00:00:00Z","name_a2s":"Uncletopia | London | 4 | All Maps","protocol":17,"map":"pl_snowycoast","folder":"tf","game":"Team Fortress","app_id":440,"player_count":23,"max_players":24,"Bots":0,"server_type":"Dedicated","server_os":"Linux","password":true,"vac":true,"version":"7961495","steam_id":85568392924510193,"keywords":["nocrits","nodmgspread","payload","uncletopia"],"game_id":440,"stv_port":27046,"stv_name":"Uncletopia | London | 4 | All Maps | STV","players":[{"user_id":374,"name":"Trollstoy","steam_id":76561198072017175,"connected_time":2424000000000,"state":"active","ping":61},{"user_id":371,"name":"Dean Craig Pelton From Communit","steam_id":76561198155010055,"connected_time":2669000000000,"state":"active","ping":119},{"user_id":400,"name":"Verdict","steam_id":76561198088226595,"connected_time":930000000000,"state":"active","ping":77},{"user_id":405,"name":"Surrealistic_Ganerson","steam_id":76561198029591931,"connected_time":199000000000,"state":"active","ping":97},{"user_id":398,"name":"CHarteneq","steam_id":76561198864628434,"connected_time":1057000000000,"state":"active","ping":76},{"user_id":370,"name":"Virgil","steam_id":76561198248786778,"connected_time":2741000000000,"state":"active","ping":115},{"user_id":378,"name":"FISHTANK.LIVE__________________","steam_id":76561199293036742,"connected_time":2361000000000,"state":"active","ping":63},{"user_id":372,"name":"RLCrazyCat3","steam_id":76561197983757878,"connected_time":2646000000000,"state":"active","ping":61},{"user_id":380,"name":"DaiDaiMu :3","steam_id":76561198052794823,"connected_time":2342000000000,"state":"active","ping":79},{"user_id":390,"name":"Lennox","steam_id":76561198069063554,"connected_time":1275000000000,"state":"active","ping":42},{"user_id":407,"name":"Plep","steam_id":76561198840259819,"connected_time":150000000000,"state":"active","ping":60},{"user_id":381,"name":"Nescio","steam_id":76561198119526760,"connected_time":2316000000000,"state":"active","ping":128},{"user_id":333,"name":"Ullr","steam_id":76561198140547483,"connected_time":5314000000000,"state":"active","ping":44},{"user_id":406,"name":"The Subway Scientist","steam_id":76561198193757646,"connected_time":176000000000,"state":"active","ping":45},{"user_id":346,"name":"dfcv rftgvb ghtb","steam_id":76561198397764042,"connected_time":4656000000000,"state":"active","ping":93},{"user_id":393,"name":"Jasperatus","steam_id":76561198196733750,"connected_time":1204000000000,"state":"active","ping":91},{"user_id":324,"name":"Ape","steam_id":76561198322703872,"connected_time":6295000000000,"state":"active","ping":63},{"user_id":403,"name":"Star Throne","steam_id":76561198132171027,"connected_time":227000000000,"state":"active","ping":49},{"user_id":410,"name":"Javier dorsaless","steam_id":76561198179324075,"connected_time":83000000000,"state":"active","ping":76},{"user_id":396,"name":"CouchPotato","steam_id":76561198849369915,"connected_time":1133000000000,"state":"active","ping":67},{"user_id":408,"name":"VEH-DEH-VEH","steam_id":76561198010978989,"connected_time":138000000000,"state":"active","ping":78},{"user_id":397,"name":"bad bitches call me Clowny","steam_id":76561199074883856,"connected_time":1128000000000,"state":"active","ping":58},{"user_id":355,"name":"Fatmagic Mukbang ASMR","steam_id":76561198063492110,"connected_time":4269000000000,"state":"active","ping":84}]},{"server_id":21,"name":"Uncletopia | London | 5 | All Maps","name_short":"lon-5","host":"lon-1.uk.uncletopia.com","port":27055,"enabled":true,"region":"eu","cc":"gb","latitude":51.509865,"longitude":-0.118092,"reserved":0,"last_update":"0001-01-01T00:00:00Z","name_a2s":"Uncletopia | London | 5 | All Maps","protocol":17,"map":"cp_sunshine","folder":"tf","game":"Team Fortress","app_id":440,"player_count":0,"max_players":24,"Bots":0,"server_type":"Dedicated","server_os":"Linux","password":true,"vac":true,"version":"7961495","steam_id":85568392924742829,"keywords":["cp","nocrits","nodmgspread","uncletopia"],"game_id":440,"stv_port":27056,"stv_name":"Uncletopia | London | 5 | All Maps | STV","players":null},{"server_id":22,"name":"Uncletopia | London | 6 | All Maps","name_short":"lon-6","host":"lon-1.uk.uncletopia.com","port":27065,"enabled":true,"region":"eu","cc":"gb","latitude":51.509865,"longitude":-0.118092,"reserved":0,"last_update":"0001-01-01T00:00:00Z","name_a2s":"Uncletopia | London | 6 | All Maps","protocol":17,"map":"pl_snowycoast","folder":"tf","game":"Team Fortress","app_id":440,"player_count":24,"max_players":24,"Bots":0,"server_type":"Dedicated","server_os":"Linux","password":true,"vac":true,"version":"7961495","steam_id":85568392924742830,"keywords":["nocrits","nodmgspread","payload","uncletopia"],"game_id":440,"stv_port":27066,"stv_name":"Uncletopia | London | 6 | All Maps | STV","players":[{"user_id":205,"name":"milo","steam_id":76561198119016918,"connected_time":6732000000000,"state":"active","ping":63},{"user_id":292,"name":"Senior","steam_id":76561198065014164,"connected_time":539000000000,"state":"active","ping":45},{"user_id":277,"name":"Captain Puddleboat","steam_id":76561198053913970,"connected_time":1070000000000,"state":"active","ping":77},{"user_id":238,"name":"Woman (Real)","steam_id":76561199151823932,"connected_time":4036000000000,"state":"active","ping":78},{"user_id":288,"name":"Mr. Hunts","steam_id":76561197981910397,"connected_time":908000000000,"state":"active","ping":60},{"user_id":290,"name":"Dozer","steam_id":76561197998742338,"connected_time":761000000000,"state":"active","ping":107},{"user_id":256,"name":"Sketa","steam_id":76561198045583646,"connected_time":2784000000000,"state":"active","ping":58},{"user_id":262,"name":"chrronicle","steam_id":76561198145535413,"connected_time":2543000000000,"state":"active","ping":57},{"user_id":291,"name":"Jahlil D'armequanius Finglenut","steam_id":76561198855897385,"connected_time":758000000000,"state":"active","ping":63},{"user_id":246,"name":"Roboolet","steam_id":76561198107353953,"connected_time":3375000000000,"state":"active","ping":52},{"user_id":253,"name":"Fissure","steam_id":76561198272595481,"connected_time":2976000000000,"state":"active","ping":69},{"user_id":269,"name":"Sunshine","steam_id":76561198885528098,"connected_time":2216000000000,"state":"active","ping":118},{"user_id":281,"name":"Mars","steam_id":76561198156073462,"connected_time":1042000000000,"state":"active","ping":75},{"user_id":289,"name":"After8","steam_id":76561198090750865,"connected_time":787000000000,"state":"active","ping":77},{"user_id":211,"name":"sin","steam_id":76561198193416785,"connected_time":6639000000000,"state":"active","ping":56},{"user_id":264,"name":"Krkdo","steam_id":76561198248778412,"connected_time":2419000000000,"state":"active","ping":97},{"user_id":282,"name":"Super Dickmann's JACOBINS!","steam_id":76561198256097786,"connected_time":1042000000000,"state":"active","ping":59},{"user_id":283,"name":"Adam","steam_id":76561198259467867,"connected_time":1035000000000,"state":"active","ping":92},{"user_id":217,"name":"papa","steam_id":76561198044349618,"connected_time":6210000000000,"state":"active","ping":68},{"user_id":293,"name":"cuddles","steam_id":76561198805181599,"connected_time":345000000000,"state":"active","ping":52},{"user_id":285,"name":"LOBZIK","steam_id":76561198114830120,"connected_time":989000000000,"state":"active","ping":76},{"user_id":273,"name":"flange","steam_id":76561198040182692,"connected_time":1690000000000,"state":"active","ping":36},{"user_id":274,"name":"Caliban","steam_id":76561197999696839,"connected_time":1598000000000,"state":"active","ping":128},{"user_id":196,"name":"sharkmax12312","steam_id":76561198996008569,"connected_time":7160000000000,"state":"active","ping":80}]},{"server_id":40,"name":"Uncletopia | London | 7 | Stopwatch","name_short":"lon-7","host":"lon-1.uk.uncletopia.com","port":27075,"enabled":true,"region":"eu","cc":"gb","latitude":51.509865,"longitude":-0.118092,"reserved":0,"last_update":"0001-01-01T00:00:00Z","name_a2s":"Uncletopia | London | 7 | Stopwatch","protocol":17,"map":"cp_granary","folder":"tf","game":"Team Fortress","app_id":440,"player_count":0,"max_players":24,"Bots":0,"server_type":"Dedicated","server_os":"Linux","password":true,"vac":true,"version":"7961495","steam_id":85568392924964314,"keywords":["cp","nocrits","nodmgspread","uncletopia"],"game_id":440,"stv_port":27076,"stv_name":"Uncletopia | London | 7 | Stopwatch | STV","players":null},{"server_id":41,"name":"Uncletopia | London | 8 | Community","name_short":"lon-8","host":"lon-1.uk.uncletopia.com","port":27085,"enabled":true,"region":"eu","cc":"gb","latitude":51.509865,"longitude":-0.118092,"reserved":0,"last_update":"0001-01-01T00:00:00Z","name_a2s":"Uncletopia | London | 8 | Community","protocol":17,"map":"workshop/koth_bagel_rc6.ugc2514036946","folder":"tf","game":"Team Fortress","app_id":440,"player_count":0,"max_players":24,"Bots":0,"server_type":"Dedicated","server_os":"Linux","password":true,"vac":true,"version":"7961495","steam_id":85568392924964315,"keywords":["cp","nocrits","nodmgspread","uncletopia"],"game_id":440,"stv_port":27086,"stv_name":"Uncletopia | London | 8 | Community | STV","players":null},{"server_id":300,"name":"Uncletopia | Montr√©al | 1 | One Thousand Uncles","name_short":"mtl-1","host":"mtl-1.ca.uncletopia.com","port":27015,"enabled":true,"region":"us-east","cc":"ca","latitude":45.50889,"longitude":-73.56167,"reserved":0,"last_update":"0001-01-01T00:00:00Z","name_a2s":"","protocol":0,"map":"","folder":"","game":"","app_id":0,"player_count":0,"max_players":0,"Bots":0,"server_type":"","server_os":"","password":false,"vac":false,"version":"","steam_id":0,"keywords":null,"game_id":0,"stv_port":0,"stv_name":"","players":null},{"server_id":301,"name":"Uncletopia | Montr√©al | 2 | One Thousand Uncles","name_short":"mtl-2","host":"mtl-1.ca.uncletopia.com","port":27025,"enabled":true,"region":"us-east","cc":"ca","latitude":45.50889,"longitude":-73.56167,"reserved":0,"last_update":"0001-01-01T00:00:00Z","name_a2s":"","protocol":0,"map":"","folder":"","game":"","app_id":0,"player_count":0,"max_players":0,"Bots":0,"server_type":"","server_os":"","password":false,"vac":false,"version":"","steam_id":0,"keywords":null,"game_id":0,"stv_port":0,"stv_name":"","players":null},{"server_id":302,"name":"Uncletopia | Montr√©al | 3 | One Thousand Uncles","name_short":"mtl-3","host":"mtl-1.ca.uncletopia.com","port":27035,"enabled":true,"region":"us-east","cc":"ca","latitude":45.50889,"longitude":-73.56167,"reserved":0,"last_update":"0001-01-01T00:00:00Z","name_a2s":"","protocol":0,"map":"","folder":"","game":"","app_id":0,"player_count":1,"max_players":0,"Bots":0,"server_type":"","server_os":"","password":false,"vac":false,"version":"","steam_id":0,"keywords":null,"game_id":0,"stv_port":0,"stv_name":"","players":[{"user_id":2,"name":"Kazuma Yagami","steam_id":76561199044812516,"connected_time":63000000000,"state":"spawning","ping":89}]},{"server_id":13,"name":"Uncletopia | New York City | 1 | All Maps","name_short":"nyc-1","host":"nyc-1.us.uncletopia.com","port":27015,"enabled":true,"region":"us-east","cc":"us","latitude":40.73061,"longitude":-73.93524,"reserved":0,"last_update":"0001-01-01T00:00:00Z","name_a2s":"Uncletopia | New York City | 1 | All Maps","protocol":17,"map":"cp_egypt_final","folder":"tf","game":"Team Fortress","app_id":440,"player_count":23,"max_players":24,"Bots":0,"server_type":"Dedicated","server_os":"Linux","password":true,"vac":true,"version":"7961495","steam_id":85568392924469993,"keywords":["cp","nocrits","nodmgspread","uncletopia"],"game_id":440,"stv_port":27016,"stv_name":"Uncletopia | New York City | 1 | All Maps | STV","players":[{"user_id":127,"name":"Echo","steam_id":76561198072092594,"connected_time":4779000000000,"state":"active","ping":73},{"user_id":159,"name":"Weerk","steam_id":76561199209543551,"connected_time":2000000000000,"state":"active","ping":81},{"user_id":7,"name":"super clickteam fusion","steam_id":76561198275101482,"connected_time":17503000000000,"state":"active","ping":125},{"user_id":176,"name":"Cosmic Torgue","steam_id":76561198828724945,"connected_time":371000000000,"state":"active","ping":85},{"user_id":141,"name":"Pbomberrr","steam_id":76561198291198185,"connected_time":3756000000000,"state":"active","ping":70},{"user_id":175,"name":"Billy Mays","steam_id":76561197998876324,"connected_time":540000000000,"state":"active","ping":118},{"user_id":164,"name":"mkl","steam_id":76561197986401685,"connected_time":1116000000000,"state":"active","ping":82},{"user_id":170,"name":"Slippin Jimmy","steam_id":76561198119556082,"connected_time":858000000000,"state":"active","ping":68},{"user_id":128,"name":"Sinta","steam_id":76561198098398841,"connected_time":4516000000000,"state":"active","ping":45},{"user_id":158,"name":"rivera","steam_id":76561198051058706,"connected_time":2042000000000,"state":"active","ping":32},{"user_id":103,"name":"GSP","steam_id":76561197997012669,"connected_time":7157000000000,"state":"active","ping":50},{"user_id":162,"name":"SHiFT_DeL3TE","steam_id":76561198234965064,"connected_time":1479000000000,"state":"active","ping":68},{"user_id":168,"name":"swooce","steam_id":76561198156232484,"connected_time":901000000000,"state":"active","ping":65},{"user_id":154,"name":"you forgot the sauce","steam_id":76561198387016713,"connected_time":2129000000000,"state":"active","ping":59},{"user_id":172,"name":"scottethanerin","steam_id":76561199489974072,"connected_time":778000000000,"state":"active","ping":52},{"user_id":89,"name":"Elias","steam_id":76561198106431732,"connected_time":8627000000000,"state":"active","ping":59},{"user_id":171,"name":"Oopsie Daisy ‚ùã","steam_id":76561198042144492,"connected_time":811000000000,"state":"active","ping":77},{"user_id":153,"name":"FAKE TAXI PRANKS","steam_id":76561198136746987,"connected_time":2247000000000,"state":"active","ping":75},{"user_id":134,"name":"Starkiller","steam_id":76561198101643120,"connected_time":4290000000000,"state":"active","ping":115},{"user_id":60,"name":"conner","steam_id":76561198052911241,"connected_time":11624000000000,"state":"active","ping":60},{"user_id":121,"name":"Naffu","steam_id":76561198036945403,"connected_time":5538000000000,"state":"active","ping":54},{"user_id":147,"name":"roythecyclops","steam_id":76561198055295759,"connected_time":3464000000000,"state":"active","ping":57},{"user_id":174,"name":"Roxio","steam_id":76561198061586945,"connected_time":552000000000,"state":"active","ping":142}]},{"server_id":14,"name":"Uncletopia | New York City | 2 | All Maps","name_short":"nyc-2","host":"nyc-1.us.uncletopia.com","port":27025,"enabled":true,"region":"us-east","cc":"us","latitude":40.73061,"longitude":-73.93524,"reserved":0,"last_update":"0001-01-01T00:00:00Z","name_a2s":"Uncletopia | New York City | 2 | All Maps","protocol":17,"map":"pl_snowycoast","folder":"tf","game":"Team Fortress","app_id":440,"player_count":0,"max_players":24,"Bots":0,"server_type":"Dedicated","server_os":"Linux","password":true,"vac":true,"version":"7961495","steam_id":85568392924469994,"keywords":["nocrits","nodmgspread","payload","uncletopia"],"game_id":440,"stv_port":27026,"stv_name":"Uncletopia | New York City | 2 | All Maps | STV","players":null},{"server_id":15,"name":"Uncletopia | New York City | 3 | Stopwatch","name_short":"nyc-3","host":"nyc-1.us.uncletopia.com","port":27035,"enabled":true,"region":"us-east","cc":"us","latitude":40.73061,"longitude":-73.93524,"reserved":0,"last_update":"0001-01-01T00:00:00Z","name_a2s":"Uncletopia | New York City | 3 | Stopwatch","protocol":17,"map":"pl_snowycoast","folder":"tf","game":"Team Fortress","app_id":440,"player_count":0,"max_players":24,"Bots":0,"server_type":"Dedicated","server_os":"Linux","password":true,"vac":true,"version":"7961495","steam_id":85568392924742820,"keywords":["nocrits","nodmgspread","payload","uncletopia"],"game_id":440,"stv_port":27036,"stv_name":"Uncletopia | New York City | 3 | Stopwatch | STV","players":null},{"server_id":16,"name":"Uncletopia | New York City | 4 | Community","name_short":"nyc-4","host":"nyc-1.us.uncletopia.com","port":27045,"enabled":true,"region":"us-east","cc":"us","latitude":40.73061,"longitude":-73.93524,"reserved":0,"last_update":"0001-01-01T00:00:00Z","name_a2s":"Uncletopia | New York City | 4 | Community","protocol":17,"map":"cp_altitude","folder":"tf","game":"Team Fortress","app_id":440,"player_count":0,"max_players":24,"Bots":0,"server_type":"Dedicated","server_os":"Linux","password":true,"vac":true,"version":"7961495","steam_id":85568392924742821,"keywords":["cp","nocrits","nodmgspread","uncletopia"],"game_id":440,"stv_port":27046,"stv_name":"Uncletopia | New York City | 4 | Community | STV","players":null},{"server_id":142,"name":"Uncletopia | S√£o Paulo | 1 | All Maps","name_short":"sao-1","host":"sao-1.br.uncletopia.com","port":27015,"enabled":true,"region":"sa","cc":"br","latitude":-23.533773,"longitude":-46.62529,"reserved":0,"last_update":"0001-01-01T00:00:00Z","name_a2s":"Uncletopia | S√£o Paulo | 1 | All Maps","protocol":17,"map":"koth_cascade","folder":"tf","game":"Team Fortress","app_id":440,"player_count":0,"max_players":24,"Bots":0,"server_type":"Dedicated","server_os":"Linux","password":true,"vac":true,"version":"7961495","steam_id":85568392924469996,"keywords":["cp","nocrits","nodmgspread","uncletopia"],"game_id":440,"stv_port":27016,"stv_name":"Uncletopia | S√£o Paulo | 1 | All Maps | STV","players":null},{"server_id":143,"name":"Uncletopia | S√£o Paulo | 2 | Community","name_short":"sao-2","host":"sao-2.br.uncletopia.com","port":27015,"enabled":true,"region":"sa","cc":"br","latitude":-23.533773,"longitude":-46.62529,"reserved":0,"last_update":"0001-01-01T00:00:00Z","name_a2s":"Uncletopia | S√£o Paulo | 2 | Community","protocol":17,"map":"pl_badwater","folder":"tf","game":"Team Fortress","app_id":440,"player_count":0,"max_players":24,"Bots":0,"server_type":"Dedicated","server_os":"Linux","password":true,"vac":true,"version":"7961495","steam_id":85568392924485349,"keywords":["nocrits","nodmgspread","payload","uncletopia"],"game_id":440,"stv_port":27016,"stv_name":"Uncletopia | S√£o Paulo | 2 | Community | STV","players":null},{"server_id":7,"name":"Uncletopia | Seattle | 1 | All Maps","name_short":"sea-1","host":"sea-1.us.uncletopia.com","port":27015,"enabled":true,"region":"us-west","cc":"us","latitude":47.608013,"longitude":-122.33517,"reserved":0,"last_update":"0001-01-01T00:00:00Z","name_a2s":"Uncletopia | Seattle | 1 | All Maps","protocol":17,"map":"pl_snowycoast","folder":"tf","game":"Team Fortress","app_id":440,"player_count":21,"max_players":24,"Bots":0,"server_type":"Dedicated","server_os":"Linux","password":true,"vac":true,"version":"7961495","steam_id":85568392924469997,"keywords":["nocrits","nodmgspread","payload","uncletopia"],"game_id":440,"stv_port":27016,"stv_name":"Uncletopia | Seattle | 1 | All Maps | STV","players":[{"user_id":81,"name":"Fluffy","steam_id":76561198115952540,"connected_time":339000000000,"state":"active","ping":41},{"user_id":77,"name":"Captain Underbelly","steam_id":76561198811270935,"connected_time":394000000000,"state":"active","ping":59},{"user_id":80,"name":"Laxoloni","steam_id":76561199197045700,"connected_time":383000000000,"state":"active","ping":71},{"user_id":30,"name":"Riah!!","steam_id":76561198147205390,"connected_time":6284000000000,"state":"active","ping":60},{"user_id":63,"name":"dep","steam_id":76561198044106812,"connected_time":1686000000000,"state":"active","ping":55},{"user_id":87,"name":"‚ù§To Lazy‚ù§","steam_id":76561198164211904,"connected_time":198000000000,"state":"active","ping":118},{"user_id":75,"name":"zinnk","steam_id":76561198092081825,"connected_time":407000000000,"state":"active","ping":59},{"user_id":76,"name":"Konrad Vilulf","steam_id":76561198111124481,"connected_time":396000000000,"state":"active","ping":135},{"user_id":82,"name":"darkelaine227","steam_id":76561198097330521,"connected_time":329000000000,"state":"active","ping":116},{"user_id":16,"name":"endo","steam_id":76561197995204381,"connected_time":6512000000000,"state":"active","ping":97},{"user_id":49,"name":"SeeNik","steam_id":76561198149499817,"connected_time":3751000000000,"state":"active","ping":81},{"user_id":83,"name":"nfseskimo","steam_id":76561198078745666,"connected_time":300000000000,"state":"active","ping":45},{"user_id":74,"name":"Link","steam_id":76561198045865265,"connected_time":451000000000,"state":"active","ping":69},{"user_id":88,"name":"GH578","steam_id":76561199493262585,"connected_time":121000000000,"state":"active","ping":82},{"user_id":85,"name":"rmx^-^","steam_id":76561197961779026,"connected_time":265000000000,"state":"active","ping":60},{"user_id":23,"name":"no vc no c","steam_id":76561197989503095,"connected_time":6446000000000,"state":"active","ping":152},{"user_id":79,"name":"Drone #0432 (they/it)","steam_id":76561198027321950,"connected_time":393000000000,"state":"active","ping":43},{"user_id":86,"name":"2 Point Tom","steam_id":76561198087617008,"connected_time":225000000000,"state":"active","ping":53},{"user_id":89,"name":"R√∂ntgen","steam_id":76561197993492325,"connected_time":81000000000,"state":"active","ping":72},{"user_id":90,"name":"Heavy Weapons Guy TF2","steam_id":76561199434489438,"connected_time":8000000000,"state":"spawning","ping":248},{"user_id":36,"name":"shake","steam_id":76561199064204750,"connected_time":5697000000000,"state":"active","ping":138}]},{"server_id":119,"name":"Uncletopia | Seattle | 2 | All Maps","name_short":"sea-2","host":"sea-1.us.uncletopia.com","port":27025,"enabled":true,"region":"us-west","cc":"us","latitude":47.608013,"longitude":-122.33517,"reserved":0,"last_update":"0001-01-01T00:00:00Z","name_a2s":"Uncletopia | Seattle | 2 | All Maps","protocol":17,"map":"cp_snakewater_final1","folder":"tf","game":"Team Fortress","app_id":440,"player_count":0,"max_players":24,"Bots":0,"server_type":"Dedicated","server_os":"Linux","password":true,"vac":true,"version":"7961495","steam_id":85568392924469998,"keywords":["cp","nocrits","nodmgspread","uncletopia"],"game_id":440,"stv_port":27026,"stv_name":"Uncletopia | Seattle | 2 | All Maps | STV","players":null},{"server_id":406,"name":"Uncletopia | Seattle | 3 | Stopwatch","name_short":"sea-3","host":"sea-1.us.uncletopia.com","port":27035,"enabled":true,"region":"us-west","cc":"us","latitude":47.608013,"longitude":-122.33517,"reserved":0,"last_update":"0001-01-01T00:00:00Z","name_a2s":"Uncletopia | Seattle | 3 | Stopwatch","protocol":17,"map":"pl_pier","folder":"tf","game":"Team Fortress","app_id":440,"player_count":0,"max_players":24,"Bots":0,"server_type":"Dedicated","server_os":"Linux","password":true,"vac":true,"version":"7961495","steam_id":85568392924515217,"keywords":["nocrits","nodmgspread","payload","uncletopia"],"game_id":440,"stv_port":27036,"stv_name":"Uncletopia | Seattle | 3 | Stopwatch | STV","players":null},{"server_id":17,"name":"Uncletopia | San Francisco | 1 | All Maps","name_short":"sfo-1","host":"sfo-1.us.uncletopia.com","port":27015,"enabled":true,"region":"us-west","cc":"us","latitude":37.77397,"longitude":-122.4313,"reserved":0,"last_update":"0001-01-01T00:00:00Z","name_a2s":"Uncletopia | San Francisco | 1 | All Maps","protocol":17,"map":"koth_cascade","folder":"tf","game":"Team Fortress","app_id":440,"player_count":0,"max_players":24,"Bots":0,"server_type":"Dedicated","server_os":"Linux","password":true,"vac":true,"version":"7961495","steam_id":85568392924469999,"keywords":["cp","nocrits","nodmgspread","uncletopia"],"game_id":440,"stv_port":27016,"stv_name":"Uncletopia | San Francisco | 1 | All Maps | STV","players":null},{"server_id":18,"name":"Uncletopia | San Francisco | 2 | All Maps","name_short":"sfo-2","host":"sfo-1.us.uncletopia.com","port":27025,"enabled":true,"region":"us-west","cc":"us","latitude":37.77397,"longitude":-122.4313,"reserved":0,"last_update":"0001-01-01T00:00:00Z","name_a2s":"Uncletopia | San Francisco | 2 | All Maps","protocol":17,"map":"koth_viaduct","folder":"tf","game":"Team Fortress","app_id":440,"player_count":0,"max_players":24,"Bots":0,"server_type":"Dedicated","server_os":"Linux","password":true,"vac":true,"version":"7961495","steam_id":85568392924470000,"keywords":["cp","nocrits","nodmgspread","uncletopia"],"game_id":440,"stv_port":27026,"stv_name":"Uncletopia | San Francisco | 2 | All Maps | STV","players":null},{"server_id":19,"name":"Uncletopia | San Francisco | 3 | Stopwatch","name_short":"sfo-3","host":"sfo-1.us.uncletopia.com","port":27035,"enabled":true,"region":"us-west","cc":"us","latitude":37.77397,"longitude":-122.4313,"reserved":0,"last_update":"0001-01-01T00:00:00Z","name_a2s":"Uncletopia | San Francisco | 3 | Stopwatch","protocol":17,"map":"pl_pier","folder":"tf","game":"Team Fortress","app_id":440,"player_count":0,"max_players":24,"Bots":0,"server_type":"Dedicated","server_os":"Linux","password":true,"vac":true,"version":"7961495","steam_id":85568392924742824,"keywords":["nocrits","nodmgspread","payload","uncletopia"],"game_id":440,"stv_port":27036,"stv_name":"Uncletopia | San Francisco | 3 | Stopwatch | STV","players":null},{"server_id":20,"name":"Uncletopia | San Francisco | 4 | Community","name_short":"sfo-4","host":"sfo-1.us.uncletopia.com","port":27045,"enabled":true,"region":"us-west","cc":"us","latitude":37.77397,"longitude":-122.4313,"reserved":0,"last_update":"0001-01-01T00:00:00Z","name_a2s":"Uncletopia | San Francisco | 4 | Community","protocol":17,"map":"pl_pier","folder":"tf","game":"Team Fortress","app_id":440,"player_count":0,"max_players":24,"Bots":0,"server_type":"Dedicated","server_os":"Linux","password":true,"vac":true,"version":"7961495","steam_id":85568392924742826,"keywords":["nocrits","nodmgspread","payload","uncletopia"],"game_id":440,"stv_port":27046,"stv_name":"Uncletopia | San Francisco | 4 | Community | STV","players":null},{"server_id":141,"name":"Uncletopia | Sydney | 1 | All Maps","name_short":"syd-1","host":"syd-1.au.uncletopia.com","port":27015,"enabled":true,"region":"au","cc":"au","latitude":-33.865143,"longitude":151.2099,"reserved":0,"last_update":"0001-01-01T00:00:00Z","name_a2s":"Uncletopia | Sydney | 1 | All Maps","protocol":17,"map":"cp_altitude","folder":"tf","game":"Team Fortress","app_id":440,"player_count":0,"max_players":24,"Bots":0,"server_type":"Dedicated","server_os":"Linux","password":true,"vac":true,"version":"7961495","steam_id":85568392924470001,"keywords":["cp","nocrits","nodmgspread","uncletopia"],"game_id":440,"stv_port":27016,"stv_name":"Uncletopia | Sydney | 1 | All Maps | STV","players":null},{"server_id":123,"name":"Uncletopia | Sydney | 2 | All Maps","name_short":"syd-2","host":"syd-1.au.uncletopia.com","port":27025,"enabled":true,"region":"au","cc":"au","latitude":-33.865143,"longitude":151.2099,"reserved":0,"last_update":"0001-01-01T00:00:00Z","name_a2s":"Uncletopia | Sydney | 2 | All Maps","protocol":17,"map":"ctf_well","folder":"tf","game":"Team Fortress","app_id":440,"player_count":0,"max_players":24,"Bots":0,"server_type":"Dedicated","server_os":"Linux","password":true,"vac":true,"version":"7961495","steam_id":85568392924470002,"keywords":["ctf","nocrits","nodmgspread","uncletopia"],"game_id":440,"stv_port":27026,"stv_name":"Uncletopia | Sydney | 2 | All Maps | STV","players":null},{"server_id":395,"name":"Uncletopia | Sydney | 3 | All Maps","name_short":"syd-3","host":"syd-1.au.uncletopia.com","port":27035,"enabled":true,"region":"au","cc":"au","latitude":-33.865143,"longitude":151.2099,"reserved":0,"last_update":"0001-01-01T00:00:00Z","name_a2s":"Uncletopia | Sydney | 3 | All Maps","protocol":17,"map":"pl_snowycoast","folder":"tf","game":"Team Fortress","app_id":440,"player_count":0,"max_players":24,"Bots":0,"server_type":"Dedicated","server_os":"Linux","password":true,"vac":true,"version":"7961495","steam_id":85568392925194467,"keywords":["nocrits","nodmgspread","payload","uncletopia"],"game_id":440,"stv_port":27036,"stv_name":"Uncletopia | Sydney | 3 | All Maps | STV","players":null},{"server_id":396,"name":"Uncletopia | Sydney | 4 | All Maps","name_short":"syd-4","host":"syd-1.au.uncletopia.com","port":27045,"enabled":true,"region":"au","cc":"au","latitude":-33.865143,"longitude":151.2099,"reserved":0,"last_update":"0001-01-01T00:00:00Z","name_a2s":"Uncletopia | Sydney | 4 | All Maps","protocol":17,"map":"koth_highpass","folder":"tf","game":"Team Fortress","app_id":440,"player_count":0,"max_players":24,"Bots":0,"server_type":"Dedicated","server_os":"Linux","password":true,"vac":true,"version":"7961495","steam_id":85568392925397958,"keywords":["cp","nocrits","nodmgspread","uncletopia"],"game_id":440,"stv_port":27046,"stv_name":"Uncletopia | Sydney | 4 | All Maps | STV","players":null},{"server_id":58,"name":"Uncletopia | Sydney | 5 | Stopwatch","name_short":"syd-5","host":"syd-1.au.uncletopia.com","port":27055,"enabled":true,"region":"au","cc":"au","latitude":-33.865143,"longitude":151.2099,"reserved":0,"last_update":"0001-01-01T00:00:00Z","name_a2s":"Uncletopia | Sydney | 5 | Stopwatch","protocol":17,"map":"koth_highpass","folder":"tf","game":"Team Fortress","app_id":440,"player_count":0,"max_players":24,"Bots":0,"server_type":"Dedicated","server_os":"Linux","password":true,"vac":true,"version":"7961495","steam_id":85568392925397959,"keywords":["cp","nocrits","nodmgspread","uncletopia"],"game_id":440,"stv_port":27056,"stv_name":"Uncletopia | Sydney | 5 | Stopwatch | STV","players":null},{"server_id":59,"name":"Uncletopia | Sydney | 6 | Community","name_short":"syd-6","host":"syd-1.au.uncletopia.com","port":27065,"enabled":true,"region":"au","cc":"au","latitude":-33.865143,"longitude":151.2099,"reserved":0,"last_update":"0001-01-01T00:00:00Z","name_a2s":"Uncletopia | Sydney | 6 | Community","protocol":17,"map":"workshop/cp_mannbase_rc2a.ugc1900737467","folder":"tf","game":"Team Fortress","app_id":440,"player_count":0,"max_players":24,"Bots":0,"server_type":"Dedicated","server_os":"Linux","password":true,"vac":true,"version":"7961495","steam_id":85568392925397960,"keywords":["cp","nocrits","nodmgspread","uncletopia"],"game_id":440,"stv_port":27066,"stv_name":"Uncletopia | Sydney | 6 | Community | STV","players":null},{"server_id":49,"name":"Uncletopia | Warsaw | 1 | One Thousand Uncles","name_short":"waw-1","host":"waw-1.pl.uncletopia.com","port":27015,"enabled":true,"region":"eu","cc":"pl","latitude":52.2297,"longitude":21.017532,"reserved":0,"last_update":"0001-01-01T00:00:00Z","name_a2s":"Uncletopia | Warsaw | 1 | One Thousand Uncles","protocol":17,"map":"pl_barnblitz","folder":"tf","game":"Team Fortress","app_id":440,"player_count":29,"max_players":32,"Bots":16,"server_type":"Dedicated","server_os":"Linux","password":true,"vac":true,"version":"7961495","steam_id":85568392925397850,"keywords":["alltalk","bots","danepve","increased_maxplayers","nocrits","norespawntime","payload","uncletopia"],"game_id":440,"stv_port":0,"stv_name":"","players":[{"user_id":452,"name":"walking plane","steam_id":76561198146779559,"connected_time":2570000000000,"state":"active","ping":108},{"user_id":456,"name":"Hyperion","steam_id":76561198072705060,"connected_time":2149000000000,"state":"active","ping":72},{"user_id":497,"name":"Riky95","steam_id":76561198095289436,"connected_time":303000000000,"state":"active","ping":60},{"user_id":429,"name":"Nuq","steam_id":76561198067257865,"connected_time":5498000000000,"state":"active","ping":32},{"user_id":499,"name":"xTrueWlol","steam_id":76561199009437820,"connected_time":64000000000,"state":"active","ping":57},{"user_id":481,"name":"Benzo Fury","steam_id":76561198025259336,"connected_time":972000000000,"state":"active","ping":77},{"user_id":479,"name":"Blu Sniper","steam_id":76561198074296916,"connected_time":1141000000000,"state":"active","ping":56},{"user_id":483,"name":"i em de spie","steam_id":76561198807599784,"connected_time":953000000000,"state":"active","ping":42},{"user_id":485,"name":"kitten ;3","steam_id":76561198097557951,"connected_time":908000000000,"state":"active","ping":76},{"user_id":486,"name":"Henkat","steam_id":76561199079480352,"connected_time":818000000000,"state":"active","ping":101},{"user_id":459,"name":"Paraducks","steam_id":76561198083301973,"connected_time":2012000000000,"state":"active","ping":75},{"user_id":489,"name":"chaiwat254714","steam_id":76561199484452414,"connected_time":737000000000,"state":"active","ping":263},{"user_id":443,"name":"Vagon_Scleros","steam_id":76561199492670333,"connected_time":4605000000000,"state":"active","ping":93}]},{"server_id":50,"name":"Uncletopia | Warsaw | 2 | One Thousand Uncles","name_short":"waw-2","host":"waw-1.pl.uncletopia.com","port":27025,"enabled":true,"region":"eu","cc":"pl","latitude":52.2297,"longitude":21.017532,"reserved":0,"last_update":"0001-01-01T00:00:00Z","name_a2s":"Uncletopia | Warsaw | 2 | One Thousand Uncles","protocol":17,"map":"pl_pier","folder":"tf","game":"Team Fortress","app_id":440,"player_count":29,"max_players":32,"Bots":16,"server_type":"Dedicated","server_os":"Linux","password":true,"vac":true,"version":"7961495","steam_id":85568392925397851,"keywords":["alltalk","bots","danepve","increased_maxplayers","nocrits","norespawntime","payload","uncletopia"],"game_id":440,"stv_port":0,"stv_name":"","players":[{"user_id":232,"name":"pon1991aaa","steam_id":76561199501101347,"connected_time":26000000000,"state":"active","ping":45},{"user_id":228,"name":"Lemonade in my eyes","steam_id":76561198338129578,"connected_time":677000000000,"state":"active","ping":64},{"user_id":190,"name":"BUCKET:\\soldier\\Desktop\\","steam_id":76561199047240319,"connected_time":4367000000000,"state":"active","ping":101},{"user_id":204,"name":"Slimysnorp","steam_id":76561199175959277,"connected_time":2099000000000,"state":"active","ping":116},{"user_id":225,"name":"RJErik","steam_id":76561198321118547,"connected_time":919000000000,"state":"active","ping":73},{"user_id":147,"name":"Peanut","steam_id":76561198018865486,"connected_time":7193000000000,"state":"active","ping":75},{"user_id":202,"name":"FinnishGuy","steam_id":76561198155380452,"connected_time":3004000000000,"state":"active","ping":89},{"user_id":187,"name":"A Bl√•haj Fan","steam_id":76561199029212388,"connected_time":4571000000000,"state":"active","ping":37},{"user_id":188,"name":"Hoflett","steam_id":76561198873156806,"connected_time":4557000000000,"state":"active","ping":92},{"user_id":189,"name":"‚ú†‚ú†killer174hun‚ú†‚ú†","steam_id":76561198210135897,"connected_time":4389000000000,"state":"active","ping":92},{"user_id":222,"name":"Dark Wizart","steam_id":76561198377689439,"connected_time":1607000000000,"state":"active","ping":59},{"user_id":230,"name":"Honaaa","steam_id":76561198963798694,"connected_time":368000000000,"state":"active","ping":53},{"user_id":200,"name":"I.C. Wiener","steam_id":76561197999912254,"connected_time":3156000000000,"state":"active","ping":51}]},{"server_id":51,"name":"Uncletopia | Warsaw | 3 | All Maps","name_short":"waw-3","host":"waw-1.pl.uncletopia.com","port":27035,"enabled":true,"region":"eu","cc":"pl","latitude":52.2297,"longitude":21.017532,"reserved":0,"last_update":"0001-01-01T00:00:00Z","name_a2s":"Uncletopia | Warsaw | 3 | All Maps","protocol":17,"map":"cp_altitude","folder":"tf","game":"Team Fortress","app_id":440,"player_count":2,"max_players":24,"Bots":0,"server_type":"Dedicated","server_os":"Linux","password":true,"vac":true,"version":"7961495","steam_id":85568392925397852,"keywords":["cp","nocrits","nodmgspread","uncletopia"],"game_id":440,"stv_port":27036,"stv_name":"Uncletopia | Warsaw | 3 | All Maps | STV","players":[{"user_id":13,"name":"‚ô¶nudzeku‚ô¶","steam_id":76561199196336940,"connected_time":62000000000,"state":"active","ping":68},{"user_id":12,"name":"fralek","steam_id":76561198133047605,"connected_time":232000000000,"state":"active","ping":72}]},{"server_id":52,"name":"Uncletopia | Warsaw | 4 | All Maps","name_short":"waw-4","host":"waw-1.pl.uncletopia.com","port":27045,"enabled":true,"region":"eu","cc":"pl","latitude":52.2297,"longitude":21.017532,"reserved":0,"last_update":"0001-01-01T00:00:00Z","name_a2s":"Uncletopia | Warsaw | 4 | All Maps","protocol":17,"map":"cp_snakewater_final1","folder":"tf","game":"Team Fortress","app_id":440,"player_count":0,"max_players":24,"Bots":0,"server_type":"Dedicated","server_os":"Linux","password":true,"vac":true,"version":"7961495","steam_id":85568392925397853,"keywords":["cp","nocrits","nodmgspread","uncletopia"],"game_id":440,"stv_port":27046,"stv_name":"Uncletopia | Warsaw | 4 | All Maps | STV","players":null},{"server_id":53,"name":"Uncletopia | Warsaw | 5 | Stopwatch","name_short":"waw-5","host":"waw-1.pl.uncletopia.com","port":27055,"enabled":true,"region":"eu","cc":"pl","latitude":52.2297,"longitude":21.017532,"reserved":0,"last_update":"0001-01-01T00:00:00Z","name_a2s":"Uncletopia | Warsaw | 5 | Stopwatch","protocol":17,"map":"workshop/koth_bagel_rc6.ugc2514036946","folder":"tf","game":"Team Fortress","app_id":440,"player_count":0,"max_players":24,"Bots":0,"server_type":"Dedicated","server_os":"Linux","password":true,"vac":true,"version":"7961495","steam_id":85568392925397854,"keywords":["cp","nocrits","nodmgspread","uncletopia"],"game_id":440,"stv_port":27056,"stv_name":"Uncletopia | Warsaw | 5 | Stopwatch | STV","players":null},{"server_id":54,"name":"Uncletopia | Warsaw | 6 | Community","name_short":"waw-6","host":"waw-1.pl.uncletopia.com","port":27065,"enabled":true,"region":"eu","cc":"pl","latitude":52.2297,"longitude":21.017532,"reserved":0,"last_update":"0001-01-01T00:00:00Z","name_a2s":"Uncletopia | Warsaw | 6 | Community","protocol":17,"map":"workshop/koth_trenchfoot_ab1.ugc731436616","folder":"tf","game":"Team Fortress","app_id":440,"player_count":0,"max_players":24,"Bots":0,"server_type":"Dedicated","server_os":"Linux","password":true,"vac":true,"version":"7961495","steam_id":85568392925397856,"keywords":["cp","nocrits","nodmgspread","uncletopia"],"game_id":440,"stv_port":27066,"stv_name":"Uncletopia | Warsaw | 6 | Community | STV","players":null}]}