{"status":true,"message":"","result":[{"server_id":9,"name":"Uncletopia | Atlanta | 1 | All Maps","name_short":"atl-1","host":"atl-1.us.uncletopia.com","port":27015,"enabled":true,"region":"us-east","cc":"us","latitude":33.753746,"longitude":-84.38633,"reserved":0,"last_update":"0001-01-01T00:00:00Z","name_a2s":"Uncletopia | Atlanta | 1 | All Maps","protocol":17,"map":"cp_snakewater_final1","folder":"tf","game":"Team Fortress","app_id":440,"player_count":22,"max_players":24,"Bots":0,"server_type":"Dedicated","server_os":"Linux","password":true,"vac":true,"version":"7708610","steam_id":85568392924469982,"keywords":["cp","nocrits","nodmgspread","uncletopia"],"game_id":440,"stv_port":27016,"stv_name":"Uncletopia | Atlanta | 1 | All Maps | STV","players":[{"user_id":821,"name":"eeeeeeeeeeee #RealestestestBall","steam_id":76561198143132686,"connected_time":5978000000000,"state":"active","ping":90},{"user_id":822,"name":"harry gooch","steam_id":76561198024817457,"connected_time":5885000000000,"state":"active","ping":65},{"user_id":881,"name":"Cthulwho?","steam_id":76561198165550810,"connected_time":3000000000,"state":"spawning","ping":65},{"user_id":880,"name":"TheGreatDong","steam_id":76561198000634178,"connected_time":84000000000,"state":"active","ping":119},{"user_id":835,"name":"Walking Eye!","steam_id":76561198059501252,"connected_time":3613000000000,"state":"active","ping":77},{"user_id":877,"name":"MistakesWereMade","steam_id":76561199059220481,"connected_time":486000000000,"state":"active","ping":101},{"user_id":838,"name":"The Magic Whip","steam_id":76561198116408865,"connected_time":3324000000000,"state":"active","ping":65},{"user_id":869,"name":"Dylanardo","steam_id":76561198294726950,"connected_time":802000000000,"state":"active","ping":66},{"user_id":850,"name":"Brendan","steam_id":76561198041079914,"connected_time":2233000000000,"state":"active","ping":74},{"user_id":868,"name":"sheep","steam_id":76561198172943006,"connected_time":1041000000000,"state":"active","ping":68},{"user_id":855,"name":"BIG HOG","steam_id":76561198079923652,"connected_time":1962000000000,"state":"active","ping":62},{"user_id":695,"name":"mommy claus","steam_id":76561199230929836,"connected_time":14307000000000,"state":"active","ping":82},{"user_id":870,"name":"_Pai","steam_id":76561198108196753,"connected_time":773000000000,"state":"active","ping":102},{"user_id":739,"name":"rose #LeanSippa #RealeststBalle","steam_id":76561198048882285,"connected_time":12254000000000,"state":"active","ping":62},{"user_id":871,"name":"Ch4n","steam_id":76561198797670090,"connected_time":722000000000,"state":"active","ping":50},{"user_id":865,"name":"EagleEye2000","steam_id":76561198233776704,"connected_time":1227000000000,"state":"active","ping":60},{"user_id":872,"name":"Towns","steam_id":76561198984662863,"connected_time":717000000000,"state":"active","ping":58},{"user_id":852,"name":"cam","steam_id":76561198353950318,"connected_time":2221000000000,"state":"active","ping":99},{"user_id":859,"name":"aqua","steam_id":76561199407709552,"connected_time":1722000000000,"state":"active","ping":81},{"user_id":863,"name":"dongus","steam_id":76561198042774930,"connected_time":1326000000000,"state":"active","ping":157},{"user_id":874,"name":"Evergreen-Guy Geno","steam_id":76561198024512428,"connected_time":665000000000,"state":"active","ping":89},{"user_id":876,"name":"Admiral Shackleford","steam_id":76561198051952755,"connected_time":512000000000,"state":"active","ping":98}]},{"server_id":400,"name":"Uncletopia | Atlanta | 3 | All Maps","name_short":"atl-3","host":"atl-1.us.uncletopia.com","port":27035,"enabled":true,"region":"us-east","cc":"us","latitude":33.753746,"longitude":-84.38633,"reserved":0,"last_update":"0001-01-01T00:00:00Z","name_a2s":"Uncletopia | Atlanta | 3 | All Maps","protocol":17,"map":"cp_sunshine","folder":"tf","game":"Team Fortress","app_id":440,"player_count":0,"max_players":24,"Bots":0,"server_type":"Dedicated","server_os":"Linux","password":true,"vac":true,"version":"7708610","steam_id":85568392924515187,"keywords":["cp","nocrits","nodmgspread","uncletopia"],"game_id":440,"stv_port":27036,"stv_name":"Uncletopia | Atlanta | 3 | All Maps | STV","players":null},{"server_id":401,"name":"Uncletopia | Atlanta | 4 | No Payload","name_short":"atl-4","host":"atl-1.us.uncletopia.com","port":27045,"enabled":true,"region":"us-east","cc":"us","latitude":33.753746,"longitude":-84.38633,"reserved":0,"last_update":"0001-01-01T00:00:00Z","name_a2s":"Uncletopia | Atlanta | 4 | No Payload","protocol":17,"map":"plr_pipeline","folder":"tf","game":"Team Fortress","app_id":440,"player_count":0,"max_players":24,"Bots":0,"server_type":"Dedicated","server_os":"Linux","password":true,"vac":true,"version":"7708610","steam_id":85568392924515188,"keywords":["nocrits","nodmgspread","payload","uncletopia"],"game_id":440,"stv_port":27046,"stv_name":"Uncletopia | Atlanta | 4 | No Payload | STV","players":null},{"server_id":2,"name":"Uncletopia | Chicago | 1 | All Maps","name_short":"chi-1","host":"chi-1.us.uncletopia.com","port":27015,"enabled":true,"region":"us-central","cc":"us","latitude":41.881832,"longitude":-87.62318,"reserved":0,"last_update":"0001-01-01T00:00:00Z","name_a2s":"Uncletopia | Chicago | 1 | All Maps","protocol":17,"map":"cp_dustbowl","folder":"tf","game":"Team Fortress","app_id":440,"player_count":0,"max_players":24,"Bots":0,"server_type":"Dedicated","server_os":"Linux","password":true,"vac":true,"version":"7708610","steam_id":85568392924469984,"keywords":["cp","nocrits","nodmgspread","uncletopia"],"game_id":440,"stv_port":27016,"stv_name":"Uncletopia | Chicago | 1 | All Maps | STV","players":null},{"server_id":106,"name":"Uncletopia | Chicago | 2 | All Maps","name_short":"chi-2","host":"chi-1.us.uncletopia.com","port":27025,"enabled":true,"region":"us-central","cc":"us","latitude":41.881832,"longitude":-87.62318,"reserved":0,"last_update":"0001-01-01T00:00:00Z","name_a2s":"Uncletopia | Chicago | 2 | All Maps","protocol":17,"map":"koth_highpass","folder":"tf","game":"Team Fortress","app_id":440,"player_count":0,"max_players":24,"Bots":0,"server_type":"Dedicated","server_os":"Linux","password":true,"vac":true,"version":"7708610","steam_id":85568392924469985,"keywords":["cp","nocrits","nodmgspread","uncletopia"],"game_id":440,"stv_port":27026,"stv_name":"Uncletopia | Chicago | 2 | All Maps | STV","players":null},{"server_id":402,"name":"Uncletopia | Chicago | 3 | All Maps","name_short":"chi-3","host":"chi-1.us.uncletopia.com","port":27035,"enabled":true,"region":"us-central","cc":"us","latitude":41.881832,"longitude":-87.62318,"reserved":0,"last_update":"0001-01-01T00:00:00Z","name_a2s":"Uncletopia | Chicago | 3 | All Maps","protocol":17,"map":"pl_swiftwater_final1","folder":"tf","game":"Team Fortress","app_id":440,"player_count":0,"max_players":24,"Bots":0,"server_type":"Dedicated","server_os":"Linux","password":true,"vac":true,"version":"7708610","steam_id":85568392924515191,"keywords":["nocrits","nodmgspread","payload","uncletopia"],"game_id":440,"stv_port":27036,"stv_name":"Uncletopia | Chicago | 3 | All Maps | STV","players":null},{"server_id":403,"name":"Uncletopia | Chicago | 4 | All Maps","name_short":"chi-4","host":"chi-1.us.uncletopia.com","port":27045,"enabled":true,"region":"us-central","cc":"us","latitude":41.881832,"longitude":-87.62318,"reserved":0,"last_update":"0001-01-01T00:00:00Z","name_a2s":"Uncletopia | Chicago | 4 | All Maps","protocol":17,"map":"koth_viaduct","folder":"tf","game":"Team Fortress","app_id":440,"player_count":3,"max_players":24,"Bots":0,"server_type":"Dedicated","server_os":"Linux","password":true,"vac":true,"version":"7708610","steam_id":85568392924515193,"keywords":["cp","nocrits","nodmgspread","uncletopia"],"game_id":440,"stv_port":27046,"stv_name":"Uncletopia | Chicago | 4 | All Maps | STV","players":[{"user_id":292,"name":"WheelockWarlock","steam_id":76561198171456553,"connected_time":2222000000000,"state":"active","ping":64},{"user_id":293,"name":"Combez","steam_id":76561198215028184,"connected_time":694000000000,"state":"active","ping":110},{"user_id":294,"name":"Casual Costanza","steam_id":76561198024409325,"connected_time":343000000000,"state":"active","ping":60}]},{"server_id":36,"name":"Uncletopia | Chicago | 5 | All Maps","name_short":"chi-5","host":"chi-2.us.uncletopia.com","port":27015,"enabled":true,"region":"us-central","cc":"us","latitude":41.881832,"longitude":-87.62318,"reserved":0,"last_update":"0001-01-01T00:00:00Z","name_a2s":"Uncletopia | Chicago | 5 | All Maps","protocol":17,"map":"koth_cascade","folder":"tf","game":"Team Fortress","app_id":440,"player_count":0,"max_players":24,"Bots":0,"server_type":"Dedicated","server_os":"Linux","password":true,"vac":true,"version":"7708610","steam_id":85568392924866362,"keywords":["cp","nocrits","nodmgspread","uncletopia"],"game_id":440,"stv_port":27016,"stv_name":"Uncletopia | Chicago | 5 | All Maps | STV","players":null},{"server_id":37,"name":"Uncletopia | Chicago | 6 | All Maps","name_short":"chi-6","host":"chi-2.us.uncletopia.com","port":27025,"enabled":true,"region":"us-central","cc":"us","latitude":41.881832,"longitude":-87.62318,"reserved":0,"last_update":"0001-01-01T00:00:00Z","name_a2s":"Uncletopia | Chicago | 6 | All Maps","protocol":17,"map":"pl_swiftwater_final1","folder":"tf","game":"Team Fortress","app_id":440,"player_count":0,"max_players":24,"Bots":0,"server_type":"Dedicated","server_os":"Linux","password":true,"vac":true,"version":"7708610","steam_id":85568392924866363,"keywords":["nocrits","nodmgspread","payload","uncletopia"],"game_id":440,"stv_port":27026,"stv_name":"Uncletopia | Chicago | 6 | All Maps | STV","players":null},{"server_id":38,"name":"Uncletopia | Chicago | 7 | No Payload","name_short":"chi-7","host":"chi-2.us.uncletopia.com","port":27035,"enabled":true,"region":"us-central","cc":"us","latitude":41.881832,"longitude":-87.62318,"reserved":0,"last_update":"0001-01-01T00:00:00Z","name_a2s":"Uncletopia | Chicago | 7 | No Payload","protocol":17,"map":"koth_lakeside_final","folder":"tf","game":"Team Fortress","app_id":440,"player_count":0,"max_players":24,"Bots":0,"server_type":"Dedicated","server_os":"Linux","password":true,"vac":true,"version":"7708610","steam_id":85568392924866364,"keywords":["cp","nocrits","nodmgspread","uncletopia"],"game_id":440,"stv_port":27036,"stv_name":"Uncletopia | Chicago | 7 | No Payload | STV","players":null},{"server_id":39,"name":"Uncletopia | Chicago | 8 | Community","name_short":"chi-8","host":"chi-2.us.uncletopia.com","port":27045,"enabled":true,"region":"us-central","cc":"us","latitude":41.881832,"longitude":-87.62318,"reserved":0,"last_update":"0001-01-01T00:00:00Z","name_a2s":"Uncletopia | Chicago | 8 | Community","protocol":17,"map":"workshop/cp_reckoner_rc6.ugc674719999","folder":"tf","game":"Team Fortress","app_id":440,"player_count":0,"max_players":24,"Bots":0,"server_type":"Dedicated","server_os":"Linux","password":true,"vac":true,"version":"7708610","steam_id":85568392924866365,"keywords":["cp","nocrits","nodmgspread","uncletopia"],"game_id":440,"stv_port":27046,"stv_name":"Uncletopia | Chicago | 8 | Community | STV","players":null},{"server_id":8,"name":"Uncletopia | Dallas | 1 | All Maps","name_short":"dal-1","host":"dal-1.us.uncletopia.com","port":27015,"enabled":true,"region":"us-central","cc":"us","latitude":32.779167,"longitude":-96.80889,"reserved":0,"last_update":"0001-01-01T00:00:00Z","name_a2s":"Uncletopia | Dallas | 1 | All Maps","protocol":17,"map":"pl_barnblitz","folder":"tf","game":"Team Fortress","app_id":440,"player_count":16,"max_players":24,"Bots":0,"server_type":"Dedicated","server_os":"Linux","password":true,"vac":true,"version":"7708610","steam_id":85568392924469986,"keywords":["nocrits","nodmgspread","payload","uncletopia"],"game_id":440,"stv_port":27016,"stv_name":"Uncletopia | Dallas | 1 | All Maps | STV","players":[{"user_id":830,"name":"ChaoticAngel","steam_id":76561198293528217,"connected_time":4811000000000,"state":"active","ping":81},{"user_id":883,"name":"nell","steam_id":76561198136225723,"connected_time":688000000000,"state":"active","ping":66},{"user_id":884,"name":"Andreus","steam_id":76561199403926001,"connected_time":424000000000,"state":"active","ping":183},{"user_id":885,"name":"Chap","steam_id":76561198294226443,"connected_time":325000000000,"state":"active","ping":82},{"user_id":886,"name":"Trashgaming","steam_id":76561199184268442,"connected_time":324000000000,"state":"active","ping":84},{"user_id":852,"name":"Mopar Man","steam_id":76561198077030510,"connected_time":3490000000000,"state":"active","ping":89},{"user_id":888,"name":"MagPootis","steam_id":76561198157065778,"connected_time":237000000000,"state":"active","ping":210},{"user_id":871,"name":"Zorlovo","steam_id":76561198006443283,"connected_time":1583000000000,"state":"active","ping":66},{"user_id":882,"name":"Non-Union Mexican Equivalent","steam_id":76561198013399809,"connected_time":1095000000000,"state":"active","ping":62},{"user_id":873,"name":"Raven57p","steam_id":76561198118992563,"connected_time":1539000000000,"state":"active","ping":65},{"user_id":858,"name":"duneblaster0","steam_id":76561198040364680,"connected_time":2974000000000,"state":"active","ping":64},{"user_id":875,"name":"Underscore","steam_id":76561198374209415,"connected_time":1497000000000,"state":"active","ping":58},{"user_id":749,"name":"The Caretaker","steam_id":76561198125241411,"connected_time":11051000000000,"state":"active","ping":101},{"user_id":876,"name":"Soap","steam_id":76561198074619142,"connected_time":1468000000000,"state":"active","ping":73},{"user_id":880,"name":"B O N E L E S S","steam_id":76561198035547742,"connected_time":1251000000000,"state":"active","ping":97},{"user_id":881,"name":"C papi","steam_id":76561198027779564,"connected_time":1229000000000,"state":"active","ping":61}]},{"server_id":108,"name":"Uncletopia | Dallas | 2 | All Maps","name_short":"dal-2","host":"dal-1.us.uncletopia.com","port":27025,"enabled":true,"region":"us-central","cc":"us","latitude":32.779167,"longitude":-96.80889,"reserved":0,"last_update":"0001-01-01T00:00:00Z","name_a2s":"Uncletopia | Dallas | 2 | All Maps","protocol":17,"map":"koth_lakeside_final","folder":"tf","game":"Team Fortress","app_id":440,"player_count":0,"max_players":24,"Bots":0,"server_type":"Dedicated","server_os":"Linux","password":true,"vac":true,"version":"7708610","steam_id":85568392924469988,"keywords":["cp","nocrits","nodmgspread","uncletopia"],"game_id":440,"stv_port":27026,"stv_name":"Uncletopia | Dallas | 2 | All Maps | STV","players":null},{"server_id":5,"name":"Uncletopia | Frankfurt | 1 | All Maps","name_short":"frk-1","host":"frk-1.de.uncletopia.com","port":27015,"enabled":true,"region":"eu","cc":"de","latitude":50.110924,"longitude":8.682127,"reserved":0,"last_update":"0001-01-01T00:00:00Z","name_a2s":"Uncletopia | Frankfurt | 1 | All Maps","protocol":17,"map":"pl_borneo","folder":"tf","game":"Team Fortress","app_id":440,"player_count":24,"max_players":24,"Bots":0,"server_type":"Dedicated","server_os":"Linux","password":true,"vac":true,"version":"7708610","steam_id":85568392924469989,"keywords":["nocrits","nodmgspread","payload","uncletopia"],"game_id":440,"stv_port":27016,"stv_name":"Uncletopia | Frankfurt | 1 | All Maps | STV","players":[{"user_id":85,"name":"The Scoundrel","steam_id":76561199244090814,"connected_time":653000000000,"state":"active","ping":58},{"user_id":46,"name":"Jingleboob's Elf","steam_id":76561198067204908,"connected_time":3010000000000,"state":"active","ping":65},{"user_id":72,"name":"Him","steam_id":76561198086400484,"connected_time":1216000000000,"state":"active","ping":75},{"user_id":20,"name":"Shawty","steam_id":76561198256704286,"connected_time":4523000000000,"state":"active","ping":58},{"user_id":82,"name":"CampMaster49","steam_id":76561198353096926,"connected_time":846000000000,"state":"active","ping":80},{"user_id":86,"name":"Naginacz","steam_id":76561199099232534,"connected_time":574000000000,"state":"active","ping":64},{"user_id":66,"name":"JeanCorben","steam_id":76561197965133561,"connected_time":1451000000000,"state":"active","ping":45},{"user_id":78,"name":"Galaxy skeleton","steam_id":76561198883756275,"connected_time":1068000000000,"state":"active","ping":95},{"user_id":76,"name":"R3inis","steam_id":76561199030393569,"connected_time":1156000000000,"state":"active","ping":72},{"user_id":84,"name":"Internet Junky","steam_id":76561198167986695,"connected_time":757000000000,"state":"active","ping":56},{"user_id":24,"name":"garbage mikuknight","steam_id":76561198361819054,"connected_time":4259000000000,"state":"active","ping":81},{"user_id":73,"name":"2B","steam_id":76561198920856145,"connected_time":1200000000000,"state":"active","ping":74},{"user_id":26,"name":"Timo010","steam_id":76561198832395256,"connected_time":4203000000000,"state":"active","ping":75},{"user_id":27,"name":"Glocket","steam_id":76561198068460684,"connected_time":4194000000000,"state":"active","ping":67},{"user_id":28,"name":"LOBZIK","steam_id":76561198114830120,"connected_time":4194000000000,"state":"active","ping":76},{"user_id":80,"name":"Empyrean","steam_id":76561198138552502,"connected_time":989000000000,"state":"active","ping":67},{"user_id":71,"name":"petit_ewok ʕᵔᴥᵔʔ","steam_id":76561197990244946,"connected_time":1256000000000,"state":"active","ping":53},{"user_id":87,"name":"G6 sherlock","steam_id":76561198802967796,"connected_time":74000000000,"state":"active","ping":119},{"user_id":81,"name":"VERS","steam_id":76561198884232373,"connected_time":967000000000,"state":"active","ping":45},{"user_id":63,"name":"\u003c3","steam_id":76561197993508562,"connected_time":1816000000000,"state":"active","ping":72},{"user_id":61,"name":"PhantomStriker","steam_id":76561199116689935,"connected_time":2174000000000,"state":"active","ping":68},{"user_id":36,"name":"Silverbolt","steam_id":76561198153165763,"connected_time":4104000000000,"state":"active","ping":63},{"user_id":83,"name":"jovi_","steam_id":76561198449280552,"connected_time":825000000000,"state":"active","ping":66},{"user_id":77,"name":"Plastic","steam_id":76561198026307715,"connected_time":1145000000000,"state":"active","ping":52}]},{"server_id":110,"name":"Uncletopia | Frankfurt | 2 | All Maps","name_short":"frk-2","host":"frk-1.de.uncletopia.com","port":27025,"enabled":true,"region":"eu","cc":"de","latitude":50.110924,"longitude":8.682127,"reserved":0,"last_update":"0001-01-01T00:00:00Z","name_a2s":"Uncletopia | Frankfurt | 2 | All Maps","protocol":17,"map":"koth_lakeside_final","folder":"tf","game":"Team Fortress","app_id":440,"player_count":0,"max_players":24,"Bots":0,"server_type":"Dedicated","server_os":"Linux","password":true,"vac":true,"version":"7708610","steam_id":85568392924469990,"keywords":["cp","nocrits","nodmgspread","uncletopia"],"game_id":440,"stv_port":27026,"stv_name":"Uncletopia | Frankfurt | 2 | All Maps | STV","players":null},{"server_id":308,"name":"Uncletopia | Frankfurt | 3 | All Maps","name_short":"frk-3","host":"frk-1.de.uncletopia.com","port":27035,"enabled":true,"region":"eu","cc":"de","latitude":50.110924,"longitude":8.682127,"reserved":0,"last_update":"0001-01-01T00:00:00Z","name_a2s":"Uncletopia | Frankfurt | 3 | All Maps","protocol":17,"map":"koth_cascade","folder":"tf","game":"Team Fortress","app_id":440,"player_count":3,"max_players":24,"Bots":0,"server_type":"Dedicated","server_os":"Linux","password":true,"vac":true,"version":"7708610","steam_id":85568392924504274,"keywords":["cp","nocrits","nodmgspread","uncletopia"],"game_id":440,"stv_port":0,"stv_name":"","players":[{"user_id":8,"name":"LeMimik","steam_id":76561199281071050,"connected_time":874000000000,"state":"active","ping":70},{"user_id":9,"name":"Joseph Connor","steam_id":76561199080371698,"connected_time":430000000000,"state":"active","ping":98},{"user_id":11,"name":"CuzImACat","steam_id":76561198828145485,"connected_time":64000000000,"state":"active","ping":42}]},{"server_id":309,"name":"Uncletopia | Frankfurt | 4 | All Maps","name_short":"frk-4","host":"frk-1.de.uncletopia.com","port":27045,"enabled":true,"region":"eu","cc":"de","latitude":50.110924,"longitude":8.682127,"reserved":0,"last_update":"0001-01-01T00:00:00Z","name_a2s":"Uncletopia | Frankfurt | 4 | All Maps","protocol":17,"map":"pl_rumford_event","folder":"tf","game":"Team Fortress","app_id":440,"player_count":24,"max_players":24,"Bots":0,"server_type":"Dedicated","server_os":"Linux","password":true,"vac":true,"version":"7708610","steam_id":85568392924504275,"keywords":["nocrits","nodmgspread","payload","uncletopia"],"game_id":440,"stv_port":27046,"stv_name":"Uncletopia | Frankfurt | 4 | All Maps | STV","players":[{"user_id":156,"name":"trans werewolf","steam_id":76561198107235989,"connected_time":738000000000,"state":"active","ping":61},{"user_id":155,"name":"RazOverdrive","steam_id":76561198000794210,"connected_time":891000000000,"state":"active","ping":52},{"user_id":151,"name":"Gandalf","steam_id":76561199072668363,"connected_time":1132000000000,"state":"active","ping":63},{"user_id":128,"name":"Numbe","steam_id":76561198269614930,"connected_time":2775000000000,"state":"active","ping":75},{"user_id":148,"name":"Lyell","steam_id":76561198350329389,"connected_time":1358000000000,"state":"active","ping":92},{"user_id":109,"name":"Rebel Friend","steam_id":76561198046347156,"connected_time":4804000000000,"state":"active","ping":60},{"user_id":131,"name":"TrickiT","steam_id":76561198054626212,"connected_time":2390000000000,"state":"active","ping":51},{"user_id":134,"name":"Car Gear","steam_id":76561199183213205,"connected_time":2322000000000,"state":"active","ping":67},{"user_id":158,"name":"CrunchToast","steam_id":76561198212500113,"connected_time":436000000000,"state":"active","ping":104},{"user_id":144,"name":"engineer drip","steam_id":76561198991032570,"connected_time":1846000000000,"state":"active","ping":77},{"user_id":154,"name":"Slooshie","steam_id":76561198008749909,"connected_time":903000000000,"state":"active","ping":64},{"user_id":137,"name":"MagicTITIKAKA","steam_id":76561198129509548,"connected_time":2275000000000,"state":"active","ping":102},{"user_id":123,"name":"vetzakski","steam_id":76561198988041775,"connected_time":3295000000000,"state":"active","ping":80},{"user_id":84,"name":"Mayor Wank from Wanker Town","steam_id":76561197998253588,"connected_time":6854000000000,"state":"active","ping":48},{"user_id":140,"name":"sin","steam_id":76561198193416785,"connected_time":2033000000000,"state":"active","ping":57},{"user_id":146,"name":"hushhx","steam_id":76561198216200092,"connected_time":1782000000000,"state":"active","ping":64},{"user_id":124,"name":"Deva Path","steam_id":76561198085763542,"connected_time":3268000000000,"state":"active","ping":64},{"user_id":130,"name":"DeleteTrickster","steam_id":76561198397120242,"connected_time":2524000000000,"state":"active","ping":80},{"user_id":114,"name":"Иванов","steam_id":76561198817596606,"connected_time":4534000000000,"state":"active","ping":53},{"user_id":117,"name":"Bulyto","steam_id":76561198043205202,"connected_time":4331000000000,"state":"active","ping":66},{"user_id":159,"name":"dafydd","steam_id":76561198052200325,"connected_time":296000000000,"state":"active","ping":77},{"user_id":72,"name":"Madetter_","steam_id":76561198067838929,"connected_time":7508000000000,"state":"active","ping":84},{"user_id":157,"name":"delta man","steam_id":76561198204491245,"connected_time":481000000000,"state":"active","ping":139},{"user_id":120,"name":"Nibiru_Agent","steam_id":76561198796404149,"connected_time":3638000000000,"state":"active","ping":89}]},{"server_id":310,"name":"Uncletopia | Frankfurt | 5 | All Maps","name_short":"frk-5","host":"frk-1.de.uncletopia.com","port":27055,"enabled":true,"region":"eu","cc":"de","latitude":50.110924,"longitude":8.682127,"reserved":0,"last_update":"0001-01-01T00:00:00Z","name_a2s":"Uncletopia | Frankfurt | 5 | All Maps","protocol":17,"map":"pl_swiftwater_final1","folder":"tf","game":"Team Fortress","app_id":440,"player_count":24,"max_players":24,"Bots":0,"server_type":"Dedicated","server_os":"Linux","password":true,"vac":true,"version":"7708610","steam_id":85568392924504277,"keywords":["nocrits","nodmgspread","payload","uncletopia"],"game_id":440,"stv_port":27056,"stv_name":"Uncletopia | Frankfurt | 5 | All Maps | STV","players":[{"user_id":9,"name":"[Insert Oneshot refrence]","steam_id":76561198951206047,"connected_time":1635000000000,"state":"active","ping":78},{"user_id":8,"name":"Sheerluck Holmes","steam_id":76561198051161936,"connected_time":1901000000000,"state":"active","ping":59},{"user_id":6,"name":"Tommy","steam_id":76561198159409260,"connected_time":2021000000000,"state":"active","ping":79},{"user_id":11,"name":"Cpt. Buttucks Commiesbad","steam_id":76561198353168371,"connected_time":1451000000000,"state":"active","ping":63},{"user_id":12,"name":"BitToBot","steam_id":76561198124080817,"connected_time":1448000000000,"state":"active","ping":56},{"user_id":35,"name":"Ledze Shuns Dope","steam_id":76561198049945010,"connected_time":386000000000,"state":"active","ping":54},{"user_id":14,"name":"Natpad","steam_id":76561198842124497,"connected_time":1262000000000,"state":"active","ping":61},{"user_id":15,"name":"Insegura?","steam_id":76561198211621756,"connected_time":1242000000000,"state":"active","ping":54},{"user_id":16,"name":"my little spumpin","steam_id":76561198400406140,"connected_time":1240000000000,"state":"active","ping":56},{"user_id":17,"name":"PumpkinMan","steam_id":76561198929162354,"connected_time":1239000000000,"state":"active","ping":88},{"user_id":31,"name":"Pastoss","steam_id":76561198379098260,"connected_time":504000000000,"state":"active","ping":57},{"user_id":19,"name":"L78k3","steam_id":76561198042189577,"connected_time":1143000000000,"state":"active","ping":61},{"user_id":42,"name":"Th3Celestial","steam_id":76561198353312252,"connected_time":141000000000,"state":"active","ping":61},{"user_id":21,"name":"GMsU | Rebikas","steam_id":76561198077053764,"connected_time":1109000000000,"state":"active","ping":44},{"user_id":22,"name":"Leibeigener","steam_id":76561199275478305,"connected_time":1083000000000,"state":"active","ping":43},{"user_id":23,"name":"Denialman (Muted)","steam_id":76561198309182092,"connected_time":945000000000,"state":"active","ping":57},{"user_id":24,"name":"juekbix","steam_id":76561199131132627,"connected_time":821000000000,"state":"active","ping":68},{"user_id":25,"name":"ippo","steam_id":76561198883182180,"connected_time":743000000000,"state":"active","ping":75},{"user_id":38,"name":"Paulie \"Walnuts\" Gualtieri","steam_id":76561198364121077,"connected_time":336000000000,"state":"active","ping":106},{"user_id":27,"name":"TheDreadDevil","steam_id":76561198195927623,"connected_time":702000000000,"state":"active","ping":69},{"user_id":28,"name":"Dominus.","steam_id":76561199065917088,"connected_time":701000000000,"state":"active","ping":74},{"user_id":39,"name":"Dock","steam_id":76561198115242504,"connected_time":317000000000,"state":"active","ping":77},{"user_id":41,"name":"Ynss","steam_id":76561198021472798,"connected_time":247000000000,"state":"active","ping":64},{"user_id":34,"name":"MomoInTheBox","steam_id":76561197994150695,"connected_time":463000000000,"state":"active","ping":75}]},{"server_id":311,"name":"Uncletopia | Frankfurt | 6 | All Maps","name_short":"frk-6","host":"frk-1.de.uncletopia.com","port":27065,"enabled":true,"region":"eu","cc":"de","latitude":50.110924,"longitude":8.682127,"reserved":0,"last_update":"0001-01-01T00:00:00Z","name_a2s":"Uncletopia | Frankfurt | 6 | All Maps","protocol":17,"map":"koth_lakeside_final","folder":"tf","game":"Team Fortress","app_id":440,"player_count":0,"max_players":24,"Bots":0,"server_type":"Dedicated","server_os":"Linux","password":true,"vac":true,"version":"7708610","steam_id":85568392924504278,"keywords":["cp","nocrits","nodmgspread","uncletopia"],"game_id":440,"stv_port":0,"stv_name":"","players":null},{"server_id":23,"name":"Uncletopia | Frankfurt | 7 | No Payload","name_short":"frk-7","host":"frk-1.de.uncletopia.com","port":27075,"enabled":true,"region":"eu","cc":"de","latitude":50.110924,"longitude":8.682127,"reserved":0,"last_update":"0001-01-01T00:00:00Z","name_a2s":"Uncletopia | Frankfurt | 7 | No Payload","protocol":17,"map":"cp_mountainlab","folder":"tf","game":"Team Fortress","app_id":440,"player_count":0,"max_players":24,"Bots":0,"server_type":"Dedicated","server_os":"Linux","password":true,"vac":true,"version":"7708610","steam_id":85568392924742827,"keywords":["cp","nocrits","nodmgspread","uncletopia"],"game_id":440,"stv_port":27076,"stv_name":"Uncletopia | Frankfurt | 7 | No Payload | STV","players":null},{"server_id":24,"name":"Uncletopia | Frankfurt | 8 | Community","name_short":"frk-8","host":"frk-1.de.uncletopia.com","port":27085,"enabled":true,"region":"eu","cc":"de","latitude":50.110924,"longitude":8.682127,"reserved":0,"last_update":"0001-01-01T00:00:00Z","name_a2s":"Uncletopia | Frankfurt | 8 | Community","protocol":17,"map":"cp_mountainlab","folder":"tf","game":"Team Fortress","app_id":440,"player_count":0,"max_players":24,"Bots":0,"server_type":"Dedicated","server_os":"Linux","password":true,"vac":true,"version":"7708610","steam_id":85568392924742828,"keywords":["cp","nocrits","nodmgspread","uncletopia"],"game_id":440,"stv_port":0,"stv_name":"","players":null},{"server_id":202,"name":"Uncletopia | Hong Kong | 1 | All Maps","name_short":"hgk-1","host":"hgk-1.hk.uncletopia.com","port":27015,"enabled":true,"region":"asia","cc":"hk","latitude":22.302711,"longitude":114.177216,"reserved":0,"last_update":"0001-01-01T00:00:00Z","name_a2s":"Uncletopia | Hong Kong | 1 | All Maps","protocol":17,"map":"cp_process_final","folder":"tf","game":"Team Fortress","app_id":440,"player_count":23,"max_players":24,"Bots":0,"server_type":"Dedicated","server_os":"Linux","password":true,"vac":true,"version":"7708610","steam_id":85568392924494504,"keywords":["cp","nocrits","nodmgspread","uncletopia"],"game_id":440,"stv_port":27016,"stv_name":"Uncletopia | Hong Kong | 1 | All Maps | STV","players":[{"user_id":429,"name":"マグナス","steam_id":76561198208990721,"connected_time":1016000000000,"state":"active","ping":84},{"user_id":351,"name":"Nimbus","steam_id":76561198877713016,"connected_time":7451000000000,"state":"active","ping":99},{"user_id":434,"name":"peppermint","steam_id":76561198820630422,"connected_time":764000000000,"state":"active","ping":80},{"user_id":430,"name":"ogey","steam_id":76561198074339034,"connected_time":991000000000,"state":"active","ping":74},{"user_id":441,"name":"I am a box","steam_id":76561199184671939,"connected_time":8000000000,"state":"spawning","ping":221},{"user_id":428,"name":"the dominosiest pizza","steam_id":76561198163164053,"connected_time":1029000000000,"state":"active","ping":122},{"user_id":439,"name":"Crippling Depression","steam_id":76561199198723894,"connected_time":162000000000,"state":"active","ping":86},{"user_id":377,"name":"Dariyda","steam_id":76561199107212405,"connected_time":4481000000000,"state":"active","ping":124},{"user_id":432,"name":"Chicken","steam_id":76561199334609494,"connected_time":859000000000,"state":"active","ping":57},{"user_id":423,"name":"the big guy","steam_id":76561198412329672,"connected_time":1527000000000,"state":"active","ping":83},{"user_id":326,"name":"table","steam_id":76561198055553140,"connected_time":10635000000000,"state":"active","ping":82},{"user_id":433,"name":"BBOY","steam_id":76561198070719495,"connected_time":847000000000,"state":"active","ping":70},{"user_id":440,"name":"Oral Cigarettes","steam_id":76561198347418251,"connected_time":12000000000,"state":"spawning","ping":95},{"user_id":424,"name":"Giouri","steam_id":76561199152247162,"connected_time":1388000000000,"state":"active","ping":81},{"user_id":358,"name":"tiden2000","steam_id":76561198092969425,"connected_time":6515000000000,"state":"active","ping":88},{"user_id":438,"name":"duck1e","steam_id":76561198422098581,"connected_time":201000000000,"state":"active","ping":81},{"user_id":361,"name":"blue mountain coffee","steam_id":76561198823374287,"connected_time":5457000000000,"state":"active","ping":69},{"user_id":406,"name":"dunkleshreken","steam_id":76561198044875028,"connected_time":2607000000000,"state":"active","ping":104},{"user_id":426,"name":"17","steam_id":76561198241530712,"connected_time":1158000000000,"state":"active","ping":57},{"user_id":395,"name":"RandomGuy1085","steam_id":76561199053910995,"connected_time":3425000000000,"state":"active","ping":73},{"user_id":399,"name":"Pinecomb","steam_id":76561198825329716,"connected_time":3382000000000,"state":"active","ping":59},{"user_id":408,"name":"Karmen","steam_id":76561198131270946,"connected_time":2144000000000,"state":"active","ping":104},{"user_id":413,"name":"Mega 00F","steam_id":76561198962485791,"connected_time":1960000000000,"state":"active","ping":75}]},{"server_id":1,"name":"Uncletopia | Los Angeles | 1 | All Maps","name_short":"lax-1","host":"lax-1.us.uncletopia.com","port":27015,"enabled":true,"region":"us-west","cc":"us","latitude":33.94279,"longitude":-118.41004,"reserved":0,"last_update":"0001-01-01T00:00:00Z","name_a2s":"Uncletopia | Los Angeles | 1 | All Maps","protocol":17,"map":"koth_viaduct","folder":"tf","game":"Team Fortress","app_id":440,"player_count":0,"max_players":24,"Bots":0,"server_type":"Dedicated","server_os":"Linux","password":true,"vac":true,"version":"7708610","steam_id":85568392924469991,"keywords":["cp","nocrits","nodmgspread","uncletopia"],"game_id":440,"stv_port":27016,"stv_name":"Uncletopia | Los Angeles | 1 | All Maps | STV","players":null},{"server_id":112,"name":"Uncletopia | Los Angeles | 2 | All Maps","name_short":"lax-2","host":"lax-1.us.uncletopia.com","port":27025,"enabled":true,"region":"us-west","cc":"us","latitude":33.94279,"longitude":-118.41004,"reserved":0,"last_update":"0001-01-01T00:00:00Z","name_a2s":"Uncletopia | Los Angeles | 2 | All Maps","protocol":17,"map":"cp_mountainlab","folder":"tf","game":"Team Fortress","app_id":440,"player_count":0,"max_players":24,"Bots":0,"server_type":"Dedicated","server_os":"Linux","password":true,"vac":true,"version":"7708610","steam_id":85568392924469992,"keywords":["cp","nocrits","nodmgspread","uncletopia"],"game_id":440,"stv_port":27026,"stv_name":"Uncletopia | Los Angeles | 2 | All Maps | STV","players":null},{"server_id":324,"name":"Uncletopia | Los Angeles | 3 | All Maps","name_short":"lax-3","host":"lax-1.us.uncletopia.com","port":27035,"enabled":true,"region":"us-west","cc":"us","latitude":33.94279,"longitude":-118.41004,"reserved":0,"last_update":"0001-01-01T00:00:00Z","name_a2s":"Uncletopia | Los Angeles | 3 | All Maps","protocol":17,"map":"pl_frontier_final","folder":"tf","game":"Team Fortress","app_id":440,"player_count":3,"max_players":24,"Bots":0,"server_type":"Dedicated","server_os":"Linux","password":true,"vac":true,"version":"7708610","steam_id":85568392924510198,"keywords":["nocrits","nodmgspread","payload","uncletopia"],"game_id":440,"stv_port":27036,"stv_name":"Uncletopia | Los Angeles | 3 | All Maps | STV","players":[{"user_id":213,"name":"The Gremlin","steam_id":76561198419066993,"connected_time":2981000000000,"state":"active","ping":75},{"user_id":230,"name":"super autism girl","steam_id":76561198008908085,"connected_time":26000000000,"state":"active","ping":33},{"user_id":143,"name":"Hindmost","steam_id":76561199081837220,"connected_time":8213000000000,"state":"active","ping":90}]},{"server_id":25,"name":"Uncletopia | Los Angeles | 4 | No Payload","name_short":"lax-4","host":"lax-1.us.uncletopia.com","port":27045,"enabled":true,"region":"us-west","cc":"us","latitude":33.94279,"longitude":-118.41004,"reserved":0,"last_update":"0001-01-01T00:00:00Z","name_a2s":"Uncletopia | Los Angeles | 4 | No Payload","protocol":17,"map":"koth_suijin","folder":"tf","game":"Team Fortress","app_id":440,"player_count":0,"max_players":24,"Bots":0,"server_type":"Dedicated","server_os":"Linux","password":true,"vac":true,"version":"7708610","steam_id":85568392924510199,"keywords":["cp","nocrits","nodmgspread","uncletopia"],"game_id":440,"stv_port":27046,"stv_name":"Uncletopia | Los Angeles | 4 | No Payload | STV","players":null},{"server_id":11,"name":"Uncletopia | London | 1 | All Maps","name_short":"lon-1","host":"lon-1.uk.uncletopia.com","port":27015,"enabled":true,"region":"eu","cc":"gb","latitude":51.509865,"longitude":-0.118092,"reserved":0,"last_update":"0001-01-01T00:00:00Z","name_a2s":"Uncletopia | London | 1 | All Maps","protocol":17,"map":"koth_viaduct","folder":"tf","game":"Team Fortress","app_id":440,"player_count":1,"max_players":24,"Bots":0,"server_type":"Dedicated","server_os":"Linux","password":true,"vac":true,"version":"7708610","steam_id":85568392924367362,"keywords":["cp","nocrits","nodmgspread","uncletopia"],"game_id":440,"stv_port":0,"stv_name":"","players":[{"user_id":8,"name":"Dingus","steam_id":76561198140514058,"connected_time":23000000000,"state":"spawning","ping":46}]},{"server_id":114,"name":"Uncletopia | London | 2 | All Maps","name_short":"lon-2","host":"lon-1.uk.uncletopia.com","port":27025,"enabled":true,"region":"eu","cc":"gb","latitude":51.509865,"longitude":-0.118092,"reserved":0,"last_update":"0001-01-01T00:00:00Z","name_a2s":"Uncletopia | London | 2 | All Maps","protocol":17,"map":"koth_highpass","folder":"tf","game":"Team Fortress","app_id":440,"player_count":0,"max_players":24,"Bots":0,"server_type":"Dedicated","server_os":"Linux","password":true,"vac":true,"version":"7708610","steam_id":85568392924470941,"keywords":["cp","nocrits","nodmgspread","uncletopia"],"game_id":440,"stv_port":27026,"stv_name":"Uncletopia | London | 2 | All Maps | STV","players":null},{"server_id":320,"name":"Uncletopia | London | 3 | All Maps","name_short":"lon-3","host":"lon-1.uk.uncletopia.com","port":27035,"enabled":true,"region":"eu","cc":"gb","latitude":51.509865,"longitude":-0.118092,"reserved":0,"last_update":"0001-01-01T00:00:00Z","name_a2s":"Uncletopia | London | 3 | All Maps","protocol":17,"map":"cp_altitude","folder":"tf","game":"Team Fortress","app_id":440,"player_count":0,"max_players":24,"Bots":0,"server_type":"Dedicated","server_os":"Linux","password":true,"vac":true,"version":"7708610","steam_id":85568392924510192,"keywords":["cp","nocrits","nodmgspread","uncletopia"],"game_id":440,"stv_port":0,"stv_name":"","players":null},{"server_id":321,"name":"Uncletopia | London | 4 | All Maps","name_short":"lon-4","host":"lon-1.uk.uncletopia.com","port":27045,"enabled":true,"region":"eu","cc":"gb","latitude":51.509865,"longitude":-0.118092,"reserved":0,"last_update":"0001-01-01T00:00:00Z","name_a2s":"Uncletopia | London | 4 | All Maps","protocol":17,"map":"koth_viaduct","folder":"tf","game":"Team Fortress","app_id":440,"player_count":10,"max_players":24,"Bots":0,"server_type":"Dedicated","server_os":"Linux","password":true,"vac":true,"version":"7708610","steam_id":85568392924510193,"keywords":["cp","nocrits","nodmgspread","uncletopia"],"game_id":440,"stv_port":0,"stv_name":"","players":[{"user_id":4,"name":"Santa Claus","steam_id":76561198970762992,"connected_time":1284000000000,"state":"active","ping":74},{"user_id":3,"name":"presidentialAIDS","steam_id":76561199257284077,"connected_time":1348000000000,"state":"active","ping":128},{"user_id":5,"name":"Karsapaali","steam_id":76561198322322739,"connected_time":1138000000000,"state":"active","ping":83},{"user_id":6,"name":"purplecan","steam_id":76561199208283508,"connected_time":481000000000,"state":"active","ping":67},{"user_id":12,"name":"Jamba Sparabo","steam_id":76561198131647600,"connected_time":58000000000,"state":"active","ping":45},{"user_id":8,"name":"Lizardly","steam_id":76561198176750238,"connected_time":258000000000,"state":"active","ping":63},{"user_id":13,"name":"Jonkheervanflep","steam_id":76561198006853101,"connected_time":13000000000,"state":"connecting","ping":0},{"user_id":10,"name":"Pioneer","steam_id":76561199404585461,"connected_time":136000000000,"state":"active","ping":81},{"user_id":11,"name":"gmem","steam_id":76561198070006725,"connected_time":94000000000,"state":"active","ping":45},{"user_id":14,"name":"The Funny Cat 面白い猫","steam_id":76561198439978112,"connected_time":12000000000,"state":"spawning","ping":145}]},{"server_id":21,"name":"Uncletopia | London | 5 | All Maps","name_short":"lon-5","host":"lon-1.uk.uncletopia.com","port":27055,"enabled":true,"region":"eu","cc":"gb","latitude":51.509865,"longitude":-0.118092,"reserved":0,"last_update":"0001-01-01T00:00:00Z","name_a2s":"Uncletopia | London | 5 | All Maps","protocol":17,"map":"koth_lakeside_final","folder":"tf","game":"Team Fortress","app_id":440,"player_count":0,"max_players":24,"Bots":0,"server_type":"Dedicated","server_os":"Linux","password":true,"vac":true,"version":"7708610","steam_id":85568392924742829,"keywords":["cp","nocrits","nodmgspread","uncletopia"],"game_id":440,"stv_port":0,"stv_name":"","players":null},{"server_id":22,"name":"Uncletopia | London | 6 | All Maps","name_short":"lon-6","host":"lon-1.uk.uncletopia.com","port":27065,"enabled":true,"region":"eu","cc":"gb","latitude":51.509865,"longitude":-0.118092,"reserved":0,"last_update":"0001-01-01T00:00:00Z","name_a2s":"Uncletopia | London | 6 | All Maps","protocol":17,"map":"pl_swiftwater_final1","folder":"tf","game":"Team Fortress","app_id":440,"player_count":24,"max_players":24,"Bots":0,"server_type":"Dedicated","server_os":"Linux","password":true,"vac":true,"version":"7708610","steam_id":85568392924742830,"keywords":["nocrits","nodmgspread","payload","uncletopia"],"game_id":440,"stv_port":27066,"stv_name":"Uncletopia | London | 6 | All Maps | STV","players":[{"user_id":4,"name":"Nummi","steam_id":76561198980901935,"connected_time":3687000000000,"state":"active","ping":88},{"user_id":52,"name":"「◆Raku• 」","steam_id":76561198059283183,"connected_time":1584000000000,"state":"active","ping":84},{"user_id":60,"name":"Lego","steam_id":76561198064536870,"connected_time":772000000000,"state":"active","ping":139},{"user_id":66,"name":"copper wires","steam_id":76561199250808808,"connected_time":154000000000,"state":"active","ping":84},{"user_id":56,"name":"just took 40 benadryl","steam_id":76561198203486600,"connected_time":982000000000,"state":"active","ping":44},{"user_id":62,"name":"ඞbominasus 2137  #SaveTF2","steam_id":76561198030062981,"connected_time":200000000000,"state":"active","ping":72},{"user_id":11,"name":"terrine de poisson","steam_id":76561198182874945,"connected_time":3167000000000,"state":"active","ping":52},{"user_id":12,"name":"...","steam_id":76561198969234594,"connected_time":3149000000000,"state":"active","ping":56},{"user_id":39,"name":"Avitz","steam_id":76561197986150359,"connected_time":2256000000000,"state":"active","ping":73},{"user_id":37,"name":"Rohlc","steam_id":76561199056443047,"connected_time":2314000000000,"state":"active","ping":70},{"user_id":16,"name":"crossbowhater2000","steam_id":76561198097789669,"connected_time":2991000000000,"state":"active","ping":71},{"user_id":63,"name":"Grim the lemon","steam_id":76561199083433988,"connected_time":181000000000,"state":"active","ping":48},{"user_id":19,"name":"JackFighter","steam_id":76561198032798785,"connected_time":2954000000000,"state":"active","ping":79},{"user_id":20,"name":"Lena ^^","steam_id":76561199435586696,"connected_time":2939000000000,"state":"active","ping":88},{"user_id":59,"name":"cof","steam_id":76561199128417805,"connected_time":890000000000,"state":"active","ping":48},{"user_id":64,"name":"sylphid","steam_id":76561198043601838,"connected_time":179000000000,"state":"active","ping":61},{"user_id":68,"name":"Lukas","steam_id":76561198009118452,"connected_time":48000000000,"state":"active","ping":63},{"user_id":69,"name":"R!not","steam_id":76561197986328786,"connected_time":26000000000,"state":"spawning","ping":49},{"user_id":38,"name":"kaT","steam_id":76561198879664338,"connected_time":2310000000000,"state":"active","ping":68},{"user_id":61,"name":"hipster_doofus","steam_id":76561197970902697,"connected_time":724000000000,"state":"active","ping":54},{"user_id":28,"name":"I need a Mental Health Kobeni","steam_id":76561198032359132,"connected_time":2744000000000,"state":"active","ping":45},{"user_id":29,"name":"\"sniper\"","steam_id":76561198405291408,"connected_time":2733000000000,"state":"active","ping":71},{"user_id":65,"name":"Cobb Salads","steam_id":76561197971140507,"connected_time":175000000000,"state":"active","ping":78},{"user_id":47,"name":"heavy dm","steam_id":76561198413545609,"connected_time":2076000000000,"state":"active","ping":50}]},{"server_id":40,"name":"Uncletopia | London | 7 | No Payload","name_short":"lon-7","host":"lon-1.uk.uncletopia.com","port":27075,"enabled":true,"region":"eu","cc":"gb","latitude":51.509865,"longitude":-0.118092,"reserved":0,"last_update":"0001-01-01T00:00:00Z","name_a2s":"Uncletopia | London | 7 | No Payload","protocol":17,"map":"cp_snakewater_final1","folder":"tf","game":"Team Fortress","app_id":440,"player_count":0,"max_players":24,"Bots":0,"server_type":"Dedicated","server_os":"Linux","password":true,"vac":true,"version":"7708610","steam_id":85568392924964314,"keywords":["cp","nocrits","nodmgspread","uncletopia"],"game_id":440,"stv_port":0,"stv_name":"","players":null},{"server_id":41,"name":"Uncletopia | London | 8 | Community","name_short":"lon-8","host":"lon-1.uk.uncletopia.com","port":27085,"enabled":true,"region":"eu","cc":"gb","latitude":51.509865,"longitude":-0.118092,"reserved":0,"last_update":"0001-01-01T00:00:00Z","name_a2s":"Uncletopia | London | 8 | Community","protocol":17,"map":"cp_snakewater_final1","folder":"tf","game":"Team Fortress","app_id":440,"player_count":0,"max_players":24,"Bots":0,"server_type":"Dedicated","server_os":"Linux","password":true,"vac":true,"version":"7708610","steam_id":85568392924964315,"keywords":["cp","nocrits","nodmgspread","uncletopia"],"game_id":440,"stv_port":0,"stv_name":"","players":null},{"server_id":300,"name":"Uncletopia | Montréal | 1 | All Maps","name_short":"mtl-1","host":"mtl-1.ca.uncletopia.com","port":27015,"enabled":true,"region":"us-east","cc":"ca","latitude":45.50889,"longitude":-73.56167,"reserved":0,"last_update":"0001-01-01T00:00:00Z","name_a2s":"Uncletopia | Montréal | 1 | All Maps","protocol":17,"map":"koth_cascade","folder":"tf","game":"Team Fortress","app_id":440,"player_count":0,"max_players":24,"Bots":0,"server_type":"Dedicated","server_os":"Linux","password":true,"vac":true,"version":"7708610","steam_id":85568392924500087,"keywords":["cp","nocrits","nodmgspread","uncletopia"],"game_id":440,"stv_port":27016,"stv_name":"Uncletopia | Montréal | 1 | All Maps | STV","players":null},{"server_id":301,"name":"Uncletopia | Montréal | 2 | All Maps","name_short":"mtl-2","host":"mtl-1.ca.uncletopia.com","port":27025,"enabled":true,"region":"us-east","cc":"ca","latitude":45.50889,"longitude":-73.56167,"reserved":0,"last_update":"0001-01-01T00:00:00Z","name_a2s":"Uncletopia | Montréal | 2 | All Maps","protocol":17,"map":"koth_viaduct","folder":"tf","game":"Team Fortress","app_id":440,"player_count":0,"max_players":24,"Bots":0,"server_type":"Dedicated","server_os":"Linux","password":true,"vac":true,"version":"7708610","steam_id":85568392924500088,"keywords":["cp","nocrits","nodmgspread","uncletopia"],"game_id":440,"stv_port":27026,"stv_name":"Uncletopia | Montréal | 2 | All Maps | STV","players":null},{"server_id":302,"name":"Uncletopia | Montréal | 3 | All Maps","name_short":"mtl-3","host":"mtl-1.ca.uncletopia.com","port":27035,"enabled":true,"region":"us-east","cc":"ca","latitude":45.50889,"longitude":-73.56167,"reserved":0,"last_update":"0001-01-01T00:00:00Z","name_a2s":"Uncletopia | Montréal | 3 | All Maps","protocol":17,"map":"koth_cascade","folder":"tf","game":"Team Fortress","app_id":440,"player_count":0,"max_players":24,"Bots":0,"server_type":"Dedicated","server_os":"Linux","password":true,"vac":true,"version":"7708610","steam_id":85568392924500089,"keywords":["cp","nocrits","nodmgspread","uncletopia"],"game_id":440,"stv_port":27036,"stv_name":"Uncletopia | Montréal | 3 | All Maps | STV","players":null},{"server_id":303,"name":"Uncletopia | Montréal | 4 | No Payload","name_short":"mtl-4","host":"mtl-1.ca.uncletopia.com","port":27045,"enabled":true,"region":"us-east","cc":"ca","latitude":45.50889,"longitude":-73.56167,"reserved":0,"last_update":"0001-01-01T00:00:00Z","name_a2s":"Uncletopia | Montréal | 4 | No Payload","protocol":17,"map":"pl_frontier_final","folder":"tf","game":"Team Fortress","app_id":440,"player_count":0,"max_players":24,"Bots":0,"server_type":"Dedicated","server_os":"Linux","password":true,"vac":true,"version":"7708610","steam_id":85568392924500090,"keywords":["nocrits","nodmgspread","payload","uncletopia"],"game_id":440,"stv_port":0,"stv_name":"","players":null},{"server_id":13,"name":"Uncletopia | New York City | 1 | All Maps","name_short":"nyc-1","host":"nyc-1.us.uncletopia.com","port":27015,"enabled":true,"region":"us-east","cc":"us","latitude":40.73061,"longitude":-73.93524,"reserved":0,"last_update":"0001-01-01T00:00:00Z","name_a2s":"Uncletopia | New York City | 1 | All Maps","protocol":17,"map":"koth_cascade","folder":"tf","game":"Team Fortress","app_id":440,"player_count":0,"max_players":24,"Bots":0,"server_type":"Dedicated","server_os":"Linux","password":true,"vac":true,"version":"7708610","steam_id":85568392924469993,"keywords":["cp","nocrits","nodmgspread","uncletopia"],"game_id":440,"stv_port":27016,"stv_name":"Uncletopia | New York City | 1 | All Maps | STV","players":null},{"server_id":14,"name":"Uncletopia | New York City | 2 | All Maps","name_short":"nyc-2","host":"nyc-1.us.uncletopia.com","port":27025,"enabled":true,"region":"us-east","cc":"us","latitude":40.73061,"longitude":-73.93524,"reserved":0,"last_update":"0001-01-01T00:00:00Z","name_a2s":"Uncletopia | New York City | 2 | All Maps","protocol":17,"map":"koth_highpass","folder":"tf","game":"Team Fortress","app_id":440,"player_count":0,"max_players":24,"Bots":0,"server_type":"Dedicated","server_os":"Linux","password":true,"vac":true,"version":"7708610","steam_id":85568392924469994,"keywords":["cp","nocrits","nodmgspread","uncletopia"],"game_id":440,"stv_port":27026,"stv_name":"Uncletopia | New York City | 2 | All Maps | STV","players":null},{"server_id":15,"name":"Uncletopia | New York City | 3 | All Maps","name_short":"nyc-3","host":"nyc-1.us.uncletopia.com","port":27035,"enabled":true,"region":"us-east","cc":"us","latitude":40.73061,"longitude":-73.93524,"reserved":0,"last_update":"0001-01-01T00:00:00Z","name_a2s":"Uncletopia | New York City | 3 | All Maps","protocol":17,"map":"cp_process_final","folder":"tf","game":"Team Fortress","app_id":440,"player_count":0,"max_players":24,"Bots":0,"server_type":"Dedicated","server_os":"Linux","password":true,"vac":true,"version":"7708610","steam_id":85568392924742820,"keywords":["cp","nocrits","nodmgspread","uncletopia"],"game_id":440,"stv_port":27036,"stv_name":"Uncletopia | New York City | 3 | All Maps | STV","players":null},{"server_id":16,"name":"Uncletopia | New York City | 4 | Community","name_short":"nyc-4","host":"nyc-1.us.uncletopia.com","port":27045,"enabled":true,"region":"us-east","cc":"us","latitude":40.73061,"longitude":-73.93524,"reserved":0,"last_update":"0001-01-01T00:00:00Z","name_a2s":"Uncletopia | New York City | 4 | Community","protocol":17,"map":"workshop/cp_sulfur_rc2.ugc619869471","folder":"tf","game":"Team Fortress","app_id":440,"player_count":0,"max_players":24,"Bots":0,"server_type":"Dedicated","server_os":"Linux","password":true,"vac":true,"version":"7708610","steam_id":85568392924742821,"keywords":["cp","nocrits","nodmgspread","uncletopia"],"game_id":440,"stv_port":27046,"stv_name":"Uncletopia | New York City | 4 | Community | STV","players":null},{"server_id":142,"name":"Uncletopia | São Paulo | 1 | All Maps","name_short":"sao-1","host":"sao-1.br.uncletopia.com","port":27015,"enabled":true,"region":"sa","cc":"br","latitude":-23.533773,"longitude":-46.62529,"reserved":0,"last_update":"0001-01-01T00:00:00Z","name_a2s":"Uncletopia | São Paulo | 1 | All Maps","protocol":17,"map":"koth_highpass","folder":"tf","game":"Team Fortress","app_id":440,"player_count":1,"max_players":24,"Bots":0,"server_type":"Dedicated","server_os":"Linux","password":true,"vac":true,"version":"7708610","steam_id":85568392924469996,"keywords":["cp","nocrits","nodmgspread","uncletopia"],"game_id":440,"stv_port":0,"stv_name":"","players":[{"user_id":4,"name":"Blepy","steam_id":76561198199455773,"connected_time":480000000000,"state":"active","ping":101}]},{"server_id":143,"name":"Uncletopia | São Paulo | 2 | All Maps","name_short":"sao-2","host":"sao-2.br.uncletopia.com","port":27015,"enabled":true,"region":"sa","cc":"br","latitude":-23.533773,"longitude":-46.62529,"reserved":0,"last_update":"0001-01-01T00:00:00Z","name_a2s":"Uncletopia | São Paulo | 2 | All Maps","protocol":17,"map":"koth_lakeside_final","folder":"tf","game":"Team Fortress","app_id":440,"player_count":0,"max_players":24,"Bots":0,"server_type":"Dedicated","server_os":"Linux","password":true,"vac":true,"version":"7708610","steam_id":85568392924485349,"keywords":["cp","nocrits","nodmgspread","uncletopia"],"game_id":440,"stv_port":0,"stv_name":"","players":null},{"server_id":7,"name":"Uncletopia | Seattle | 1 | All Maps","name_short":"sea-1","host":"sea-1.us.uncletopia.com","port":27015,"enabled":true,"region":"us-west","cc":"us","latitude":47.608013,"longitude":-122.33517,"reserved":0,"last_update":"0001-01-01T00:00:00Z","name_a2s":"Uncletopia | Seattle | 1 | All Maps","protocol":17,"map":"koth_viaduct","folder":"tf","game":"Team Fortress","app_id":440,"player_count":0,"max_players":24,"Bots":0,"server_type":"Dedicated","server_os":"Linux","password":true,"vac":true,"version":"7708610","steam_id":85568392924469997,"keywords":["cp","nocrits","nodmgspread","uncletopia"],"game_id":440,"stv_port":27016,"stv_name":"Uncletopia | Seattle | 1 | All Maps | STV","players":null},{"server_id":119,"name":"Uncletopia | Seattle | 2 | All Maps","name_short":"sea-2","host":"sea-1.us.uncletopia.com","port":27025,"enabled":true,"region":"us-west","cc":"us","latitude":47.608013,"longitude":-122.33517,"reserved":0,"last_update":"0001-01-01T00:00:00Z","name_a2s":"Uncletopia | Seattle | 2 | All Maps","protocol":17,"map":"pl_borneo","folder":"tf","game":"Team Fortress","app_id":440,"player_count":0,"max_players":24,"Bots":0,"server_type":"Dedicated","server_os":"Linux","password":true,"vac":true,"version":"7708610","steam_id":85568392924469998,"keywords":["nocrits","nodmgspread","payload","uncletopia"],"game_id":440,"stv_port":27026,"stv_name":"Uncletopia | Seattle | 2 | All Maps | STV","players":null},{"server_id":17,"name":"Uncletopia | San Francisco | 1 | All Maps","name_short":"sfo-1","host":"sfo-1.us.uncletopia.com","port":27015,"enabled":true,"region":"us-west","cc":"us","latitude":37.77397,"longitude":-122.4313,"reserved":0,"last_update":"0001-01-01T00:00:00Z","name_a2s":"Uncletopia | San Francisco | 1 | All Maps","protocol":17,"map":"pl_upward","folder":"tf","game":"Team Fortress","app_id":440,"player_count":17,"max_players":24,"Bots":0,"server_type":"Dedicated","server_os":"Linux","password":true,"vac":true,"version":"7708610","steam_id":85568392924469999,"keywords":["nocrits","nodmgspread","payload","uncletopia"],"game_id":440,"stv_port":27016,"stv_name":"Uncletopia | San Francisco | 1 | All Maps | STV","players":[{"user_id":457,"name":"explosives anonymous","steam_id":76561198141862936,"connected_time":3000000000,"state":"spawning","ping":58},{"user_id":455,"name":"Amogous Supreme","steam_id":76561198025476774,"connected_time":288000000000,"state":"active","ping":45},{"user_id":448,"name":"mean penguin","steam_id":76561198174751517,"connected_time":1352000000000,"state":"active","ping":54},{"user_id":449,"name":"Hendershot and his One Man Army","steam_id":76561198345471582,"connected_time":1232000000000,"state":"active","ping":95},{"user_id":342,"name":"Sir Galahad","steam_id":76561198195999859,"connected_time":11779000000000,"state":"active","ping":56},{"user_id":438,"name":"Bagaboned","steam_id":76561198043761335,"connected_time":2849000000000,"state":"active","ping":63},{"user_id":450,"name":"CheeseCake488","steam_id":76561199407617942,"connected_time":1218000000000,"state":"active","ping":144},{"user_id":444,"name":"bee","steam_id":76561198025553902,"connected_time":1986000000000,"state":"active","ping":81},{"user_id":358,"name":"Raian","steam_id":76561199138048671,"connected_time":10002000000000,"state":"active","ping":45},{"user_id":445,"name":"Bob the Builder","steam_id":76561199069029812,"connected_time":1944000000000,"state":"active","ping":49},{"user_id":402,"name":"twitch.tv/skrpy #jl","steam_id":76561198040969503,"connected_time":6132000000000,"state":"active","ping":56},{"user_id":453,"name":"jared, 19","steam_id":76561198165847261,"connected_time":810000000000,"state":"active","ping":64},{"user_id":451,"name":"clems17","steam_id":76561199420685482,"connected_time":1111000000000,"state":"active","ping":179},{"user_id":456,"name":"Phoenix","steam_id":76561197971265992,"connected_time":85000000000,"state":"active","ping":68},{"user_id":410,"name":"Saggle","steam_id":76561198056075147,"connected_time":5883000000000,"state":"active","ping":165},{"user_id":431,"name":"[Bandit]","steam_id":76561197986919852,"connected_time":3701000000000,"state":"active","ping":60},{"user_id":441,"name":"mega","steam_id":76561198089520959,"connected_time":2639000000000,"state":"active","ping":104}]},{"server_id":18,"name":"Uncletopia | San Francisco | 2 | All Maps","name_short":"sfo-2","host":"sfo-1.us.uncletopia.com","port":27025,"enabled":true,"region":"us-west","cc":"us","latitude":37.77397,"longitude":-122.4313,"reserved":0,"last_update":"0001-01-01T00:00:00Z","name_a2s":"Uncletopia | San Francisco | 2 | All Maps","protocol":17,"map":"pl_badwater","folder":"tf","game":"Team Fortress","app_id":440,"player_count":0,"max_players":24,"Bots":0,"server_type":"Dedicated","server_os":"Linux","password":true,"vac":true,"version":"7708610","steam_id":85568392924470000,"keywords":["nocrits","nodmgspread","payload","uncletopia"],"game_id":440,"stv_port":27026,"stv_name":"Uncletopia | San Francisco | 2 | All Maps | STV","players":null},{"server_id":19,"name":"Uncletopia | San Francisco | 3 | No Payload","name_short":"sfo-3","host":"sfo-1.us.uncletopia.com","port":27035,"enabled":true,"region":"us-west","cc":"us","latitude":37.77397,"longitude":-122.4313,"reserved":0,"last_update":"0001-01-01T00:00:00Z","name_a2s":"Uncletopia | San Francisco | 3 | No Payload","protocol":17,"map":"plr_bananabay","folder":"tf","game":"Team Fortress","app_id":440,"player_count":0,"max_players":24,"Bots":0,"server_type":"Dedicated","server_os":"Linux","password":true,"vac":true,"version":"7708610","steam_id":85568392924742824,"keywords":["nocrits","nodmgspread","payload","uncletopia"],"game_id":440,"stv_port":27036,"stv_name":"Uncletopia | San Francisco | 3 | No Payload | STV","players":null},{"server_id":20,"name":"Uncletopia | San Francisco | 4 | Community","name_short":"sfo-4","host":"sfo-1.us.uncletopia.com","port":27045,"enabled":true,"region":"us-west","cc":"us","latitude":37.77397,"longitude":-122.4313,"reserved":0,"last_update":"0001-01-01T00:00:00Z","name_a2s":"Uncletopia | San Francisco | 4 | Community","protocol":17,"map":"workshop/koth_synthetic_rc6a.ugc1549817316","folder":"tf","game":"Team Fortress","app_id":440,"player_count":0,"max_players":24,"Bots":0,"server_type":"Dedicated","server_os":"Linux","password":true,"vac":true,"version":"7708610","steam_id":85568392924742826,"keywords":["cp","nocrits","nodmgspread","uncletopia"],"game_id":440,"stv_port":27046,"stv_name":"Uncletopia | San Francisco | 4 | Community | STV","players":null},{"server_id":141,"name":"Uncletopia | Sydney | 1 | All Maps","name_short":"syd-1","host":"syd-1.au.uncletopia.com","port":27015,"enabled":true,"region":"au","cc":"au","latitude":-33.865143,"longitude":151.2099,"reserved":0,"last_update":"0001-01-01T00:00:00Z","name_a2s":"Uncletopia | Sydney | 1 | All Maps","protocol":17,"map":"pl_frontier_final","folder":"tf","game":"Team Fortress","app_id":440,"player_count":24,"max_players":24,"Bots":0,"server_type":"Dedicated","server_os":"Linux","password":true,"vac":true,"version":"7708610","steam_id":85568392924470001,"keywords":["nocrits","nodmgspread","payload","uncletopia"],"game_id":440,"stv_port":27016,"stv_name":"Uncletopia | Sydney | 1 | All Maps | STV","players":[{"user_id":684,"name":"SpacePan","steam_id":76561199164052617,"connected_time":229000000000,"state":"active","ping":47},{"user_id":679,"name":"Thomasjack07","steam_id":76561198236388592,"connected_time":632000000000,"state":"active","ping":66},{"user_id":678,"name":"Selling Anti-Matter for $543","steam_id":76561198070708382,"connected_time":650000000000,"state":"active","ping":57},{"user_id":656,"name":"Scrote","steam_id":76561198028993166,"connected_time":2070000000000,"state":"active","ping":56},{"user_id":665,"name":"about boys and liking them/men","steam_id":76561198132937542,"connected_time":1201000000000,"state":"active","ping":65},{"user_id":680,"name":"SubHam","steam_id":76561198071578622,"connected_time":531000000000,"state":"active","ping":71},{"user_id":675,"name":"J''''","steam_id":76561198047565137,"connected_time":842000000000,"state":"active","ping":59},{"user_id":659,"name":"franky meatballs","steam_id":76561198048120251,"connected_time":1578000000000,"state":"active","ping":91},{"user_id":666,"name":"rolls u up and smokes u","steam_id":76561198025225448,"connected_time":1189000000000,"state":"active","ping":83},{"user_id":617,"name":"Big Booty Llama","steam_id":76561198074422721,"connected_time":5284000000000,"state":"active","ping":65},{"user_id":663,"name":"speed bomb","steam_id":76561198277363788,"connected_time":1226000000000,"state":"active","ping":73},{"user_id":681,"name":"iliana","steam_id":76561198304080170,"connected_time":482000000000,"state":"active","ping":53},{"user_id":653,"name":"GTSW1FT","steam_id":76561198315785054,"connected_time":2186000000000,"state":"active","ping":83},{"user_id":676,"name":"broccoli","steam_id":76561198362942706,"connected_time":810000000000,"state":"active","ping":76},{"user_id":632,"name":"TheSaltyKoi","steam_id":76561198816704624,"connected_time":3772000000000,"state":"active","ping":58},{"user_id":670,"name":"NaCl","steam_id":76561198176111621,"connected_time":1079000000000,"state":"active","ping":110},{"user_id":621,"name":"Madison Ivy","steam_id":76561198074674290,"connected_time":4976000000000,"state":"active","ping":70},{"user_id":682,"name":"Chops","steam_id":76561198071178936,"connected_time":477000000000,"state":"active","ping":96},{"user_id":658,"name":"TigerThorn","steam_id":76561198930701873,"connected_time":1679000000000,"state":"active","ping":51},{"user_id":683,"name":"cibo","steam_id":76561198798929932,"connected_time":266000000000,"state":"active","ping":63},{"user_id":622,"name":"skatebored","steam_id":76561198129299181,"connected_time":4975000000000,"state":"active","ping":68},{"user_id":685,"name":"CorporalRegicide","steam_id":76561198050413184,"connected_time":93000000000,"state":"active","ping":62},{"user_id":551,"name":"EpicGuy4227","steam_id":76561198094132328,"connected_time":10069000000000,"state":"active","ping":54},{"user_id":677,"name":"Skeptikal01","steam_id":76561199064694137,"connected_time":772000000000,"state":"active","ping":150}]},{"server_id":123,"name":"Uncletopia | Sydney | 2 | All Maps","name_short":"syd-2","host":"syd-1.au.uncletopia.com","port":27025,"enabled":true,"region":"au","cc":"au","latitude":-33.865143,"longitude":151.2099,"reserved":0,"last_update":"0001-01-01T00:00:00Z","name_a2s":"Uncletopia | Sydney | 2 | All Maps","protocol":17,"map":"cp_dustbowl","folder":"tf","game":"Team Fortress","app_id":440,"player_count":0,"max_players":24,"Bots":0,"server_type":"Dedicated","server_os":"Linux","password":true,"vac":true,"version":"7708610","steam_id":85568392924470002,"keywords":["cp","nocrits","nodmgspread","uncletopia"],"game_id":440,"stv_port":27026,"stv_name":"Uncletopia | Sydney | 2 | All Maps | STV","players":null},{"server_id":395,"name":"Uncletopia | Sydney | 3 | All Maps","name_short":"syd-3","host":"syd-1.au.uncletopia.com","port":27035,"enabled":true,"region":"au","cc":"au","latitude":-33.865143,"longitude":151.2099,"reserved":0,"last_update":"0001-01-01T00:00:00Z","name_a2s":"Uncletopia | Sydney | 3 | All Maps","protocol":17,"map":"pl_pier","folder":"tf","game":"Team Fortress","app_id":440,"player_count":24,"max_players":24,"Bots":0,"server_type":"Dedicated","server_os":"Linux","password":true,"vac":true,"version":"7708610","steam_id":85568392925194467,"keywords":["nocrits","nodmgspread","payload","uncletopia"],"game_id":440,"stv_port":27036,"stv_name":"Uncletopia | Sydney | 3 | All Maps | STV","players":[{"user_id":365,"name":"Charm","steam_id":76561198028891054,"connected_time":2605000000000,"state":"active","ping":60},{"user_id":383,"name":"free young thug free gunna","steam_id":76561198066726621,"connected_time":1362000000000,"state":"active","ping":45},{"user_id":380,"name":"wody","steam_id":76561198867007873,"connected_time":1616000000000,"state":"active","ping":99},{"user_id":387,"name":"Fuzzy","steam_id":76561198081319798,"connected_time":1139000000000,"state":"active","ping":53},{"user_id":386,"name":"ToadFungus","steam_id":76561199219667039,"connected_time":1140000000000,"state":"active","ping":94},{"user_id":385,"name":"AfroMeerkat","steam_id":76561197995499647,"connected_time":1143000000000,"state":"active","ping":49},{"user_id":366,"name":"Mr⁧⁧Lispy","steam_id":76561198049123915,"connected_time":2262000000000,"state":"active","ping":53},{"user_id":389,"name":"aahide in sock","steam_id":76561198146958572,"connected_time":990000000000,"state":"active","ping":47},{"user_id":315,"name":"deadmoi27","steam_id":76561198157061007,"connected_time":5221000000000,"state":"active","ping":57},{"user_id":373,"name":"Mumbles","steam_id":76561197972855314,"connected_time":2029000000000,"state":"active","ping":68},{"user_id":393,"name":"ItsSnakey","steam_id":76561199187623513,"connected_time":758000000000,"state":"active","ping":61},{"user_id":384,"name":"Scetaril","steam_id":76561199232961168,"connected_time":1332000000000,"state":"active","ping":57},{"user_id":371,"name":"robor","steam_id":76561198084686835,"connected_time":2161000000000,"state":"active","ping":55},{"user_id":396,"name":"Louis","steam_id":76561198013395847,"connected_time":198000000000,"state":"active","ping":43},{"user_id":372,"name":"floop flub","steam_id":76561198418968979,"connected_time":2143000000000,"state":"active","ping":106},{"user_id":394,"name":"pokermaster22","steam_id":76561198042198744,"connected_time":405000000000,"state":"active","ping":47},{"user_id":310,"name":"ljpaters","steam_id":76561198094354484,"connected_time":5458000000000,"state":"active","ping":59},{"user_id":392,"name":"HUNGRY","steam_id":76561198075931595,"connected_time":775000000000,"state":"active","ping":59},{"user_id":388,"name":"GeneralAXD","steam_id":76561198875908494,"connected_time":1110000000000,"state":"active","ping":70},{"user_id":300,"name":"ุbifcheg","steam_id":76561198319806610,"connected_time":5856000000000,"state":"active","ping":65},{"user_id":370,"name":"fleep","steam_id":76561198417133583,"connected_time":2195000000000,"state":"active","ping":43},{"user_id":390,"name":"Gasoline","steam_id":76561198879023728,"connected_time":889000000000,"state":"active","ping":99},{"user_id":395,"name":"Barchel (She/Her)","steam_id":76561197984629970,"connected_time":275000000000,"state":"active","ping":65},{"user_id":346,"name":"thennoth","steam_id":76561198082081056,"connected_time":3918000000000,"state":"active","ping":48}]},{"server_id":396,"name":"Uncletopia | Sydney | 4 | All Maps","name_short":"syd-4","host":"syd-1.au.uncletopia.com","port":27045,"enabled":true,"region":"au","cc":"au","latitude":-33.865143,"longitude":151.2099,"reserved":0,"last_update":"0001-01-01T00:00:00Z","name_a2s":"Uncletopia | Sydney | 4 | All Maps","protocol":17,"map":"pl_borneo","folder":"tf","game":"Team Fortress","app_id":440,"player_count":0,"max_players":24,"Bots":0,"server_type":"Dedicated","server_os":"Linux","password":true,"vac":true,"version":"7708610","steam_id":85568392925397958,"keywords":["nocrits","nodmgspread","payload","uncletopia"],"game_id":440,"stv_port":27046,"stv_name":"Uncletopia | Sydney | 4 | All Maps | STV","players":null},{"server_id":58,"name":"Uncletopia | Sydney | 5 | No Payload","name_short":"syd-5","host":"syd-1.au.uncletopia.com","port":27055,"enabled":true,"region":"au","cc":"au","latitude":-33.865143,"longitude":151.2099,"reserved":0,"last_update":"0001-01-01T00:00:00Z","name_a2s":"Uncletopia | Sydney | 5 | No Payload","protocol":17,"map":"koth_cascade","folder":"tf","game":"Team Fortress","app_id":440,"player_count":0,"max_players":24,"Bots":0,"server_type":"Dedicated","server_os":"Linux","password":true,"vac":true,"version":"7708610","steam_id":85568392925397959,"keywords":["cp","nocrits","nodmgspread","uncletopia"],"game_id":440,"stv_port":0,"stv_name":"","players":null},{"server_id":59,"name":"Uncletopia | Sydney | 6 | Community","name_short":"syd-6","host":"syd-1.au.uncletopia.com","port":27065,"enabled":true,"region":"au","cc":"au","latitude":-33.865143,"longitude":151.2099,"reserved":0,"last_update":"0001-01-01T00:00:00Z","name_a2s":"Uncletopia | Sydney | 6 | Community","protocol":17,"map":"workshop/koth_synthetic_rc6a.ugc1549817316","folder":"tf","game":"Team Fortress","app_id":440,"player_count":0,"max_players":24,"Bots":0,"server_type":"Dedicated","server_os":"Linux","password":true,"vac":true,"version":"7708610","steam_id":85568392925397960,"keywords":["cp","nocrits","nodmgspread","uncletopia"],"game_id":440,"stv_port":27066,"stv_name":"Uncletopia | Sydney | 6 | Community | STV","players":null},{"server_id":49,"name":"Uncletopia | Warsaw | 1 | All Maps","name_short":"waw-1","host":"waw-1.pl.uncletopia.com","port":27015,"enabled":true,"region":"eu","cc":"pl","latitude":52.2297,"longitude":21.017532,"reserved":0,"last_update":"0001-01-01T00:00:00Z","name_a2s":"Uncletopia | Warsaw | 1 | All Maps","protocol":17,"map":"cp_mountainlab","folder":"tf","game":"Team Fortress","app_id":440,"player_count":0,"max_players":24,"Bots":0,"server_type":"Dedicated","server_os":"Linux","password":true,"vac":true,"version":"7708610","steam_id":85568392925397850,"keywords":["cp","nocrits","nodmgspread","uncletopia"],"game_id":440,"stv_port":0,"stv_name":"","players":null},{"server_id":50,"name":"Uncletopia | Warsaw | 2 | All Maps","name_short":"waw-2","host":"waw-1.pl.uncletopia.com","port":27025,"enabled":true,"region":"eu","cc":"pl","latitude":52.2297,"longitude":21.017532,"reserved":0,"last_update":"0001-01-01T00:00:00Z","name_a2s":"Uncletopia | Warsaw | 2 | All Maps","protocol":17,"map":"cp_process_final","folder":"tf","game":"Team Fortress","app_id":440,"player_count":0,"max_players":24,"Bots":0,"server_type":"Dedicated","server_os":"Linux","password":true,"vac":true,"version":"7708610","steam_id":85568392925397851,"keywords":["cp","nocrits","nodmgspread","uncletopia"],"game_id":440,"stv_port":27026,"stv_name":"Uncletopia | Warsaw | 2 | All Maps | STV","players":null},{"server_id":51,"name":"Uncletopia | Warsaw | 3 | All Maps","name_short":"waw-3","host":"waw-1.pl.uncletopia.com","port":27035,"enabled":true,"region":"eu","cc":"pl","latitude":52.2297,"longitude":21.017532,"reserved":0,"last_update":"0001-01-01T00:00:00Z","name_a2s":"Uncletopia | Warsaw | 3 | All Maps","protocol":17,"map":"koth_cascade","folder":"tf","game":"Team Fortress","app_id":440,"player_count":0,"max_players":24,"Bots":0,"server_type":"Dedicated","server_os":"Linux","password":true,"vac":true,"version":"7708610","steam_id":85568392925397852,"keywords":["cp","nocrits","nodmgspread","uncletopia"],"game_id":440,"stv_port":0,"stv_name":"","players":null},{"server_id":52,"name":"Uncletopia | Warsaw | 4 | All Maps","name_short":"waw-4","host":"waw-1.pl.uncletopia.com","port":27045,"enabled":true,"region":"eu","cc":"pl","latitude":52.2297,"longitude":21.017532,"reserved":0,"last_update":"0001-01-01T00:00:00Z","name_a2s":"Uncletopia | Warsaw | 4 | All Maps","protocol":17,"map":"cp_mountainlab","folder":"tf","game":"Team Fortress","app_id":440,"player_count":0,"max_players":24,"Bots":0,"server_type":"Dedicated","server_os":"Linux","password":true,"vac":true,"version":"7708610","steam_id":85568392925397853,"keywords":["cp","nocrits","nodmgspread","uncletopia"],"game_id":440,"stv_port":0,"stv_name":"","players":null},{"server_id":53,"name":"Uncletopia | Warsaw | 5 | No Payload","name_short":"waw-5","host":"waw-1.pl.uncletopia.com","port":27055,"enabled":true,"region":"eu","cc":"pl","latitude":52.2297,"longitude":21.017532,"reserved":0,"last_update":"0001-01-01T00:00:00Z","name_a2s":"Uncletopia | Warsaw | 5 | No Payload","protocol":17,"map":"koth_nucleus","folder":"tf","game":"Team Fortress","app_id":440,"player_count":0,"max_players":24,"Bots":0,"server_type":"Dedicated","server_os":"Linux","password":true,"vac":true,"version":"7708610","steam_id":85568392925397854,"keywords":["cp","nocrits","nodmgspread","uncletopia"],"game_id":440,"stv_port":27056,"stv_name":"Uncletopia | Warsaw | 5 | No Payload | STV","players":null},{"server_id":54,"name":"Uncletopia | Warsaw | 6 | Community","name_short":"waw-6","host":"waw-1.pl.uncletopia.com","port":27065,"enabled":true,"region":"eu","cc":"pl","latitude":52.2297,"longitude":21.017532,"reserved":0,"last_update":"0001-01-01T00:00:00Z","name_a2s":"Uncletopia | Warsaw | 6 | Community","protocol":17,"map":"koth_highpass","folder":"tf","game":"Team Fortress","app_id":440,"player_count":0,"max_players":24,"Bots":0,"server_type":"Dedicated","server_os":"Linux","password":true,"vac":true,"version":"7708610","steam_id":85568392925397856,"keywords":["cp","nocrits","nodmgspread","uncletopia"],"game_id":440,"stv_port":0,"stv_name":"","players":null}]}