{"status":true,"message":"","result":[{"server_id":9,"name":"Uncletopia | Atlanta | 1 | All Maps","name_short":"atl-1","host":"atl-1.us.uncletopia.com","port":27015,"enabled":true,"region":"us-east","cc":"us","latitude":33.753746,"longitude":-84.38633,"reserved":0,"last_update":"0001-01-01T00:00:00Z","name_a2s":"Uncletopia | Atlanta | 1 | All Maps","protocol":17,"map":"koth_cascade","folder":"tf","game":"Team Fortress","app_id":440,"player_count":0,"max_players":24,"Bots":0,"server_type":"Dedicated","server_os":"Linux","password":true,"vac":true,"version":"7757534","steam_id":85568392924469982,"keywords":["cp","nocrits","nodmgspread","uncletopia"],"game_id":440,"stv_port":27016,"stv_name":"Uncletopia | Atlanta | 1 | All Maps | STV","players":null},{"server_id":104,"name":"Uncletopia | Atlanta | 2 | All Maps","name_short":"atl-2","host":"atl-1.us.uncletopia.com","port":27025,"enabled":true,"region":"us-east","cc":"us","latitude":33.753746,"longitude":-84.38633,"reserved":0,"last_update":"0001-01-01T00:00:00Z","name_a2s":"Uncletopia | Atlanta | 2 | All Maps","protocol":17,"map":"cp_dustbowl","folder":"tf","game":"Team Fortress","app_id":440,"player_count":0,"max_players":24,"Bots":0,"server_type":"Dedicated","server_os":"Linux","password":true,"vac":true,"version":"7757534","steam_id":85568392924469983,"keywords":["cp","nocrits","nodmgspread","uncletopia"],"game_id":440,"stv_port":27026,"stv_name":"Uncletopia | Atlanta | 2 | All Maps | STV","players":null},{"server_id":400,"name":"Uncletopia | Atlanta | 3 | Community","name_short":"atl-3","host":"atl-1.us.uncletopia.com","port":27035,"enabled":true,"region":"us-east","cc":"us","latitude":33.753746,"longitude":-84.38633,"reserved":0,"last_update":"0001-01-01T00:00:00Z","name_a2s":"Uncletopia | Atlanta | 3 | Community","protocol":17,"map":"workshop/cp_sulfur_rc2.ugc619869471","folder":"tf","game":"Team Fortress","app_id":440,"player_count":0,"max_players":24,"Bots":0,"server_type":"Dedicated","server_os":"Linux","password":true,"vac":true,"version":"7757534","steam_id":85568392924515187,"keywords":["cp","nocrits","nodmgspread","uncletopia"],"game_id":440,"stv_port":27036,"stv_name":"Uncletopia | Atlanta | 3 | Community | STV","players":null},{"server_id":401,"name":"Uncletopia | Atlanta | 4 | No Payload","name_short":"atl-4","host":"atl-1.us.uncletopia.com","port":27045,"enabled":true,"region":"us-east","cc":"us","latitude":33.753746,"longitude":-84.38633,"reserved":0,"last_update":"0001-01-01T00:00:00Z","name_a2s":"","protocol":0,"map":"","folder":"","game":"","app_id":0,"player_count":0,"max_players":0,"Bots":0,"server_type":"","server_os":"","password":false,"vac":false,"version":"","steam_id":0,"keywords":null,"game_id":0,"stv_port":0,"stv_name":"","players":null},{"server_id":2,"name":"Uncletopia | Chicago | 1 | All Maps","name_short":"chi-1","host":"chi-1.us.uncletopia.com","port":27015,"enabled":true,"region":"us-central","cc":"us","latitude":41.881832,"longitude":-87.62318,"reserved":0,"last_update":"0001-01-01T00:00:00Z","name_a2s":"Uncletopia | Chicago | 1 | All Maps","protocol":17,"map":"koth_highpass","folder":"tf","game":"Team Fortress","app_id":440,"player_count":0,"max_players":24,"Bots":0,"server_type":"Dedicated","server_os":"Linux","password":true,"vac":true,"version":"7757534","steam_id":85568392924469984,"keywords":["cp","nocrits","nodmgspread","uncletopia"],"game_id":440,"stv_port":27016,"stv_name":"Uncletopia | Chicago | 1 | All Maps | STV","players":null},{"server_id":106,"name":"Uncletopia | Chicago | 2 | All Maps","name_short":"chi-2","host":"chi-1.us.uncletopia.com","port":27025,"enabled":true,"region":"us-central","cc":"us","latitude":41.881832,"longitude":-87.62318,"reserved":0,"last_update":"0001-01-01T00:00:00Z","name_a2s":"Uncletopia | Chicago | 2 | All Maps","protocol":17,"map":"pl_upward","folder":"tf","game":"Team Fortress","app_id":440,"player_count":24,"max_players":24,"Bots":0,"server_type":"Dedicated","server_os":"Linux","password":true,"vac":true,"version":"7757534","steam_id":85568392924469985,"keywords":["nocrits","nodmgspread","payload","uncletopia"],"game_id":440,"stv_port":27026,"stv_name":"Uncletopia | Chicago | 2 | All Maps | STV","players":[{"user_id":24,"name":"Metbol","steam_id":76561198001362410,"connected_time":966000000000,"state":"active","ping":76},{"user_id":22,"name":"a baby","steam_id":76561198008662184,"connected_time":1144000000000,"state":"active","ping":72},{"user_id":8,"name":"O o g","steam_id":76561199267535506,"connected_time":2656000000000,"state":"active","ping":65},{"user_id":10,"name":"Hi","steam_id":76561198068113077,"connected_time":2407000000000,"state":"active","ping":106},{"user_id":37,"name":"prdxninja","steam_id":76561198170081774,"connected_time":495000000000,"state":"active","ping":45},{"user_id":28,"name":"mc_cheshire","steam_id":76561198866410589,"connected_time":724000000000,"state":"active","ping":68},{"user_id":18,"name":"Dippy McShitpants","steam_id":76561198099294955,"connected_time":1478000000000,"state":"active","ping":117},{"user_id":27,"name":"Gibby","steam_id":76561199336569123,"connected_time":736000000000,"state":"active","ping":112},{"user_id":23,"name":"Yoshi62","steam_id":76561199103748704,"connected_time":1062000000000,"state":"active","ping":124},{"user_id":29,"name":"Degenerate","steam_id":76561198079416360,"connected_time":701000000000,"state":"active","ping":67},{"user_id":30,"name":"Reverie","steam_id":76561198987005784,"connected_time":655000000000,"state":"active","ping":60},{"user_id":31,"name":"GooniOoni","steam_id":76561198102154561,"connected_time":647000000000,"state":"active","ping":44},{"user_id":32,"name":"Oaf","steam_id":76561198306435400,"connected_time":625000000000,"state":"active","ping":61},{"user_id":33,"name":"Eviscerator","steam_id":76561197980073637,"connected_time":623000000000,"state":"active","ping":74},{"user_id":34,"name":"Cooksandcleans‚Ñ¢","steam_id":76561198049696128,"connected_time":615000000000,"state":"active","ping":72},{"user_id":35,"name":"Dewgong (real)","steam_id":76561198045999391,"connected_time":557000000000,"state":"active","ping":72},{"user_id":36,"name":"Tiny Fisto","steam_id":76561198446888505,"connected_time":533000000000,"state":"active","ping":69},{"user_id":40,"name":"Goose of Wisdom","steam_id":76561198233465044,"connected_time":367000000000,"state":"active","ping":87},{"user_id":39,"name":"Blud walked 0 miles üò≠üò≠\ufffd\ufffd\ufffd","steam_id":76561199285074344,"connected_time":446000000000,"state":"active","ping":66},{"user_id":41,"name":"Walkiing","steam_id":76561198074473413,"connected_time":362000000000,"state":"active","ping":45},{"user_id":43,"name":"Jamal","steam_id":76561199090168179,"connected_time":316000000000,"state":"active","ping":79},{"user_id":44,"name":"Sprinklingmydoughnut","steam_id":76561198168009092,"connected_time":303000000000,"state":"active","ping":93},{"user_id":45,"name":"the man of sex","steam_id":76561198129027750,"connected_time":256000000000,"state":"active","ping":29},{"user_id":46,"name":"BoringBeing","steam_id":76561199239564665,"connected_time":249000000000,"state":"active","ping":117}]},{"server_id":402,"name":"Uncletopia | Chicago | 3 | All Maps","name_short":"chi-3","host":"chi-1.us.uncletopia.com","port":27035,"enabled":true,"region":"us-central","cc":"us","latitude":41.881832,"longitude":-87.62318,"reserved":0,"last_update":"0001-01-01T00:00:00Z","name_a2s":"Uncletopia | Chicago | 3 | All Maps","protocol":17,"map":"cp_sunshine","folder":"tf","game":"Team Fortress","app_id":440,"player_count":0,"max_players":24,"Bots":0,"server_type":"Dedicated","server_os":"Linux","password":true,"vac":true,"version":"7757534","steam_id":85568392924515191,"keywords":["cp","nocrits","nodmgspread","uncletopia"],"game_id":440,"stv_port":27036,"stv_name":"Uncletopia | Chicago | 3 | All Maps | STV","players":null},{"server_id":403,"name":"Uncletopia | Chicago | 4 | All Maps","name_short":"chi-4","host":"chi-1.us.uncletopia.com","port":27045,"enabled":true,"region":"us-central","cc":"us","latitude":41.881832,"longitude":-87.62318,"reserved":0,"last_update":"0001-01-01T00:00:00Z","name_a2s":"Uncletopia | Chicago | 4 | All Maps","protocol":17,"map":"koth_lakeside_final","folder":"tf","game":"Team Fortress","app_id":440,"player_count":0,"max_players":24,"Bots":0,"server_type":"Dedicated","server_os":"Linux","password":true,"vac":true,"version":"7757534","steam_id":85568392924515193,"keywords":["cp","nocrits","nodmgspread","uncletopia"],"game_id":440,"stv_port":27046,"stv_name":"Uncletopia | Chicago | 4 | All Maps | STV","players":null},{"server_id":36,"name":"Uncletopia | Chicago | 5 | All Maps","name_short":"chi-5","host":"chi-2.us.uncletopia.com","port":27015,"enabled":true,"region":"us-central","cc":"us","latitude":41.881832,"longitude":-87.62318,"reserved":0,"last_update":"0001-01-01T00:00:00Z","name_a2s":"Uncletopia | Chicago | 5 | All Maps","protocol":17,"map":"koth_cascade","folder":"tf","game":"Team Fortress","app_id":440,"player_count":0,"max_players":24,"Bots":0,"server_type":"Dedicated","server_os":"Linux","password":true,"vac":true,"version":"7757534","steam_id":85568392924866362,"keywords":["cp","nocrits","nodmgspread","uncletopia"],"game_id":440,"stv_port":27016,"stv_name":"Uncletopia | Chicago | 5 | All Maps | STV","players":null},{"server_id":37,"name":"Uncletopia | Chicago | 6 | All Maps","name_short":"chi-6","host":"chi-2.us.uncletopia.com","port":27025,"enabled":true,"region":"us-central","cc":"us","latitude":41.881832,"longitude":-87.62318,"reserved":0,"last_update":"0001-01-01T00:00:00Z","name_a2s":"Uncletopia | Chicago | 6 | All Maps","protocol":17,"map":"pl_borneo","folder":"tf","game":"Team Fortress","app_id":440,"player_count":0,"max_players":24,"Bots":0,"server_type":"Dedicated","server_os":"Linux","password":true,"vac":true,"version":"7757534","steam_id":85568392924866363,"keywords":["nocrits","nodmgspread","payload","uncletopia"],"game_id":440,"stv_port":27026,"stv_name":"Uncletopia | Chicago | 6 | All Maps | STV","players":null},{"server_id":38,"name":"Uncletopia | Chicago | 7 | Stopwatch Beta","name_short":"chi-7","host":"chi-2.us.uncletopia.com","port":27035,"enabled":true,"region":"us-central","cc":"us","latitude":41.881832,"longitude":-87.62318,"reserved":0,"last_update":"0001-01-01T00:00:00Z","name_a2s":"Uncletopia | Chicago | 7 | Stopwatch Beta","protocol":17,"map":"pl_barnblitz","folder":"tf","game":"Team Fortress","app_id":440,"player_count":0,"max_players":24,"Bots":0,"server_type":"Dedicated","server_os":"Linux","password":true,"vac":true,"version":"7757534","steam_id":85568392924866364,"keywords":["nocrits","nodmgspread","payload","uncletopia"],"game_id":440,"stv_port":27036,"stv_name":"Uncletopia | Chicago | 7 | Stopwatch Beta | STV","players":null},{"server_id":39,"name":"Uncletopia | Chicago | 8 | Community","name_short":"chi-8","host":"chi-2.us.uncletopia.com","port":27045,"enabled":true,"region":"us-central","cc":"us","latitude":41.881832,"longitude":-87.62318,"reserved":0,"last_update":"0001-01-01T00:00:00Z","name_a2s":"Uncletopia | Chicago | 8 | Community","protocol":17,"map":"koth_cascade","folder":"tf","game":"Team Fortress","app_id":440,"player_count":0,"max_players":24,"Bots":0,"server_type":"Dedicated","server_os":"Linux","password":true,"vac":true,"version":"7757534","steam_id":85568392924866365,"keywords":["cp","nocrits","nodmgspread","uncletopia"],"game_id":440,"stv_port":27046,"stv_name":"Uncletopia | Chicago | 8 | Community | STV","players":null},{"server_id":8,"name":"Uncletopia | Dallas | 1 | All Maps","name_short":"dal-1","host":"dal-1.us.uncletopia.com","port":27015,"enabled":true,"region":"us-central","cc":"us","latitude":32.779167,"longitude":-96.80889,"reserved":0,"last_update":"0001-01-01T00:00:00Z","name_a2s":"Uncletopia | Dallas | 1 | All Maps","protocol":17,"map":"koth_cascade","folder":"tf","game":"Team Fortress","app_id":440,"player_count":0,"max_players":24,"Bots":0,"server_type":"Dedicated","server_os":"Linux","password":true,"vac":true,"version":"7757534","steam_id":85568392924469986,"keywords":["cp","nocrits","nodmgspread","uncletopia"],"game_id":440,"stv_port":27016,"stv_name":"Uncletopia | Dallas | 1 | All Maps | STV","players":null},{"server_id":108,"name":"Uncletopia | Dallas | 2 | All Maps","name_short":"dal-2","host":"dal-1.us.uncletopia.com","port":27025,"enabled":true,"region":"us-central","cc":"us","latitude":32.779167,"longitude":-96.80889,"reserved":0,"last_update":"0001-01-01T00:00:00Z","name_a2s":"Uncletopia | Dallas | 2 | All Maps","protocol":17,"map":"pl_pier","folder":"tf","game":"Team Fortress","app_id":440,"player_count":24,"max_players":24,"Bots":0,"server_type":"Dedicated","server_os":"Linux","password":true,"vac":true,"version":"7757534","steam_id":85568392924469988,"keywords":["nocrits","nodmgspread","payload","uncletopia"],"game_id":440,"stv_port":27026,"stv_name":"Uncletopia | Dallas | 2 | All Maps | STV","players":[{"user_id":143,"name":"Doctor Bear  ï ‚Ä¢·¥•‚Ä¢ î","steam_id":76561197968103161,"connected_time":1847000000000,"state":"active","ping":81},{"user_id":158,"name":"You Don't Nomi.","steam_id":76561197969137836,"connected_time":475000000000,"state":"active","ping":86},{"user_id":134,"name":"ATL1 | Pango","steam_id":76561198069811545,"connected_time":2408000000000,"state":"active","ping":60},{"user_id":156,"name":"bappo","steam_id":76561199294792123,"connected_time":485000000000,"state":"active","ping":76},{"user_id":127,"name":":^|","steam_id":76561198119826352,"connected_time":3131000000000,"state":"active","ping":47},{"user_id":161,"name":"Nassu","steam_id":76561198147367577,"connected_time":162000000000,"state":"active","ping":90},{"user_id":154,"name":"Chaotic Rushu","steam_id":76561198170054407,"connected_time":899000000000,"state":"active","ping":88},{"user_id":129,"name":"King Col","steam_id":76561198033384990,"connected_time":3064000000000,"state":"active","ping":76},{"user_id":146,"name":"Billy zane","steam_id":76561198413386212,"connected_time":1642000000000,"state":"active","ping":66},{"user_id":160,"name":"sharkzilla","steam_id":76561199432721187,"connected_time":336000000000,"state":"active","ping":62},{"user_id":162,"name":"whimsical little creature","steam_id":76561198271710504,"connected_time":157000000000,"state":"active","ping":82},{"user_id":153,"name":"Weiserbot","steam_id":76561198882389970,"connected_time":1044000000000,"state":"active","ping":114},{"user_id":106,"name":"bobbymcbobington","steam_id":76561199089411172,"connected_time":4152000000000,"state":"active","ping":121},{"user_id":145,"name":"SketchyStreet","steam_id":76561199003194680,"connected_time":1797000000000,"state":"active","ping":67},{"user_id":131,"name":"‡πá‡πá","steam_id":76561199246007186,"connected_time":2723000000000,"state":"active","ping":74},{"user_id":128,"name":"Atlas","steam_id":76561198127975050,"connected_time":3127000000000,"state":"active","ping":72},{"user_id":163,"name":"trobin120","steam_id":76561199122420273,"connected_time":130000000000,"state":"active","ping":84},{"user_id":150,"name":"Grecks","steam_id":76561198154766165,"connected_time":1449000000000,"state":"active","ping":86},{"user_id":108,"name":"gaming","steam_id":76561198119590411,"connected_time":4111000000000,"state":"active","ping":92},{"user_id":155,"name":"PersonWhoJustDiedMaybeIDontKnow","steam_id":76561199109564855,"connected_time":862000000000,"state":"active","ping":72},{"user_id":157,"name":"stockhack","steam_id":76561198050220225,"connected_time":482000000000,"state":"active","ping":87},{"user_id":130,"name":"suns","steam_id":76561198079583278,"connected_time":2996000000000,"state":"active","ping":71},{"user_id":117,"name":"heavy guy","steam_id":76561197984047460,"connected_time":3571000000000,"state":"active","ping":74},{"user_id":118,"name":"Vassalaerial","steam_id":76561199144524002,"connected_time":3570000000000,"state":"active","ping":62}]},{"server_id":5,"name":"Uncletopia | Frankfurt | 1 | All Maps","name_short":"frk-1","host":"frk-1.de.uncletopia.com","port":27015,"enabled":true,"region":"eu","cc":"de","latitude":50.110924,"longitude":8.682127,"reserved":0,"last_update":"0001-01-01T00:00:00Z","name_a2s":"Uncletopia | Frankfurt | 1 | All Maps","protocol":17,"map":"cp_process_final","folder":"tf","game":"Team Fortress","app_id":440,"player_count":24,"max_players":24,"Bots":0,"server_type":"Dedicated","server_os":"Linux","password":true,"vac":true,"version":"7757534","steam_id":85568392924469989,"keywords":["cp","nocrits","nodmgspread","uncletopia"],"game_id":440,"stv_port":27016,"stv_name":"Uncletopia | Frankfurt | 1 | All Maps | STV","players":[{"user_id":167,"name":"Mr_Joergen","steam_id":76561198364713702,"connected_time":210000000000,"state":"active","ping":58},{"user_id":138,"name":"Mrpokerface2","steam_id":76561198068775213,"connected_time":1064000000000,"state":"active","ping":68},{"user_id":160,"name":"Drybooones","steam_id":76561198834232656,"connected_time":513000000000,"state":"active","ping":72},{"user_id":155,"name":"JeanCorben","steam_id":76561197965133561,"connected_time":590000000000,"state":"active","ping":45},{"user_id":171,"name":"skeleton_archer_1","steam_id":76561198407636430,"connected_time":44000000000,"state":"active","ping":90},{"user_id":157,"name":"Mogwai","steam_id":76561198078832314,"connected_time":531000000000,"state":"active","ping":77},{"user_id":168,"name":"Armix","steam_id":76561198079373642,"connected_time":118000000000,"state":"active","ping":66},{"user_id":158,"name":"Kid named download","steam_id":76561199192074448,"connected_time":525000000000,"state":"active","ping":179},{"user_id":145,"name":"Sex does not exist","steam_id":76561199111068188,"connected_time":856000000000,"state":"active","ping":64},{"user_id":164,"name":"One More Time","steam_id":76561198055389492,"connected_time":380000000000,"state":"active","ping":54},{"user_id":161,"name":"‚©©‚úû _SneKerz ‚©©‚úû","steam_id":76561198141259011,"connected_time":476000000000,"state":"active","ping":66},{"user_id":137,"name":"Lipton","steam_id":76561198029873474,"connected_time":1113000000000,"state":"active","ping":77},{"user_id":162,"name":"Firevell","steam_id":76561198154813359,"connected_time":475000000000,"state":"active","ping":59},{"user_id":142,"name":"AleXandriX","steam_id":76561198035203950,"connected_time":953000000000,"state":"active","ping":55},{"user_id":146,"name":"Eme","steam_id":76561198171619442,"connected_time":809000000000,"state":"active","ping":81},{"user_id":148,"name":"Sacrishee","steam_id":76561198169853697,"connected_time":745000000000,"state":"active","ping":57},{"user_id":149,"name":"L.A. Palm Tree","steam_id":76561199289526521,"connected_time":730000000000,"state":"active","ping":83},{"user_id":114,"name":"–¢—Ä—É–ø –í–æ–ª–æ–¥—è","steam_id":76561198035718457,"connected_time":2097000000000,"state":"active","ping":85},{"user_id":150,"name":"Tututerok","steam_id":76561198150325060,"connected_time":708000000000,"state":"active","ping":76},{"user_id":165,"name":"DribSitoop","steam_id":76561198020597104,"connected_time":364000000000,"state":"active","ping":60},{"user_id":169,"name":"Atse","steam_id":76561199019974513,"connected_time":117000000000,"state":"active","ping":120},{"user_id":163,"name":"KGiorgios_Bully","steam_id":76561198825392728,"connected_time":456000000000,"state":"active","ping":106},{"user_id":153,"name":"Spinyapickle","steam_id":76561198086653667,"connected_time":689000000000,"state":"active","ping":72},{"user_id":173,"name":"Chopperson_","steam_id":76561198873728497,"connected_time":24000000000,"state":"spawning","ping":89}]},{"server_id":110,"name":"Uncletopia | Frankfurt | 2 | All Maps","name_short":"frk-2","host":"frk-1.de.uncletopia.com","port":27025,"enabled":true,"region":"eu","cc":"de","latitude":50.110924,"longitude":8.682127,"reserved":0,"last_update":"0001-01-01T00:00:00Z","name_a2s":"Uncletopia | Frankfurt | 2 | All Maps","protocol":17,"map":"cp_foundry","folder":"tf","game":"Team Fortress","app_id":440,"player_count":24,"max_players":24,"Bots":0,"server_type":"Dedicated","server_os":"Linux","password":true,"vac":true,"version":"7757534","steam_id":85568392924469990,"keywords":["cp","nocrits","nodmgspread","uncletopia"],"game_id":440,"stv_port":27026,"stv_name":"Uncletopia | Frankfurt | 2 | All Maps | STV","players":[{"user_id":59,"name":"Osmo","steam_id":76561199286764992,"connected_time":1711000000000,"state":"active","ping":75},{"user_id":64,"name":"Akane","steam_id":76561197990407312,"connected_time":1499000000000,"state":"active","ping":74},{"user_id":23,"name":"Sebastian","steam_id":76561198199302394,"connected_time":3497000000000,"state":"active","ping":68},{"user_id":20,"name":"86","steam_id":76561199084186097,"connected_time":3828000000000,"state":"active","ping":88},{"user_id":12,"name":"Elemant","steam_id":76561198112990658,"connected_time":4741000000000,"state":"active","ping":59},{"user_id":60,"name":"Klifton","steam_id":76561198803743443,"connected_time":1700000000000,"state":"active","ping":76},{"user_id":39,"name":"MMMonkey | trade.tf","steam_id":76561198118917458,"connected_time":3028000000000,"state":"active","ping":116},{"user_id":70,"name":"◊ú◊ï","steam_id":76561198170332885,"connected_time":1214000000000,"state":"active","ping":116},{"user_id":78,"name":"ghost","steam_id":76561198189940229,"connected_time":209000000000,"state":"active","ping":47},{"user_id":19,"name":"Garbo","steam_id":76561198133885944,"connected_time":4067000000000,"state":"active","ping":72},{"user_id":37,"name":"Luppi van Puppi","steam_id":76561198055986745,"connected_time":3087000000000,"state":"active","ping":57},{"user_id":79,"name":"‚òÜtwyn[BRK]65","steam_id":76561197993439750,"connected_time":195000000000,"state":"active","ping":44},{"user_id":77,"name":"Pestdoktor","steam_id":76561198058159271,"connected_time":254000000000,"state":"active","ping":66},{"user_id":28,"name":"Caliban","steam_id":76561197999696839,"connected_time":3342000000000,"state":"active","ping":100},{"user_id":73,"name":"noobdog","steam_id":76561198036486671,"connected_time":1095000000000,"state":"active","ping":59},{"user_id":72,"name":"fmdi","steam_id":76561199433879329,"connected_time":1153000000000,"state":"active","ping":73},{"user_id":45,"name":"–Ø—Å–æ—Å –£–±–∏–±—É","steam_id":76561198291861707,"connected_time":2873000000000,"state":"active","ping":138},{"user_id":69,"name":"gaming","steam_id":76561198044461938,"connected_time":1291000000000,"state":"active","ping":56},{"user_id":34,"name":"Flakodio","steam_id":76561198888088845,"connected_time":3161000000000,"state":"active","ping":59},{"user_id":65,"name":"wasto-/-‚Ñ¢","steam_id":76561198102888038,"connected_time":1455000000000,"state":"active","ping":45},{"user_id":80,"name":"Pruni Cum Inulini the 3rd","steam_id":76561198172542535,"connected_time":129000000000,"state":"active","ping":65},{"user_id":38,"name":"Elkabat","steam_id":76561198150017277,"connected_time":3072000000000,"state":"active","ping":64},{"user_id":66,"name":"Goonz","steam_id":76561198161546490,"connected_time":1412000000000,"state":"active","ping":59},{"user_id":63,"name":"ojo","steam_id":76561198044811257,"connected_time":1645000000000,"state":"active","ping":56}]},{"server_id":308,"name":"Uncletopia | Frankfurt | 3 | All Maps","name_short":"frk-3","host":"frk-1.de.uncletopia.com","port":27035,"enabled":true,"region":"eu","cc":"de","latitude":50.110924,"longitude":8.682127,"reserved":0,"last_update":"0001-01-01T00:00:00Z","name_a2s":"Uncletopia | Frankfurt | 3 | All Maps","protocol":17,"map":"koth_cascade","folder":"tf","game":"Team Fortress","app_id":440,"player_count":0,"max_players":24,"Bots":0,"server_type":"Dedicated","server_os":"Linux","password":true,"vac":true,"version":"7757534","steam_id":85568392924504274,"keywords":["cp","nocrits","nodmgspread","uncletopia"],"game_id":440,"stv_port":27036,"stv_name":"Uncletopia | Frankfurt | 3 | All Maps | STV","players":null},{"server_id":309,"name":"Uncletopia | Frankfurt | 4 | All Maps","name_short":"frk-4","host":"frk-1.de.uncletopia.com","port":27045,"enabled":true,"region":"eu","cc":"de","latitude":50.110924,"longitude":8.682127,"reserved":0,"last_update":"0001-01-01T00:00:00Z","name_a2s":"Uncletopia | Frankfurt | 4 | All Maps","protocol":17,"map":"pl_badwater","folder":"tf","game":"Team Fortress","app_id":440,"player_count":24,"max_players":24,"Bots":0,"server_type":"Dedicated","server_os":"Linux","password":true,"vac":true,"version":"7757534","steam_id":85568392924504275,"keywords":["nocrits","nodmgspread","payload","uncletopia"],"game_id":440,"stv_port":27046,"stv_name":"Uncletopia | Frankfurt | 4 | All Maps | STV","players":[{"user_id":84,"name":"tj","steam_id":76561198160466307,"connected_time":2039000000000,"state":"active","ping":70},{"user_id":101,"name":"LOBZIK","steam_id":76561198114830120,"connected_time":1067000000000,"state":"active","ping":78},{"user_id":90,"name":"Itai","steam_id":76561198804555329,"connected_time":1734000000000,"state":"active","ping":98},{"user_id":71,"name":"angeloculmone5","steam_id":76561199219952677,"connected_time":2646000000000,"state":"active","ping":170},{"user_id":107,"name":"NukePigg","steam_id":76561198131324143,"connected_time":666000000000,"state":"active","ping":56},{"user_id":111,"name":"kilikia","steam_id":76561198350261670,"connected_time":613000000000,"state":"active","ping":86},{"user_id":103,"name":"IDunnoMemes","steam_id":76561198303462971,"connected_time":984000000000,"state":"active","ping":62},{"user_id":104,"name":"Boom","steam_id":76561198809430255,"connected_time":747000000000,"state":"active","ping":45},{"user_id":68,"name":"gdd","steam_id":76561198080260566,"connected_time":2919000000000,"state":"active","ping":94},{"user_id":105,"name":"Ace4573","steam_id":76561198063524630,"connected_time":689000000000,"state":"active","ping":163},{"user_id":106,"name":"Pan Piotr","steam_id":76561198140016126,"connected_time":675000000000,"state":"active","ping":69},{"user_id":97,"name":"Team Fortress 2","steam_id":76561199058927327,"connected_time":1273000000000,"state":"active","ping":98},{"user_id":113,"name":"r06u3","steam_id":76561198254099253,"connected_time":585000000000,"state":"active","ping":171},{"user_id":77,"name":"drew","steam_id":76561198012304706,"connected_time":2311000000000,"state":"active","ping":93},{"user_id":119,"name":"giclure :;","steam_id":76561197986362828,"connected_time":43000000000,"state":"active","ping":60},{"user_id":114,"name":"murdaman","steam_id":76561198175433731,"connected_time":361000000000,"state":"active","ping":71},{"user_id":110,"name":"jt7","steam_id":76561198073655162,"connected_time":630000000000,"state":"active","ping":71},{"user_id":112,"name":"twitch.tv/ofikoMazush1","steam_id":76561198149515082,"connected_time":612000000000,"state":"active","ping":67},{"user_id":61,"name":"modavak","steam_id":76561198946290908,"connected_time":4264000000000,"state":"active","ping":90},{"user_id":94,"name":"joni110","steam_id":76561198098747929,"connected_time":1475000000000,"state":"active","ping":71},{"user_id":115,"name":"Chambersite","steam_id":76561198197022399,"connected_time":301000000000,"state":"active","ping":70},{"user_id":109,"name":"Tekky","steam_id":76561197990987315,"connected_time":647000000000,"state":"active","ping":52},{"user_id":93,"name":"LazyBane","steam_id":76561198032359132,"connected_time":1527000000000,"state":"active","ping":59},{"user_id":120,"name":"Juss","steam_id":76561198298722637,"connected_time":43000000000,"state":"active","ping":77}]},{"server_id":310,"name":"Uncletopia | Frankfurt | 5 | All Maps","name_short":"frk-5","host":"frk-1.de.uncletopia.com","port":27055,"enabled":true,"region":"eu","cc":"de","latitude":50.110924,"longitude":8.682127,"reserved":0,"last_update":"0001-01-01T00:00:00Z","name_a2s":"Uncletopia | Frankfurt | 5 | All Maps","protocol":17,"map":"koth_lakeside_final","folder":"tf","game":"Team Fortress","app_id":440,"player_count":0,"max_players":24,"Bots":0,"server_type":"Dedicated","server_os":"Linux","password":true,"vac":true,"version":"7757534","steam_id":85568392924504277,"keywords":["cp","nocrits","nodmgspread","uncletopia"],"game_id":440,"stv_port":27056,"stv_name":"Uncletopia | Frankfurt | 5 | All Maps | STV","players":null},{"server_id":311,"name":"Uncletopia | Frankfurt | 6 | All Maps","name_short":"frk-6","host":"frk-1.de.uncletopia.com","port":27065,"enabled":true,"region":"eu","cc":"de","latitude":50.110924,"longitude":8.682127,"reserved":0,"last_update":"0001-01-01T00:00:00Z","name_a2s":"Uncletopia | Frankfurt | 6 | All Maps","protocol":17,"map":"pl_barnblitz","folder":"tf","game":"Team Fortress","app_id":440,"player_count":0,"max_players":24,"Bots":0,"server_type":"Dedicated","server_os":"Linux","password":true,"vac":true,"version":"7757534","steam_id":85568392924504278,"keywords":["nocrits","nodmgspread","payload","uncletopia"],"game_id":440,"stv_port":27066,"stv_name":"Uncletopia | Frankfurt | 6 | All Maps | STV","players":null},{"server_id":23,"name":"Uncletopia | Frankfurt | 7 | Stopwatch Beta","name_short":"frk-7","host":"frk-1.de.uncletopia.com","port":27075,"enabled":true,"region":"eu","cc":"de","latitude":50.110924,"longitude":8.682127,"reserved":0,"last_update":"0001-01-01T00:00:00Z","name_a2s":"Uncletopia | Frankfurt | 7 | Stopwatch Beta","protocol":17,"map":"pl_upward","folder":"tf","game":"Team Fortress","app_id":440,"player_count":0,"max_players":24,"Bots":0,"server_type":"Dedicated","server_os":"Linux","password":true,"vac":true,"version":"7757534","steam_id":85568392924742827,"keywords":["nocrits","nodmgspread","payload","uncletopia"],"game_id":440,"stv_port":27076,"stv_name":"Uncletopia | Frankfurt | 7 | Stopwatch Beta | STV","players":null},{"server_id":24,"name":"Uncletopia | Frankfurt | 8 | Community","name_short":"frk-8","host":"frk-1.de.uncletopia.com","port":27085,"enabled":true,"region":"eu","cc":"de","latitude":50.110924,"longitude":8.682127,"reserved":0,"last_update":"0001-01-01T00:00:00Z","name_a2s":"Uncletopia | Frankfurt | 8 | Community","protocol":17,"map":"workshop/koth_ashville_final.ugc2130459942","folder":"tf","game":"Team Fortress","app_id":440,"player_count":0,"max_players":24,"Bots":0,"server_type":"Dedicated","server_os":"Linux","password":true,"vac":true,"version":"7757534","steam_id":85568392924742828,"keywords":["cp","nocrits","nodmgspread","uncletopia"],"game_id":440,"stv_port":27086,"stv_name":"Uncletopia | Frankfurt | 8 | Community | STV","players":null},{"server_id":202,"name":"Uncletopia | Hong Kong | 1 | All Maps","name_short":"hgk-1","host":"hgk-1.hk.uncletopia.com","port":27015,"enabled":true,"region":"asia","cc":"hk","latitude":22.302711,"longitude":114.177216,"reserved":0,"last_update":"0001-01-01T00:00:00Z","name_a2s":"Uncletopia | Hong Kong | 1 | All Maps","protocol":17,"map":"pl_pier","folder":"tf","game":"Team Fortress","app_id":440,"player_count":24,"max_players":24,"Bots":0,"server_type":"Dedicated","server_os":"Linux","password":true,"vac":true,"version":"7757534","steam_id":85568392924494504,"keywords":["nocrits","nodmgspread","payload","uncletopia"],"game_id":440,"stv_port":27016,"stv_name":"Uncletopia | Hong Kong | 1 | All Maps | STV","players":[{"user_id":170,"name":"Ïø†ÌÇ§","steam_id":76561197997220367,"connected_time":4832000000000,"state":"active","ping":53},{"user_id":184,"name":"Paragon","steam_id":76561197983816430,"connected_time":4089000000000,"state":"active","ping":129},{"user_id":234,"name":"Jumanji‚Ñ¢","steam_id":76561198431664383,"connected_time":1085000000000,"state":"active","ping":62},{"user_id":221,"name":"Kurtie","steam_id":76561198144737876,"connected_time":2037000000000,"state":"active","ping":64},{"user_id":199,"name":"P","steam_id":76561198304514505,"connected_time":3646000000000,"state":"active","ping":76},{"user_id":217,"name":"P's prostate tickler","steam_id":76561198092969425,"connected_time":2200000000000,"state":"active","ping":112},{"user_id":251,"name":"Charmayanne","steam_id":76561199190954735,"connected_time":269000000000,"state":"active","ping":111},{"user_id":233,"name":"Puddin","steam_id":76561198140052918,"connected_time":1183000000000,"state":"active","ping":93},{"user_id":252,"name":"Dolla","steam_id":76561199401233865,"connected_time":184000000000,"state":"active","ping":110},{"user_id":253,"name":"I crave chicken nuggets","steam_id":76561199221871877,"connected_time":151000000000,"state":"active","ping":63},{"user_id":250,"name":"cool and clever alias","steam_id":76561197994194946,"connected_time":533000000000,"state":"active","ping":99},{"user_id":186,"name":"Alan The Annihilator","steam_id":76561198346128694,"connected_time":3985000000000,"state":"active","ping":71},{"user_id":228,"name":"ducksaremean","steam_id":76561199093126935,"connected_time":1633000000000,"state":"active","ping":83},{"user_id":212,"name":"ÊØç„ÅÆËÇâÂõ£Â≠ê@hao123.com","steam_id":76561198069561896,"connected_time":2540000000000,"state":"active","ping":44},{"user_id":211,"name":"clori","steam_id":76561199146847474,"connected_time":2589000000000,"state":"active","ping":45},{"user_id":124,"name":"Tyxant","steam_id":76561198091066056,"connected_time":8031000000000,"state":"active","ping":98},{"user_id":241,"name":"ConHoshi","steam_id":76561199387718733,"connected_time":716000000000,"state":"active","ping":82},{"user_id":201,"name":"IDontLaunder","steam_id":76561199103223706,"connected_time":3637000000000,"state":"active","ping":180},{"user_id":214,"name":"yw","steam_id":76561199382726488,"connected_time":2352000000000,"state":"active","ping":51},{"user_id":229,"name":"meatball","steam_id":76561198874470722,"connected_time":1577000000000,"state":"active","ping":100},{"user_id":169,"name":"Zizman","steam_id":76561198446562910,"connected_time":4925000000000,"state":"active","ping":147},{"user_id":178,"name":"monke mode","steam_id":76561198992723983,"connected_time":4200000000000,"state":"active","ping":101},{"user_id":215,"name":"Ratboi7Street","steam_id":76561199222913157,"connected_time":2349000000000,"state":"active","ping":72},{"user_id":239,"name":"„Éó„É≠„Ç≤„Éº„Éû„Éº","steam_id":76561199017344476,"connected_time":859000000000,"state":"active","ping":84}]},{"server_id":1,"name":"Uncletopia | Los Angeles | 1 | All Maps","name_short":"lax-1","host":"lax-1.us.uncletopia.com","port":27015,"enabled":true,"region":"us-west","cc":"us","latitude":33.94279,"longitude":-118.41004,"reserved":0,"last_update":"0001-01-01T00:00:00Z","name_a2s":"Uncletopia | Los Angeles | 1 | All Maps","protocol":17,"map":"koth_lakeside_final","folder":"tf","game":"Team Fortress","app_id":440,"player_count":0,"max_players":24,"Bots":0,"server_type":"Dedicated","server_os":"Linux","password":true,"vac":true,"version":"7757534","steam_id":85568392924469991,"keywords":["cp","nocrits","nodmgspread","uncletopia"],"game_id":440,"stv_port":27016,"stv_name":"Uncletopia | Los Angeles | 1 | All Maps | STV","players":null},{"server_id":112,"name":"Uncletopia | Los Angeles | 2 | All Maps","name_short":"lax-2","host":"lax-1.us.uncletopia.com","port":27025,"enabled":true,"region":"us-west","cc":"us","latitude":33.94279,"longitude":-118.41004,"reserved":0,"last_update":"0001-01-01T00:00:00Z","name_a2s":"Uncletopia | Los Angeles | 2 | All Maps","protocol":17,"map":"pl_badwater","folder":"tf","game":"Team Fortress","app_id":440,"player_count":0,"max_players":24,"Bots":0,"server_type":"Dedicated","server_os":"Linux","password":true,"vac":true,"version":"7757534","steam_id":85568392924469992,"keywords":["nocrits","nodmgspread","payload","uncletopia"],"game_id":440,"stv_port":27026,"stv_name":"Uncletopia | Los Angeles | 2 | All Maps | STV","players":null},{"server_id":324,"name":"Uncletopia | Los Angeles | 3 | All Maps","name_short":"lax-3","host":"lax-1.us.uncletopia.com","port":27035,"enabled":true,"region":"us-west","cc":"us","latitude":33.94279,"longitude":-118.41004,"reserved":0,"last_update":"0001-01-01T00:00:00Z","name_a2s":"Uncletopia | Los Angeles | 3 | All Maps","protocol":17,"map":"pl_barnblitz","folder":"tf","game":"Team Fortress","app_id":440,"player_count":0,"max_players":24,"Bots":0,"server_type":"Dedicated","server_os":"Linux","password":true,"vac":true,"version":"7757534","steam_id":85568392924510198,"keywords":["nocrits","nodmgspread","payload","uncletopia"],"game_id":440,"stv_port":27036,"stv_name":"Uncletopia | Los Angeles | 3 | All Maps | STV","players":null},{"server_id":25,"name":"Uncletopia | Los Angeles | 4 | Stopwatch Beta","name_short":"lax-4","host":"lax-1.us.uncletopia.com","port":27045,"enabled":true,"region":"us-west","cc":"us","latitude":33.94279,"longitude":-118.41004,"reserved":0,"last_update":"0001-01-01T00:00:00Z","name_a2s":"Uncletopia | Los Angeles | 4 | Stopwatch Beta","protocol":17,"map":"pl_swiftwater_final1","folder":"tf","game":"Team Fortress","app_id":440,"player_count":0,"max_players":24,"Bots":0,"server_type":"Dedicated","server_os":"Linux","password":true,"vac":true,"version":"7757534","steam_id":85568392924510199,"keywords":["nocrits","nodmgspread","payload","uncletopia"],"game_id":440,"stv_port":27046,"stv_name":"Uncletopia | Los Angeles | 4 | Stopwatch Beta | STV","players":null},{"server_id":11,"name":"Uncletopia | London | 1 | All Maps","name_short":"lon-1","host":"lon-1.uk.uncletopia.com","port":27015,"enabled":true,"region":"eu","cc":"gb","latitude":51.509865,"longitude":-0.118092,"reserved":0,"last_update":"0001-01-01T00:00:00Z","name_a2s":"Uncletopia | London | 1 | All Maps","protocol":17,"map":"pl_barnblitz","folder":"tf","game":"Team Fortress","app_id":440,"player_count":24,"max_players":24,"Bots":0,"server_type":"Dedicated","server_os":"Linux","password":true,"vac":true,"version":"7757534","steam_id":85568392924367362,"keywords":["nocrits","nodmgspread","payload","uncletopia"],"game_id":440,"stv_port":27016,"stv_name":"Uncletopia | London | 1 | All Maps | STV","players":[{"user_id":165,"name":"Dr. Mike Litoris","steam_id":76561197991205793,"connected_time":13397000000000,"state":"active","ping":76},{"user_id":304,"name":"PeTrAk0S","steam_id":76561198109314762,"connected_time":1269000000000,"state":"active","ping":70},{"user_id":245,"name":"‚ô• aura ‚ô•","steam_id":76561198066258544,"connected_time":7262000000000,"state":"active","ping":61},{"user_id":296,"name":"Rafalexis","steam_id":76561198055792457,"connected_time":1690000000000,"state":"active","ping":69},{"user_id":251,"name":"AnonTron","steam_id":76561199031895493,"connected_time":5778000000000,"state":"active","ping":153},{"user_id":328,"name":"Doggen","steam_id":76561198061152504,"connected_time":36000000000,"state":"active","ping":77},{"user_id":316,"name":"Bounter","steam_id":76561198072614188,"connected_time":752000000000,"state":"active","ping":76},{"user_id":321,"name":"Beeman999","steam_id":76561198138266242,"connected_time":514000000000,"state":"active","ping":62},{"user_id":290,"name":"Tink","steam_id":76561198118235443,"connected_time":2079000000000,"state":"active","ping":52},{"user_id":318,"name":"gibb (official)","steam_id":76561198074097655,"connected_time":577000000000,"state":"active","ping":44},{"user_id":227,"name":"john fortress","steam_id":76561198013237629,"connected_time":9525000000000,"state":"active","ping":91},{"user_id":308,"name":"b_a1Ln","steam_id":76561198135213739,"connected_time":1081000000000,"state":"active","ping":118},{"user_id":272,"name":"KAZAM | Tervez","steam_id":76561198045459068,"connected_time":4054000000000,"state":"active","ping":84},{"user_id":310,"name":"sharkmax12312","steam_id":76561198996008569,"connected_time":1038000000000,"state":"active","ping":78},{"user_id":319,"name":"guy farting","steam_id":76561198280132466,"connected_time":546000000000,"state":"active","ping":88},{"user_id":279,"name":"Hive","steam_id":76561199480966681,"connected_time":3830000000000,"state":"active","ping":72},{"user_id":315,"name":"Deacon Dracul","steam_id":76561198046880663,"connected_time":775000000000,"state":"active","ping":90},{"user_id":311,"name":"Mor7on","steam_id":76561198843314397,"connected_time":997000000000,"state":"active","ping":94},{"user_id":301,"name":"Pipper","steam_id":76561197970326616,"connected_time":1308000000000,"state":"active","ping":58},{"user_id":317,"name":"goblin (real)","steam_id":76561198868286775,"connected_time":649000000000,"state":"active","ping":83},{"user_id":322,"name":"help","steam_id":76561199056338917,"connected_time":504000000000,"state":"active","ping":158},{"user_id":320,"name":"gediot#2","steam_id":76561199229899155,"connected_time":543000000000,"state":"active","ping":37},{"user_id":266,"name":"Neon","steam_id":76561198012373755,"connected_time":4687000000000,"state":"active","ping":57}]},{"server_id":114,"name":"Uncletopia | London | 2 | All Maps","name_short":"lon-2","host":"lon-1.uk.uncletopia.com","port":27025,"enabled":true,"region":"eu","cc":"gb","latitude":51.509865,"longitude":-0.118092,"reserved":0,"last_update":"0001-01-01T00:00:00Z","name_a2s":"Uncletopia | London | 2 | All Maps","protocol":17,"map":"koth_viaduct","folder":"tf","game":"Team Fortress","app_id":440,"player_count":0,"max_players":24,"Bots":0,"server_type":"Dedicated","server_os":"Linux","password":true,"vac":true,"version":"7757534","steam_id":85568392924470941,"keywords":["cp","nocrits","nodmgspread","uncletopia"],"game_id":440,"stv_port":27026,"stv_name":"Uncletopia | London | 2 | All Maps | STV","players":null},{"server_id":320,"name":"Uncletopia | London | 3 | All Maps","name_short":"lon-3","host":"lon-1.uk.uncletopia.com","port":27035,"enabled":true,"region":"eu","cc":"gb","latitude":51.509865,"longitude":-0.118092,"reserved":0,"last_update":"0001-01-01T00:00:00Z","name_a2s":"Uncletopia | London | 3 | All Maps","protocol":17,"map":"cp_mountainlab","folder":"tf","game":"Team Fortress","app_id":440,"player_count":0,"max_players":24,"Bots":0,"server_type":"Dedicated","server_os":"Linux","password":true,"vac":true,"version":"7757534","steam_id":85568392924510192,"keywords":["cp","nocrits","nodmgspread","uncletopia"],"game_id":440,"stv_port":27036,"stv_name":"Uncletopia | London | 3 | All Maps | STV","players":null},{"server_id":321,"name":"Uncletopia | London | 4 | All Maps","name_short":"lon-4","host":"lon-1.uk.uncletopia.com","port":27045,"enabled":true,"region":"eu","cc":"gb","latitude":51.509865,"longitude":-0.118092,"reserved":0,"last_update":"0001-01-01T00:00:00Z","name_a2s":"Uncletopia | London | 4 | All Maps","protocol":17,"map":"pl_borneo","folder":"tf","game":"Team Fortress","app_id":440,"player_count":19,"max_players":24,"Bots":0,"server_type":"Dedicated","server_os":"Linux","password":true,"vac":true,"version":"7757534","steam_id":85568392924510193,"keywords":["nocrits","nodmgspread","payload","uncletopia"],"game_id":440,"stv_port":27046,"stv_name":"Uncletopia | London | 4 | All Maps | STV","players":[{"user_id":144,"name":"Zembis","steam_id":76561198008017918,"connected_time":482000000000,"state":"active","ping":101},{"user_id":135,"name":"Very bad :(","steam_id":76561198362116755,"connected_time":888000000000,"state":"active","ping":159},{"user_id":139,"name":"Slice :)","steam_id":76561198081699492,"connected_time":675000000000,"state":"active","ping":65},{"user_id":158,"name":"molly","steam_id":76561198029399151,"connected_time":35000000000,"state":"active","ping":64},{"user_id":145,"name":"NitPig","steam_id":76561198212991935,"connected_time":473000000000,"state":"active","ping":86},{"user_id":138,"name":"yer_nerd","steam_id":76561199435454093,"connected_time":832000000000,"state":"active","ping":129},{"user_id":125,"name":"betonomeshalka","steam_id":76561198304548337,"connected_time":2366000000000,"state":"active","ping":102},{"user_id":143,"name":"Jack","steam_id":76561198079575891,"connected_time":619000000000,"state":"active","ping":45},{"user_id":140,"name":"maakgis","steam_id":76561198851703804,"connected_time":664000000000,"state":"active","ping":121},{"user_id":146,"name":"s a i","steam_id":76561197970379754,"connected_time":442000000000,"state":"active","ping":60},{"user_id":147,"name":"Flare","steam_id":76561198039098320,"connected_time":424000000000,"state":"active","ping":52},{"user_id":151,"name":"YOUR MOM GAMING","steam_id":76561199429562693,"connected_time":345000000000,"state":"active","ping":73},{"user_id":149,"name":"scott steiners strongest warrio","steam_id":76561198148888622,"connected_time":395000000000,"state":"active","ping":60},{"user_id":150,"name":"need a dispenser here","steam_id":76561198060912995,"connected_time":388000000000,"state":"active","ping":121},{"user_id":156,"name":"Joel!","steam_id":76561198155422742,"connected_time":140000000000,"state":"active","ping":40},{"user_id":123,"name":"Ar|es","steam_id":76561198819160313,"connected_time":2555000000000,"state":"active","ping":91},{"user_id":153,"name":"wake me up before you go-go","steam_id":76561198179324075,"connected_time":323000000000,"state":"active","ping":62},{"user_id":154,"name":"Pachakamakk","steam_id":76561197989010401,"connected_time":320000000000,"state":"active","ping":52},{"user_id":155,"name":"Unculturedswine2","steam_id":76561199088187334,"connected_time":314000000000,"state":"active","ping":154}]},{"server_id":21,"name":"Uncletopia | London | 5 | All Maps","name_short":"lon-5","host":"lon-1.uk.uncletopia.com","port":27055,"enabled":true,"region":"eu","cc":"gb","latitude":51.509865,"longitude":-0.118092,"reserved":0,"last_update":"0001-01-01T00:00:00Z","name_a2s":"Uncletopia | London | 5 | All Maps","protocol":17,"map":"cp_altitude","folder":"tf","game":"Team Fortress","app_id":440,"player_count":0,"max_players":24,"Bots":0,"server_type":"Dedicated","server_os":"Linux","password":true,"vac":true,"version":"7757534","steam_id":85568392924742829,"keywords":["cp","nocrits","nodmgspread","uncletopia"],"game_id":440,"stv_port":27056,"stv_name":"Uncletopia | London | 5 | All Maps | STV","players":null},{"server_id":22,"name":"Uncletopia | London | 6 | All Maps","name_short":"lon-6","host":"lon-1.uk.uncletopia.com","port":27065,"enabled":true,"region":"eu","cc":"gb","latitude":51.509865,"longitude":-0.118092,"reserved":0,"last_update":"0001-01-01T00:00:00Z","name_a2s":"Uncletopia | London | 6 | All Maps","protocol":17,"map":"pl_pier","folder":"tf","game":"Team Fortress","app_id":440,"player_count":0,"max_players":24,"Bots":0,"server_type":"Dedicated","server_os":"Linux","password":true,"vac":true,"version":"7757534","steam_id":85568392924742830,"keywords":["nocrits","nodmgspread","payload","uncletopia"],"game_id":440,"stv_port":27066,"stv_name":"Uncletopia | London | 6 | All Maps | STV","players":null},{"server_id":40,"name":"Uncletopia | London | 7 | No Payload","name_short":"lon-7","host":"lon-1.uk.uncletopia.com","port":27075,"enabled":true,"region":"eu","cc":"gb","latitude":51.509865,"longitude":-0.118092,"reserved":0,"last_update":"0001-01-01T00:00:00Z","name_a2s":"Uncletopia | London | 7 | No Payload","protocol":17,"map":"koth_suijin","folder":"tf","game":"Team Fortress","app_id":440,"player_count":12,"max_players":24,"Bots":0,"server_type":"Dedicated","server_os":"Linux","password":true,"vac":true,"version":"7757534","steam_id":85568392924964314,"keywords":["cp","nocrits","nodmgspread","uncletopia"],"game_id":440,"stv_port":27076,"stv_name":"Uncletopia | London | 7 | No Payload | STV","players":[{"user_id":215,"name":"Killscor","steam_id":76561198036370785,"connected_time":344000000000,"state":"active","ping":140},{"user_id":212,"name":"IncrediblyTexan","steam_id":76561199159370663,"connected_time":690000000000,"state":"active","ping":83},{"user_id":216,"name":"avewszystkim","steam_id":76561199382492530,"connected_time":325000000000,"state":"active","ping":73},{"user_id":213,"name":".::[SerafeTTiN]::.","steam_id":76561198009471724,"connected_time":608000000000,"state":"active","ping":92},{"user_id":221,"name":"The","steam_id":76561198359311605,"connected_time":5000000000,"state":"spawning","ping":66},{"user_id":218,"name":"steve","steam_id":76561198335143890,"connected_time":131000000000,"state":"active","ping":48},{"user_id":219,"name":"daanvanliempt05","steam_id":76561198355398948,"connected_time":99000000000,"state":"active","ping":56},{"user_id":220,"name":"Neon","steam_id":76561198069049007,"connected_time":47000000000,"state":"active","ping":130},{"user_id":190,"name":"Espa√±aa","steam_id":76561198879587832,"connected_time":2236000000000,"state":"active","ping":80},{"user_id":167,"name":"1ggy","steam_id":76561199051285912,"connected_time":4583000000000,"state":"active","ping":90},{"user_id":165,"name":"gegit08","steam_id":76561199040010283,"connected_time":4594000000000,"state":"active","ping":99},{"user_id":156,"name":"2b","steam_id":76561199149307190,"connected_time":5240000000000,"state":"active","ping":81}]},{"server_id":41,"name":"Uncletopia | London | 8 | Community","name_short":"lon-8","host":"lon-1.uk.uncletopia.com","port":27085,"enabled":true,"region":"eu","cc":"gb","latitude":51.509865,"longitude":-0.118092,"reserved":0,"last_update":"0001-01-01T00:00:00Z","name_a2s":"Uncletopia | London | 8 | Community","protocol":17,"map":"workshop/pl_boundary_final1.ugc456799153","folder":"tf","game":"Team Fortress","app_id":440,"player_count":0,"max_players":24,"Bots":0,"server_type":"Dedicated","server_os":"Linux","password":true,"vac":true,"version":"7757534","steam_id":85568392924964315,"keywords":["nocrits","nodmgspread","payload","uncletopia"],"game_id":440,"stv_port":27086,"stv_name":"Uncletopia | London | 8 | Community | STV","players":null},{"server_id":300,"name":"Uncletopia | Montr√©al | 1 | All Maps","name_short":"mtl-1","host":"mtl-1.ca.uncletopia.com","port":27015,"enabled":true,"region":"us-east","cc":"ca","latitude":45.50889,"longitude":-73.56167,"reserved":0,"last_update":"0001-01-01T00:00:00Z","name_a2s":"Uncletopia | Montr√©al | 1 | All Maps","protocol":17,"map":"pl_upward","folder":"tf","game":"Team Fortress","app_id":440,"player_count":0,"max_players":24,"Bots":0,"server_type":"Dedicated","server_os":"Linux","password":true,"vac":true,"version":"7757534","steam_id":85568392924500087,"keywords":["nocrits","nodmgspread","payload","uncletopia"],"game_id":440,"stv_port":27016,"stv_name":"Uncletopia | Montr√©al | 1 | All Maps | STV","players":null},{"server_id":301,"name":"Uncletopia | Montr√©al | 2 | All Maps","name_short":"mtl-2","host":"mtl-1.ca.uncletopia.com","port":27025,"enabled":true,"region":"us-east","cc":"ca","latitude":45.50889,"longitude":-73.56167,"reserved":0,"last_update":"0001-01-01T00:00:00Z","name_a2s":"Uncletopia | Montr√©al | 2 | All Maps","protocol":17,"map":"pl_snowycoast","folder":"tf","game":"Team Fortress","app_id":440,"player_count":0,"max_players":24,"Bots":0,"server_type":"Dedicated","server_os":"Linux","password":true,"vac":true,"version":"7757534","steam_id":85568392924500088,"keywords":["nocrits","nodmgspread","payload","uncletopia"],"game_id":440,"stv_port":27026,"stv_name":"Uncletopia | Montr√©al | 2 | All Maps | STV","players":null},{"server_id":302,"name":"Uncletopia | Montr√©al | 3 | All Maps","name_short":"mtl-3","host":"mtl-1.ca.uncletopia.com","port":27035,"enabled":true,"region":"us-east","cc":"ca","latitude":45.50889,"longitude":-73.56167,"reserved":0,"last_update":"0001-01-01T00:00:00Z","name_a2s":"Uncletopia | Montr√©al | 3 | All Maps","protocol":17,"map":"pl_swiftwater_final1","folder":"tf","game":"Team Fortress","app_id":440,"player_count":0,"max_players":24,"Bots":0,"server_type":"Dedicated","server_os":"Linux","password":true,"vac":true,"version":"7757534","steam_id":85568392924500089,"keywords":["nocrits","nodmgspread","payload","uncletopia"],"game_id":440,"stv_port":27036,"stv_name":"Uncletopia | Montr√©al | 3 | All Maps | STV","players":null},{"server_id":303,"name":"Uncletopia | Montr√©al | 4 | No Payload","name_short":"mtl-4","host":"mtl-1.ca.uncletopia.com","port":27045,"enabled":true,"region":"us-east","cc":"ca","latitude":45.50889,"longitude":-73.56167,"reserved":0,"last_update":"0001-01-01T00:00:00Z","name_a2s":"Uncletopia | Montr√©al | 4 | No Payload","protocol":17,"map":"pl_pier","folder":"tf","game":"Team Fortress","app_id":440,"player_count":0,"max_players":24,"Bots":0,"server_type":"Dedicated","server_os":"Linux","password":true,"vac":true,"version":"7757534","steam_id":85568392924500090,"keywords":["nocrits","nodmgspread","payload","uncletopia"],"game_id":440,"stv_port":27046,"stv_name":"Uncletopia | Montr√©al | 4 | No Payload | STV","players":null},{"server_id":13,"name":"Uncletopia | New York City | 1 | All Maps","name_short":"nyc-1","host":"nyc-1.us.uncletopia.com","port":27015,"enabled":true,"region":"us-east","cc":"us","latitude":40.73061,"longitude":-73.93524,"reserved":0,"last_update":"0001-01-01T00:00:00Z","name_a2s":"Uncletopia | New York City | 1 | All Maps","protocol":17,"map":"cp_dustbowl","folder":"tf","game":"Team Fortress","app_id":440,"player_count":25,"max_players":24,"Bots":0,"server_type":"Dedicated","server_os":"Linux","password":true,"vac":true,"version":"7757534","steam_id":85568392924469993,"keywords":["cp","nocrits","nodmgspread","uncletopia"],"game_id":440,"stv_port":27016,"stv_name":"Uncletopia | New York City | 1 | All Maps | STV","players":[{"user_id":60,"name":"KnifeScope","steam_id":76561198057632106,"connected_time":98000000000,"state":"active","ping":88},{"user_id":47,"name":"Dalvarious","steam_id":76561198052771928,"connected_time":734000000000,"state":"active","ping":98},{"user_id":45,"name":"totally idiot","steam_id":76561199315167502,"connected_time":975000000000,"state":"active","ping":80},{"user_id":12,"name":"Mask","steam_id":76561198877649728,"connected_time":3126000000000,"state":"active","ping":155},{"user_id":46,"name":"if watermelons were human","steam_id":76561199044624946,"connected_time":822000000000,"state":"active","ping":50},{"user_id":15,"name":"Rat_king","steam_id":76561199465689129,"connected_time":2693000000000,"state":"active","ping":87},{"user_id":31,"name":"kimika","steam_id":76561198200002859,"connected_time":2166000000000,"state":"active","ping":47},{"user_id":17,"name":"‚ö¢","steam_id":76561199117637890,"connected_time":2673000000000,"state":"active","ping":66},{"user_id":19,"name":"(no monitor) ayylien","steam_id":76561198042127970,"connected_time":2578000000000,"state":"active","ping":74},{"user_id":53,"name":"_Hot_Fuzz_","steam_id":76561198160304886,"connected_time":275000000000,"state":"active","ping":71},{"user_id":21,"name":"WALTER WHITE BP2022.cc","steam_id":76561198072610805,"connected_time":2557000000000,"state":"active","ping":157},{"user_id":22,"name":"SPOOKY_","steam_id":76561198073395404,"connected_time":2540000000000,"state":"active","ping":141},{"user_id":40,"name":"dog","steam_id":76561197999666480,"connected_time":1763000000000,"state":"active","ping":111},{"user_id":25,"name":"Venefred","steam_id":76561198089064256,"connected_time":2332000000000,"state":"active","ping":176},{"user_id":28,"name":"Sputnuts","steam_id":76561198236857310,"connected_time":2215000000000,"state":"active","ping":42},{"user_id":54,"name":"abed","steam_id":76561198072856511,"connected_time":262000000000,"state":"active","ping":68},{"user_id":55,"name":"Lord Dragon","steam_id":76561198310300373,"connected_time":239000000000,"state":"active","ping":67},{"user_id":36,"name":"A Sun","steam_id":76561198142545364,"connected_time":2047000000000,"state":"active","ping":86},{"user_id":43,"name":"Dtweeb","steam_id":76561198861926065,"connected_time":1106000000000,"state":"active","ping":74},{"user_id":57,"name":"Spirosity","steam_id":76561198013485753,"connected_time":217000000000,"state":"active","ping":58},{"user_id":61,"name":"Desperate Lecture","steam_id":76561198241025840,"connected_time":86000000000,"state":"active","ping":62},{"user_id":58,"name":"Nassu","steam_id":76561198147367577,"connected_time":182000000000,"state":"connecting","ping":0},{"user_id":44,"name":"LegendaryMister151","steam_id":76561198064890524,"connected_time":1098000000000,"state":"active","ping":86},{"user_id":41,"name":"Shiro","steam_id":76561197979915878,"connected_time":1746000000000,"state":"active","ping":120},{"user_id":59,"name":"im the beef","steam_id":76561198069506128,"connected_time":174000000000,"state":"active","ping":67}]},{"server_id":14,"name":"Uncletopia | New York City | 2 | All Maps","name_short":"nyc-2","host":"nyc-1.us.uncletopia.com","port":27025,"enabled":true,"region":"us-east","cc":"us","latitude":40.73061,"longitude":-73.93524,"reserved":0,"last_update":"0001-01-01T00:00:00Z","name_a2s":"Uncletopia | New York City | 2 | All Maps","protocol":17,"map":"pl_badwater","folder":"tf","game":"Team Fortress","app_id":440,"player_count":3,"max_players":24,"Bots":0,"server_type":"Dedicated","server_os":"Linux","password":true,"vac":true,"version":"7757534","steam_id":85568392924469994,"keywords":["nocrits","nodmgspread","payload","uncletopia"],"game_id":440,"stv_port":27026,"stv_name":"Uncletopia | New York City | 2 | All Maps | STV","players":[{"user_id":3,"name":"M16A1Sauce","steam_id":76561199058049384,"connected_time":1197000000000,"state":"active","ping":57},{"user_id":4,"name":"Plague Doctor Moose","steam_id":76561199027129554,"connected_time":768000000000,"state":"active","ping":55},{"user_id":5,"name":"A wee lad (F2P)","steam_id":76561199180569385,"connected_time":668000000000,"state":"active","ping":50}]},{"server_id":15,"name":"Uncletopia | New York City | 3 | Stopwatch Beta","name_short":"nyc-3","host":"nyc-1.us.uncletopia.com","port":27035,"enabled":true,"region":"us-east","cc":"us","latitude":40.73061,"longitude":-73.93524,"reserved":0,"last_update":"0001-01-01T00:00:00Z","name_a2s":"Uncletopia | New York City | 3 | Stopwatch Beta","protocol":17,"map":"pl_upward","folder":"tf","game":"Team Fortress","app_id":440,"player_count":0,"max_players":24,"Bots":0,"server_type":"Dedicated","server_os":"Linux","password":true,"vac":true,"version":"7757534","steam_id":85568392924742820,"keywords":["nocrits","nodmgspread","payload","uncletopia"],"game_id":440,"stv_port":27036,"stv_name":"Uncletopia | New York City | 3 | Stopwatch Beta | STV","players":null},{"server_id":16,"name":"Uncletopia | New York City | 4 | Community","name_short":"nyc-4","host":"nyc-1.us.uncletopia.com","port":27045,"enabled":true,"region":"us-east","cc":"us","latitude":40.73061,"longitude":-73.93524,"reserved":0,"last_update":"0001-01-01T00:00:00Z","name_a2s":"Uncletopia | New York City | 4 | Community","protocol":17,"map":"pl_swiftwater_final1","folder":"tf","game":"Team Fortress","app_id":440,"player_count":0,"max_players":24,"Bots":0,"server_type":"Dedicated","server_os":"Linux","password":true,"vac":true,"version":"7757534","steam_id":85568392924742821,"keywords":["nocrits","nodmgspread","payload","uncletopia"],"game_id":440,"stv_port":27046,"stv_name":"Uncletopia | New York City | 4 | Community | STV","players":null},{"server_id":142,"name":"Uncletopia | S√£o Paulo | 1 | All Maps","name_short":"sao-1","host":"sao-1.br.uncletopia.com","port":27015,"enabled":true,"region":"sa","cc":"br","latitude":-23.533773,"longitude":-46.62529,"reserved":0,"last_update":"0001-01-01T00:00:00Z","name_a2s":"Uncletopia | S√£o Paulo | 1 | All Maps","protocol":17,"map":"pl_snowycoast","folder":"tf","game":"Team Fortress","app_id":440,"player_count":0,"max_players":24,"Bots":0,"server_type":"Dedicated","server_os":"Linux","password":true,"vac":true,"version":"7757534","steam_id":85568392924469996,"keywords":["nocrits","nodmgspread","payload","uncletopia"],"game_id":440,"stv_port":27016,"stv_name":"Uncletopia | S√£o Paulo | 1 | All Maps | STV","players":null},{"server_id":143,"name":"Uncletopia | S√£o Paulo | 2 | All Maps","name_short":"sao-2","host":"sao-2.br.uncletopia.com","port":27015,"enabled":true,"region":"sa","cc":"br","latitude":-23.533773,"longitude":-46.62529,"reserved":0,"last_update":"0001-01-01T00:00:00Z","name_a2s":"Uncletopia | S√£o Paulo | 2 | All Maps","protocol":17,"map":"pl_borneo","folder":"tf","game":"Team Fortress","app_id":440,"player_count":0,"max_players":24,"Bots":0,"server_type":"Dedicated","server_os":"Linux","password":true,"vac":true,"version":"7757534","steam_id":85568392924485349,"keywords":["nocrits","nodmgspread","payload","uncletopia"],"game_id":440,"stv_port":27016,"stv_name":"Uncletopia | S√£o Paulo | 2 | All Maps | STV","players":null},{"server_id":7,"name":"Uncletopia | Seattle | 1 | All Maps","name_short":"sea-1","host":"sea-1.us.uncletopia.com","port":27015,"enabled":true,"region":"us-west","cc":"us","latitude":47.608013,"longitude":-122.33517,"reserved":0,"last_update":"0001-01-01T00:00:00Z","name_a2s":"Uncletopia | Seattle | 1 | All Maps","protocol":17,"map":"pl_pier","folder":"tf","game":"Team Fortress","app_id":440,"player_count":24,"max_players":24,"Bots":0,"server_type":"Dedicated","server_os":"Linux","password":true,"vac":true,"version":"7757534","steam_id":85568392924469997,"keywords":["nocrits","nodmgspread","payload","uncletopia"],"game_id":440,"stv_port":27016,"stv_name":"Uncletopia | Seattle | 1 | All Maps | STV","players":[{"user_id":50,"name":"lol","steam_id":76561198026491738,"connected_time":1955000000000,"state":"active","ping":81},{"user_id":60,"name":"god approaches","steam_id":76561198081617990,"connected_time":506000000000,"state":"active","ping":118},{"user_id":53,"name":"touka","steam_id":76561198171521806,"connected_time":1770000000000,"state":"active","ping":62},{"user_id":57,"name":"Braindawg","steam_id":76561197988531991,"connected_time":1252000000000,"state":"active","ping":144},{"user_id":7,"name":"i really like this dog :)","steam_id":76561198882404753,"connected_time":3171000000000,"state":"active","ping":100},{"user_id":52,"name":" Ä. ö…û.","steam_id":76561198029580420,"connected_time":1937000000000,"state":"active","ping":166},{"user_id":41,"name":"Crusty_Breads","steam_id":76561198864874443,"connected_time":2337000000000,"state":"active","ping":55},{"user_id":54,"name":"DeadlyDora","steam_id":76561198356453866,"connected_time":1673000000000,"state":"active","ping":131},{"user_id":38,"name":"monke12344","steam_id":76561199274757725,"connected_time":2507000000000,"state":"active","ping":113},{"user_id":39,"name":"mann","steam_id":76561199406261605,"connected_time":2502000000000,"state":"active","ping":107},{"user_id":40,"name":"Mint Jelly","steam_id":76561197991286751,"connected_time":2420000000000,"state":"active","ping":92},{"user_id":31,"name":"Goodra Is The Best Dragon Type","steam_id":76561199194702127,"connected_time":2986000000000,"state":"active","ping":120},{"user_id":16,"name":"Ghost","steam_id":76561198426370628,"connected_time":3144000000000,"state":"active","ping":112},{"user_id":42,"name":"Mythical Lag","steam_id":76561198347031281,"connected_time":2265000000000,"state":"active","ping":113},{"user_id":55,"name":"xTSxbob T.S.H.A","steam_id":76561198130440530,"connected_time":1644000000000,"state":"active","ping":99},{"user_id":46,"name":"Purery","steam_id":76561198064314781,"connected_time":2204000000000,"state":"active","ping":61},{"user_id":47,"name":"Snai","steam_id":76561198986892383,"connected_time":2188000000000,"state":"active","ping":100},{"user_id":34,"name":"Dry","steam_id":76561198124135416,"connected_time":2777000000000,"state":"active","ping":62},{"user_id":58,"name":"Fedsmoker","steam_id":76561198047372130,"connected_time":1040000000000,"state":"active","ping":149},{"user_id":59,"name":"Romo","steam_id":76561198243101572,"connected_time":845000000000,"state":"active","ping":127},{"user_id":26,"name":"EJ","steam_id":76561198126224944,"connected_time":3080000000000,"state":"active","ping":75},{"user_id":44,"name":"trinqette (she/her)","steam_id":76561198119543621,"connected_time":2261000000000,"state":"active","ping":97},{"user_id":30,"name":"Monster","steam_id":76561198189429665,"connected_time":3046000000000,"state":"active","ping":119},{"user_id":29,"name":"lycoris","steam_id":76561199113965768,"connected_time":3062000000000,"state":"active","ping":140}]},{"server_id":119,"name":"Uncletopia | Seattle | 2 | All Maps","name_short":"sea-2","host":"sea-1.us.uncletopia.com","port":27025,"enabled":true,"region":"us-west","cc":"us","latitude":47.608013,"longitude":-122.33517,"reserved":0,"last_update":"0001-01-01T00:00:00Z","name_a2s":"Uncletopia | Seattle | 2 | All Maps","protocol":17,"map":"koth_lakeside_final","folder":"tf","game":"Team Fortress","app_id":440,"player_count":0,"max_players":24,"Bots":0,"server_type":"Dedicated","server_os":"Linux","password":true,"vac":true,"version":"7757534","steam_id":85568392924469998,"keywords":["cp","nocrits","nodmgspread","uncletopia"],"game_id":440,"stv_port":27026,"stv_name":"Uncletopia | Seattle | 2 | All Maps | STV","players":null},{"server_id":406,"name":"Uncletopia | Seattle | 3 | Stopwatch Beta","name_short":"sea-3","host":"sea-1.us.uncletopia.com","port":27035,"enabled":true,"region":"us-west","cc":"us","latitude":47.608013,"longitude":-122.33517,"reserved":0,"last_update":"0001-01-01T00:00:00Z","name_a2s":"Uncletopia | Seattle | 3 | Stopwatch Beta","protocol":17,"map":"cp_dustbowl","folder":"tf","game":"Team Fortress","app_id":440,"player_count":0,"max_players":24,"Bots":0,"server_type":"Dedicated","server_os":"Linux","password":true,"vac":true,"version":"7757534","steam_id":85568392924515217,"keywords":["cp","nocrits","nodmgspread","uncletopia"],"game_id":440,"stv_port":27036,"stv_name":"Uncletopia | Seattle | 3 | Stopwatch Beta | STV","players":null},{"server_id":17,"name":"Uncletopia | San Francisco | 1 | All Maps","name_short":"sfo-1","host":"sfo-1.us.uncletopia.com","port":27015,"enabled":true,"region":"us-west","cc":"us","latitude":37.77397,"longitude":-122.4313,"reserved":0,"last_update":"0001-01-01T00:00:00Z","name_a2s":"Uncletopia | San Francisco | 1 | All Maps","protocol":17,"map":"pl_borneo","folder":"tf","game":"Team Fortress","app_id":440,"player_count":14,"max_players":24,"Bots":0,"server_type":"Dedicated","server_os":"Linux","password":true,"vac":true,"version":"7757534","steam_id":85568392924469999,"keywords":["nocrits","nodmgspread","payload","uncletopia"],"game_id":440,"stv_port":27016,"stv_name":"Uncletopia | San Francisco | 1 | All Maps | STV","players":[{"user_id":7,"name":"403Blunky","steam_id":76561199005023878,"connected_time":3149000000000,"state":"active","ping":78},{"user_id":51,"name":"Smug Pug","steam_id":76561198059423334,"connected_time":659000000000,"state":"active","ping":92},{"user_id":56,"name":"Little Linguine","steam_id":76561198816986370,"connected_time":44000000000,"state":"active","ping":78},{"user_id":29,"name":"Cheese Miller","steam_id":76561199451933673,"connected_time":1940000000000,"state":"active","ping":68},{"user_id":55,"name":"In Da Ocean","steam_id":76561198084012705,"connected_time":135000000000,"state":"active","ping":68},{"user_id":44,"name":"happy camper","steam_id":76561198209813328,"connected_time":1007000000000,"state":"active","ping":77},{"user_id":12,"name":"mycoolcucumber","steam_id":76561198177586211,"connected_time":3076000000000,"state":"active","ping":105},{"user_id":52,"name":"CrackedSanity","steam_id":76561198279841251,"connected_time":338000000000,"state":"active","ping":49},{"user_id":53,"name":"Trash Man","steam_id":76561198870155636,"connected_time":309000000000,"state":"active","ping":76},{"user_id":58,"name":"Soull","steam_id":76561199188088471,"connected_time":22000000000,"state":"active","ping":131},{"user_id":54,"name":"LAzar M0Nke","steam_id":76561199083035892,"connected_time":302000000000,"state":"active","ping":53},{"user_id":59,"name":"your–¥—Ä—É–≥","steam_id":76561198317927140,"connected_time":6000000000,"state":"spawning","ping":88},{"user_id":34,"name":"badhorse4444","steam_id":76561198979008266,"connected_time":1431000000000,"state":"active","ping":137},{"user_id":42,"name":"FlarbaDoodle","steam_id":76561198176879990,"connected_time":1216000000000,"state":"active","ping":116}]},{"server_id":18,"name":"Uncletopia | San Francisco | 2 | All Maps","name_short":"sfo-2","host":"sfo-1.us.uncletopia.com","port":27025,"enabled":true,"region":"us-west","cc":"us","latitude":37.77397,"longitude":-122.4313,"reserved":0,"last_update":"0001-01-01T00:00:00Z","name_a2s":"Uncletopia | San Francisco | 2 | All Maps","protocol":17,"map":"koth_highpass","folder":"tf","game":"Team Fortress","app_id":440,"player_count":0,"max_players":24,"Bots":0,"server_type":"Dedicated","server_os":"Linux","password":true,"vac":true,"version":"7757534","steam_id":85568392924470000,"keywords":["cp","nocrits","nodmgspread","uncletopia"],"game_id":440,"stv_port":27026,"stv_name":"Uncletopia | San Francisco | 2 | All Maps | STV","players":null},{"server_id":19,"name":"Uncletopia | San Francisco | 3 | Stopwatch Beta","name_short":"sfo-3","host":"sfo-1.us.uncletopia.com","port":27035,"enabled":true,"region":"us-west","cc":"us","latitude":37.77397,"longitude":-122.4313,"reserved":0,"last_update":"0001-01-01T00:00:00Z","name_a2s":"Uncletopia | San Francisco | 3 | Stopwatch Beta","protocol":17,"map":"koth_lakeside_final","folder":"tf","game":"Team Fortress","app_id":440,"player_count":0,"max_players":24,"Bots":0,"server_type":"Dedicated","server_os":"Linux","password":true,"vac":true,"version":"7757534","steam_id":85568392924742824,"keywords":["cp","nocrits","nodmgspread","uncletopia"],"game_id":440,"stv_port":27036,"stv_name":"Uncletopia | San Francisco | 3 | Stopwatch Beta | STV","players":null},{"server_id":20,"name":"Uncletopia | San Francisco | 4 | Community","name_short":"sfo-4","host":"sfo-1.us.uncletopia.com","port":27045,"enabled":true,"region":"us-west","cc":"us","latitude":37.77397,"longitude":-122.4313,"reserved":0,"last_update":"0001-01-01T00:00:00Z","name_a2s":"Uncletopia | San Francisco | 4 | Community","protocol":17,"map":"cp_altitude","folder":"tf","game":"Team Fortress","app_id":440,"player_count":0,"max_players":24,"Bots":0,"server_type":"Dedicated","server_os":"Linux","password":true,"vac":true,"version":"7757534","steam_id":85568392924742826,"keywords":["cp","nocrits","nodmgspread","uncletopia"],"game_id":440,"stv_port":27046,"stv_name":"Uncletopia | San Francisco | 4 | Community | STV","players":null},{"server_id":141,"name":"Uncletopia | Sydney | 1 | All Maps","name_short":"syd-1","host":"syd-1.au.uncletopia.com","port":27015,"enabled":true,"region":"au","cc":"au","latitude":-33.865143,"longitude":151.2099,"reserved":0,"last_update":"0001-01-01T00:00:00Z","name_a2s":"Uncletopia | Sydney | 1 | All Maps","protocol":17,"map":"cp_dustbowl","folder":"tf","game":"Team Fortress","app_id":440,"player_count":20,"max_players":24,"Bots":0,"server_type":"Dedicated","server_os":"Linux","password":true,"vac":true,"version":"7757534","steam_id":85568392924470001,"keywords":["cp","nocrits","nodmgspread","uncletopia"],"game_id":440,"stv_port":27016,"stv_name":"Uncletopia | Sydney | 1 | All Maps | STV","players":[{"user_id":527,"name":"Editor_Billy","steam_id":76561199165608946,"connected_time":2365000000000,"state":"active","ping":59},{"user_id":510,"name":"hive","steam_id":76561199099744527,"connected_time":3209000000000,"state":"active","ping":53},{"user_id":509,"name":"Bobby Wilkinson","steam_id":76561198054985347,"connected_time":3304000000000,"state":"active","ping":56},{"user_id":511,"name":"tinkaton from pokemon gen 9 UU","steam_id":76561198079345240,"connected_time":3174000000000,"state":"active","ping":58},{"user_id":561,"name":"Winter Contingency","steam_id":76561198182437450,"connected_time":334000000000,"state":"active","ping":89},{"user_id":537,"name":"Hyak","steam_id":76561198175700625,"connected_time":1625000000000,"state":"active","ping":104},{"user_id":546,"name":"Assbepis","steam_id":76561198064203806,"connected_time":1088000000000,"state":"active","ping":107},{"user_id":555,"name":"BobbyFlobby","steam_id":76561198341487196,"connected_time":479000000000,"state":"active","ping":99},{"user_id":538,"name":"L.ion","steam_id":76561198261172910,"connected_time":1520000000000,"state":"active","ping":49},{"user_id":565,"name":"mysttt","steam_id":76561198052402134,"connected_time":45000000000,"state":"active","ping":178},{"user_id":560,"name":"hush","steam_id":76561198348492407,"connected_time":392000000000,"state":"active","ping":57},{"user_id":563,"name":"Heather","steam_id":76561198167304923,"connected_time":223000000000,"state":"active","ping":68},{"user_id":549,"name":"Spoozie!","steam_id":76561198063227046,"connected_time":821000000000,"state":"active","ping":97},{"user_id":548,"name":"Buruguduystunstugudunstuy","steam_id":76561198114715333,"connected_time":975000000000,"state":"active","ping":52},{"user_id":483,"name":"Foxtonnes","steam_id":76561198007628373,"connected_time":4744000000000,"state":"active","ping":51},{"user_id":507,"name":"Sover blw.tf","steam_id":76561198136347837,"connected_time":3367000000000,"state":"active","ping":131},{"user_id":525,"name":"The Chinese Government","steam_id":76561198149289267,"connected_time":2681000000000,"state":"active","ping":73},{"user_id":551,"name":"KillerKobi","steam_id":76561198011677015,"connected_time":665000000000,"state":"active","ping":111},{"user_id":471,"name":"BruceWillis235","steam_id":76561198884324029,"connected_time":6010000000000,"state":"active","ping":89},{"user_id":380,"name":"Morterkai","steam_id":76561198048247068,"connected_time":13155000000000,"state":"active","ping":60}]},{"server_id":123,"name":"Uncletopia | Sydney | 2 | All Maps","name_short":"syd-2","host":"syd-1.au.uncletopia.com","port":27025,"enabled":true,"region":"au","cc":"au","latitude":-33.865143,"longitude":151.2099,"reserved":0,"last_update":"0001-01-01T00:00:00Z","name_a2s":"Uncletopia | Sydney | 2 | All Maps","protocol":17,"map":"koth_viaduct","folder":"tf","game":"Team Fortress","app_id":440,"player_count":0,"max_players":24,"Bots":0,"server_type":"Dedicated","server_os":"Linux","password":true,"vac":true,"version":"7757534","steam_id":85568392924470002,"keywords":["cp","nocrits","nodmgspread","uncletopia"],"game_id":440,"stv_port":27026,"stv_name":"Uncletopia | Sydney | 2 | All Maps | STV","players":null},{"server_id":395,"name":"Uncletopia | Sydney | 3 | All Maps","name_short":"syd-3","host":"syd-1.au.uncletopia.com","port":27035,"enabled":true,"region":"au","cc":"au","latitude":-33.865143,"longitude":151.2099,"reserved":0,"last_update":"0001-01-01T00:00:00Z","name_a2s":"Uncletopia | Sydney | 3 | All Maps","protocol":17,"map":"cp_snakewater_final1","folder":"tf","game":"Team Fortress","app_id":440,"player_count":0,"max_players":24,"Bots":0,"server_type":"Dedicated","server_os":"Linux","password":true,"vac":true,"version":"7757534","steam_id":85568392925194467,"keywords":["cp","nocrits","nodmgspread","uncletopia"],"game_id":440,"stv_port":27036,"stv_name":"Uncletopia | Sydney | 3 | All Maps | STV","players":null},{"server_id":396,"name":"Uncletopia | Sydney | 4 | All Maps","name_short":"syd-4","host":"syd-1.au.uncletopia.com","port":27045,"enabled":true,"region":"au","cc":"au","latitude":-33.865143,"longitude":151.2099,"reserved":0,"last_update":"0001-01-01T00:00:00Z","name_a2s":"Uncletopia | Sydney | 4 | All Maps","protocol":17,"map":"koth_highpass","folder":"tf","game":"Team Fortress","app_id":440,"player_count":0,"max_players":24,"Bots":0,"server_type":"Dedicated","server_os":"Linux","password":true,"vac":true,"version":"7757534","steam_id":85568392925397958,"keywords":["cp","nocrits","nodmgspread","uncletopia"],"game_id":440,"stv_port":27046,"stv_name":"Uncletopia | Sydney | 4 | All Maps | STV","players":null},{"server_id":58,"name":"Uncletopia | Sydney | 5 | Stopwatch Beta","name_short":"syd-5","host":"syd-1.au.uncletopia.com","port":27055,"enabled":true,"region":"au","cc":"au","latitude":-33.865143,"longitude":151.2099,"reserved":0,"last_update":"0001-01-01T00:00:00Z","name_a2s":"Uncletopia | Sydney | 5 | Stopwatch Beta","protocol":17,"map":"workshop/pl_vigil_rc9.ugc1266210012","folder":"tf","game":"Team Fortress","app_id":440,"player_count":0,"max_players":24,"Bots":0,"server_type":"Dedicated","server_os":"Linux","password":true,"vac":true,"version":"7757534","steam_id":85568392925397959,"keywords":["nocrits","nodmgspread","payload","uncletopia"],"game_id":440,"stv_port":27056,"stv_name":"Uncletopia | Sydney | 5 | Stopwatch Beta | STV","players":null},{"server_id":59,"name":"Uncletopia | Sydney | 6 | Community","name_short":"syd-6","host":"syd-1.au.uncletopia.com","port":27065,"enabled":true,"region":"au","cc":"au","latitude":-33.865143,"longitude":151.2099,"reserved":0,"last_update":"0001-01-01T00:00:00Z","name_a2s":"Uncletopia | Sydney | 6 | Community","protocol":17,"map":"cp_snakewater_final1","folder":"tf","game":"Team Fortress","app_id":440,"player_count":0,"max_players":24,"Bots":0,"server_type":"Dedicated","server_os":"Linux","password":true,"vac":true,"version":"7757534","steam_id":85568392925397960,"keywords":["cp","nocrits","nodmgspread","uncletopia"],"game_id":440,"stv_port":27066,"stv_name":"Uncletopia | Sydney | 6 | Community | STV","players":null},{"server_id":49,"name":"Uncletopia | Warsaw | 1 | All Maps","name_short":"waw-1","host":"waw-1.pl.uncletopia.com","port":27015,"enabled":true,"region":"eu","cc":"pl","latitude":52.2297,"longitude":21.017532,"reserved":0,"last_update":"0001-01-01T00:00:00Z","name_a2s":"","protocol":0,"map":"","folder":"","game":"","app_id":0,"player_count":0,"max_players":0,"Bots":0,"server_type":"","server_os":"","password":false,"vac":false,"version":"","steam_id":0,"keywords":null,"game_id":0,"stv_port":0,"stv_name":"","players":null},{"server_id":50,"name":"Uncletopia | Warsaw | 2 | All Maps","name_short":"waw-2","host":"waw-1.pl.uncletopia.com","port":27025,"enabled":true,"region":"eu","cc":"pl","latitude":52.2297,"longitude":21.017532,"reserved":0,"last_update":"0001-01-01T00:00:00Z","name_a2s":"Uncletopia | Warsaw | 2 | All Maps","protocol":17,"map":"koth_highpass","folder":"tf","game":"Team Fortress","app_id":440,"player_count":1,"max_players":24,"Bots":0,"server_type":"Dedicated","server_os":"Linux","password":true,"vac":true,"version":"7757534","steam_id":85568392925397851,"keywords":["cp","nocrits","nodmgspread","uncletopia"],"game_id":440,"stv_port":27026,"stv_name":"Uncletopia | Warsaw | 2 | All Maps | STV","players":[{"user_id":220,"name":"ja","steam_id":76561199228540618,"connected_time":108000000000,"state":"active","ping":57}]},{"server_id":51,"name":"Uncletopia | Warsaw | 3 | All Maps","name_short":"waw-3","host":"waw-1.pl.uncletopia.com","port":27035,"enabled":true,"region":"eu","cc":"pl","latitude":52.2297,"longitude":21.017532,"reserved":0,"last_update":"0001-01-01T00:00:00Z","name_a2s":"Uncletopia | Warsaw | 3 | All Maps","protocol":17,"map":"pl_badwater","folder":"tf","game":"Team Fortress","app_id":440,"player_count":0,"max_players":24,"Bots":0,"server_type":"Dedicated","server_os":"Linux","password":true,"vac":true,"version":"7757534","steam_id":85568392925397852,"keywords":["nocrits","nodmgspread","payload","uncletopia"],"game_id":440,"stv_port":27036,"stv_name":"Uncletopia | Warsaw | 3 | All Maps | STV","players":null},{"server_id":52,"name":"Uncletopia | Warsaw | 4 | All Maps","name_short":"waw-4","host":"waw-1.pl.uncletopia.com","port":27045,"enabled":true,"region":"eu","cc":"pl","latitude":52.2297,"longitude":21.017532,"reserved":0,"last_update":"0001-01-01T00:00:00Z","name_a2s":"Uncletopia | Warsaw | 4 | All Maps","protocol":17,"map":"koth_nucleus","folder":"tf","game":"Team Fortress","app_id":440,"player_count":1,"max_players":24,"Bots":0,"server_type":"Dedicated","server_os":"Linux","password":true,"vac":true,"version":"7757534","steam_id":85568392925397853,"keywords":["cp","nocrits","nodmgspread","uncletopia"],"game_id":440,"stv_port":27046,"stv_name":"Uncletopia | Warsaw | 4 | All Maps | STV","players":[{"user_id":6,"name":"tummaluppo taivaltaja","steam_id":76561198093458326,"connected_time":512000000000,"state":"active","ping":72}]},{"server_id":53,"name":"Uncletopia | Warsaw | 5 | Stopwatch Beta","name_short":"waw-5","host":"waw-1.pl.uncletopia.com","port":27055,"enabled":true,"region":"eu","cc":"pl","latitude":52.2297,"longitude":21.017532,"reserved":0,"last_update":"0001-01-01T00:00:00Z","name_a2s":"Uncletopia | Warsaw | 5 | Stopwatch Beta","protocol":17,"map":"pl_borneo","folder":"tf","game":"Team Fortress","app_id":440,"player_count":1,"max_players":24,"Bots":0,"server_type":"Dedicated","server_os":"Linux","password":true,"vac":true,"version":"7757534","steam_id":85568392925397854,"keywords":["nocrits","nodmgspread","payload","uncletopia"],"game_id":440,"stv_port":27056,"stv_name":"Uncletopia | Warsaw | 5 | Stopwatch Beta | STV","players":[{"user_id":3,"name":"Slanik_Bab","steam_id":76561198389460812,"connected_time":51000000000,"state":"spawning","ping":139}]},{"server_id":54,"name":"Uncletopia | Warsaw | 6 | Community","name_short":"waw-6","host":"waw-1.pl.uncletopia.com","port":27065,"enabled":true,"region":"eu","cc":"pl","latitude":52.2297,"longitude":21.017532,"reserved":0,"last_update":"0001-01-01T00:00:00Z","name_a2s":"Uncletopia | Warsaw | 6 | Community","protocol":17,"map":"koth_lakeside_final","folder":"tf","game":"Team Fortress","app_id":440,"player_count":0,"max_players":24,"Bots":0,"server_type":"Dedicated","server_os":"Linux","password":true,"vac":true,"version":"7757534","steam_id":85568392925397856,"keywords":["cp","nocrits","nodmgspread","uncletopia"],"game_id":440,"stv_port":27066,"stv_name":"Uncletopia | Warsaw | 6 | Community | STV","players":null}]}