{"status":true,"message":"","result":[{"server_id":9,"name":"Uncletopia | Atlanta | 1 | All Maps","name_short":"atl-1","host":"atl-1.us.uncletopia.com","port":27015,"enabled":true,"region":"us-east","cc":"us","latitude":33.753746,"longitude":-84.38633,"reserved":0,"last_update":"0001-01-01T00:00:00Z","name_a2s":"Uncletopia | Atlanta | 1 | All Maps","protocol":17,"map":"cp_process_final","folder":"tf","game":"Team Fortress","app_id":440,"player_count":24,"max_players":24,"Bots":0,"server_type":"Dedicated","server_os":"Linux","password":true,"vac":true,"version":"7961495","steam_id":85568392924469982,"keywords":["cp","nocrits","nodmgspread","uncletopia"],"game_id":440,"stv_port":27016,"stv_name":"Uncletopia | Atlanta | 1 | All Maps | STV","players":[{"user_id":97,"name":"ash","steam_id":76561198127890645,"connected_time":623000000000,"state":"active","ping":70},{"user_id":98,"name":"Heathcliff","steam_id":76561198044288534,"connected_time":601000000000,"state":"active","ping":73},{"user_id":91,"name":"DevSlashUser","steam_id":76561198805884205,"connected_time":897000000000,"state":"active","ping":76},{"user_id":99,"name":"DualiTea","steam_id":76561198081733870,"connected_time":598000000000,"state":"active","ping":71},{"user_id":87,"name":"sansa musa","steam_id":76561198163723555,"connected_time":1454000000000,"state":"active","ping":63},{"user_id":79,"name":"joyeuxnoelle","steam_id":76561198062423120,"connected_time":2244000000000,"state":"active","ping":56},{"user_id":94,"name":"Erchius (she/her)","steam_id":76561198256892300,"connected_time":762000000000,"state":"active","ping":45},{"user_id":90,"name":"Gotta Move That Gear Up","steam_id":76561197993467034,"connected_time":1111000000000,"state":"active","ping":65},{"user_id":44,"name":"I need to reach my friend!","steam_id":76561198982810452,"connected_time":3736000000000,"state":"active","ping":79},{"user_id":100,"name":"Window Licker #pride","steam_id":76561198386717007,"connected_time":595000000000,"state":"active","ping":75},{"user_id":47,"name":"Alpha","steam_id":76561199482290132,"connected_time":3376000000000,"state":"active","ping":68},{"user_id":101,"name":"The jesus guy (FRNK)","steam_id":76561198237997622,"connected_time":579000000000,"state":"active","ping":163},{"user_id":106,"name":"HALF","steam_id":76561199032347375,"connected_time":33000000000,"state":"active","ping":51},{"user_id":50,"name":"Jesus Burgess","steam_id":76561199343316814,"connected_time":3214000000000,"state":"active","ping":46},{"user_id":56,"name":"robes","steam_id":76561198350747953,"connected_time":3013000000000,"state":"active","ping":82},{"user_id":85,"name":"Skit","steam_id":76561198032675272,"connected_time":1535000000000,"state":"active","ping":80},{"user_id":92,"name":"icyy","steam_id":76561198968001329,"connected_time":826000000000,"state":"active","ping":45},{"user_id":105,"name":"Voodo133","steam_id":76561198042670351,"connected_time":369000000000,"state":"active","ping":68},{"user_id":95,"name":"why","steam_id":76561199059732212,"connected_time":658000000000,"state":"active","ping":56},{"user_id":103,"name":"Travorski","steam_id":76561198072493142,"connected_time":546000000000,"state":"active","ping":90},{"user_id":71,"name":"BMoney","steam_id":76561198799389030,"connected_time":2637000000000,"state":"active","ping":91},{"user_id":80,"name":"Electroid","steam_id":76561199092263960,"connected_time":1793000000000,"state":"active","ping":45},{"user_id":108,"name":"mr poop","steam_id":76561199195196632,"connected_time":18000000000,"state":"spawning","ping":582},{"user_id":77,"name":"Decolour","steam_id":76561199045608372,"connected_time":2438000000000,"state":"active","ping":67}]},{"server_id":104,"name":"Uncletopia | Atlanta | 2 | All Maps","name_short":"atl-2","host":"atl-1.us.uncletopia.com","port":27025,"enabled":true,"region":"us-east","cc":"us","latitude":33.753746,"longitude":-84.38633,"reserved":0,"last_update":"0001-01-01T00:00:00Z","name_a2s":"Uncletopia | Atlanta | 2 | All Maps","protocol":17,"map":"koth_lakeside_final","folder":"tf","game":"Team Fortress","app_id":440,"player_count":0,"max_players":24,"Bots":0,"server_type":"Dedicated","server_os":"Linux","password":true,"vac":true,"version":"7961495","steam_id":85568392924469983,"keywords":["cp","nocrits","nodmgspread","uncletopia"],"game_id":440,"stv_port":27026,"stv_name":"Uncletopia | Atlanta | 2 | All Maps | STV","players":null},{"server_id":400,"name":"Uncletopia | Atlanta | 3 | Stopwatch","name_short":"atl-3","host":"atl-1.us.uncletopia.com","port":27035,"enabled":true,"region":"us-east","cc":"us","latitude":33.753746,"longitude":-84.38633,"reserved":0,"last_update":"0001-01-01T00:00:00Z","name_a2s":"Uncletopia | Atlanta | 3 | Stopwatch","protocol":17,"map":"koth_lakeside_final","folder":"tf","game":"Team Fortress","app_id":440,"player_count":22,"max_players":24,"Bots":0,"server_type":"Dedicated","server_os":"Linux","password":true,"vac":true,"version":"7961495","steam_id":85568392924515187,"keywords":["cp","nocrits","nodmgspread","uncletopia"],"game_id":440,"stv_port":27036,"stv_name":"Uncletopia | Atlanta | 3 | Stopwatch | STV","players":[{"user_id":84,"name":"IamLightning","steam_id":76561198193881559,"connected_time":1819000000000,"state":"active","ping":45},{"user_id":104,"name":"Cuttle's Fish","steam_id":76561198280483257,"connected_time":941000000000,"state":"active","ping":75},{"user_id":110,"name":"ArchmageF","steam_id":76561197992246851,"connected_time":564000000000,"state":"active","ping":110},{"user_id":111,"name":"Kisari15","steam_id":76561198204362701,"connected_time":318000000000,"state":"active","ping":139},{"user_id":113,"name":"Samsung smart fridge","steam_id":76561198181743090,"connected_time":257000000000,"state":"active","ping":75},{"user_id":112,"name":"Sunshine","steam_id":76561198885528098,"connected_time":310000000000,"state":"active","ping":75},{"user_id":114,"name":"DinkyDoink","steam_id":76561198240026004,"connected_time":256000000000,"state":"active","ping":64},{"user_id":115,"name":"TerracottaP","steam_id":76561199402983168,"connected_time":204000000000,"state":"active","ping":53},{"user_id":71,"name":"rat","steam_id":76561198272622003,"connected_time":3230000000000,"state":"active","ping":59},{"user_id":105,"name":"Helmet Hands","steam_id":76561197961141994,"connected_time":913000000000,"state":"active","ping":105},{"user_id":73,"name":"d=√(x₁ – x₂)² + (y₁","steam_id":76561199472976531,"connected_time":3101000000000,"state":"active","ping":47},{"user_id":93,"name":"Shaunymon","steam_id":76561198089311104,"connected_time":1359000000000,"state":"active","ping":90},{"user_id":116,"name":"Sushi Cookies","steam_id":76561199008634102,"connected_time":68000000000,"state":"active","ping":88},{"user_id":81,"name":"THE GIGGLER","steam_id":76561199275294643,"connected_time":2374000000000,"state":"active","ping":73},{"user_id":90,"name":"DawnNannas","steam_id":76561198042915117,"connected_time":1386000000000,"state":"active","ping":116},{"user_id":86,"name":"tabascomilk","steam_id":76561198355094896,"connected_time":1722000000000,"state":"active","ping":59},{"user_id":91,"name":"Ginger Jesus","steam_id":76561198052386458,"connected_time":1380000000000,"state":"active","ping":69},{"user_id":92,"name":"wepins","steam_id":76561198929781615,"connected_time":1380000000000,"state":"active","ping":79},{"user_id":99,"name":"Grant.MacDonald1963","steam_id":76561198038566239,"connected_time":1198000000000,"state":"active","ping":60},{"user_id":75,"name":"nik","steam_id":76561198062270123,"connected_time":2957000000000,"state":"active","ping":60},{"user_id":100,"name":"Spoobs Gohstly","steam_id":76561198042097530,"connected_time":1177000000000,"state":"active","ping":74},{"user_id":109,"name":"Genderneutron","steam_id":76561199022773775,"connected_time":622000000000,"state":"active","ping":83}]},{"server_id":401,"name":"Uncletopia | Atlanta | 4 | Community","name_short":"atl-4","host":"atl-1.us.uncletopia.com","port":27045,"enabled":true,"region":"us-east","cc":"us","latitude":33.753746,"longitude":-84.38633,"reserved":0,"last_update":"0001-01-01T00:00:00Z","name_a2s":"Uncletopia | Atlanta | 4 | Community","protocol":17,"map":"workshop/pl_vigil_rc10.ugc1266210012","folder":"tf","game":"Team Fortress","app_id":440,"player_count":0,"max_players":24,"Bots":0,"server_type":"Dedicated","server_os":"Linux","password":true,"vac":true,"version":"7961495","steam_id":85568392924515188,"keywords":["nocrits","nodmgspread","payload","uncletopia"],"game_id":440,"stv_port":27046,"stv_name":"Uncletopia | Atlanta | 4 | Community | STV","players":null},{"server_id":2,"name":"Uncletopia | Chicago | 1 | All Maps","name_short":"chi-1","host":"chi-1.us.uncletopia.com","port":27015,"enabled":true,"region":"us-central","cc":"us","latitude":41.881832,"longitude":-87.62318,"reserved":0,"last_update":"0001-01-01T00:00:00Z","name_a2s":"Uncletopia | Chicago | 1 | All Maps","protocol":17,"map":"pl_frontier_final","folder":"tf","game":"Team Fortress","app_id":440,"player_count":22,"max_players":24,"Bots":0,"server_type":"Dedicated","server_os":"Linux","password":true,"vac":true,"version":"7961495","steam_id":85568392924469984,"keywords":["nocrits","nodmgspread","payload","uncletopia"],"game_id":440,"stv_port":27016,"stv_name":"Uncletopia | Chicago | 1 | All Maps | STV","players":[{"user_id":221,"name":"The Heart","steam_id":76561198271979288,"connected_time":1697000000000,"state":"active","ping":48},{"user_id":251,"name":"donatello ツ","steam_id":76561198091157081,"connected_time":197000000000,"state":"active","ping":52},{"user_id":218,"name":"Stacks63bs","steam_id":76561198067797130,"connected_time":1764000000000,"state":"active","ping":74},{"user_id":224,"name":"Srg-Waffle","steam_id":76561198204555116,"connected_time":1643000000000,"state":"active","ping":79},{"user_id":241,"name":"Mr. Onion","steam_id":76561198153165950,"connected_time":634000000000,"state":"active","ping":72},{"user_id":212,"name":"Whoopsy","steam_id":76561198128103529,"connected_time":2493000000000,"state":"active","ping":69},{"user_id":240,"name":"Pierre Bourne","steam_id":76561199500265332,"connected_time":650000000000,"state":"active","ping":71},{"user_id":223,"name":"Thebossdude22","steam_id":76561198125202109,"connected_time":1675000000000,"state":"active","ping":78},{"user_id":252,"name":"sock","steam_id":76561199117597830,"connected_time":123000000000,"state":"spawning","ping":74},{"user_id":230,"name":"Hasbug","steam_id":76561198306085208,"connected_time":1476000000000,"state":"active","ping":65},{"user_id":217,"name":"Distraction","steam_id":76561199445895882,"connected_time":2112000000000,"state":"active","ping":82},{"user_id":253,"name":"H0wlr","steam_id":76561198012332824,"connected_time":81000000000,"state":"active","ping":59},{"user_id":208,"name":"Eomy","steam_id":76561198297783627,"connected_time":2964000000000,"state":"active","ping":62},{"user_id":254,"name":"fronk","steam_id":76561198065918918,"connected_time":60000000000,"state":"active","ping":75},{"user_id":124,"name":"hearthian","steam_id":76561198113235260,"connected_time":9531000000000,"state":"active","ping":90},{"user_id":211,"name":"finn the human","steam_id":76561198072592880,"connected_time":2607000000000,"state":"active","ping":51},{"user_id":213,"name":"Imposter","steam_id":76561199043966809,"connected_time":2412000000000,"state":"active","ping":71},{"user_id":198,"name":"Ranger","steam_id":76561198064096654,"connected_time":3896000000000,"state":"active","ping":52},{"user_id":255,"name":"Lord.nata69","steam_id":76561198239933094,"connected_time":46000000000,"state":"active","ping":58},{"user_id":229,"name":"The Pootis'd Berd","steam_id":76561198141903490,"connected_time":1508000000000,"state":"active","ping":94},{"user_id":215,"name":"tf2 moment","steam_id":76561199054660228,"connected_time":2331000000000,"state":"active","ping":42},{"user_id":237,"name":"Candy Sparkles","steam_id":76561198126871264,"connected_time":787000000000,"state":"active","ping":74}]},{"server_id":106,"name":"Uncletopia | Chicago | 2 | All Maps","name_short":"chi-2","host":"chi-1.us.uncletopia.com","port":27025,"enabled":true,"region":"us-central","cc":"us","latitude":41.881832,"longitude":-87.62318,"reserved":0,"last_update":"0001-01-01T00:00:00Z","name_a2s":"Uncletopia | Chicago | 2 | All Maps","protocol":17,"map":"pl_snowycoast","folder":"tf","game":"Team Fortress","app_id":440,"player_count":24,"max_players":24,"Bots":0,"server_type":"Dedicated","server_os":"Linux","password":true,"vac":true,"version":"7961495","steam_id":85568392924469985,"keywords":["nocrits","nodmgspread","payload","uncletopia"],"game_id":440,"stv_port":27026,"stv_name":"Uncletopia | Chicago | 2 | All Maps | STV","players":[{"user_id":322,"name":"-_-","steam_id":76561198302976864,"connected_time":367000000000,"state":"active","ping":77},{"user_id":301,"name":"Espresso_Depresso","steam_id":76561198396290407,"connected_time":1192000000000,"state":"active","ping":65},{"user_id":320,"name":"Ozwald","steam_id":76561198125241562,"connected_time":448000000000,"state":"active","ping":56},{"user_id":259,"name":"Nathan","steam_id":76561198127924646,"connected_time":4759000000000,"state":"active","ping":77},{"user_id":324,"name":"jamalbob33","steam_id":76561198410281331,"connected_time":151000000000,"state":"active","ping":81},{"user_id":315,"name":"name09136","steam_id":76561198805443280,"connected_time":736000000000,"state":"active","ping":117},{"user_id":325,"name":"Dr. Quack","steam_id":76561198260753684,"connected_time":38000000000,"state":"active","ping":43},{"user_id":287,"name":"kicks","steam_id":76561199228854923,"connected_time":2578000000000,"state":"active","ping":38},{"user_id":318,"name":"Just a Good Friend","steam_id":76561198140052403,"connected_time":551000000000,"state":"active","ping":83},{"user_id":283,"name":"cheech","steam_id":76561198105391757,"connected_time":2961000000000,"state":"active","ping":75},{"user_id":321,"name":"Waroslav","steam_id":76561198116604050,"connected_time":391000000000,"state":"active","ping":141},{"user_id":289,"name":"Menachem","steam_id":76561198041226420,"connected_time":2472000000000,"state":"active","ping":51},{"user_id":303,"name":"Trips","steam_id":76561198054581597,"connected_time":1119000000000,"state":"active","ping":96},{"user_id":323,"name":"ApertureB","steam_id":76561198019141379,"connected_time":352000000000,"state":"active","ping":51},{"user_id":319,"name":"ADRIEN BRODY","steam_id":76561198009299473,"connected_time":510000000000,"state":"active","ping":69},{"user_id":311,"name":"need a dispenser here","steam_id":76561198060912995,"connected_time":884000000000,"state":"active","ping":60},{"user_id":316,"name":"Cthulwho?","steam_id":76561198165550810,"connected_time":731000000000,"state":"active","ping":62},{"user_id":258,"name":"kirby7","steam_id":76561199167006749,"connected_time":5326000000000,"state":"active","ping":48},{"user_id":204,"name":"Chromatic Bliss","steam_id":76561198252604816,"connected_time":9105000000000,"state":"active","ping":72},{"user_id":317,"name":"nefarious criminal","steam_id":76561198077506415,"connected_time":705000000000,"state":"active","ping":62},{"user_id":281,"name":"Dragus","steam_id":76561198032967285,"connected_time":3196000000000,"state":"active","ping":53},{"user_id":284,"name":"Order for Delivery","steam_id":76561198070850386,"connected_time":2947000000000,"state":"active","ping":86},{"user_id":312,"name":"BonesJohnson","steam_id":76561198799169951,"connected_time":860000000000,"state":"active","ping":131},{"user_id":313,"name":"Gary Budussy","steam_id":76561197969793969,"connected_time":810000000000,"state":"active","ping":56}]},{"server_id":402,"name":"Uncletopia | Chicago | 3 | All Maps","name_short":"chi-3","host":"chi-1.us.uncletopia.com","port":27035,"enabled":true,"region":"us-central","cc":"us","latitude":41.881832,"longitude":-87.62318,"reserved":0,"last_update":"0001-01-01T00:00:00Z","name_a2s":"Uncletopia | Chicago | 3 | All Maps","protocol":17,"map":"plr_pipeline","folder":"tf","game":"Team Fortress","app_id":440,"player_count":0,"max_players":24,"Bots":0,"server_type":"Dedicated","server_os":"Linux","password":true,"vac":true,"version":"7961495","steam_id":85568392924515191,"keywords":["nocrits","nodmgspread","payload","uncletopia"],"game_id":440,"stv_port":27036,"stv_name":"Uncletopia | Chicago | 3 | All Maps | STV","players":null},{"server_id":403,"name":"Uncletopia | Chicago | 4 | All Maps","name_short":"chi-4","host":"chi-1.us.uncletopia.com","port":27045,"enabled":true,"region":"us-central","cc":"us","latitude":41.881832,"longitude":-87.62318,"reserved":0,"last_update":"0001-01-01T00:00:00Z","name_a2s":"Uncletopia | Chicago | 4 | All Maps","protocol":17,"map":"pl_frontier_final","folder":"tf","game":"Team Fortress","app_id":440,"player_count":24,"max_players":24,"Bots":0,"server_type":"Dedicated","server_os":"Linux","password":true,"vac":true,"version":"7961495","steam_id":85568392924515193,"keywords":["nocrits","nodmgspread","payload","uncletopia"],"game_id":440,"stv_port":27046,"stv_name":"Uncletopia | Chicago | 4 | All Maps | STV","players":[{"user_id":150,"name":"vivian tf2","steam_id":76561198059229612,"connected_time":4625000000000,"state":"active","ping":54},{"user_id":166,"name":"Chai","steam_id":76561198044327873,"connected_time":3088000000000,"state":"active","ping":59},{"user_id":156,"name":"Donkski","steam_id":76561198406895347,"connected_time":3789000000000,"state":"active","ping":69},{"user_id":180,"name":"castro","steam_id":76561198834358497,"connected_time":2002000000000,"state":"active","ping":69},{"user_id":181,"name":"deionel","steam_id":76561199180417279,"connected_time":1978000000000,"state":"active","ping":79},{"user_id":140,"name":"mister slippery","steam_id":76561198057076267,"connected_time":4867000000000,"state":"active","ping":72},{"user_id":192,"name":"ThatGamingKiwi","steam_id":76561199170522237,"connected_time":276000000000,"state":"active","ping":68},{"user_id":167,"name":"bikerkid207","steam_id":76561198390782783,"connected_time":3012000000000,"state":"active","ping":60},{"user_id":139,"name":"[MADTAS] The Madnetastrophe","steam_id":76561197995620232,"connected_time":4871000000000,"state":"active","ping":53},{"user_id":182,"name":"Sharkwark","steam_id":76561199218566982,"connected_time":1933000000000,"state":"active","ping":56},{"user_id":185,"name":"Dr. Han","steam_id":76561198811130843,"connected_time":1832000000000,"state":"active","ping":63},{"user_id":187,"name":"bleach65","steam_id":76561198115270571,"connected_time":1667000000000,"state":"active","ping":86},{"user_id":147,"name":"room temp IQ","steam_id":76561198018724712,"connected_time":4786000000000,"state":"active","ping":48},{"user_id":119,"name":"Rornir","steam_id":76561198081829615,"connected_time":6496000000000,"state":"active","ping":42},{"user_id":190,"name":"Killerfish","steam_id":76561198322065245,"connected_time":852000000000,"state":"active","ping":71},{"user_id":188,"name":"Malarkey","steam_id":76561198844473584,"connected_time":1609000000000,"state":"active","ping":52},{"user_id":168,"name":"lcy13vv","steam_id":76561197995997446,"connected_time":3010000000000,"state":"active","ping":52},{"user_id":177,"name":"The Hose on Upward","steam_id":76561197965092192,"connected_time":2044000000000,"state":"active","ping":74},{"user_id":191,"name":"Verstummeln (Grizzled TF2 Vet)","steam_id":76561198037660039,"connected_time":648000000000,"state":"active","ping":88},{"user_id":184,"name":"the pest","steam_id":76561198826298849,"connected_time":1891000000000,"state":"active","ping":80},{"user_id":137,"name":"airy","steam_id":76561198174632198,"connected_time":4890000000000,"state":"active","ping":75},{"user_id":175,"name":"Baron von Whoopsie","steam_id":76561197996691013,"connected_time":2168000000000,"state":"active","ping":66},{"user_id":189,"name":"Swedish Crowbar","steam_id":76561199105488936,"connected_time":1490000000000,"state":"active","ping":136},{"user_id":90,"name":"Xx_gam3rberg_xX","steam_id":76561199035781025,"connected_time":8315000000000,"state":"active","ping":97}]},{"server_id":36,"name":"Uncletopia | Chicago | 5 | All Maps","name_short":"chi-5","host":"chi-2.us.uncletopia.com","port":27015,"enabled":true,"region":"us-central","cc":"us","latitude":41.881832,"longitude":-87.62318,"reserved":0,"last_update":"0001-01-01T00:00:00Z","name_a2s":"Uncletopia | Chicago | 5 | All Maps","protocol":17,"map":"pl_borneo","folder":"tf","game":"Team Fortress","app_id":440,"player_count":0,"max_players":24,"Bots":0,"server_type":"Dedicated","server_os":"Linux","password":true,"vac":true,"version":"7961495","steam_id":85568392924866362,"keywords":["nocrits","nodmgspread","payload","uncletopia"],"game_id":440,"stv_port":27016,"stv_name":"Uncletopia | Chicago | 5 | All Maps | STV","players":null},{"server_id":37,"name":"Uncletopia | Chicago | 6 | All Maps","name_short":"chi-6","host":"chi-2.us.uncletopia.com","port":27025,"enabled":true,"region":"us-central","cc":"us","latitude":41.881832,"longitude":-87.62318,"reserved":0,"last_update":"0001-01-01T00:00:00Z","name_a2s":"Uncletopia | Chicago | 6 | All Maps","protocol":17,"map":"pl_frontier_final","folder":"tf","game":"Team Fortress","app_id":440,"player_count":0,"max_players":24,"Bots":0,"server_type":"Dedicated","server_os":"Linux","password":true,"vac":true,"version":"7961495","steam_id":85568392924866363,"keywords":["nocrits","nodmgspread","payload","uncletopia"],"game_id":440,"stv_port":27026,"stv_name":"Uncletopia | Chicago | 6 | All Maps | STV","players":null},{"server_id":38,"name":"Uncletopia | Chicago | 7 | Stopwatch","name_short":"chi-7","host":"chi-2.us.uncletopia.com","port":27035,"enabled":true,"region":"us-central","cc":"us","latitude":41.881832,"longitude":-87.62318,"reserved":0,"last_update":"0001-01-01T00:00:00Z","name_a2s":"Uncletopia | Chicago | 7 | Stopwatch","protocol":17,"map":"cp_snakewater_final1","folder":"tf","game":"Team Fortress","app_id":440,"player_count":0,"max_players":24,"Bots":0,"server_type":"Dedicated","server_os":"Linux","password":true,"vac":true,"version":"7961495","steam_id":85568392924866364,"keywords":["cp","nocrits","nodmgspread","uncletopia"],"game_id":440,"stv_port":27036,"stv_name":"Uncletopia | Chicago | 7 | Stopwatch | STV","players":null},{"server_id":39,"name":"Uncletopia | Chicago | 8 | Community","name_short":"chi-8","host":"chi-2.us.uncletopia.com","port":27045,"enabled":true,"region":"us-central","cc":"us","latitude":41.881832,"longitude":-87.62318,"reserved":0,"last_update":"0001-01-01T00:00:00Z","name_a2s":"Uncletopia | Chicago | 8 | Community","protocol":17,"map":"workshop/koth_slaughter_rc1.ugc1712845210","folder":"tf","game":"Team Fortress","app_id":440,"player_count":0,"max_players":24,"Bots":0,"server_type":"Dedicated","server_os":"Linux","password":true,"vac":true,"version":"7961495","steam_id":85568392924866365,"keywords":["cp","nocrits","nodmgspread","uncletopia"],"game_id":440,"stv_port":27046,"stv_name":"Uncletopia | Chicago | 8 | Community | STV","players":null},{"server_id":8,"name":"Uncletopia | Dallas | 1 | All Maps","name_short":"dal-1","host":"dal-1.us.uncletopia.com","port":27015,"enabled":true,"region":"us-central","cc":"us","latitude":32.779167,"longitude":-96.80889,"reserved":0,"last_update":"0001-01-01T00:00:00Z","name_a2s":"Uncletopia | Dallas | 1 | All Maps","protocol":17,"map":"pl_badwater","folder":"tf","game":"Team Fortress","app_id":440,"player_count":23,"max_players":24,"Bots":0,"server_type":"Dedicated","server_os":"Linux","password":true,"vac":true,"version":"7961495","steam_id":85568392924469986,"keywords":["nocrits","nodmgspread","payload","uncletopia"],"game_id":440,"stv_port":27016,"stv_name":"Uncletopia | Dallas | 1 | All Maps | STV","players":[{"user_id":291,"name":"$$","steam_id":76561198090531755,"connected_time":296000000000,"state":"active","ping":45},{"user_id":292,"name":"vitriol","steam_id":76561199159038358,"connected_time":290000000000,"state":"active","ping":109},{"user_id":240,"name":"William Lovett","steam_id":76561197991063996,"connected_time":4081000000000,"state":"active","ping":104},{"user_id":269,"name":"New\u0026Fresh!","steam_id":76561199209236950,"connected_time":2277000000000,"state":"active","ping":67},{"user_id":293,"name":"Dogvan","steam_id":76561198176708643,"connected_time":243000000000,"state":"active","ping":44},{"user_id":285,"name":"GKumo","steam_id":76561198023175868,"connected_time":731000000000,"state":"active","ping":76},{"user_id":294,"name":"leumas","steam_id":76561198240408540,"connected_time":203000000000,"state":"active","ping":90},{"user_id":289,"name":"super99coolman","steam_id":76561199249081889,"connected_time":487000000000,"state":"active","ping":101},{"user_id":216,"name":"Lee Surge (fishtank.live)","steam_id":76561198202272884,"connected_time":5472000000000,"state":"active","ping":85},{"user_id":286,"name":"baunter","steam_id":76561198024311871,"connected_time":715000000000,"state":"active","ping":74},{"user_id":295,"name":"Sex Monster","steam_id":76561199426920744,"connected_time":194000000000,"state":"active","ping":186},{"user_id":261,"name":"JustAnotherHuman","steam_id":76561199018122924,"connected_time":2861000000000,"state":"active","ping":111},{"user_id":282,"name":"TheColdChiliPepper","steam_id":76561199027155811,"connected_time":881000000000,"state":"active","ping":82},{"user_id":298,"name":"Cooki","steam_id":76561198051705314,"connected_time":173000000000,"state":"active","ping":142},{"user_id":299,"name":"Charlie","steam_id":76561198798127908,"connected_time":136000000000,"state":"active","ping":82},{"user_id":300,"name":"Stiffy Magnum","steam_id":76561198000036722,"connected_time":126000000000,"state":"active","ping":70},{"user_id":287,"name":"Mr. Fluffy Penguins","steam_id":76561198172538149,"connected_time":676000000000,"state":"active","ping":79},{"user_id":280,"name":"Glühbirne","steam_id":76561198189278869,"connected_time":1043000000000,"state":"active","ping":88},{"user_id":288,"name":"pablonchas","steam_id":76561198825922892,"connected_time":557000000000,"state":"active","ping":69},{"user_id":276,"name":"pickup truck with huge honks","steam_id":76561198111447214,"connected_time":2108000000000,"state":"active","ping":85},{"user_id":279,"name":"Young Sheldon Tik-Tok Clip","steam_id":76561198253927199,"connected_time":1049000000000,"state":"active","ping":160},{"user_id":303,"name":"MiniatureTrumpet","steam_id":76561198807533157,"connected_time":100000000000,"state":"active","ping":79},{"user_id":214,"name":"Lazsathel","steam_id":76561198008743002,"connected_time":5624000000000,"state":"active","ping":172}]},{"server_id":108,"name":"Uncletopia | Dallas | 2 | All Maps","name_short":"dal-2","host":"dal-1.us.uncletopia.com","port":27025,"enabled":true,"region":"us-central","cc":"us","latitude":32.779167,"longitude":-96.80889,"reserved":0,"last_update":"0001-01-01T00:00:00Z","name_a2s":"Uncletopia | Dallas | 2 | All Maps","protocol":17,"map":"koth_lakeside_final","folder":"tf","game":"Team Fortress","app_id":440,"player_count":0,"max_players":24,"Bots":0,"server_type":"Dedicated","server_os":"Linux","password":true,"vac":true,"version":"7961495","steam_id":85568392924469988,"keywords":["cp","nocrits","nodmgspread","uncletopia"],"game_id":440,"stv_port":27026,"stv_name":"Uncletopia | Dallas | 2 | All Maps | STV","players":null},{"server_id":404,"name":"Uncletopia | Dallas | 3 | All Maps","name_short":"dal-3","host":"dal-1.us.uncletopia.com","port":27035,"enabled":true,"region":"us-central","cc":"us","latitude":32.779167,"longitude":-96.80889,"reserved":0,"last_update":"0001-01-01T00:00:00Z","name_a2s":"Uncletopia | Dallas | 3 | All Maps","protocol":17,"map":"cp_coldfront","folder":"tf","game":"Team Fortress","app_id":440,"player_count":0,"max_players":24,"Bots":0,"server_type":"Dedicated","server_os":"Linux","password":true,"vac":true,"version":"7961495","steam_id":85568392924515219,"keywords":["cp","nocrits","nodmgspread","uncletopia"],"game_id":440,"stv_port":27036,"stv_name":"Uncletopia | Dallas | 3 | All Maps | STV","players":null},{"server_id":405,"name":"Uncletopia | Dallas | 4 | Community","name_short":"dal-4","host":"dal-1.us.uncletopia.com","port":27045,"enabled":true,"region":"us-central","cc":"us","latitude":32.779167,"longitude":-96.80889,"reserved":0,"last_update":"0001-01-01T00:00:00Z","name_a2s":"Uncletopia | Dallas | 4 | Community","protocol":17,"map":"workshop/koth_synthetic_rc6a.ugc1549817316","folder":"tf","game":"Team Fortress","app_id":440,"player_count":0,"max_players":24,"Bots":0,"server_type":"Dedicated","server_os":"Linux","password":true,"vac":true,"version":"7961495","steam_id":85568392924515220,"keywords":["cp","nocrits","nodmgspread","uncletopia"],"game_id":440,"stv_port":27046,"stv_name":"Uncletopia | Dallas | 4 | Community | STV","players":null},{"server_id":5,"name":"Uncletopia | Frankfurt | 1 | All Maps","name_short":"frk-1","host":"frk-1.de.uncletopia.com","port":27015,"enabled":true,"region":"eu","cc":"de","latitude":50.110924,"longitude":8.682127,"reserved":0,"last_update":"0001-01-01T00:00:00Z","name_a2s":"Uncletopia | Frankfurt | 1 | All Maps","protocol":17,"map":"pl_upward","folder":"tf","game":"Team Fortress","app_id":440,"player_count":24,"max_players":24,"Bots":0,"server_type":"Dedicated","server_os":"Linux","password":true,"vac":true,"version":"7961495","steam_id":85568392924469989,"keywords":["nocrits","nodmgspread","payload","uncletopia"],"game_id":440,"stv_port":27016,"stv_name":"Uncletopia | Frankfurt | 1 | All Maps | STV","players":[{"user_id":469,"name":"Amandus","steam_id":76561198036281079,"connected_time":1225000000000,"state":"active","ping":58},{"user_id":483,"name":"Thundergodstonelate","steam_id":76561198040893623,"connected_time":567000000000,"state":"active","ping":83},{"user_id":479,"name":"G r e y","steam_id":76561198073954578,"connected_time":977000000000,"state":"active","ping":78},{"user_id":470,"name":"hasky","steam_id":76561197986052798,"connected_time":1193000000000,"state":"active","ping":60},{"user_id":463,"name":"LadyMissfit","steam_id":76561198042236349,"connected_time":1649000000000,"state":"active","ping":60},{"user_id":422,"name":"Cencut","steam_id":76561198989449047,"connected_time":4132000000000,"state":"active","ping":119},{"user_id":484,"name":"SaintBonkers","steam_id":76561198043219263,"connected_time":488000000000,"state":"active","ping":60},{"user_id":435,"name":"Luuk","steam_id":76561198088266026,"connected_time":2974000000000,"state":"active","ping":84},{"user_id":471,"name":"sneaky snake","steam_id":76561198279965791,"connected_time":1171000000000,"state":"active","ping":97},{"user_id":442,"name":"Banana khan (F2P)","steam_id":76561198992414056,"connected_time":2668000000000,"state":"active","ping":191},{"user_id":472,"name":"blazevicaziz","steam_id":76561199413017544,"connected_time":1148000000000,"state":"active","ping":84},{"user_id":468,"name":"Yonio","steam_id":76561198408428132,"connected_time":1245000000000,"state":"active","ping":76},{"user_id":485,"name":"Brian","steam_id":76561198077756206,"connected_time":367000000000,"state":"active","ping":54},{"user_id":487,"name":"404nonamefound","steam_id":76561198354682115,"connected_time":22000000000,"state":"active","ping":47},{"user_id":473,"name":"VolcanicArts","steam_id":76561198063453246,"connected_time":1137000000000,"state":"active","ping":70},{"user_id":480,"name":"Nymph","steam_id":76561198042801329,"connected_time":971000000000,"state":"active","ping":45},{"user_id":453,"name":"Pestilence","steam_id":76561198140938904,"connected_time":2291000000000,"state":"active","ping":57},{"user_id":448,"name":"CriticalFeesh","steam_id":76561199208877293,"connected_time":2592000000000,"state":"active","ping":72},{"user_id":482,"name":"Gay Truck","steam_id":76561198123648967,"connected_time":634000000000,"state":"active","ping":301},{"user_id":477,"name":"Seven","steam_id":76561199010273376,"connected_time":1050000000000,"state":"active","ping":48},{"user_id":474,"name":"SaladFromTheHell","steam_id":76561199017153269,"connected_time":1105000000000,"state":"active","ping":77},{"user_id":486,"name":"Igor_","steam_id":76561198930843769,"connected_time":184000000000,"state":"active","ping":93},{"user_id":476,"name":"MoistMomMauler","steam_id":76561198069359049,"connected_time":1075000000000,"state":"active","ping":81},{"user_id":314,"name":"Gordon Birdman","steam_id":76561198013382324,"connected_time":10765000000000,"state":"active","ping":65}]},{"server_id":110,"name":"Uncletopia | Frankfurt | 2 | All Maps","name_short":"frk-2","host":"frk-1.de.uncletopia.com","port":27025,"enabled":true,"region":"eu","cc":"de","latitude":50.110924,"longitude":8.682127,"reserved":0,"last_update":"0001-01-01T00:00:00Z","name_a2s":"Uncletopia | Frankfurt | 2 | All Maps","protocol":17,"map":"pl_frontier_final","folder":"tf","game":"Team Fortress","app_id":440,"player_count":24,"max_players":24,"Bots":0,"server_type":"Dedicated","server_os":"Linux","password":true,"vac":true,"version":"7961495","steam_id":85568392924469990,"keywords":["nocrits","nodmgspread","payload","uncletopia"],"game_id":440,"stv_port":27026,"stv_name":"Uncletopia | Frankfurt | 2 | All Maps | STV","players":[{"user_id":497,"name":"Flying skyhigh","steam_id":76561198372971096,"connected_time":650000000000,"state":"active","ping":75},{"user_id":498,"name":"DrakeTheDuck","steam_id":76561199182279601,"connected_time":568000000000,"state":"active","ping":83},{"user_id":465,"name":"Anus01","steam_id":76561198101884780,"connected_time":3081000000000,"state":"active","ping":71},{"user_id":472,"name":"joachym","steam_id":76561198428579761,"connected_time":2653000000000,"state":"active","ping":51},{"user_id":499,"name":"dabomb gaming","steam_id":76561198350475019,"connected_time":556000000000,"state":"active","ping":60},{"user_id":496,"name":"y0stErCix","steam_id":76561198219698192,"connected_time":742000000000,"state":"active","ping":65},{"user_id":491,"name":"bongo","steam_id":76561198015489880,"connected_time":811000000000,"state":"active","ping":45},{"user_id":500,"name":"leonardini.w","steam_id":76561199097963071,"connected_time":532000000000,"state":"active","ping":481},{"user_id":360,"name":"Arthur rail","steam_id":76561199187229518,"connected_time":8886000000000,"state":"active","ping":99},{"user_id":483,"name":"Na'vi Misato (by popular demand","steam_id":76561198130860698,"connected_time":1654000000000,"state":"active","ping":55},{"user_id":458,"name":"KiteNock","steam_id":76561198160622922,"connected_time":3633000000000,"state":"active","ping":62},{"user_id":477,"name":"SimplyJarvis","steam_id":76561198000654287,"connected_time":2506000000000,"state":"active","ping":72},{"user_id":509,"name":"tafelpoot","steam_id":76561198080036024,"connected_time":195000000000,"state":"active","ping":87},{"user_id":488,"name":"finbar","steam_id":76561198056812396,"connected_time":1276000000000,"state":"active","ping":77},{"user_id":417,"name":"tiamat","steam_id":76561198116027948,"connected_time":6216000000000,"state":"active","ping":67},{"user_id":468,"name":"gagalak","steam_id":76561198089979108,"connected_time":2974000000000,"state":"active","ping":94},{"user_id":506,"name":"High-Key Cat","steam_id":76561198012929012,"connected_time":245000000000,"state":"active","ping":57},{"user_id":485,"name":"Zephyr","steam_id":76561199116936359,"connected_time":1493000000000,"state":"active","ping":74},{"user_id":502,"name":"Ixsus\u003c3","steam_id":76561198094756869,"connected_time":505000000000,"state":"active","ping":57},{"user_id":453,"name":"dongy","steam_id":76561198050319619,"connected_time":4158000000000,"state":"active","ping":45},{"user_id":505,"name":"yush","steam_id":76561198121688934,"connected_time":337000000000,"state":"active","ping":84},{"user_id":507,"name":"Zazou","steam_id":76561198028076362,"connected_time":241000000000,"state":"active","ping":56},{"user_id":508,"name":"Ace","steam_id":76561198279398145,"connected_time":239000000000,"state":"active","ping":69},{"user_id":384,"name":"Alexandr","steam_id":76561198415594381,"connected_time":8292000000000,"state":"active","ping":49}]},{"server_id":308,"name":"Uncletopia | Frankfurt | 3 | All Maps","name_short":"frk-3","host":"frk-1.de.uncletopia.com","port":27035,"enabled":true,"region":"eu","cc":"de","latitude":50.110924,"longitude":8.682127,"reserved":0,"last_update":"0001-01-01T00:00:00Z","name_a2s":"Uncletopia | Frankfurt | 3 | All Maps","protocol":17,"map":"koth_lakeside_final","folder":"tf","game":"Team Fortress","app_id":440,"player_count":0,"max_players":24,"Bots":0,"server_type":"Dedicated","server_os":"Linux","password":true,"vac":true,"version":"7961495","steam_id":85568392924504274,"keywords":["cp","nocrits","nodmgspread","uncletopia"],"game_id":440,"stv_port":27036,"stv_name":"Uncletopia | Frankfurt | 3 | All Maps | STV","players":null},{"server_id":309,"name":"Uncletopia | Frankfurt | 4 | All Maps","name_short":"frk-4","host":"frk-1.de.uncletopia.com","port":27045,"enabled":true,"region":"eu","cc":"de","latitude":50.110924,"longitude":8.682127,"reserved":0,"last_update":"0001-01-01T00:00:00Z","name_a2s":"Uncletopia | Frankfurt | 4 | All Maps","protocol":17,"map":"pl_borneo","folder":"tf","game":"Team Fortress","app_id":440,"player_count":24,"max_players":24,"Bots":0,"server_type":"Dedicated","server_os":"Linux","password":true,"vac":true,"version":"7961495","steam_id":85568392924504275,"keywords":["nocrits","nodmgspread","payload","uncletopia"],"game_id":440,"stv_port":27046,"stv_name":"Uncletopia | Frankfurt | 4 | All Maps | STV","players":[{"user_id":322,"name":"Skyrider of Spaceways","steam_id":76561197991678236,"connected_time":876000000000,"state":"active","ping":132},{"user_id":315,"name":"chillrend_morphs_high_lod6","steam_id":76561198452963141,"connected_time":1142000000000,"state":"active","ping":74},{"user_id":300,"name":"bella","steam_id":76561198367634211,"connected_time":1827000000000,"state":"active","ping":67},{"user_id":302,"name":"IHaveConsumed50KmofMeth","steam_id":76561199221172552,"connected_time":1809000000000,"state":"active","ping":59},{"user_id":269,"name":"DarkMelody","steam_id":76561198063225937,"connected_time":3480000000000,"state":"active","ping":122},{"user_id":326,"name":"StarDoc2222","steam_id":76561199389114520,"connected_time":719000000000,"state":"active","ping":140},{"user_id":323,"name":"UJAGaming","steam_id":76561198147959101,"connected_time":827000000000,"state":"active","ping":84},{"user_id":258,"name":"john fortress","steam_id":76561198013237629,"connected_time":3887000000000,"state":"active","ping":100},{"user_id":330,"name":"Combat Wombat","steam_id":76561197994720068,"connected_time":96000000000,"state":"active","ping":62},{"user_id":313,"name":"Nick","steam_id":76561198036109469,"connected_time":1355000000000,"state":"active","ping":76},{"user_id":321,"name":"Unreliable, funny and dangerous","steam_id":76561198050709790,"connected_time":926000000000,"state":"active","ping":88},{"user_id":320,"name":"Bonduelle#Savetf2","steam_id":76561199041992422,"connected_time":974000000000,"state":"active","ping":129},{"user_id":265,"name":"öööö✪","steam_id":76561198181645822,"connected_time":3761000000000,"state":"active","ping":75},{"user_id":324,"name":"GabGame","steam_id":76561198105631808,"connected_time":802000000000,"state":"active","ping":57},{"user_id":296,"name":"st. pheenis hell","steam_id":76561198128250460,"connected_time":2123000000000,"state":"active","ping":88},{"user_id":277,"name":"sin","steam_id":76561198193416785,"connected_time":3263000000000,"state":"active","ping":93},{"user_id":329,"name":"IS3BITEL","steam_id":76561199178060325,"connected_time":416000000000,"state":"active","ping":61},{"user_id":292,"name":"Dr. Phil","steam_id":76561198047254219,"connected_time":2265000000000,"state":"active","ping":58},{"user_id":298,"name":"Bgm_","steam_id":76561198056452044,"connected_time":2017000000000,"state":"active","ping":58},{"user_id":328,"name":"tripl","steam_id":76561198119449463,"connected_time":551000000000,"state":"active","ping":72},{"user_id":304,"name":"agruk","steam_id":76561198082516068,"connected_time":1792000000000,"state":"active","ping":74},{"user_id":297,"name":"Uncle Dale","steam_id":76561199144302768,"connected_time":2121000000000,"state":"active","ping":149},{"user_id":327,"name":"Hexagon","steam_id":76561198151205758,"connected_time":595000000000,"state":"active","ping":57},{"user_id":266,"name":"nanc","steam_id":76561198823042579,"connected_time":3620000000000,"state":"active","ping":117}]},{"server_id":310,"name":"Uncletopia | Frankfurt | 5 | All Maps","name_short":"frk-5","host":"frk-1.de.uncletopia.com","port":27055,"enabled":true,"region":"eu","cc":"de","latitude":50.110924,"longitude":8.682127,"reserved":0,"last_update":"0001-01-01T00:00:00Z","name_a2s":"Uncletopia | Frankfurt | 5 | All Maps","protocol":17,"map":"koth_suijin","folder":"tf","game":"Team Fortress","app_id":440,"player_count":24,"max_players":24,"Bots":0,"server_type":"Dedicated","server_os":"Linux","password":true,"vac":true,"version":"7961495","steam_id":85568392924504277,"keywords":["cp","nocrits","nodmgspread","uncletopia"],"game_id":440,"stv_port":27056,"stv_name":"Uncletopia | Frankfurt | 5 | All Maps | STV","players":[{"user_id":315,"name":"dog?","steam_id":76561199232839385,"connected_time":763000000000,"state":"active","ping":89},{"user_id":325,"name":"MaypulSoyrup","steam_id":76561199213966821,"connected_time":181000000000,"state":"active","ping":76},{"user_id":306,"name":"Noone","steam_id":76561199113947978,"connected_time":1184000000000,"state":"active","ping":66},{"user_id":298,"name":"Name","steam_id":76561197990757157,"connected_time":2100000000000,"state":"active","ping":74},{"user_id":326,"name":"tr4ce","steam_id":76561198085296732,"connected_time":165000000000,"state":"active","ping":45},{"user_id":250,"name":"KALACH","steam_id":76561198028664460,"connected_time":5066000000000,"state":"active","ping":103},{"user_id":330,"name":"MaximusTheFish-H21","steam_id":76561199025652089,"connected_time":67000000000,"state":"active","ping":42},{"user_id":221,"name":"AsianPersuasion","steam_id":76561198202112536,"connected_time":5871000000000,"state":"active","ping":70},{"user_id":274,"name":"Kriofty","steam_id":76561198811696536,"connected_time":3910000000000,"state":"active","ping":82},{"user_id":288,"name":"TekuSP","steam_id":76561198072367754,"connected_time":3074000000000,"state":"active","ping":45},{"user_id":318,"name":"Pixel-Jay","steam_id":76561198853840115,"connected_time":691000000000,"state":"active","ping":55},{"user_id":305,"name":"the grongle","steam_id":76561198989398023,"connected_time":1214000000000,"state":"active","ping":107},{"user_id":323,"name":"Retard","steam_id":76561198032709580,"connected_time":332000000000,"state":"active","ping":52},{"user_id":316,"name":"Nejt","steam_id":76561199264515158,"connected_time":753000000000,"state":"active","ping":54},{"user_id":229,"name":"Sunduchek","steam_id":76561198067934157,"connected_time":5634000000000,"state":"active","ping":123},{"user_id":314,"name":"Drillboy Jenkins","steam_id":76561198160497421,"connected_time":774000000000,"state":"active","ping":76},{"user_id":331,"name":"Supercoxylac","steam_id":76561198376300138,"connected_time":57000000000,"state":"active","ping":53},{"user_id":245,"name":"old man oberon","steam_id":76561198355291251,"connected_time":5204000000000,"state":"active","ping":67},{"user_id":317,"name":"moglimbo","steam_id":76561198083937378,"connected_time":736000000000,"state":"active","ping":61},{"user_id":329,"name":"\u003cGNGWD\u003e the scringly dingly","steam_id":76561198192179174,"connected_time":111000000000,"state":"active","ping":120},{"user_id":322,"name":"Fabgi.Fr","steam_id":76561198178357445,"connected_time":390000000000,"state":"active","ping":51},{"user_id":302,"name":"Littleyoshifan","steam_id":76561198445491045,"connected_time":1965000000000,"state":"active","ping":58},{"user_id":320,"name":"Pats (Gifted items Collector)","steam_id":76561198418538887,"connected_time":613000000000,"state":"active","ping":84},{"user_id":324,"name":"habibi69","steam_id":76561198141989573,"connected_time":310000000000,"state":"active","ping":63}]},{"server_id":311,"name":"Uncletopia | Frankfurt | 6 | All Maps","name_short":"frk-6","host":"frk-1.de.uncletopia.com","port":27065,"enabled":true,"region":"eu","cc":"de","latitude":50.110924,"longitude":8.682127,"reserved":0,"last_update":"0001-01-01T00:00:00Z","name_a2s":"Uncletopia | Frankfurt | 6 | All Maps","protocol":17,"map":"pl_barnblitz","folder":"tf","game":"Team Fortress","app_id":440,"player_count":24,"max_players":24,"Bots":0,"server_type":"Dedicated","server_os":"Linux","password":true,"vac":true,"version":"7961495","steam_id":85568392924504278,"keywords":["nocrits","nodmgspread","payload","uncletopia"],"game_id":440,"stv_port":27066,"stv_name":"Uncletopia | Frankfurt | 6 | All Maps | STV","players":[{"user_id":370,"name":"Enjoyer","steam_id":76561198147399855,"connected_time":1357000000000,"state":"active","ping":124},{"user_id":342,"name":"Adamkarz","steam_id":76561198796428403,"connected_time":3595000000000,"state":"active","ping":84},{"user_id":295,"name":"pavel_mkd","steam_id":76561199088118112,"connected_time":5743000000000,"state":"active","ping":68},{"user_id":371,"name":"Jesus (real)","steam_id":76561199106262610,"connected_time":1357000000000,"state":"active","ping":53},{"user_id":380,"name":"sex haver","steam_id":76561198798892497,"connected_time":853000000000,"state":"active","ping":87},{"user_id":298,"name":"Tekor","steam_id":76561198088542862,"connected_time":5647000000000,"state":"active","ping":63},{"user_id":366,"name":"Mr. Hunts","steam_id":76561197981910397,"connected_time":1981000000000,"state":"active","ping":67},{"user_id":340,"name":"Glitchas","steam_id":76561198883610618,"connected_time":3662000000000,"state":"active","ping":80},{"user_id":382,"name":"your fwiend","steam_id":76561198154773643,"connected_time":757000000000,"state":"active","ping":138},{"user_id":373,"name":"JamesPepega","steam_id":76561198019156154,"connected_time":1312000000000,"state":"active","ping":78},{"user_id":383,"name":"Oceanic | tuesday maybe","steam_id":76561197979741827,"connected_time":756000000000,"state":"active","ping":58},{"user_id":381,"name":"I like apple","steam_id":76561198108115790,"connected_time":784000000000,"state":"active","ping":53},{"user_id":384,"name":"Dolcelatte","steam_id":76561198038501770,"connected_time":696000000000,"state":"active","ping":58},{"user_id":385,"name":"Agama","steam_id":76561198867921159,"connected_time":665000000000,"state":"active","ping":88},{"user_id":358,"name":"Saint","steam_id":76561198003296382,"connected_time":2869000000000,"state":"active","ping":82},{"user_id":386,"name":"Fliits","steam_id":76561198129780632,"connected_time":656000000000,"state":"active","ping":88},{"user_id":311,"name":"ilwes","steam_id":76561198438137570,"connected_time":5051000000000,"state":"active","ping":64},{"user_id":368,"name":"silicon based life form","steam_id":76561199127121346,"connected_time":1844000000000,"state":"active","ping":55},{"user_id":337,"name":"meirfa","steam_id":76561198157193506,"connected_time":3919000000000,"state":"active","ping":116},{"user_id":352,"name":"Tre3","steam_id":76561198054795379,"connected_time":3379000000000,"state":"active","ping":55},{"user_id":377,"name":"Five Finger Discount","steam_id":76561197994556857,"connected_time":1235000000000,"state":"active","ping":61},{"user_id":334,"name":"Burnout6010","steam_id":76561198029867543,"connected_time":4170000000000,"state":"active","ping":76},{"user_id":389,"name":"herbal tea","steam_id":76561197980736364,"connected_time":193000000000,"state":"active","ping":75}]},{"server_id":23,"name":"Uncletopia | Frankfurt | 7 | Stopwatch","name_short":"frk-7","host":"frk-1.de.uncletopia.com","port":27075,"enabled":true,"region":"eu","cc":"de","latitude":50.110924,"longitude":8.682127,"reserved":0,"last_update":"0001-01-01T00:00:00Z","name_a2s":"Uncletopia | Frankfurt | 7 | Stopwatch","protocol":17,"map":"pl_borneo","folder":"tf","game":"Team Fortress","app_id":440,"player_count":24,"max_players":24,"Bots":0,"server_type":"Dedicated","server_os":"Linux","password":true,"vac":true,"version":"7961495","steam_id":85568392924742827,"keywords":["nocrits","nodmgspread","payload","uncletopia"],"game_id":440,"stv_port":27076,"stv_name":"Uncletopia | Frankfurt | 7 | Stopwatch | STV","players":[{"user_id":150,"name":"蓮 Lotus","steam_id":76561198083141117,"connected_time":10000000000,"state":"spawning","ping":60},{"user_id":144,"name":"Creative","steam_id":76561198835034247,"connected_time":306000000000,"state":"active","ping":86},{"user_id":131,"name":"Doctor Medic","steam_id":76561198100957443,"connected_time":868000000000,"state":"active","ping":75},{"user_id":45,"name":"Alyx","steam_id":76561198064654326,"connected_time":6100000000000,"state":"active","ping":64},{"user_id":145,"name":"LOBZIK","steam_id":76561198114830120,"connected_time":246000000000,"state":"active","ping":76},{"user_id":140,"name":"dwo69","steam_id":76561198000620637,"connected_time":553000000000,"state":"active","ping":50},{"user_id":38,"name":"lesbian jumpscare","steam_id":76561198864161505,"connected_time":6837000000000,"state":"active","ping":60},{"user_id":141,"name":"MeleeFoX","steam_id":76561199013612217,"connected_time":543000000000,"state":"active","ping":167},{"user_id":136,"name":"Saihtama","steam_id":76561198067497192,"connected_time":672000000000,"state":"active","ping":90},{"user_id":112,"name":"_Chelik_","steam_id":76561199076069284,"connected_time":1993000000000,"state":"active","ping":86},{"user_id":102,"name":"Hussain_144","steam_id":76561198346029208,"connected_time":2748000000000,"state":"active","ping":171},{"user_id":143,"name":"ComradeCallie","steam_id":76561198853850941,"connected_time":391000000000,"state":"active","ping":83},{"user_id":142,"name":"Tizdum","steam_id":76561198121750726,"connected_time":430000000000,"state":"active","ping":60},{"user_id":105,"name":"daquavious bingleton","steam_id":76561199112671611,"connected_time":2485000000000,"state":"active","ping":74},{"user_id":130,"name":"NOne","steam_id":76561198002359947,"connected_time":1031000000000,"state":"active","ping":75},{"user_id":146,"name":"Thors","steam_id":76561197968739075,"connected_time":230000000000,"state":"active","ping":45},{"user_id":137,"name":"NALA","steam_id":76561198039806469,"connected_time":662000000000,"state":"active","ping":68},{"user_id":84,"name":"zek","steam_id":76561198862763731,"connected_time":3994000000000,"state":"active","ping":60},{"user_id":115,"name":"medium rare chicken enjoyer","steam_id":76561198050214002,"connected_time":1876000000000,"state":"active","ping":59},{"user_id":128,"name":"Katnor","steam_id":76561199141290973,"connected_time":1212000000000,"state":"active","ping":76},{"user_id":118,"name":"Beni 🦧🍌","steam_id":76561198011340227,"connected_time":1853000000000,"state":"active","ping":60},{"user_id":147,"name":"RoboKugelfisch","steam_id":76561198871855734,"connected_time":225000000000,"state":"active","ping":47},{"user_id":148,"name":"pSy","steam_id":76561198016471415,"connected_time":181000000000,"state":"active","ping":57},{"user_id":149,"name":"Finn.","steam_id":76561199041640689,"connected_time":176000000000,"state":"active","ping":74}]},{"server_id":24,"name":"Uncletopia | Frankfurt | 8 | Community","name_short":"frk-8","host":"frk-1.de.uncletopia.com","port":27085,"enabled":true,"region":"eu","cc":"de","latitude":50.110924,"longitude":8.682127,"reserved":0,"last_update":"0001-01-01T00:00:00Z","name_a2s":"Uncletopia | Frankfurt | 8 | Community","protocol":17,"map":"workshop/koth_slaughter_rc1.ugc1712845210","folder":"tf","game":"Team Fortress","app_id":440,"player_count":0,"max_players":24,"Bots":0,"server_type":"Dedicated","server_os":"Linux","password":true,"vac":true,"version":"7961495","steam_id":85568392924742828,"keywords":["cp","nocrits","nodmgspread","uncletopia"],"game_id":440,"stv_port":27086,"stv_name":"Uncletopia | Frankfurt | 8 | Community | STV","players":null},{"server_id":202,"name":"Uncletopia | Hong Kong | 1 | All Maps","name_short":"hgk-1","host":"hgk-1.hk.uncletopia.com","port":27015,"enabled":true,"region":"asia","cc":"hk","latitude":22.302711,"longitude":114.177216,"reserved":0,"last_update":"0001-01-01T00:00:00Z","name_a2s":"Uncletopia | Hong Kong | 1 | All Maps","protocol":17,"map":"koth_lakeside_final","folder":"tf","game":"Team Fortress","app_id":440,"player_count":0,"max_players":24,"Bots":0,"server_type":"Dedicated","server_os":"Linux","password":true,"vac":true,"version":"7961495","steam_id":85568392924494504,"keywords":["cp","nocrits","nodmgspread","uncletopia"],"game_id":440,"stv_port":27016,"stv_name":"Uncletopia | Hong Kong | 1 | All Maps | STV","players":null},{"server_id":1,"name":"Uncletopia | Los Angeles | 1 | All Maps","name_short":"lax-1","host":"lax-1.us.uncletopia.com","port":27015,"enabled":true,"region":"us-west","cc":"us","latitude":33.94279,"longitude":-118.41004,"reserved":0,"last_update":"0001-01-01T00:00:00Z","name_a2s":"Uncletopia | Los Angeles | 1 | All Maps","protocol":17,"map":"cp_gorge","folder":"tf","game":"Team Fortress","app_id":440,"player_count":0,"max_players":24,"Bots":0,"server_type":"Dedicated","server_os":"Linux","password":true,"vac":true,"version":"7961495","steam_id":85568392924469991,"keywords":["cp","nocrits","nodmgspread","uncletopia"],"game_id":440,"stv_port":27016,"stv_name":"Uncletopia | Los Angeles | 1 | All Maps | STV","players":null},{"server_id":112,"name":"Uncletopia | Los Angeles | 2 | All Maps","name_short":"lax-2","host":"lax-1.us.uncletopia.com","port":27025,"enabled":true,"region":"us-west","cc":"us","latitude":33.94279,"longitude":-118.41004,"reserved":0,"last_update":"0001-01-01T00:00:00Z","name_a2s":"Uncletopia | Los Angeles | 2 | All Maps","protocol":17,"map":"koth_cascade","folder":"tf","game":"Team Fortress","app_id":440,"player_count":0,"max_players":24,"Bots":0,"server_type":"Dedicated","server_os":"Linux","password":true,"vac":true,"version":"7961495","steam_id":85568392924469992,"keywords":["cp","nocrits","nodmgspread","uncletopia"],"game_id":440,"stv_port":27026,"stv_name":"Uncletopia | Los Angeles | 2 | All Maps | STV","players":null},{"server_id":324,"name":"Uncletopia | Los Angeles | 3 | All Maps","name_short":"lax-3","host":"lax-1.us.uncletopia.com","port":27035,"enabled":true,"region":"us-west","cc":"us","latitude":33.94279,"longitude":-118.41004,"reserved":0,"last_update":"0001-01-01T00:00:00Z","name_a2s":"Uncletopia | Los Angeles | 3 | All Maps","protocol":17,"map":"pl_hoodoo_final","folder":"tf","game":"Team Fortress","app_id":440,"player_count":0,"max_players":24,"Bots":0,"server_type":"Dedicated","server_os":"Linux","password":true,"vac":true,"version":"7961495","steam_id":85568392924510198,"keywords":["nocrits","nodmgspread","payload","uncletopia"],"game_id":440,"stv_port":27036,"stv_name":"Uncletopia | Los Angeles | 3 | All Maps | STV","players":null},{"server_id":25,"name":"Uncletopia | Los Angeles | 4 | Stopwatch","name_short":"lax-4","host":"lax-1.us.uncletopia.com","port":27045,"enabled":true,"region":"us-west","cc":"us","latitude":33.94279,"longitude":-118.41004,"reserved":0,"last_update":"0001-01-01T00:00:00Z","name_a2s":"Uncletopia | Los Angeles | 4 | Stopwatch","protocol":17,"map":"pl_upward","folder":"tf","game":"Team Fortress","app_id":440,"player_count":0,"max_players":24,"Bots":0,"server_type":"Dedicated","server_os":"Linux","password":true,"vac":true,"version":"7961495","steam_id":85568392924510199,"keywords":["nocrits","nodmgspread","payload","uncletopia"],"game_id":440,"stv_port":27046,"stv_name":"Uncletopia | Los Angeles | 4 | Stopwatch | STV","players":null},{"server_id":11,"name":"Uncletopia | London | 1 | All Maps","name_short":"lon-1","host":"lon-1.uk.uncletopia.com","port":27015,"enabled":true,"region":"eu","cc":"gb","latitude":51.509865,"longitude":-0.118092,"reserved":0,"last_update":"0001-01-01T00:00:00Z","name_a2s":"Uncletopia | London | 1 | All Maps","protocol":17,"map":"pl_borneo","folder":"tf","game":"Team Fortress","app_id":440,"player_count":24,"max_players":24,"Bots":0,"server_type":"Dedicated","server_os":"Linux","password":true,"vac":true,"version":"7961495","steam_id":85568392924367362,"keywords":["nocrits","nodmgspread","payload","uncletopia"],"game_id":440,"stv_port":27016,"stv_name":"Uncletopia | London | 1 | All Maps | STV","players":[{"user_id":206,"name":"Mea","steam_id":76561198353496134,"connected_time":2778000000000,"state":"active","ping":55},{"user_id":185,"name":"YaBoiDomenik","steam_id":76561199042937056,"connected_time":5157000000000,"state":"active","ping":106},{"user_id":207,"name":"Levis Saltator","steam_id":76561198035945247,"connected_time":2593000000000,"state":"active","ping":49},{"user_id":226,"name":"Dzieciol","steam_id":76561198160237556,"connected_time":1033000000000,"state":"active","ping":74},{"user_id":249,"name":"Rifle Mole","steam_id":76561198018571286,"connected_time":20000000000,"state":"spawning","ping":84},{"user_id":233,"name":"waahh im baby gugu gaga im cry","steam_id":76561198190583242,"connected_time":565000000000,"state":"active","ping":100},{"user_id":234,"name":"GazerBazer","steam_id":76561198879107565,"connected_time":529000000000,"state":"active","ping":79},{"user_id":229,"name":"severewindow731","steam_id":76561199444083275,"connected_time":753000000000,"state":"active","ping":74},{"user_id":248,"name":"bolsonaro","steam_id":76561198074917015,"connected_time":196000000000,"state":"active","ping":79},{"user_id":196,"name":"rigel_","steam_id":76561198148640847,"connected_time":3714000000000,"state":"active","ping":75},{"user_id":211,"name":"Trapezoid","steam_id":76561198059369295,"connected_time":2382000000000,"state":"active","ping":75},{"user_id":227,"name":"Bob Sacamano","steam_id":76561198085610701,"connected_time":1015000000000,"state":"active","ping":85},{"user_id":215,"name":"Alexandre","steam_id":76561198121784446,"connected_time":1644000000000,"state":"active","ping":42},{"user_id":200,"name":"ROX","steam_id":76561198272289320,"connected_time":3519000000000,"state":"active","ping":49},{"user_id":213,"name":"transgender e-girl","steam_id":76561198168589809,"connected_time":1683000000000,"state":"active","ping":74},{"user_id":235,"name":"hitbox criminal","steam_id":76561198079277466,"connected_time":528000000000,"state":"active","ping":75},{"user_id":166,"name":"Fuck it (unhandicaps)","steam_id":76561197983095579,"connected_time":6484000000000,"state":"active","ping":78},{"user_id":202,"name":"Ullr","steam_id":76561198140547483,"connected_time":3485000000000,"state":"active","ping":45},{"user_id":230,"name":"Bonca","steam_id":76561198137503531,"connected_time":747000000000,"state":"active","ping":71},{"user_id":221,"name":"flappi","steam_id":76561198072892783,"connected_time":1498000000000,"state":"active","ping":69},{"user_id":164,"name":"Snake-chan","steam_id":76561199044755854,"connected_time":6524000000000,"state":"active","ping":88},{"user_id":197,"name":"DOKTOR MEOW","steam_id":76561198226378616,"connected_time":3595000000000,"state":"active","ping":81},{"user_id":210,"name":"♡ Birdy ♡","steam_id":76561198139632682,"connected_time":2504000000000,"state":"active","ping":86},{"user_id":246,"name":"[KZ] TenGr1_G4m3r","steam_id":76561198107460765,"connected_time":285000000000,"state":"active","ping":45}]},{"server_id":114,"name":"Uncletopia | London | 2 | All Maps","name_short":"lon-2","host":"lon-1.uk.uncletopia.com","port":27025,"enabled":true,"region":"eu","cc":"gb","latitude":51.509865,"longitude":-0.118092,"reserved":0,"last_update":"0001-01-01T00:00:00Z","name_a2s":"Uncletopia | London | 2 | All Maps","protocol":17,"map":"pl_snowycoast","folder":"tf","game":"Team Fortress","app_id":440,"player_count":24,"max_players":24,"Bots":0,"server_type":"Dedicated","server_os":"Linux","password":true,"vac":true,"version":"7961495","steam_id":85568392924470941,"keywords":["nocrits","nodmgspread","payload","uncletopia"],"game_id":440,"stv_port":27026,"stv_name":"Uncletopia | London | 2 | All Maps | STV","players":[{"user_id":334,"name":"ali","steam_id":76561198148359093,"connected_time":620000000000,"state":"active","ping":45},{"user_id":315,"name":"goofy goober","steam_id":76561198068054530,"connected_time":1966000000000,"state":"active","ping":76},{"user_id":316,"name":"Pip","steam_id":76561198049587565,"connected_time":1914000000000,"state":"active","ping":26},{"user_id":325,"name":"Skelli","steam_id":76561198068677092,"connected_time":1101000000000,"state":"active","ping":85},{"user_id":289,"name":"sv_MrGibbs","steam_id":76561198114071972,"connected_time":3924000000000,"state":"active","ping":46},{"user_id":340,"name":"ScapeGoat","steam_id":76561198137868829,"connected_time":362000000000,"state":"active","ping":41},{"user_id":323,"name":"Dispenser(Dispenser)","steam_id":76561199211831658,"connected_time":1389000000000,"state":"active","ping":54},{"user_id":314,"name":"I'm using Tilt Controls.","steam_id":76561198077864552,"connected_time":2005000000000,"state":"active","ping":34},{"user_id":343,"name":"medicinal man","steam_id":76561198202668788,"connected_time":89000000000,"state":"active","ping":73},{"user_id":335,"name":"Hamm","steam_id":76561198844218403,"connected_time":613000000000,"state":"active","ping":50},{"user_id":336,"name":"Michael","steam_id":76561198003146906,"connected_time":579000000000,"state":"active","ping":45},{"user_id":297,"name":"Vel0city","steam_id":76561198049687798,"connected_time":3586000000000,"state":"active","ping":49},{"user_id":269,"name":"lark","steam_id":76561198091724522,"connected_time":5487000000000,"state":"active","ping":53},{"user_id":327,"name":"Mr Ketchup","steam_id":76561198040576978,"connected_time":954000000000,"state":"active","ping":60},{"user_id":155,"name":"Jeryx","steam_id":76561197995602803,"connected_time":14034000000000,"state":"active","ping":46},{"user_id":270,"name":"cropping","steam_id":76561198026586456,"connected_time":5409000000000,"state":"active","ping":158},{"user_id":307,"name":"xx_soy_xx","steam_id":76561198333779084,"connected_time":2876000000000,"state":"active","ping":79},{"user_id":322,"name":"Firearms","steam_id":76561197989867612,"connected_time":1456000000000,"state":"active","ping":46},{"user_id":319,"name":"zzz","steam_id":76561199167288279,"connected_time":1831000000000,"state":"active","ping":79},{"user_id":339,"name":"Aeinzalot","steam_id":76561198195288449,"connected_time":426000000000,"state":"active","ping":44},{"user_id":342,"name":"Mitrixie","steam_id":76561198842023498,"connected_time":282000000000,"state":"active","ping":93},{"user_id":326,"name":"ACG_Dubsy","steam_id":76561198797308565,"connected_time":1076000000000,"state":"active","ping":46},{"user_id":312,"name":"Scarlet","steam_id":76561198075966579,"connected_time":2425000000000,"state":"active","ping":45},{"user_id":344,"name":"Vitamin Weee","steam_id":76561199183937747,"connected_time":1000000000,"state":"spawning","ping":76}]},{"server_id":320,"name":"Uncletopia | London | 3 | All Maps","name_short":"lon-3","host":"lon-1.uk.uncletopia.com","port":27035,"enabled":true,"region":"eu","cc":"gb","latitude":51.509865,"longitude":-0.118092,"reserved":0,"last_update":"0001-01-01T00:00:00Z","name_a2s":"Uncletopia | London | 3 | All Maps","protocol":17,"map":"cp_sunshine","folder":"tf","game":"Team Fortress","app_id":440,"player_count":24,"max_players":24,"Bots":0,"server_type":"Dedicated","server_os":"Linux","password":true,"vac":true,"version":"7961495","steam_id":85568392924510192,"keywords":["cp","nocrits","nodmgspread","uncletopia"],"game_id":440,"stv_port":27036,"stv_name":"Uncletopia | London | 3 | All Maps | STV","players":[{"user_id":226,"name":"Spycrab Gaming","steam_id":76561199128973607,"connected_time":965000000000,"state":"active","ping":52},{"user_id":231,"name":"TurnaJ","steam_id":76561198189223495,"connected_time":940000000000,"state":"active","ping":54},{"user_id":223,"name":"Goldblade","steam_id":76561198382997614,"connected_time":1185000000000,"state":"active","ping":70},{"user_id":248,"name":"sloppy transgirl toppy","steam_id":76561198057092208,"connected_time":374000000000,"state":"active","ping":74},{"user_id":237,"name":"Saab enjoyer","steam_id":76561199405893396,"connected_time":832000000000,"state":"active","ping":151},{"user_id":244,"name":"Yrjö Koskinen Yrjö-Koskinen","steam_id":76561198368181145,"connected_time":575000000000,"state":"active","ping":81},{"user_id":238,"name":"oob","steam_id":76561198922763153,"connected_time":769000000000,"state":"active","ping":99},{"user_id":228,"name":"CallMeUnoriginal","steam_id":76561198977528294,"connected_time":952000000000,"state":"active","ping":40},{"user_id":180,"name":"Peakey The Bard","steam_id":76561198196607831,"connected_time":2928000000000,"state":"active","ping":41},{"user_id":249,"name":"TheJubo","steam_id":76561198050223306,"connected_time":266000000000,"state":"active","ping":54},{"user_id":196,"name":"mary","steam_id":76561198014828037,"connected_time":2240000000000,"state":"active","ping":56},{"user_id":217,"name":"guyava","steam_id":76561198046229680,"connected_time":1343000000000,"state":"active","ping":95},{"user_id":239,"name":"zebulon","steam_id":76561198384683504,"connected_time":758000000000,"state":"active","ping":50},{"user_id":220,"name":"Retrograde","steam_id":76561197967683724,"connected_time":1305000000000,"state":"active","ping":45},{"user_id":245,"name":"JC","steam_id":76561198029213352,"connected_time":573000000000,"state":"active","ping":36},{"user_id":250,"name":"Tomo","steam_id":76561199015097595,"connected_time":198000000000,"state":"active","ping":45},{"user_id":218,"name":"DVS","steam_id":76561198062909843,"connected_time":1338000000000,"state":"active","ping":76},{"user_id":242,"name":"Bajas","steam_id":76561198179339326,"connected_time":698000000000,"state":"active","ping":86},{"user_id":251,"name":"Duke Fishlord","steam_id":76561198079928327,"connected_time":174000000000,"state":"active","ping":59},{"user_id":197,"name":"Surrealistic_Ganerson","steam_id":76561198029591931,"connected_time":2211000000000,"state":"active","ping":87},{"user_id":246,"name":"Nurdbot","steam_id":76561197972640060,"connected_time":529000000000,"state":"active","ping":47},{"user_id":193,"name":"Bronchius Bonehead","steam_id":76561198133961416,"connected_time":2445000000000,"state":"active","ping":61},{"user_id":254,"name":"Clevetron","steam_id":76561198189743199,"connected_time":129000000000,"state":"active","ping":56},{"user_id":253,"name":"Average Chinese Man","steam_id":76561199076883472,"connected_time":171000000000,"state":"active","ping":64}]},{"server_id":321,"name":"Uncletopia | London | 4 | All Maps","name_short":"lon-4","host":"lon-1.uk.uncletopia.com","port":27045,"enabled":true,"region":"eu","cc":"gb","latitude":51.509865,"longitude":-0.118092,"reserved":0,"last_update":"0001-01-01T00:00:00Z","name_a2s":"Uncletopia | London | 4 | All Maps","protocol":17,"map":"pl_swiftwater_final1","folder":"tf","game":"Team Fortress","app_id":440,"player_count":1,"max_players":24,"Bots":0,"server_type":"Dedicated","server_os":"Linux","password":true,"vac":true,"version":"7961495","steam_id":85568392924510193,"keywords":["nocrits","nodmgspread","payload","uncletopia"],"game_id":440,"stv_port":27046,"stv_name":"Uncletopia | London | 4 | All Maps | STV","players":[{"user_id":14,"name":"Tankedup_","steam_id":76561198168659251,"connected_time":27000000000,"state":"active","ping":41}]},{"server_id":21,"name":"Uncletopia | London | 5 | All Maps","name_short":"lon-5","host":"lon-1.uk.uncletopia.com","port":27055,"enabled":true,"region":"eu","cc":"gb","latitude":51.509865,"longitude":-0.118092,"reserved":0,"last_update":"0001-01-01T00:00:00Z","name_a2s":"Uncletopia | London | 5 | All Maps","protocol":17,"map":"koth_lakeside_final","folder":"tf","game":"Team Fortress","app_id":440,"player_count":0,"max_players":24,"Bots":0,"server_type":"Dedicated","server_os":"Linux","password":true,"vac":true,"version":"7961495","steam_id":85568392924742829,"keywords":["cp","nocrits","nodmgspread","uncletopia"],"game_id":440,"stv_port":27056,"stv_name":"Uncletopia | London | 5 | All Maps | STV","players":null},{"server_id":22,"name":"Uncletopia | London | 6 | All Maps","name_short":"lon-6","host":"lon-1.uk.uncletopia.com","port":27065,"enabled":true,"region":"eu","cc":"gb","latitude":51.509865,"longitude":-0.118092,"reserved":0,"last_update":"0001-01-01T00:00:00Z","name_a2s":"Uncletopia | London | 6 | All Maps","protocol":17,"map":"koth_cascade","folder":"tf","game":"Team Fortress","app_id":440,"player_count":0,"max_players":24,"Bots":0,"server_type":"Dedicated","server_os":"Linux","password":true,"vac":true,"version":"7961495","steam_id":85568392924742830,"keywords":["cp","nocrits","nodmgspread","uncletopia"],"game_id":440,"stv_port":27066,"stv_name":"Uncletopia | London | 6 | All Maps | STV","players":null},{"server_id":40,"name":"Uncletopia | London | 7 | Stopwatch","name_short":"lon-7","host":"lon-1.uk.uncletopia.com","port":27075,"enabled":true,"region":"eu","cc":"gb","latitude":51.509865,"longitude":-0.118092,"reserved":0,"last_update":"0001-01-01T00:00:00Z","name_a2s":"Uncletopia | London | 7 | Stopwatch","protocol":17,"map":"workshop/pl_badwater_pro_v12.ugc2142942074","folder":"tf","game":"Team Fortress","app_id":440,"player_count":4,"max_players":24,"Bots":0,"server_type":"Dedicated","server_os":"Linux","password":true,"vac":true,"version":"7961495","steam_id":85568392924964314,"keywords":["nocrits","nodmgspread","payload","uncletopia"],"game_id":440,"stv_port":27076,"stv_name":"Uncletopia | London | 7 | Stopwatch | STV","players":[{"user_id":7,"name":"ran is running","steam_id":76561199443185667,"connected_time":815000000000,"state":"active","ping":115},{"user_id":8,"name":"piss man (real)","steam_id":76561198839843428,"connected_time":804000000000,"state":"active","ping":117},{"user_id":10,"name":"Lavi","steam_id":76561198000911853,"connected_time":114000000000,"state":"active","ping":60},{"user_id":11,"name":"aja","steam_id":76561198972253395,"connected_time":92000000000,"state":"active","ping":40}]},{"server_id":41,"name":"Uncletopia | London | 8 | Community","name_short":"lon-8","host":"lon-1.uk.uncletopia.com","port":27085,"enabled":true,"region":"eu","cc":"gb","latitude":51.509865,"longitude":-0.118092,"reserved":0,"last_update":"0001-01-01T00:00:00Z","name_a2s":"Uncletopia | London | 8 | Community","protocol":17,"map":"workshop/cp_glassworks_rc7a.ugc454118349","folder":"tf","game":"Team Fortress","app_id":440,"player_count":1,"max_players":24,"Bots":0,"server_type":"Dedicated","server_os":"Linux","password":true,"vac":true,"version":"7961495","steam_id":85568392924964315,"keywords":["cp","nocrits","nodmgspread","uncletopia"],"game_id":440,"stv_port":27086,"stv_name":"Uncletopia | London | 8 | Community | STV","players":[{"user_id":12,"name":"makslolo729","steam_id":76561199343937138,"connected_time":146000000000,"state":"active","ping":71}]},{"server_id":300,"name":"Uncletopia | Montréal | 1 | One Thousand Uncles","name_short":"mtl-1","host":"mtl-1.ca.uncletopia.com","port":27015,"enabled":true,"region":"us-east","cc":"ca","latitude":45.50889,"longitude":-73.56167,"reserved":0,"last_update":"0001-01-01T00:00:00Z","name_a2s":"Uncletopia | Montréal | 1 | One Thousand Uncles","protocol":17,"map":"pl_swiftwater_final1","folder":"tf","game":"Team Fortress","app_id":440,"player_count":18,"max_players":32,"Bots":16,"server_type":"Dedicated","server_os":"Linux","password":true,"vac":true,"version":"7961495","steam_id":85568392924500087,"keywords":["alltalk","bots","danepve","increased_maxplayers","norespawntime","payload","uncletopia"],"game_id":440,"stv_port":0,"stv_name":"","players":[{"user_id":59,"name":"teoisaverycoolguy","steam_id":76561199434109034,"connected_time":6110000000000,"state":"active","ping":160},{"user_id":103,"name":"Pie Eater 9000","steam_id":76561198003791564,"connected_time":1385000000000,"state":"active","ping":65}]},{"server_id":301,"name":"Uncletopia | Montréal | 2 | One Thousand Uncles","name_short":"mtl-2","host":"mtl-1.ca.uncletopia.com","port":27025,"enabled":true,"region":"us-east","cc":"ca","latitude":45.50889,"longitude":-73.56167,"reserved":0,"last_update":"0001-01-01T00:00:00Z","name_a2s":"Uncletopia | Montréal | 2 | One Thousand Uncles","protocol":17,"map":"pl_chilly","folder":"tf","game":"Team Fortress","app_id":440,"player_count":0,"max_players":32,"Bots":0,"server_type":"Dedicated","server_os":"Linux","password":true,"vac":true,"version":"7961495","steam_id":85568392924500088,"keywords":["alltalk","danepve","increased_maxplayers","norespawntime","payload","uncletopia"],"game_id":440,"stv_port":0,"stv_name":"","players":null},{"server_id":302,"name":"Uncletopia | Montréal | 3 | One Thousand Uncles","name_short":"mtl-3","host":"mtl-1.ca.uncletopia.com","port":27035,"enabled":true,"region":"us-east","cc":"ca","latitude":45.50889,"longitude":-73.56167,"reserved":0,"last_update":"0001-01-01T00:00:00Z","name_a2s":"Uncletopia | Montréal | 3 | One Thousand Uncles","protocol":17,"map":"pl_upward","folder":"tf","game":"Team Fortress","app_id":440,"player_count":0,"max_players":32,"Bots":0,"server_type":"Dedicated","server_os":"Linux","password":true,"vac":true,"version":"7961495","steam_id":85568392924500089,"keywords":["alltalk","danepve","increased_maxplayers","norespawntime","payload","uncletopia"],"game_id":440,"stv_port":0,"stv_name":"","players":null},{"server_id":13,"name":"Uncletopia | New York City | 1 | All Maps","name_short":"nyc-1","host":"nyc-1.us.uncletopia.com","port":27015,"enabled":true,"region":"us-east","cc":"us","latitude":40.73061,"longitude":-73.93524,"reserved":0,"last_update":"0001-01-01T00:00:00Z","name_a2s":"Uncletopia | New York City | 1 | All Maps","protocol":17,"map":"koth_cascade","folder":"tf","game":"Team Fortress","app_id":440,"player_count":0,"max_players":24,"Bots":0,"server_type":"Dedicated","server_os":"Linux","password":true,"vac":true,"version":"7961495","steam_id":85568392924469993,"keywords":["cp","nocrits","nodmgspread","uncletopia"],"game_id":440,"stv_port":27016,"stv_name":"Uncletopia | New York City | 1 | All Maps | STV","players":null},{"server_id":14,"name":"Uncletopia | New York City | 2 | All Maps","name_short":"nyc-2","host":"nyc-1.us.uncletopia.com","port":27025,"enabled":true,"region":"us-east","cc":"us","latitude":40.73061,"longitude":-73.93524,"reserved":0,"last_update":"0001-01-01T00:00:00Z","name_a2s":"Uncletopia | New York City | 2 | All Maps","protocol":17,"map":"koth_cascade","folder":"tf","game":"Team Fortress","app_id":440,"player_count":0,"max_players":24,"Bots":0,"server_type":"Dedicated","server_os":"Linux","password":true,"vac":true,"version":"7961495","steam_id":85568392924469994,"keywords":["cp","nocrits","nodmgspread","uncletopia"],"game_id":440,"stv_port":27026,"stv_name":"Uncletopia | New York City | 2 | All Maps | STV","players":null},{"server_id":15,"name":"Uncletopia | New York City | 3 | Stopwatch","name_short":"nyc-3","host":"nyc-1.us.uncletopia.com","port":27035,"enabled":true,"region":"us-east","cc":"us","latitude":40.73061,"longitude":-73.93524,"reserved":0,"last_update":"0001-01-01T00:00:00Z","name_a2s":"Uncletopia | New York City | 3 | Stopwatch","protocol":17,"map":"koth_highpass","folder":"tf","game":"Team Fortress","app_id":440,"player_count":2,"max_players":24,"Bots":0,"server_type":"Dedicated","server_os":"Linux","password":true,"vac":true,"version":"7961495","steam_id":85568392924742820,"keywords":["cp","nocrits","nodmgspread","uncletopia"],"game_id":440,"stv_port":27036,"stv_name":"Uncletopia | New York City | 3 | Stopwatch | STV","players":[{"user_id":4,"name":"CheezusOfNazareth","steam_id":76561199093893813,"connected_time":525000000000,"state":"active","ping":126},{"user_id":5,"name":"ProSlayer77","steam_id":76561199435273618,"connected_time":520000000000,"state":"active","ping":109}]},{"server_id":16,"name":"Uncletopia | New York City | 4 | Community","name_short":"nyc-4","host":"nyc-1.us.uncletopia.com","port":27045,"enabled":true,"region":"us-east","cc":"us","latitude":40.73061,"longitude":-73.93524,"reserved":0,"last_update":"0001-01-01T00:00:00Z","name_a2s":"Uncletopia | New York City | 4 | Community","protocol":17,"map":"workshop/cp_indulge.ugc528106646","folder":"tf","game":"Team Fortress","app_id":440,"player_count":0,"max_players":24,"Bots":0,"server_type":"Dedicated","server_os":"Linux","password":true,"vac":true,"version":"7961495","steam_id":85568392924742821,"keywords":["cp","nocrits","nodmgspread","uncletopia"],"game_id":440,"stv_port":27046,"stv_name":"Uncletopia | New York City | 4 | Community | STV","players":null},{"server_id":142,"name":"Uncletopia | São Paulo | 1 | All Maps","name_short":"sao-1","host":"sao-1.br.uncletopia.com","port":27015,"enabled":true,"region":"sa","cc":"br","latitude":-23.533773,"longitude":-46.62529,"reserved":0,"last_update":"0001-01-01T00:00:00Z","name_a2s":"Uncletopia | São Paulo | 1 | All Maps","protocol":17,"map":"pl_upward","folder":"tf","game":"Team Fortress","app_id":440,"player_count":0,"max_players":24,"Bots":0,"server_type":"Dedicated","server_os":"Linux","password":true,"vac":true,"version":"7961495","steam_id":85568392924469996,"keywords":["nocrits","nodmgspread","payload","uncletopia"],"game_id":440,"stv_port":27016,"stv_name":"Uncletopia | São Paulo | 1 | All Maps | STV","players":null},{"server_id":143,"name":"Uncletopia | São Paulo | 2 | Community","name_short":"sao-2","host":"sao-2.br.uncletopia.com","port":27015,"enabled":true,"region":"sa","cc":"br","latitude":-23.533773,"longitude":-46.62529,"reserved":0,"last_update":"0001-01-01T00:00:00Z","name_a2s":"Uncletopia | São Paulo | 2 | Community","protocol":17,"map":"workshop/cp_croissant_final.ugc458840209","folder":"tf","game":"Team Fortress","app_id":440,"player_count":0,"max_players":24,"Bots":0,"server_type":"Dedicated","server_os":"Linux","password":true,"vac":true,"version":"7961495","steam_id":85568392924485349,"keywords":["cp","nocrits","nodmgspread","uncletopia"],"game_id":440,"stv_port":27016,"stv_name":"Uncletopia | São Paulo | 2 | Community | STV","players":null},{"server_id":7,"name":"Uncletopia | Seattle | 1 | All Maps","name_short":"sea-1","host":"sea-1.us.uncletopia.com","port":27015,"enabled":true,"region":"us-west","cc":"us","latitude":47.608013,"longitude":-122.33517,"reserved":0,"last_update":"0001-01-01T00:00:00Z","name_a2s":"Uncletopia | Seattle | 1 | All Maps","protocol":17,"map":"cp_dustbowl","folder":"tf","game":"Team Fortress","app_id":440,"player_count":23,"max_players":24,"Bots":0,"server_type":"Dedicated","server_os":"Linux","password":true,"vac":true,"version":"7961495","steam_id":85568392924469997,"keywords":["cp","nocrits","nodmgspread","uncletopia"],"game_id":440,"stv_port":27016,"stv_name":"Uncletopia | Seattle | 1 | All Maps | STV","players":[{"user_id":55,"name":"E4Estrogen","steam_id":76561198085813708,"connected_time":1391000000000,"state":"active","ping":101},{"user_id":19,"name":"Muscle Man","steam_id":76561198248325252,"connected_time":3724000000000,"state":"active","ping":69},{"user_id":29,"name":"Furry Femboy Hooters CEO","steam_id":76561198097745857,"connected_time":2916000000000,"state":"active","ping":47},{"user_id":68,"name":"2 Point Tom","steam_id":76561198087617008,"connected_time":159000000000,"state":"active","ping":126},{"user_id":61,"name":"Engineer Gaming Live","steam_id":76561198045914603,"connected_time":1097000000000,"state":"active","ping":71},{"user_id":54,"name":"gloobern","steam_id":76561198341190679,"connected_time":1395000000000,"state":"active","ping":46},{"user_id":31,"name":"kn0n","steam_id":76561198249172818,"connected_time":2797000000000,"state":"active","ping":101},{"user_id":63,"name":"wendigo","steam_id":76561197994528974,"connected_time":705000000000,"state":"active","ping":73},{"user_id":32,"name":"The Gremlin","steam_id":76561198419066993,"connected_time":2701000000000,"state":"active","ping":58},{"user_id":20,"name":"Confirmed Bachelor","steam_id":76561198441041496,"connected_time":3655000000000,"state":"active","ping":43},{"user_id":52,"name":"[TrC] Dackstrus","steam_id":76561197973518509,"connected_time":1943000000000,"state":"active","ping":53},{"user_id":64,"name":"Artgrendadier","steam_id":76561198063305359,"connected_time":625000000000,"state":"active","ping":104},{"user_id":66,"name":"celestia ludenberg","steam_id":76561199196437823,"connected_time":254000000000,"state":"active","ping":138},{"user_id":22,"name":"John Arbuckle gaming","steam_id":76561199061503351,"connected_time":3384000000000,"state":"active","ping":85},{"user_id":67,"name":"superx","steam_id":76561198044976613,"connected_time":218000000000,"state":"active","ping":117},{"user_id":69,"name":"Daddy Topps","steam_id":76561198203594332,"connected_time":158000000000,"state":"active","ping":31},{"user_id":57,"name":"Imitation Caucasian","steam_id":76561198320536166,"connected_time":1320000000000,"state":"active","ping":84},{"user_id":40,"name":"BLITZ","steam_id":76561198980779200,"connected_time":2446000000000,"state":"active","ping":64},{"user_id":36,"name":"Weegee","steam_id":76561198140095755,"connected_time":2591000000000,"state":"active","ping":77},{"user_id":41,"name":"kfc rat","steam_id":76561199055105944,"connected_time":2434000000000,"state":"active","ping":163},{"user_id":58,"name":"peachy","steam_id":76561198028721790,"connected_time":1298000000000,"state":"active","ping":60},{"user_id":50,"name":"Hovg9000","steam_id":76561199191556710,"connected_time":2012000000000,"state":"active","ping":91},{"user_id":70,"name":"xenocrates","steam_id":76561198076118476,"connected_time":36000000000,"state":"spawning","ping":120}]},{"server_id":119,"name":"Uncletopia | Seattle | 2 | All Maps","name_short":"sea-2","host":"sea-1.us.uncletopia.com","port":27025,"enabled":true,"region":"us-west","cc":"us","latitude":47.608013,"longitude":-122.33517,"reserved":0,"last_update":"0001-01-01T00:00:00Z","name_a2s":"Uncletopia | Seattle | 2 | All Maps","protocol":17,"map":"koth_lakeside_final","folder":"tf","game":"Team Fortress","app_id":440,"player_count":0,"max_players":24,"Bots":0,"server_type":"Dedicated","server_os":"Linux","password":true,"vac":true,"version":"7961495","steam_id":85568392924469998,"keywords":["cp","nocrits","nodmgspread","uncletopia"],"game_id":440,"stv_port":27026,"stv_name":"Uncletopia | Seattle | 2 | All Maps | STV","players":null},{"server_id":406,"name":"Uncletopia | Seattle | 3 | Stopwatch","name_short":"sea-3","host":"sea-1.us.uncletopia.com","port":27035,"enabled":true,"region":"us-west","cc":"us","latitude":47.608013,"longitude":-122.33517,"reserved":0,"last_update":"0001-01-01T00:00:00Z","name_a2s":"Uncletopia | Seattle | 3 | Stopwatch","protocol":17,"map":"cp_gullywash_final1","folder":"tf","game":"Team Fortress","app_id":440,"player_count":0,"max_players":24,"Bots":0,"server_type":"Dedicated","server_os":"Linux","password":true,"vac":true,"version":"7961495","steam_id":85568392924515217,"keywords":["cp","nocrits","nodmgspread","uncletopia"],"game_id":440,"stv_port":27036,"stv_name":"Uncletopia | Seattle | 3 | Stopwatch | STV","players":null},{"server_id":17,"name":"Uncletopia | San Francisco | 1 | All Maps","name_short":"sfo-1","host":"sfo-1.us.uncletopia.com","port":27015,"enabled":true,"region":"us-west","cc":"us","latitude":37.77397,"longitude":-122.4313,"reserved":0,"last_update":"0001-01-01T00:00:00Z","name_a2s":"Uncletopia | San Francisco | 1 | All Maps","protocol":17,"map":"cp_altitude","folder":"tf","game":"Team Fortress","app_id":440,"player_count":0,"max_players":24,"Bots":0,"server_type":"Dedicated","server_os":"Linux","password":true,"vac":true,"version":"7961495","steam_id":85568392924469999,"keywords":["cp","nocrits","nodmgspread","uncletopia"],"game_id":440,"stv_port":27016,"stv_name":"Uncletopia | San Francisco | 1 | All Maps | STV","players":null},{"server_id":18,"name":"Uncletopia | San Francisco | 2 | All Maps","name_short":"sfo-2","host":"sfo-1.us.uncletopia.com","port":27025,"enabled":true,"region":"us-west","cc":"us","latitude":37.77397,"longitude":-122.4313,"reserved":0,"last_update":"0001-01-01T00:00:00Z","name_a2s":"Uncletopia | San Francisco | 2 | All Maps","protocol":17,"map":"cp_freight_final1","folder":"tf","game":"Team Fortress","app_id":440,"player_count":0,"max_players":24,"Bots":0,"server_type":"Dedicated","server_os":"Linux","password":true,"vac":true,"version":"7961495","steam_id":85568392924470000,"keywords":["cp","nocrits","nodmgspread","uncletopia"],"game_id":440,"stv_port":27026,"stv_name":"Uncletopia | San Francisco | 2 | All Maps | STV","players":null},{"server_id":19,"name":"Uncletopia | San Francisco | 3 | Stopwatch","name_short":"sfo-3","host":"sfo-1.us.uncletopia.com","port":27035,"enabled":true,"region":"us-west","cc":"us","latitude":37.77397,"longitude":-122.4313,"reserved":0,"last_update":"0001-01-01T00:00:00Z","name_a2s":"Uncletopia | San Francisco | 3 | Stopwatch","protocol":17,"map":"workshop/pl_barnblitz_pro7.ugc582280235","folder":"tf","game":"Team Fortress","app_id":440,"player_count":4,"max_players":24,"Bots":0,"server_type":"Dedicated","server_os":"Linux","password":true,"vac":true,"version":"7961495","steam_id":85568392924742824,"keywords":["nocrits","nodmgspread","payload","uncletopia"],"game_id":440,"stv_port":27036,"stv_name":"Uncletopia | San Francisco | 3 | Stopwatch | STV","players":[{"user_id":3,"name":"SillyFuukaLemon","steam_id":76561199102766491,"connected_time":1437000000000,"state":"active","ping":53},{"user_id":4,"name":"wowrealwow","steam_id":76561199100389589,"connected_time":1401000000000,"state":"active","ping":222},{"user_id":7,"name":"Varie","steam_id":76561199454930210,"connected_time":723000000000,"state":"active","ping":107},{"user_id":6,"name":"Jomo1111","steam_id":76561199122357865,"connected_time":1293000000000,"state":"active","ping":224}]},{"server_id":20,"name":"Uncletopia | San Francisco | 4 | Community","name_short":"sfo-4","host":"sfo-1.us.uncletopia.com","port":27045,"enabled":true,"region":"us-west","cc":"us","latitude":37.77397,"longitude":-122.4313,"reserved":0,"last_update":"0001-01-01T00:00:00Z","name_a2s":"Uncletopia | San Francisco | 4 | Community","protocol":17,"map":"workshop/koth_slaughter_rc1.ugc1712845210","folder":"tf","game":"Team Fortress","app_id":440,"player_count":0,"max_players":24,"Bots":0,"server_type":"Dedicated","server_os":"Linux","password":true,"vac":true,"version":"7961495","steam_id":85568392924742826,"keywords":["cp","nocrits","nodmgspread","uncletopia"],"game_id":440,"stv_port":27046,"stv_name":"Uncletopia | San Francisco | 4 | Community | STV","players":null},{"server_id":141,"name":"Uncletopia | Sydney | 1 | All Maps","name_short":"syd-1","host":"syd-1.au.uncletopia.com","port":27015,"enabled":true,"region":"au","cc":"au","latitude":-33.865143,"longitude":151.2099,"reserved":0,"last_update":"0001-01-01T00:00:00Z","name_a2s":"Uncletopia | Sydney | 1 | All Maps","protocol":17,"map":"koth_lakeside_final","folder":"tf","game":"Team Fortress","app_id":440,"player_count":0,"max_players":24,"Bots":0,"server_type":"Dedicated","server_os":"Linux","password":true,"vac":true,"version":"7961495","steam_id":85568392924470001,"keywords":["cp","nocrits","nodmgspread","uncletopia"],"game_id":440,"stv_port":27016,"stv_name":"Uncletopia | Sydney | 1 | All Maps | STV","players":null},{"server_id":123,"name":"Uncletopia | Sydney | 2 | All Maps","name_short":"syd-2","host":"syd-1.au.uncletopia.com","port":27025,"enabled":true,"region":"au","cc":"au","latitude":-33.865143,"longitude":151.2099,"reserved":0,"last_update":"0001-01-01T00:00:00Z","name_a2s":"Uncletopia | Sydney | 2 | All Maps","protocol":17,"map":"pl_pier","folder":"tf","game":"Team Fortress","app_id":440,"player_count":0,"max_players":24,"Bots":0,"server_type":"Dedicated","server_os":"Linux","password":true,"vac":true,"version":"7961495","steam_id":85568392924470002,"keywords":["nocrits","nodmgspread","payload","uncletopia"],"game_id":440,"stv_port":27026,"stv_name":"Uncletopia | Sydney | 2 | All Maps | STV","players":null},{"server_id":395,"name":"Uncletopia | Sydney | 3 | All Maps","name_short":"syd-3","host":"syd-1.au.uncletopia.com","port":27035,"enabled":true,"region":"au","cc":"au","latitude":-33.865143,"longitude":151.2099,"reserved":0,"last_update":"0001-01-01T00:00:00Z","name_a2s":"Uncletopia | Sydney | 3 | All Maps","protocol":17,"map":"pl_frontier_final","folder":"tf","game":"Team Fortress","app_id":440,"player_count":0,"max_players":24,"Bots":0,"server_type":"Dedicated","server_os":"Linux","password":true,"vac":true,"version":"7961495","steam_id":85568392925194467,"keywords":["nocrits","nodmgspread","payload","uncletopia"],"game_id":440,"stv_port":27036,"stv_name":"Uncletopia | Sydney | 3 | All Maps | STV","players":null},{"server_id":396,"name":"Uncletopia | Sydney | 4 | All Maps","name_short":"syd-4","host":"syd-1.au.uncletopia.com","port":27045,"enabled":true,"region":"au","cc":"au","latitude":-33.865143,"longitude":151.2099,"reserved":0,"last_update":"0001-01-01T00:00:00Z","name_a2s":"Uncletopia | Sydney | 4 | All Maps","protocol":17,"map":"cp_dustbowl","folder":"tf","game":"Team Fortress","app_id":440,"player_count":0,"max_players":24,"Bots":0,"server_type":"Dedicated","server_os":"Linux","password":true,"vac":true,"version":"7961495","steam_id":85568392925397958,"keywords":["cp","nocrits","nodmgspread","uncletopia"],"game_id":440,"stv_port":27046,"stv_name":"Uncletopia | Sydney | 4 | All Maps | STV","players":null},{"server_id":58,"name":"Uncletopia | Sydney | 5 | Stopwatch","name_short":"syd-5","host":"syd-1.au.uncletopia.com","port":27055,"enabled":true,"region":"au","cc":"au","latitude":-33.865143,"longitude":151.2099,"reserved":0,"last_update":"0001-01-01T00:00:00Z","name_a2s":"Uncletopia | Sydney | 5 | Stopwatch","protocol":17,"map":"workshop/pl_badwater_pro_v12.ugc2142942074","folder":"tf","game":"Team Fortress","app_id":440,"player_count":0,"max_players":24,"Bots":0,"server_type":"Dedicated","server_os":"Linux","password":true,"vac":true,"version":"7961495","steam_id":85568392925397959,"keywords":["nocrits","nodmgspread","payload","uncletopia"],"game_id":440,"stv_port":27056,"stv_name":"Uncletopia | Sydney | 5 | Stopwatch | STV","players":null},{"server_id":59,"name":"Uncletopia | Sydney | 6 | Community","name_short":"syd-6","host":"syd-1.au.uncletopia.com","port":27065,"enabled":true,"region":"au","cc":"au","latitude":-33.865143,"longitude":151.2099,"reserved":0,"last_update":"0001-01-01T00:00:00Z","name_a2s":"Uncletopia | Sydney | 6 | Community","protocol":17,"map":"workshop/pl_shoreleave_rc2.ugc1238849347","folder":"tf","game":"Team Fortress","app_id":440,"player_count":0,"max_players":24,"Bots":0,"server_type":"Dedicated","server_os":"Linux","password":true,"vac":true,"version":"7961495","steam_id":85568392925397960,"keywords":["nocrits","nodmgspread","payload","uncletopia"],"game_id":440,"stv_port":27066,"stv_name":"Uncletopia | Sydney | 6 | Community | STV","players":null},{"server_id":49,"name":"Uncletopia | Warsaw | 1 | One Thousand Uncles","name_short":"waw-1","host":"waw-1.pl.uncletopia.com","port":27015,"enabled":true,"region":"eu","cc":"pl","latitude":52.2297,"longitude":21.017532,"reserved":0,"last_update":"0001-01-01T00:00:00Z","name_a2s":"Uncletopia | Warsaw | 1 | One Thousand Uncles","protocol":17,"map":"pl_badwater","folder":"tf","game":"Team Fortress","app_id":440,"player_count":28,"max_players":32,"Bots":16,"server_type":"Dedicated","server_os":"Linux","password":true,"vac":true,"version":"7961495","steam_id":85568392925397850,"keywords":["alltalk","bots","danepve","increased_maxplayers","norespawntime","payload","uncletopia"],"game_id":440,"stv_port":0,"stv_name":"","players":[{"user_id":513,"name":"Diamhair","steam_id":76561198109020178,"connected_time":75000000000,"state":"active","ping":86},{"user_id":502,"name":"swyxKILL","steam_id":76561199133430507,"connected_time":968000000000,"state":"active","ping":43},{"user_id":487,"name":"Tispy","steam_id":76561199207410049,"connected_time":2706000000000,"state":"active","ping":111},{"user_id":514,"name":"Jethro Tull","steam_id":76561199034041634,"connected_time":57000000000,"state":"active","ping":76},{"user_id":469,"name":"B3N0Ne_","steam_id":76561198918059650,"connected_time":3051000000000,"state":"active","ping":115},{"user_id":467,"name":"D4RKERX","steam_id":76561198060537403,"connected_time":3861000000000,"state":"active","ping":241},{"user_id":501,"name":"Kotlet schabowy","steam_id":76561198048983509,"connected_time":1131000000000,"state":"active","ping":44},{"user_id":515,"name":"xanderomeister","steam_id":76561198882550389,"connected_time":0,"state":"spawning","ping":28},{"user_id":503,"name":"jeffywaffle","steam_id":76561199132792226,"connected_time":893000000000,"state":"active","ping":91},{"user_id":509,"name":"WaltuhWhait","steam_id":76561199275868360,"connected_time":458000000000,"state":"active","ping":107},{"user_id":506,"name":"please do not the cat","steam_id":76561198089003514,"connected_time":644000000000,"state":"active","ping":65},{"user_id":508,"name":"MrHenry","steam_id":76561199249662743,"connected_time":608000000000,"state":"active","ping":149}]},{"server_id":50,"name":"Uncletopia | Warsaw | 2 | One Thousand Uncles","name_short":"waw-2","host":"waw-1.pl.uncletopia.com","port":27025,"enabled":true,"region":"eu","cc":"pl","latitude":52.2297,"longitude":21.017532,"reserved":0,"last_update":"0001-01-01T00:00:00Z","name_a2s":"Uncletopia | Warsaw | 2 | One Thousand Uncles","protocol":17,"map":"cp_egypt_final","folder":"tf","game":"Team Fortress","app_id":440,"player_count":24,"max_players":32,"Bots":16,"server_type":"Dedicated","server_os":"Linux","password":true,"vac":true,"version":"7961495","steam_id":85568392925397851,"keywords":["alltalk","bots","cp","danepve","increased_maxplayers","norespawntime","uncletopia"],"game_id":440,"stv_port":0,"stv_name":"","players":[{"user_id":100,"name":"matvejisakov7","steam_id":76561199493568179,"connected_time":1162000000000,"state":"active","ping":199},{"user_id":96,"name":"adv6","steam_id":76561198029789989,"connected_time":1515000000000,"state":"active","ping":69},{"user_id":98,"name":"Lt.Fantax","steam_id":76561198060752455,"connected_time":1466000000000,"state":"active","ping":97},{"user_id":99,"name":"TarekInnit","steam_id":76561198298618127,"connected_time":1302000000000,"state":"active","ping":63},{"user_id":101,"name":"Loo32","steam_id":76561199094568704,"connected_time":523000000000,"state":"active","ping":67},{"user_id":102,"name":"lisivi","steam_id":76561198365503306,"connected_time":417000000000,"state":"active","ping":65},{"user_id":103,"name":"dank pank","steam_id":76561198995052713,"connected_time":354000000000,"state":"active","ping":44},{"user_id":104,"name":"Gbus","steam_id":76561198072335838,"connected_time":31000000000,"state":"spawning","ping":66}]},{"server_id":51,"name":"Uncletopia | Warsaw | 3 | All Maps","name_short":"waw-3","host":"waw-1.pl.uncletopia.com","port":27035,"enabled":true,"region":"eu","cc":"pl","latitude":52.2297,"longitude":21.017532,"reserved":0,"last_update":"0001-01-01T00:00:00Z","name_a2s":"Uncletopia | Warsaw | 3 | All Maps","protocol":17,"map":"koth_viaduct","folder":"tf","game":"Team Fortress","app_id":440,"player_count":0,"max_players":24,"Bots":0,"server_type":"Dedicated","server_os":"Linux","password":true,"vac":true,"version":"7961495","steam_id":85568392925397852,"keywords":["cp","nocrits","nodmgspread","uncletopia"],"game_id":440,"stv_port":27036,"stv_name":"Uncletopia | Warsaw | 3 | All Maps | STV","players":null},{"server_id":52,"name":"Uncletopia | Warsaw | 4 | All Maps","name_short":"waw-4","host":"waw-1.pl.uncletopia.com","port":27045,"enabled":true,"region":"eu","cc":"pl","latitude":52.2297,"longitude":21.017532,"reserved":0,"last_update":"0001-01-01T00:00:00Z","name_a2s":"Uncletopia | Warsaw | 4 | All Maps","protocol":17,"map":"cp_altitude","folder":"tf","game":"Team Fortress","app_id":440,"player_count":0,"max_players":24,"Bots":0,"server_type":"Dedicated","server_os":"Linux","password":true,"vac":true,"version":"7961495","steam_id":85568392925397853,"keywords":["cp","nocrits","nodmgspread","uncletopia"],"game_id":440,"stv_port":27046,"stv_name":"Uncletopia | Warsaw | 4 | All Maps | STV","players":null},{"server_id":53,"name":"Uncletopia | Warsaw | 5 | Stopwatch","name_short":"waw-5","host":"waw-1.pl.uncletopia.com","port":27055,"enabled":true,"region":"eu","cc":"pl","latitude":52.2297,"longitude":21.017532,"reserved":0,"last_update":"0001-01-01T00:00:00Z","name_a2s":"Uncletopia | Warsaw | 5 | Stopwatch","protocol":17,"map":"workshop/pl_vigil_rc10.ugc1266210012","folder":"tf","game":"Team Fortress","app_id":440,"player_count":0,"max_players":24,"Bots":0,"server_type":"Dedicated","server_os":"Linux","password":true,"vac":true,"version":"7961495","steam_id":85568392925397854,"keywords":["nocrits","nodmgspread","payload","uncletopia"],"game_id":440,"stv_port":27056,"stv_name":"Uncletopia | Warsaw | 5 | Stopwatch | STV","players":null},{"server_id":54,"name":"Uncletopia | Warsaw | 6 | Community","name_short":"waw-6","host":"waw-1.pl.uncletopia.com","port":27065,"enabled":true,"region":"eu","cc":"pl","latitude":52.2297,"longitude":21.017532,"reserved":0,"last_update":"0001-01-01T00:00:00Z","name_a2s":"Uncletopia | Warsaw | 6 | Community","protocol":17,"map":"workshop/cp_mannbase_rc2a.ugc1900737467","folder":"tf","game":"Team Fortress","app_id":440,"player_count":0,"max_players":24,"Bots":0,"server_type":"Dedicated","server_os":"Linux","password":true,"vac":true,"version":"7961495","steam_id":85568392925397856,"keywords":["cp","nocrits","nodmgspread","uncletopia"],"game_id":440,"stv_port":27066,"stv_name":"Uncletopia | Warsaw | 6 | Community | STV","players":null}]}