{"status":true,"message":"","result":[{"server_id":9,"name":"Uncletopia | Atlanta | 1 | All Maps","name_short":"atl-1","host":"atl-1.us.uncletopia.com","port":27015,"enabled":true,"region":"us-east","cc":"us","latitude":33.753746,"longitude":-84.38633,"reserved":0,"last_update":"0001-01-01T00:00:00Z","name_a2s":"Uncletopia | Atlanta | 1 | All Maps","protocol":17,"map":"pl_pier","folder":"tf","game":"Team Fortress","app_id":440,"player_count":24,"max_players":24,"Bots":0,"server_type":"Dedicated","server_os":"Linux","password":true,"vac":true,"version":"7757534","steam_id":85568392924469982,"keywords":["nocrits","nodmgspread","payload","uncletopia"],"game_id":440,"stv_port":27016,"stv_name":"Uncletopia | Atlanta | 1 | All Maps | STV","players":[{"user_id":380,"name":"vitamin","steam_id":76561198277799227,"connected_time":6997000000000,"state":"active","ping":61},{"user_id":473,"name":"Eviscerator","steam_id":76561197980073637,"connected_time":110000000000,"state":"active","ping":116},{"user_id":472,"name":"Demoman With One Joke","steam_id":76561197993467034,"connected_time":179000000000,"state":"active","ping":83},{"user_id":452,"name":"Toygar","steam_id":76561198023679830,"connected_time":1807000000000,"state":"active","ping":69},{"user_id":453,"name":"bowl of ramen [ngw]","steam_id":76561199068299486,"connected_time":1483000000000,"state":"active","ping":90},{"user_id":467,"name":"Reno Gato","steam_id":76561198048417246,"connected_time":372000000000,"state":"active","ping":87},{"user_id":459,"name":"Imhotep","steam_id":76561198017542607,"connected_time":664000000000,"state":"active","ping":149},{"user_id":421,"name":"NEM","steam_id":76561199241131104,"connected_time":2653000000000,"state":"active","ping":71},{"user_id":455,"name":"Jill the Owl","steam_id":76561197999210583,"connected_time":1363000000000,"state":"active","ping":75},{"user_id":456,"name":"Im High","steam_id":76561198049954886,"connected_time":803000000000,"state":"active","ping":72},{"user_id":464,"name":"noah","steam_id":76561198140305002,"connected_time":590000000000,"state":"active","ping":90},{"user_id":448,"name":"Gerald Jay Sussman","steam_id":76561198114515026,"connected_time":1913000000000,"state":"active","ping":70},{"user_id":458,"name":"Quingle","steam_id":76561199336679585,"connected_time":680000000000,"state":"active","ping":80},{"user_id":462,"name":"mos","steam_id":76561198146126212,"connected_time":612000000000,"state":"active","ping":57},{"user_id":461,"name":"Gheeotine","steam_id":76561198010181698,"connected_time":629000000000,"state":"active","ping":88},{"user_id":470,"name":"aquatic ambiance","steam_id":76561198042788986,"connected_time":302000000000,"state":"active","ping":84},{"user_id":402,"name":"T Jit","steam_id":76561197993371179,"connected_time":4527000000000,"state":"active","ping":45},{"user_id":465,"name":"Havocs HollyTree","steam_id":76561198982631429,"connected_time":561000000000,"state":"active","ping":93},{"user_id":471,"name":"Broken Cereal‚àö","steam_id":76561198087489795,"connected_time":221000000000,"state":"active","ping":61},{"user_id":447,"name":"frog spin","steam_id":76561198142889876,"connected_time":1938000000000,"state":"active","ping":120},{"user_id":469,"name":"butterbutt!","steam_id":76561198038160740,"connected_time":353000000000,"state":"active","ping":45},{"user_id":410,"name":"‚áå|œütriKer|‚áã","steam_id":76561199389089862,"connected_time":3550000000000,"state":"active","ping":140},{"user_id":418,"name":"Jin Gulilo","steam_id":76561198065151242,"connected_time":2703000000000,"state":"active","ping":81},{"user_id":425,"name":"O'Keearns","steam_id":76561198042213797,"connected_time":2647000000000,"state":"active","ping":49}]},{"server_id":104,"name":"Uncletopia | Atlanta | 2 | All Maps","name_short":"atl-2","host":"atl-1.us.uncletopia.com","port":27025,"enabled":true,"region":"us-east","cc":"us","latitude":33.753746,"longitude":-84.38633,"reserved":0,"last_update":"0001-01-01T00:00:00Z","name_a2s":"Uncletopia | Atlanta | 2 | All Maps","protocol":17,"map":"cp_process_final","folder":"tf","game":"Team Fortress","app_id":440,"player_count":24,"max_players":24,"Bots":0,"server_type":"Dedicated","server_os":"Linux","password":true,"vac":true,"version":"7757534","steam_id":85568392924469983,"keywords":["cp","nocrits","nodmgspread","uncletopia"],"game_id":440,"stv_port":27026,"stv_name":"Uncletopia | Atlanta | 2 | All Maps | STV","players":[{"user_id":17,"name":"jerry","steam_id":76561198422891994,"connected_time":5432000000000,"state":"active","ping":172},{"user_id":84,"name":"Slacker","steam_id":76561199423075724,"connected_time":347000000000,"state":"active","ping":82},{"user_id":90,"name":"Quansen","steam_id":76561198151594550,"connected_time":114000000000,"state":"active","ping":70},{"user_id":70,"name":"geeWIZ","steam_id":76561198067909242,"connected_time":1714000000000,"state":"active","ping":78},{"user_id":85,"name":"Toasti","steam_id":76561198064658477,"connected_time":339000000000,"state":"active","ping":73},{"user_id":49,"name":"faka","steam_id":76561199093280815,"connected_time":4016000000000,"state":"active","ping":105},{"user_id":86,"name":"COLAPERV69","steam_id":76561198912574744,"connected_time":330000000000,"state":"active","ping":62},{"user_id":87,"name":"pikabrun","steam_id":76561198408632444,"connected_time":329000000000,"state":"active","ping":181},{"user_id":61,"name":"BurgerPizza","steam_id":76561198151256410,"connected_time":2928000000000,"state":"active","ping":126},{"user_id":82,"name":"[NLR]Lightning Roller","steam_id":76561198021209018,"connected_time":689000000000,"state":"active","ping":60},{"user_id":28,"name":"UNIT 220","steam_id":76561198042243497,"connected_time":4830000000000,"state":"active","ping":78},{"user_id":64,"name":"Ice cream man","steam_id":76561198051519116,"connected_time":2556000000000,"state":"active","ping":55},{"user_id":57,"name":"FancyBones","steam_id":76561198180198885,"connected_time":3379000000000,"state":"active","ping":64},{"user_id":71,"name":"Coughdrop Addict [F2P]","steam_id":76561199254281550,"connected_time":1712000000000,"state":"active","ping":78},{"user_id":32,"name":"Something Generic","steam_id":76561198989826375,"connected_time":4624000000000,"state":"active","ping":93},{"user_id":75,"name":"ck_rene","steam_id":76561199079260488,"connected_time":1384000000000,"state":"active","ping":77},{"user_id":76,"name":"Havok","steam_id":76561198063455003,"connected_time":1299000000000,"state":"active","ping":71},{"user_id":36,"name":"jaqalope","steam_id":76561198152144009,"connected_time":4556000000000,"state":"active","ping":92},{"user_id":58,"name":"gamerlegend47","steam_id":76561198122776598,"connected_time":3372000000000,"state":"active","ping":57},{"user_id":91,"name":"floofy","steam_id":76561198389769098,"connected_time":110000000000,"state":"active","ping":82},{"user_id":79,"name":"-œÄ- BakaD","steam_id":76561197960559169,"connected_time":1036000000000,"state":"active","ping":46},{"user_id":83,"name":"–ØawrFatcat","steam_id":76561198017698926,"connected_time":637000000000,"state":"active","ping":87},{"user_id":67,"name":"FHC | Nyle","steam_id":76561198045652639,"connected_time":2275000000000,"state":"active","ping":119},{"user_id":68,"name":"M@verick","steam_id":76561198006363519,"connected_time":1829000000000,"state":"active","ping":76}]},{"server_id":400,"name":"Uncletopia | Atlanta | 3 | Community","name_short":"atl-3","host":"atl-1.us.uncletopia.com","port":27035,"enabled":true,"region":"us-east","cc":"us","latitude":33.753746,"longitude":-84.38633,"reserved":0,"last_update":"0001-01-01T00:00:00Z","name_a2s":"Uncletopia | Atlanta | 3 | Community","protocol":17,"map":"workshop/koth_trenchfoot_b1a.ugc731436616","folder":"tf","game":"Team Fortress","app_id":440,"player_count":0,"max_players":24,"Bots":0,"server_type":"Dedicated","server_os":"Linux","password":true,"vac":true,"version":"7757534","steam_id":85568392924515187,"keywords":["cp","nocrits","nodmgspread","uncletopia"],"game_id":440,"stv_port":27036,"stv_name":"Uncletopia | Atlanta | 3 | Community | STV","players":null},{"server_id":401,"name":"Uncletopia | Atlanta | 4 | No Payload","name_short":"atl-4","host":"atl-1.us.uncletopia.com","port":27045,"enabled":true,"region":"us-east","cc":"us","latitude":33.753746,"longitude":-84.38633,"reserved":0,"last_update":"0001-01-01T00:00:00Z","name_a2s":"","protocol":0,"map":"","folder":"","game":"","app_id":0,"player_count":0,"max_players":0,"Bots":0,"server_type":"","server_os":"","password":false,"vac":false,"version":"","steam_id":0,"keywords":null,"game_id":0,"stv_port":0,"stv_name":"","players":null},{"server_id":2,"name":"Uncletopia | Chicago | 1 | All Maps","name_short":"chi-1","host":"chi-1.us.uncletopia.com","port":27015,"enabled":true,"region":"us-central","cc":"us","latitude":41.881832,"longitude":-87.62318,"reserved":0,"last_update":"0001-01-01T00:00:00Z","name_a2s":"Uncletopia | Chicago | 1 | All Maps","protocol":17,"map":"pl_borneo","folder":"tf","game":"Team Fortress","app_id":440,"player_count":24,"max_players":24,"Bots":0,"server_type":"Dedicated","server_os":"Linux","password":true,"vac":true,"version":"7757534","steam_id":85568392924469984,"keywords":["nocrits","nodmgspread","payload","uncletopia"],"game_id":440,"stv_port":27016,"stv_name":"Uncletopia | Chicago | 1 | All Maps | STV","players":[{"user_id":238,"name":"ray","steam_id":76561198881434725,"connected_time":70000000000,"state":"active","ping":45},{"user_id":212,"name":"Clean Lines","steam_id":76561197960691518,"connected_time":1981000000000,"state":"active","ping":55},{"user_id":228,"name":"daithy","steam_id":76561198168295777,"connected_time":245000000000,"state":"active","ping":108},{"user_id":226,"name":"Siri Keeton","steam_id":76561198006579827,"connected_time":284000000000,"state":"active","ping":78},{"user_id":216,"name":"Banks","steam_id":76561198276505537,"connected_time":1761000000000,"state":"active","ping":67},{"user_id":192,"name":"Nebula","steam_id":76561198795878862,"connected_time":3372000000000,"state":"active","ping":69},{"user_id":229,"name":"TrashCanGaming","steam_id":76561199150746424,"connected_time":186000000000,"state":"active","ping":49},{"user_id":220,"name":"soup","steam_id":76561198972506893,"connected_time":883000000000,"state":"active","ping":70},{"user_id":227,"name":"Raniel Dicciardo","steam_id":76561198053859538,"connected_time":261000000000,"state":"active","ping":77},{"user_id":197,"name":"DylanGuy","steam_id":76561198800767851,"connected_time":3266000000000,"state":"active","ping":81},{"user_id":191,"name":"SlitherDoodle","steam_id":76561198000275473,"connected_time":3399000000000,"state":"active","ping":57},{"user_id":230,"name":"Metal Man","steam_id":76561198024973008,"connected_time":172000000000,"state":"active","ping":62},{"user_id":162,"name":"Neon","steam_id":76561198089067907,"connected_time":4917000000000,"state":"active","ping":68},{"user_id":215,"name":"bruiseraaron","steam_id":76561198020092380,"connected_time":1816000000000,"state":"active","ping":50},{"user_id":231,"name":"smuffy","steam_id":76561198091459506,"connected_time":161000000000,"state":"active","ping":60},{"user_id":223,"name":"Qball","steam_id":76561198179016466,"connected_time":562000000000,"state":"active","ping":57},{"user_id":232,"name":"st3shk4a","steam_id":76561198025322638,"connected_time":150000000000,"state":"active","ping":89},{"user_id":233,"name":"ratlobber","steam_id":76561198087701966,"connected_time":148000000000,"state":"active","ping":118},{"user_id":234,"name":"Mrs.Frizzle","steam_id":76561198117157085,"connected_time":131000000000,"state":"active","ping":68},{"user_id":235,"name":"Neocherry","steam_id":76561198137036962,"connected_time":129000000000,"state":"active","ping":95},{"user_id":172,"name":"Hertz","steam_id":76561198245322982,"connected_time":3866000000000,"state":"active","ping":48},{"user_id":221,"name":"popfulmail","steam_id":76561198865971290,"connected_time":812000000000,"state":"active","ping":82},{"user_id":236,"name":"finn (he/him)","steam_id":76561198257531708,"connected_time":126000000000,"state":"active","ping":61},{"user_id":122,"name":"Training Arc","steam_id":76561198038832034,"connected_time":8194000000000,"state":"active","ping":106}]},{"server_id":106,"name":"Uncletopia | Chicago | 2 | All Maps","name_short":"chi-2","host":"chi-1.us.uncletopia.com","port":27025,"enabled":true,"region":"us-central","cc":"us","latitude":41.881832,"longitude":-87.62318,"reserved":0,"last_update":"0001-01-01T00:00:00Z","name_a2s":"Uncletopia | Chicago | 2 | All Maps","protocol":17,"map":"pl_badwater","folder":"tf","game":"Team Fortress","app_id":440,"player_count":24,"max_players":24,"Bots":0,"server_type":"Dedicated","server_os":"Linux","password":true,"vac":true,"version":"7757534","steam_id":85568392924469985,"keywords":["nocrits","nodmgspread","payload","uncletopia"],"game_id":440,"stv_port":27026,"stv_name":"Uncletopia | Chicago | 2 | All Maps | STV","players":[{"user_id":558,"name":"P‚òÖlaris","steam_id":76561198026517254,"connected_time":755000000000,"state":"active","ping":84},{"user_id":569,"name":"Shin Tae Il's Lighter","steam_id":76561198984360849,"connected_time":240000000000,"state":"active","ping":82},{"user_id":559,"name":"Matt","steam_id":76561198008108521,"connected_time":744000000000,"state":"active","ping":63},{"user_id":560,"name":"Basement Grandpa","steam_id":76561198014574925,"connected_time":744000000000,"state":"active","ping":71},{"user_id":561,"name":"Carmine","steam_id":76561199405378993,"connected_time":720000000000,"state":"active","ping":71},{"user_id":562,"name":"Vapeinhand","steam_id":76561198134439943,"connected_time":691000000000,"state":"active","ping":69},{"user_id":555,"name":"‚ô°a femboy‚ô°","steam_id":76561199212971864,"connected_time":1053000000000,"state":"active","ping":85},{"user_id":539,"name":"Cousin Corn on the Cob","steam_id":76561198049837377,"connected_time":2749000000000,"state":"active","ping":46},{"user_id":516,"name":"Felipe Ramirez 2013","steam_id":76561198150497397,"connected_time":4483000000000,"state":"active","ping":59},{"user_id":551,"name":"AzuriousAlex","steam_id":76561198158026405,"connected_time":2186000000000,"state":"active","ping":75},{"user_id":570,"name":"Kraftlos","steam_id":76561198074350350,"connected_time":220000000000,"state":"active","ping":86},{"user_id":542,"name":"Kapitan Bomba","steam_id":76561199102087660,"connected_time":2600000000000,"state":"active","ping":64},{"user_id":540,"name":"fuckterry","steam_id":76561198271957738,"connected_time":2723000000000,"state":"active","ping":63},{"user_id":571,"name":"Daryn","steam_id":76561198172438263,"connected_time":132000000000,"state":"active","ping":92},{"user_id":567,"name":"Cactus Man","steam_id":76561198358584155,"connected_time":319000000000,"state":"active","ping":83},{"user_id":543,"name":"sootyquill","steam_id":76561198186883927,"connected_time":2578000000000,"state":"active","ping":100},{"user_id":537,"name":"PERDONAME POR TODO ELIZABEEEETH","steam_id":76561198256886614,"connected_time":3283000000000,"state":"active","ping":113},{"user_id":564,"name":"Piyono","steam_id":76561197962188504,"connected_time":663000000000,"state":"active","ping":67},{"user_id":549,"name":"jrdoran","steam_id":76561197984753094,"connected_time":2314000000000,"state":"active","ping":57},{"user_id":568,"name":"john (real)","steam_id":76561199122787640,"connected_time":264000000000,"state":"active","ping":82},{"user_id":545,"name":"RoFrogle","steam_id":76561199078941377,"connected_time":2563000000000,"state":"active","ping":70},{"user_id":550,"name":"airballer \u003e:3","steam_id":76561198165899125,"connected_time":2312000000000,"state":"active","ping":72},{"user_id":556,"name":"beta central","steam_id":76561198301876831,"connected_time":840000000000,"state":"active","ping":63},{"user_id":547,"name":"hatchetax","steam_id":76561199013337543,"connected_time":2432000000000,"state":"active","ping":63}]},{"server_id":402,"name":"Uncletopia | Chicago | 3 | All Maps","name_short":"chi-3","host":"chi-1.us.uncletopia.com","port":27035,"enabled":true,"region":"us-central","cc":"us","latitude":41.881832,"longitude":-87.62318,"reserved":0,"last_update":"0001-01-01T00:00:00Z","name_a2s":"Uncletopia | Chicago | 3 | All Maps","protocol":17,"map":"koth_king","folder":"tf","game":"Team Fortress","app_id":440,"player_count":23,"max_players":24,"Bots":0,"server_type":"Dedicated","server_os":"Linux","password":true,"vac":true,"version":"7757534","steam_id":85568392924515191,"keywords":["cp","nocrits","nodmgspread","uncletopia"],"game_id":440,"stv_port":27036,"stv_name":"Uncletopia | Chicago | 3 | All Maps | STV","players":[{"user_id":142,"name":"Emperor Dankatine","steam_id":76561198044741086,"connected_time":468000000000,"state":"active","ping":83},{"user_id":143,"name":"Major_Pippy","steam_id":76561198004482878,"connected_time":466000000000,"state":"active","ping":93},{"user_id":128,"name":"Mendo","steam_id":76561198068884273,"connected_time":1008000000000,"state":"active","ping":69},{"user_id":149,"name":"mumbles","steam_id":76561197994528974,"connected_time":327000000000,"state":"active","ping":120},{"user_id":145,"name":"Kami","steam_id":76561199039249396,"connected_time":428000000000,"state":"active","ping":77},{"user_id":104,"name":"sibling bane","steam_id":76561198196769297,"connected_time":1649000000000,"state":"active","ping":53},{"user_id":152,"name":"Shrake","steam_id":76561198114379995,"connected_time":261000000000,"state":"active","ping":33},{"user_id":146,"name":"Old St. Scat","steam_id":76561198322096569,"connected_time":404000000000,"state":"active","ping":115},{"user_id":155,"name":"The Dokkan Dance","steam_id":76561198855935442,"connected_time":4000000000,"state":"spawning","ping":74},{"user_id":100,"name":"Wild_Rumpus","steam_id":76561198066393719,"connected_time":1890000000000,"state":"active","ping":67},{"user_id":108,"name":"pinkissocool {f2p}","steam_id":76561198989599828,"connected_time":1469000000000,"state":"active","ping":60},{"user_id":109,"name":"puke","steam_id":76561197999279693,"connected_time":1461000000000,"state":"active","ping":75},{"user_id":118,"name":"mel","steam_id":76561198097124190,"connected_time":1245000000000,"state":"active","ping":73},{"user_id":120,"name":"dbelow_","steam_id":76561198056148853,"connected_time":1171000000000,"state":"active","ping":62},{"user_id":111,"name":"nory","steam_id":76561198031819070,"connected_time":1450000000000,"state":"active","ping":94},{"user_id":141,"name":"Critscare","steam_id":76561198087712508,"connected_time":503000000000,"state":"active","ping":43},{"user_id":133,"name":"Lethal","steam_id":76561198052257177,"connected_time":842000000000,"state":"active","ping":65},{"user_id":72,"name":"roman","steam_id":76561198170066797,"connected_time":4664000000000,"state":"active","ping":64},{"user_id":140,"name":"cucumper","steam_id":76561198079504588,"connected_time":537000000000,"state":"active","ping":72},{"user_id":153,"name":"DFR DeezNoodlez","steam_id":76561198246700372,"connected_time":224000000000,"state":"active","ping":70},{"user_id":113,"name":"_Ati","steam_id":76561198339777801,"connected_time":1448000000000,"state":"active","ping":104},{"user_id":139,"name":"VanderSalad","steam_id":76561198027370031,"connected_time":554000000000,"state":"active","ping":59},{"user_id":154,"name":"George","steam_id":76561198020046873,"connected_time":205000000000,"state":"active","ping":64}]},{"server_id":403,"name":"Uncletopia | Chicago | 4 | All Maps","name_short":"chi-4","host":"chi-1.us.uncletopia.com","port":27045,"enabled":true,"region":"us-central","cc":"us","latitude":41.881832,"longitude":-87.62318,"reserved":0,"last_update":"0001-01-01T00:00:00Z","name_a2s":"Uncletopia | Chicago | 4 | All Maps","protocol":17,"map":"ctf_sawmill","folder":"tf","game":"Team Fortress","app_id":440,"player_count":24,"max_players":24,"Bots":0,"server_type":"Dedicated","server_os":"Linux","password":true,"vac":true,"version":"7757534","steam_id":85568392924515193,"keywords":["ctf","nocrits","nodmgspread","uncletopia"],"game_id":440,"stv_port":27046,"stv_name":"Uncletopia | Chicago | 4 | All Maps | STV","players":[{"user_id":262,"name":"NUt","steam_id":76561198031007966,"connected_time":405000000000,"state":"active","ping":67},{"user_id":256,"name":"gorf?","steam_id":76561198142286417,"connected_time":1249000000000,"state":"active","ping":58},{"user_id":258,"name":"An Unhappy Clown","steam_id":76561198175516514,"connected_time":801000000000,"state":"active","ping":74},{"user_id":259,"name":"6t26j","steam_id":76561198278282836,"connected_time":784000000000,"state":"active","ping":45},{"user_id":198,"name":"pete_the_cat_2014","steam_id":76561198199266047,"connected_time":4136000000000,"state":"active","ping":49},{"user_id":263,"name":"Asian guy","steam_id":76561199062787946,"connected_time":369000000000,"state":"active","ping":59},{"user_id":231,"name":"Snoop, the Dogg","steam_id":76561198041338030,"connected_time":2932000000000,"state":"active","ping":87},{"user_id":166,"name":"LegendaryMister151","steam_id":76561198064890524,"connected_time":4959000000000,"state":"active","ping":82},{"user_id":241,"name":"hints of mauve","steam_id":76561198025681784,"connected_time":1976000000000,"state":"active","ping":65},{"user_id":264,"name":"Letters","steam_id":76561198035508148,"connected_time":334000000000,"state":"active","ping":112},{"user_id":239,"name":"Orca?","steam_id":76561198164341099,"connected_time":1991000000000,"state":"active","ping":115},{"user_id":253,"name":"stacybaby80","steam_id":76561198406951007,"connected_time":1400000000000,"state":"active","ping":59},{"user_id":265,"name":"DDMM5008","steam_id":76561198013373274,"connected_time":322000000000,"state":"active","ping":64},{"user_id":266,"name":"Soil","steam_id":76561198943879122,"connected_time":313000000000,"state":"active","ping":59},{"user_id":261,"name":"blueturtle96","steam_id":76561198180706950,"connected_time":624000000000,"state":"active","ping":45},{"user_id":35,"name":"Rick O'Connell","steam_id":76561198140709878,"connected_time":9467000000000,"state":"active","ping":73},{"user_id":268,"name":"SEXHATER329","steam_id":76561198101093446,"connected_time":205000000000,"state":"active","ping":62},{"user_id":252,"name":"where'd my hair go?","steam_id":76561198062763756,"connected_time":1433000000000,"state":"active","ping":47},{"user_id":237,"name":"[DEEP] Danmar33","steam_id":76561198056453091,"connected_time":2354000000000,"state":"active","ping":49},{"user_id":228,"name":"wiiblob","steam_id":76561198109106242,"connected_time":3216000000000,"state":"active","ping":141},{"user_id":269,"name":"Protato","steam_id":76561198061182563,"connected_time":46000000000,"state":"active","ping":77},{"user_id":254,"name":"Ronnie McNutt","steam_id":76561198453543661,"connected_time":1323000000000,"state":"active","ping":49},{"user_id":267,"name":"we‚Äôre all in doubt","steam_id":76561198165567310,"connected_time":309000000000,"state":"active","ping":60},{"user_id":236,"name":"Goober","steam_id":76561198988863807,"connected_time":2601000000000,"state":"active","ping":74}]},{"server_id":36,"name":"Uncletopia | Chicago | 5 | All Maps","name_short":"chi-5","host":"chi-2.us.uncletopia.com","port":27015,"enabled":true,"region":"us-central","cc":"us","latitude":41.881832,"longitude":-87.62318,"reserved":0,"last_update":"0001-01-01T00:00:00Z","name_a2s":"Uncletopia | Chicago | 5 | All Maps","protocol":17,"map":"pl_swiftwater_final1","folder":"tf","game":"Team Fortress","app_id":440,"player_count":24,"max_players":24,"Bots":0,"server_type":"Dedicated","server_os":"Linux","password":true,"vac":true,"version":"7757534","steam_id":85568392924866362,"keywords":["nocrits","nodmgspread","payload","uncletopia"],"game_id":440,"stv_port":27016,"stv_name":"Uncletopia | Chicago | 5 | All Maps | STV","players":[{"user_id":192,"name":"Joe2","steam_id":76561199088646500,"connected_time":789000000000,"state":"active","ping":92},{"user_id":204,"name":"iceetee","steam_id":76561198156275931,"connected_time":381000000000,"state":"active","ping":66},{"user_id":164,"name":"CousinCarL","steam_id":76561198028421250,"connected_time":3306000000000,"state":"active","ping":68},{"user_id":185,"name":"Soundproof","steam_id":76561198133392504,"connected_time":955000000000,"state":"active","ping":55},{"user_id":187,"name":"Herobrineclone7","steam_id":76561199193733613,"connected_time":933000000000,"state":"active","ping":84},{"user_id":191,"name":"Brutus","steam_id":76561198213163211,"connected_time":799000000000,"state":"active","ping":81},{"user_id":189,"name":"scrapheap","steam_id":76561198202407087,"connected_time":864000000000,"state":"active","ping":75},{"user_id":190,"name":"Clormac Macalahacte","steam_id":76561198103305334,"connected_time":860000000000,"state":"active","ping":61},{"user_id":207,"name":"Bee","steam_id":76561198074681324,"connected_time":80000000000,"state":"active","ping":65},{"user_id":171,"name":"Just a premium noob [TCPub]","steam_id":76561198061414553,"connected_time":2209000000000,"state":"active","ping":107},{"user_id":160,"name":"cooltool21","steam_id":76561197996817585,"connected_time":3884000000000,"state":"active","ping":76},{"user_id":206,"name":"Mr Krabs","steam_id":76561198858495573,"connected_time":96000000000,"state":"active","ping":72},{"user_id":196,"name":"bananalover5","steam_id":76561199143854578,"connected_time":540000000000,"state":"active","ping":85},{"user_id":152,"name":"Fuzzy Toast","steam_id":76561198028067781,"connected_time":4360000000000,"state":"active","ping":43},{"user_id":165,"name":"The","steam_id":76561198109783729,"connected_time":3305000000000,"state":"active","ping":46},{"user_id":121,"name":"Endzilla88","steam_id":76561198257926514,"connected_time":6558000000000,"state":"active","ping":70},{"user_id":155,"name":"Cat in Your Backyard","steam_id":76561197979078330,"connected_time":4103000000000,"state":"active","ping":62},{"user_id":205,"name":"gyozaking","steam_id":76561197972312696,"connected_time":375000000000,"state":"active","ping":46},{"user_id":198,"name":"ipadkid","steam_id":76561199239446808,"connected_time":497000000000,"state":"active","ping":67},{"user_id":208,"name":"Greg","steam_id":76561198160241924,"connected_time":59000000000,"state":"spawning","ping":143},{"user_id":201,"name":"‚òº gamble","steam_id":76561198074180953,"connected_time":475000000000,"state":"active","ping":74},{"user_id":200,"name":"Lane","steam_id":76561197965828506,"connected_time":491000000000,"state":"active","ping":34},{"user_id":202,"name":"CapnKris22","steam_id":76561198049010994,"connected_time":469000000000,"state":"active","ping":65},{"user_id":203,"name":"Cassini","steam_id":76561198318526294,"connected_time":468000000000,"state":"active","ping":72}]},{"server_id":37,"name":"Uncletopia | Chicago | 6 | All Maps","name_short":"chi-6","host":"chi-2.us.uncletopia.com","port":27025,"enabled":true,"region":"us-central","cc":"us","latitude":41.881832,"longitude":-87.62318,"reserved":0,"last_update":"0001-01-01T00:00:00Z","name_a2s":"Uncletopia | Chicago | 6 | All Maps","protocol":17,"map":"koth_lakeside_final","folder":"tf","game":"Team Fortress","app_id":440,"player_count":24,"max_players":24,"Bots":0,"server_type":"Dedicated","server_os":"Linux","password":true,"vac":true,"version":"7757534","steam_id":85568392924866363,"keywords":["cp","nocrits","nodmgspread","uncletopia"],"game_id":440,"stv_port":27026,"stv_name":"Uncletopia | Chicago | 6 | All Maps | STV","players":[{"user_id":22,"name":"Vl@iM@","steam_id":76561198044762641,"connected_time":1247000000000,"state":"active","ping":100},{"user_id":23,"name":"Steev Stanman","steam_id":76561198048417796,"connected_time":1237000000000,"state":"active","ping":57},{"user_id":24,"name":"Nivet Fox","steam_id":76561198135362867,"connected_time":1224000000000,"state":"active","ping":47},{"user_id":25,"name":"Surgicalsubset","steam_id":76561198983418107,"connected_time":1207000000000,"state":"active","ping":62},{"user_id":26,"name":"tgang","steam_id":76561198052009931,"connected_time":1155000000000,"state":"active","ping":58},{"user_id":27,"name":"Sup m8","steam_id":76561198081659121,"connected_time":1038000000000,"state":"active","ping":61},{"user_id":28,"name":"DamerDoozle","steam_id":76561199121686201,"connected_time":980000000000,"state":"active","ping":69},{"user_id":33,"name":"McSmitten","steam_id":76561198022358379,"connected_time":632000000000,"state":"active","ping":79},{"user_id":35,"name":"THE Bucket Man","steam_id":76561198851816161,"connected_time":385000000000,"state":"active","ping":68},{"user_id":31,"name":"Margaret Thatcher, but moreso","steam_id":76561198121955432,"connected_time":806000000000,"state":"active","ping":79},{"user_id":32,"name":"Z\u0026y","steam_id":76561198013389059,"connected_time":702000000000,"state":"active","ping":79},{"user_id":44,"name":"The Donk","steam_id":76561198078462645,"connected_time":79000000000,"state":"active","ping":63},{"user_id":36,"name":"Mom 2","steam_id":76561198200961750,"connected_time":276000000000,"state":"active","ping":118},{"user_id":37,"name":"Dr. Quack","steam_id":76561198260753684,"connected_time":248000000000,"state":"active","ping":56},{"user_id":38,"name":"grandpa with arthritis","steam_id":76561199153376034,"connected_time":233000000000,"state":"active","ping":68},{"user_id":39,"name":"Dad 2","steam_id":76561198138546187,"connected_time":220000000000,"state":"active","ping":67},{"user_id":40,"name":"The Fragrance of Dark Coffee","steam_id":76561198013111370,"connected_time":212000000000,"state":"active","ping":65},{"user_id":42,"name":"Thequirka","steam_id":76561198968058652,"connected_time":95000000000,"state":"active","ping":96},{"user_id":43,"name":"Bad Rollout","steam_id":76561197971948876,"connected_time":82000000000,"state":"active","ping":72},{"user_id":46,"name":"Toaster Strudel Enjoyer","steam_id":76561199048699541,"connected_time":63000000000,"state":"active","ping":78},{"user_id":47,"name":"the grungler!","steam_id":76561198058485742,"connected_time":48000000000,"state":"spawning","ping":51},{"user_id":48,"name":"Kriss","steam_id":76561198855556991,"connected_time":46000000000,"state":"active","ping":108},{"user_id":49,"name":"Anti-Semetic Semite","steam_id":76561198442203932,"connected_time":28000000000,"state":"active","ping":116},{"user_id":50,"name":"Hihi3000","steam_id":76561198873454667,"connected_time":21000000000,"state":"active","ping":95}]},{"server_id":38,"name":"Uncletopia | Chicago | 7 | Stopwatch Beta","name_short":"chi-7","host":"chi-2.us.uncletopia.com","port":27035,"enabled":true,"region":"us-central","cc":"us","latitude":41.881832,"longitude":-87.62318,"reserved":0,"last_update":"0001-01-01T00:00:00Z","name_a2s":"Uncletopia | Chicago | 7 | Stopwatch Beta","protocol":17,"map":"pl_barnblitz","folder":"tf","game":"Team Fortress","app_id":440,"player_count":0,"max_players":24,"Bots":0,"server_type":"Dedicated","server_os":"Linux","password":true,"vac":true,"version":"7757534","steam_id":85568392924866364,"keywords":["nocrits","nodmgspread","payload","uncletopia"],"game_id":440,"stv_port":27036,"stv_name":"Uncletopia | Chicago | 7 | Stopwatch Beta | STV","players":null},{"server_id":39,"name":"Uncletopia | Chicago | 8 | Community","name_short":"chi-8","host":"chi-2.us.uncletopia.com","port":27045,"enabled":true,"region":"us-central","cc":"us","latitude":41.881832,"longitude":-87.62318,"reserved":0,"last_update":"0001-01-01T00:00:00Z","name_a2s":"Uncletopia | Chicago | 8 | Community","protocol":17,"map":"workshop/koth_slaughter_rc1.ugc1712845210","folder":"tf","game":"Team Fortress","app_id":440,"player_count":0,"max_players":24,"Bots":0,"server_type":"Dedicated","server_os":"Linux","password":true,"vac":true,"version":"7757534","steam_id":85568392924866365,"keywords":["cp","nocrits","nodmgspread","uncletopia"],"game_id":440,"stv_port":27046,"stv_name":"Uncletopia | Chicago | 8 | Community | STV","players":null},{"server_id":8,"name":"Uncletopia | Dallas | 1 | All Maps","name_short":"dal-1","host":"dal-1.us.uncletopia.com","port":27015,"enabled":true,"region":"us-central","cc":"us","latitude":32.779167,"longitude":-96.80889,"reserved":0,"last_update":"0001-01-01T00:00:00Z","name_a2s":"Uncletopia | Dallas | 1 | All Maps","protocol":17,"map":"cp_dustbowl","folder":"tf","game":"Team Fortress","app_id":440,"player_count":24,"max_players":24,"Bots":0,"server_type":"Dedicated","server_os":"Linux","password":true,"vac":true,"version":"7757534","steam_id":85568392924469986,"keywords":["cp","nocrits","nodmgspread","uncletopia"],"game_id":440,"stv_port":27016,"stv_name":"Uncletopia | Dallas | 1 | All Maps | STV","players":[{"user_id":509,"name":"icm2008","steam_id":76561199277408836,"connected_time":1053000000000,"state":"active","ping":80},{"user_id":393,"name":"TothBrush","steam_id":76561198028254471,"connected_time":10792000000000,"state":"active","ping":64},{"user_id":465,"name":"Bobby Zimmeruski","steam_id":76561198171428589,"connected_time":3860000000000,"state":"active","ping":48},{"user_id":452,"name":"Kitsune","steam_id":76561198241094670,"connected_time":4725000000000,"state":"active","ping":87},{"user_id":463,"name":"Donkski","steam_id":76561198406895347,"connected_time":3931000000000,"state":"active","ping":66},{"user_id":506,"name":"spy","steam_id":76561198937717599,"connected_time":1245000000000,"state":"active","ping":41},{"user_id":494,"name":"VixianUwU","steam_id":76561198948815060,"connected_time":2510000000000,"state":"active","ping":70},{"user_id":495,"name":"BULLSHIT MATADOR","steam_id":76561198044488913,"connected_time":2426000000000,"state":"active","ping":60},{"user_id":518,"name":"Furious George","steam_id":76561198405111646,"connected_time":513000000000,"state":"active","ping":84},{"user_id":510,"name":"Mr. Morrow","steam_id":76561198011333701,"connected_time":1048000000000,"state":"active","ping":58},{"user_id":468,"name":"luscaPUTO","steam_id":76561199037598902,"connected_time":3813000000000,"state":"active","ping":129},{"user_id":470,"name":"Minlit","steam_id":76561198205832799,"connected_time":3747000000000,"state":"active","ping":58},{"user_id":514,"name":"The mook","steam_id":76561198963551905,"connected_time":852000000000,"state":"active","ping":86},{"user_id":503,"name":"Draco6257","steam_id":76561199147322448,"connected_time":1786000000000,"state":"active","ping":71},{"user_id":516,"name":"Legit_Jaxer","steam_id":76561198172234053,"connected_time":613000000000,"state":"active","ping":110},{"user_id":469,"name":"Theta Yeti","steam_id":76561198216780915,"connected_time":3786000000000,"state":"active","ping":87},{"user_id":515,"name":"GLXy","steam_id":76561198207551544,"connected_time":831000000000,"state":"active","ping":101},{"user_id":507,"name":"Kelly Clarkson","steam_id":76561198250330566,"connected_time":1096000000000,"state":"active","ping":75},{"user_id":513,"name":"evan_is_sauce","steam_id":76561199086802383,"connected_time":895000000000,"state":"active","ping":72},{"user_id":511,"name":"sevanial","steam_id":76561198071532126,"connected_time":1044000000000,"state":"active","ping":61},{"user_id":499,"name":"Wolverine Fingerblaster","steam_id":76561198095394582,"connected_time":2014000000000,"state":"active","ping":64},{"user_id":520,"name":"Frying Pan","steam_id":76561198111636919,"connected_time":371000000000,"state":"active","ping":66},{"user_id":448,"name":"Aztea","steam_id":76561198982089893,"connected_time":4909000000000,"state":"active","ping":82},{"user_id":486,"name":"Jack from Jack in The Box","steam_id":76561199083594971,"connected_time":2839000000000,"state":"active","ping":70}]},{"server_id":108,"name":"Uncletopia | Dallas | 2 | All Maps","name_short":"dal-2","host":"dal-1.us.uncletopia.com","port":27025,"enabled":true,"region":"us-central","cc":"us","latitude":32.779167,"longitude":-96.80889,"reserved":0,"last_update":"0001-01-01T00:00:00Z","name_a2s":"Uncletopia | Dallas | 2 | All Maps","protocol":17,"map":"pl_borneo","folder":"tf","game":"Team Fortress","app_id":440,"player_count":24,"max_players":24,"Bots":0,"server_type":"Dedicated","server_os":"Linux","password":true,"vac":true,"version":"7757534","steam_id":85568392924469988,"keywords":["nocrits","nodmgspread","payload","uncletopia"],"game_id":440,"stv_port":27026,"stv_name":"Uncletopia | Dallas | 2 | All Maps | STV","players":[{"user_id":347,"name":"dog","steam_id":76561198263873491,"connected_time":1464000000000,"state":"active","ping":60},{"user_id":341,"name":"Healer Wolxer","steam_id":76561197999816472,"connected_time":1946000000000,"state":"active","ping":63},{"user_id":334,"name":"Shadowcaster","steam_id":76561198059600807,"connected_time":2210000000000,"state":"active","ping":55},{"user_id":343,"name":"sick, twisted, demented","steam_id":76561198799922000,"connected_time":1882000000000,"state":"active","ping":75},{"user_id":322,"name":"Angel_Bonnie","steam_id":76561199229447760,"connected_time":2707000000000,"state":"active","ping":91},{"user_id":315,"name":"MeMyBongusAndTheGreatOutdoors","steam_id":76561198097708978,"connected_time":3009000000000,"state":"active","ping":46},{"user_id":332,"name":"crumbles","steam_id":76561198168707036,"connected_time":2354000000000,"state":"active","ping":82},{"user_id":316,"name":"Mellou","steam_id":76561198212048740,"connected_time":2958000000000,"state":"active","ping":49},{"user_id":342,"name":"crypt","steam_id":76561198280142450,"connected_time":1929000000000,"state":"active","ping":45},{"user_id":358,"name":"Concolor","steam_id":76561198027734150,"connected_time":620000000000,"state":"active","ping":92},{"user_id":327,"name":"bendera","steam_id":76561197965486503,"connected_time":2507000000000,"state":"active","ping":91},{"user_id":360,"name":"Um, cool!","steam_id":76561198129870038,"connected_time":263000000000,"state":"active","ping":80},{"user_id":346,"name":"Rhutebeer","steam_id":76561198018302761,"connected_time":1558000000000,"state":"active","ping":80},{"user_id":336,"name":"Luna","steam_id":76561198131342156,"connected_time":2011000000000,"state":"active","ping":70},{"user_id":359,"name":"{·¥õ Ä_·¥Ñ·¥á Ä·¥ò} shullers","steam_id":76561198889997809,"connected_time":365000000000,"state":"active","ping":75},{"user_id":348,"name":"Speavy","steam_id":76561198847690613,"connected_time":1414000000000,"state":"active","ping":92},{"user_id":311,"name":"the meta","steam_id":76561199071495058,"connected_time":3087000000000,"state":"active","ping":81},{"user_id":325,"name":"Jared In Target","steam_id":76561198372449718,"connected_time":2656000000000,"state":"active","ping":42},{"user_id":287,"name":"Dude bro","steam_id":76561198249916746,"connected_time":5573000000000,"state":"active","ping":78},{"user_id":354,"name":"CheeseCake488","steam_id":76561199407617942,"connected_time":1083000000000,"state":"active","ping":175},{"user_id":330,"name":"Estetrius","steam_id":76561198016993850,"connected_time":2377000000000,"state":"active","ping":56},{"user_id":353,"name":"Der Munchkin[2098]","steam_id":76561197998833309,"connected_time":1302000000000,"state":"active","ping":72},{"user_id":356,"name":"clenZORZ","steam_id":76561198835570628,"connected_time":870000000000,"state":"active","ping":69},{"user_id":331,"name":"DargaribdusPersonOfLordlyCalibe","steam_id":76561198020876416,"connected_time":2377000000000,"state":"active","ping":69}]},{"server_id":5,"name":"Uncletopia | Frankfurt | 1 | All Maps","name_short":"frk-1","host":"frk-1.de.uncletopia.com","port":27015,"enabled":true,"region":"eu","cc":"de","latitude":50.110924,"longitude":8.682127,"reserved":0,"last_update":"0001-01-01T00:00:00Z","name_a2s":"Uncletopia | Frankfurt | 1 | All Maps","protocol":17,"map":"cp_dustbowl","folder":"tf","game":"Team Fortress","app_id":440,"player_count":1,"max_players":24,"Bots":0,"server_type":"Dedicated","server_os":"Linux","password":true,"vac":true,"version":"7757534","steam_id":85568392924469989,"keywords":["cp","nocrits","nodmgspread","uncletopia"],"game_id":440,"stv_port":27016,"stv_name":"Uncletopia | Frankfurt | 1 | All Maps | STV","players":[{"user_id":805,"name":"The Feds","steam_id":76561199134834554,"connected_time":15000000000,"state":"spawning","ping":149}]},{"server_id":110,"name":"Uncletopia | Frankfurt | 2 | All Maps","name_short":"frk-2","host":"frk-1.de.uncletopia.com","port":27025,"enabled":true,"region":"eu","cc":"de","latitude":50.110924,"longitude":8.682127,"reserved":0,"last_update":"0001-01-01T00:00:00Z","name_a2s":"Uncletopia | Frankfurt | 2 | All Maps","protocol":17,"map":"pl_frontier_final","folder":"tf","game":"Team Fortress","app_id":440,"player_count":24,"max_players":24,"Bots":0,"server_type":"Dedicated","server_os":"Linux","password":true,"vac":true,"version":"7757534","steam_id":85568392924469990,"keywords":["nocrits","nodmgspread","payload","uncletopia"],"game_id":440,"stv_port":27026,"stv_name":"Uncletopia | Frankfurt | 2 | All Maps | STV","players":[{"user_id":224,"name":"Ach Wheesht","steam_id":76561197996993222,"connected_time":6433000000000,"state":"active","ping":54},{"user_id":289,"name":"mike\"3loavesofbread\"jones","steam_id":76561198064342804,"connected_time":3370000000000,"state":"active","ping":71},{"user_id":306,"name":"ddec45","steam_id":76561198153175196,"connected_time":2314000000000,"state":"active","ping":87},{"user_id":330,"name":"Ramming2","steam_id":76561198115928110,"connected_time":1169000000000,"state":"active","ping":75},{"user_id":331,"name":"Nejby","steam_id":76561198124832334,"connected_time":1135000000000,"state":"active","ping":68},{"user_id":307,"name":"Hookiest Owler","steam_id":76561198872013525,"connected_time":2202000000000,"state":"active","ping":103},{"user_id":315,"name":"VI_main","steam_id":76561198954407679,"connected_time":1755000000000,"state":"active","ping":68},{"user_id":328,"name":"willus212","steam_id":76561199182615246,"connected_time":1280000000000,"state":"active","ping":84},{"user_id":337,"name":"nedilya","steam_id":76561198039692077,"connected_time":585000000000,"state":"active","ping":57},{"user_id":333,"name":"Chickenwing","steam_id":76561199347103141,"connected_time":1021000000000,"state":"active","ping":173},{"user_id":299,"name":"Poeder","steam_id":76561198385843387,"connected_time":2710000000000,"state":"active","ping":72},{"user_id":338,"name":"MizManFryinPüç≥","steam_id":76561198047978336,"connected_time":578000000000,"state":"active","ping":107},{"user_id":340,"name":"Chico","steam_id":76561198150969618,"connected_time":529000000000,"state":"active","ping":83},{"user_id":346,"name":"janti  #NEWTF2Hunt","steam_id":76561199387238623,"connected_time":405000000000,"state":"active","ping":89},{"user_id":324,"name":"‚ò© Knightz ‚ò©","steam_id":76561198040936414,"connected_time":1549000000000,"state":"active","ping":118},{"user_id":349,"name":"kotamine","steam_id":76561198068907991,"connected_time":261000000000,"state":"active","ping":62},{"user_id":351,"name":"a dollop of bird","steam_id":76561198089003514,"connected_time":172000000000,"state":"active","ping":45},{"user_id":329,"name":"skill","steam_id":76561198106012909,"connected_time":1196000000000,"state":"active","ping":69},{"user_id":288,"name":"princess","steam_id":76561197994492154,"connected_time":3430000000000,"state":"active","ping":73},{"user_id":309,"name":"engineer drip","steam_id":76561198991032570,"connected_time":2166000000000,"state":"active","ping":76},{"user_id":292,"name":"jeff","steam_id":76561198272815746,"connected_time":3307000000000,"state":"active","ping":60},{"user_id":350,"name":"sunlight","steam_id":76561198119449463,"connected_time":237000000000,"state":"active","ping":63},{"user_id":326,"name":"Intruder","steam_id":76561198156128173,"connected_time":1477000000000,"state":"active","ping":83},{"user_id":335,"name":"Topme","steam_id":76561198091734693,"connected_time":848000000000,"state":"active","ping":75}]},{"server_id":308,"name":"Uncletopia | Frankfurt | 3 | All Maps","name_short":"frk-3","host":"frk-1.de.uncletopia.com","port":27035,"enabled":true,"region":"eu","cc":"de","latitude":50.110924,"longitude":8.682127,"reserved":0,"last_update":"0001-01-01T00:00:00Z","name_a2s":"Uncletopia | Frankfurt | 3 | All Maps","protocol":17,"map":"pl_barnblitz","folder":"tf","game":"Team Fortress","app_id":440,"player_count":17,"max_players":24,"Bots":0,"server_type":"Dedicated","server_os":"Linux","password":true,"vac":true,"version":"7757534","steam_id":85568392924504274,"keywords":["nocrits","nodmgspread","payload","uncletopia"],"game_id":440,"stv_port":27036,"stv_name":"Uncletopia | Frankfurt | 3 | All Maps | STV","players":[{"user_id":335,"name":"[No Class]","steam_id":76561199019412162,"connected_time":170000000000,"state":"active","ping":63},{"user_id":324,"name":"Big Balls Bill","steam_id":76561198045998627,"connected_time":1218000000000,"state":"active","ping":48},{"user_id":334,"name":"penis gnome","steam_id":76561198097612561,"connected_time":383000000000,"state":"active","ping":67},{"user_id":338,"name":"duckels","steam_id":76561198127790695,"connected_time":55000000000,"state":"spawning","ping":36},{"user_id":339,"name":"‚òûLaZe‚òú","steam_id":76561198202191400,"connected_time":49000000000,"state":"active","ping":62},{"user_id":340,"name":"yaldabaoth","steam_id":76561198084606869,"connected_time":29000000000,"state":"spawning","ping":144},{"user_id":303,"name":"Honest Tom's Discount Beef","steam_id":76561198029971392,"connected_time":2449000000000,"state":"active","ping":81},{"user_id":337,"name":"Cocane Concho","steam_id":76561198139690063,"connected_time":81000000000,"state":"active","ping":35},{"user_id":317,"name":"randompixel","steam_id":76561198003941207,"connected_time":1499000000000,"state":"active","ping":67},{"user_id":332,"name":"Content Spy","steam_id":76561198250161534,"connected_time":780000000000,"state":"active","ping":105},{"user_id":330,"name":"feed and seed","steam_id":76561199088046420,"connected_time":1025000000000,"state":"active","ping":49},{"user_id":327,"name":"doodgie","steam_id":76561198264934115,"connected_time":1175000000000,"state":"active","ping":64},{"user_id":298,"name":".erik (real)","steam_id":76561197962112424,"connected_time":3112000000000,"state":"active","ping":74},{"user_id":284,"name":"harizzment","steam_id":76561198890409949,"connected_time":4075000000000,"state":"active","ping":83},{"user_id":322,"name":"Trash","steam_id":76561198079081990,"connected_time":1387000000000,"state":"active","ping":45},{"user_id":328,"name":"Sippie","steam_id":76561198130393388,"connected_time":1168000000000,"state":"active","ping":63},{"user_id":329,"name":"Metal Silver","steam_id":76561198422159570,"connected_time":1152000000000,"state":"active","ping":164}]},{"server_id":309,"name":"Uncletopia | Frankfurt | 4 | All Maps","name_short":"frk-4","host":"frk-1.de.uncletopia.com","port":27045,"enabled":true,"region":"eu","cc":"de","latitude":50.110924,"longitude":8.682127,"reserved":0,"last_update":"0001-01-01T00:00:00Z","name_a2s":"Uncletopia | Frankfurt | 4 | All Maps","protocol":17,"map":"cp_dustbowl","folder":"tf","game":"Team Fortress","app_id":440,"player_count":0,"max_players":24,"Bots":0,"server_type":"Dedicated","server_os":"Linux","password":true,"vac":true,"version":"7757534","steam_id":85568392924504275,"keywords":["cp","nocrits","nodmgspread","uncletopia"],"game_id":440,"stv_port":27046,"stv_name":"Uncletopia | Frankfurt | 4 | All Maps | STV","players":null},{"server_id":310,"name":"Uncletopia | Frankfurt | 5 | All Maps","name_short":"frk-5","host":"frk-1.de.uncletopia.com","port":27055,"enabled":true,"region":"eu","cc":"de","latitude":50.110924,"longitude":8.682127,"reserved":0,"last_update":"0001-01-01T00:00:00Z","name_a2s":"Uncletopia | Frankfurt | 5 | All Maps","protocol":17,"map":"koth_lakeside_final","folder":"tf","game":"Team Fortress","app_id":440,"player_count":0,"max_players":24,"Bots":0,"server_type":"Dedicated","server_os":"Linux","password":true,"vac":true,"version":"7757534","steam_id":85568392924504277,"keywords":["cp","nocrits","nodmgspread","uncletopia"],"game_id":440,"stv_port":27056,"stv_name":"Uncletopia | Frankfurt | 5 | All Maps | STV","players":null},{"server_id":311,"name":"Uncletopia | Frankfurt | 6 | All Maps","name_short":"frk-6","host":"frk-1.de.uncletopia.com","port":27065,"enabled":true,"region":"eu","cc":"de","latitude":50.110924,"longitude":8.682127,"reserved":0,"last_update":"0001-01-01T00:00:00Z","name_a2s":"Uncletopia | Frankfurt | 6 | All Maps","protocol":17,"map":"cp_altitude","folder":"tf","game":"Team Fortress","app_id":440,"player_count":0,"max_players":24,"Bots":0,"server_type":"Dedicated","server_os":"Linux","password":true,"vac":true,"version":"7757534","steam_id":85568392924504278,"keywords":["cp","nocrits","nodmgspread","uncletopia"],"game_id":440,"stv_port":27066,"stv_name":"Uncletopia | Frankfurt | 6 | All Maps | STV","players":null},{"server_id":23,"name":"Uncletopia | Frankfurt | 7 | Stopwatch Beta","name_short":"frk-7","host":"frk-1.de.uncletopia.com","port":27075,"enabled":true,"region":"eu","cc":"de","latitude":50.110924,"longitude":8.682127,"reserved":0,"last_update":"0001-01-01T00:00:00Z","name_a2s":"Uncletopia | Frankfurt | 7 | Stopwatch Beta","protocol":17,"map":"workshop/koth_ramjam_rc1.ugc459778887","folder":"tf","game":"Team Fortress","app_id":440,"player_count":0,"max_players":24,"Bots":0,"server_type":"Dedicated","server_os":"Linux","password":true,"vac":true,"version":"7757534","steam_id":85568392924742827,"keywords":["cp","nocrits","nodmgspread","uncletopia"],"game_id":440,"stv_port":27076,"stv_name":"Uncletopia | Frankfurt | 7 | Stopwatch Beta | STV","players":null},{"server_id":24,"name":"Uncletopia | Frankfurt | 8 | Community","name_short":"frk-8","host":"frk-1.de.uncletopia.com","port":27085,"enabled":true,"region":"eu","cc":"de","latitude":50.110924,"longitude":8.682127,"reserved":0,"last_update":"0001-01-01T00:00:00Z","name_a2s":"Uncletopia | Frankfurt | 8 | Community","protocol":17,"map":"workshop/cp_mannbase_rc2a.ugc1900737467","folder":"tf","game":"Team Fortress","app_id":440,"player_count":0,"max_players":24,"Bots":0,"server_type":"Dedicated","server_os":"Linux","password":true,"vac":true,"version":"7757534","steam_id":85568392924742828,"keywords":["cp","nocrits","nodmgspread","uncletopia"],"game_id":440,"stv_port":27086,"stv_name":"Uncletopia | Frankfurt | 8 | Community | STV","players":null},{"server_id":202,"name":"Uncletopia | Hong Kong | 1 | All Maps","name_short":"hgk-1","host":"hgk-1.hk.uncletopia.com","port":27015,"enabled":true,"region":"asia","cc":"hk","latitude":22.302711,"longitude":114.177216,"reserved":0,"last_update":"0001-01-01T00:00:00Z","name_a2s":"Uncletopia | Hong Kong | 1 | All Maps","protocol":17,"map":"pl_borneo","folder":"tf","game":"Team Fortress","app_id":440,"player_count":0,"max_players":24,"Bots":0,"server_type":"Dedicated","server_os":"Linux","password":true,"vac":true,"version":"7757534","steam_id":85568392924494504,"keywords":["nocrits","nodmgspread","payload","uncletopia"],"game_id":440,"stv_port":27016,"stv_name":"Uncletopia | Hong Kong | 1 | All Maps | STV","players":null},{"server_id":1,"name":"Uncletopia | Los Angeles | 1 | All Maps","name_short":"lax-1","host":"lax-1.us.uncletopia.com","port":27015,"enabled":true,"region":"us-west","cc":"us","latitude":33.94279,"longitude":-118.41004,"reserved":0,"last_update":"0001-01-01T00:00:00Z","name_a2s":"Uncletopia | Los Angeles | 1 | All Maps","protocol":17,"map":"pl_barnblitz","folder":"tf","game":"Team Fortress","app_id":440,"player_count":24,"max_players":24,"Bots":0,"server_type":"Dedicated","server_os":"Linux","password":true,"vac":true,"version":"7757534","steam_id":85568392924469991,"keywords":["nocrits","nodmgspread","payload","uncletopia"],"game_id":440,"stv_port":27016,"stv_name":"Uncletopia | Los Angeles | 1 | All Maps | STV","players":[{"user_id":112,"name":"tweet","steam_id":76561198166515735,"connected_time":4831000000000,"state":"active","ping":56},{"user_id":45,"name":"rustyorion","steam_id":76561198439186347,"connected_time":9892000000000,"state":"active","ping":75},{"user_id":154,"name":"Mr8bittripper","steam_id":76561198133894229,"connected_time":1445000000000,"state":"active","ping":71},{"user_id":143,"name":"The Super Mario Bros. Movie","steam_id":76561198871692156,"connected_time":2609000000000,"state":"active","ping":78},{"user_id":185,"name":"MORE BOUNCE TO THE OUNCE","steam_id":76561198243399336,"connected_time":269000000000,"state":"active","ping":68},{"user_id":184,"name":"grey","steam_id":76561198050618142,"connected_time":446000000000,"state":"active","ping":70},{"user_id":80,"name":"4 Itchy Tasty","steam_id":76561198009869383,"connected_time":7296000000000,"state":"active","ping":105},{"user_id":178,"name":"i fucked your mom dipshit","steam_id":76561198878628282,"connected_time":562000000000,"state":"active","ping":68},{"user_id":180,"name":"[chef] iron","steam_id":76561197970888616,"connected_time":509000000000,"state":"active","ping":90},{"user_id":157,"name":"Partial","steam_id":76561198047164535,"connected_time":1385000000000,"state":"active","ping":88},{"user_id":181,"name":"ICESPROCKET","steam_id":76561198320452169,"connected_time":506000000000,"state":"active","ping":62},{"user_id":172,"name":"Ayyyy","steam_id":76561198121729211,"connected_time":832000000000,"state":"active","ping":46},{"user_id":136,"name":"Nibotshooter","steam_id":76561199284825579,"connected_time":2921000000000,"state":"active","ping":79},{"user_id":166,"name":"Woodstock","steam_id":76561198041442667,"connected_time":1048000000000,"state":"active","ping":82},{"user_id":182,"name":"LogicalFurret","steam_id":76561198350604657,"connected_time":506000000000,"state":"active","ping":45},{"user_id":158,"name":"Cole Boye","steam_id":76561198282449106,"connected_time":1377000000000,"state":"active","ping":76},{"user_id":139,"name":"Thunder","steam_id":76561198097721532,"connected_time":2697000000000,"state":"active","ping":45},{"user_id":175,"name":"PeptoBismol","steam_id":76561198082669076,"connected_time":624000000000,"state":"active","ping":54},{"user_id":183,"name":"Crustacean Daddy","steam_id":76561198993807061,"connected_time":501000000000,"state":"active","ping":45},{"user_id":169,"name":"chode","steam_id":76561198079476547,"connected_time":997000000000,"state":"active","ping":117},{"user_id":170,"name":"Cancant","steam_id":76561199156695295,"connected_time":970000000000,"state":"active","ping":134},{"user_id":60,"name":"Eden","steam_id":76561198081284664,"connected_time":9110000000000,"state":"active","ping":47},{"user_id":163,"name":"Shazzy","steam_id":76561198145460523,"connected_time":1298000000000,"state":"active","ping":75},{"user_id":174,"name":"SODA!","steam_id":76561198115671430,"connected_time":701000000000,"state":"active","ping":114}]},{"server_id":112,"name":"Uncletopia | Los Angeles | 2 | All Maps","name_short":"lax-2","host":"lax-1.us.uncletopia.com","port":27025,"enabled":true,"region":"us-west","cc":"us","latitude":33.94279,"longitude":-118.41004,"reserved":0,"last_update":"0001-01-01T00:00:00Z","name_a2s":"Uncletopia | Los Angeles | 2 | All Maps","protocol":17,"map":"pl_snowycoast","folder":"tf","game":"Team Fortress","app_id":440,"player_count":0,"max_players":24,"Bots":0,"server_type":"Dedicated","server_os":"Linux","password":true,"vac":true,"version":"7757534","steam_id":85568392924469992,"keywords":["nocrits","nodmgspread","payload","uncletopia"],"game_id":440,"stv_port":27026,"stv_name":"Uncletopia | Los Angeles | 2 | All Maps | STV","players":null},{"server_id":324,"name":"Uncletopia | Los Angeles | 3 | All Maps","name_short":"lax-3","host":"lax-1.us.uncletopia.com","port":27035,"enabled":true,"region":"us-west","cc":"us","latitude":33.94279,"longitude":-118.41004,"reserved":0,"last_update":"0001-01-01T00:00:00Z","name_a2s":"Uncletopia | Los Angeles | 3 | All Maps","protocol":17,"map":"pl_barnblitz","folder":"tf","game":"Team Fortress","app_id":440,"player_count":0,"max_players":24,"Bots":0,"server_type":"Dedicated","server_os":"Linux","password":true,"vac":true,"version":"7757534","steam_id":85568392924510198,"keywords":["nocrits","nodmgspread","payload","uncletopia"],"game_id":440,"stv_port":27036,"stv_name":"Uncletopia | Los Angeles | 3 | All Maps | STV","players":null},{"server_id":25,"name":"Uncletopia | Los Angeles | 4 | Stopwatch Beta","name_short":"lax-4","host":"lax-1.us.uncletopia.com","port":27045,"enabled":true,"region":"us-west","cc":"us","latitude":33.94279,"longitude":-118.41004,"reserved":0,"last_update":"0001-01-01T00:00:00Z","name_a2s":"Uncletopia | Los Angeles | 4 | Stopwatch Beta","protocol":17,"map":"pl_swiftwater_final1","folder":"tf","game":"Team Fortress","app_id":440,"player_count":0,"max_players":24,"Bots":0,"server_type":"Dedicated","server_os":"Linux","password":true,"vac":true,"version":"7757534","steam_id":85568392924510199,"keywords":["nocrits","nodmgspread","payload","uncletopia"],"game_id":440,"stv_port":27046,"stv_name":"Uncletopia | Los Angeles | 4 | Stopwatch Beta | STV","players":null},{"server_id":11,"name":"Uncletopia | London | 1 | All Maps","name_short":"lon-1","host":"lon-1.uk.uncletopia.com","port":27015,"enabled":true,"region":"eu","cc":"gb","latitude":51.509865,"longitude":-0.118092,"reserved":0,"last_update":"0001-01-01T00:00:00Z","name_a2s":"Uncletopia | London | 1 | All Maps","protocol":17,"map":"pl_upward","folder":"tf","game":"Team Fortress","app_id":440,"player_count":24,"max_players":24,"Bots":0,"server_type":"Dedicated","server_os":"Linux","password":true,"vac":true,"version":"7757534","steam_id":85568392924367362,"keywords":["nocrits","nodmgspread","payload","uncletopia"],"game_id":440,"stv_port":27016,"stv_name":"Uncletopia | London | 1 | All Maps | STV","players":[{"user_id":558,"name":"Tom","steam_id":76561198008519979,"connected_time":104000000000,"state":"active","ping":55},{"user_id":449,"name":"SOPHIIEE","steam_id":76561198443798981,"connected_time":2974000000000,"state":"active","ping":51},{"user_id":454,"name":"BreadBubbles","steam_id":76561198174332826,"connected_time":2795000000000,"state":"active","ping":59},{"user_id":453,"name":"Iphy","steam_id":76561198137519489,"connected_time":2814000000000,"state":"active","ping":76},{"user_id":469,"name":"f√©nix","steam_id":76561198083199151,"connected_time":2135000000000,"state":"active","ping":56},{"user_id":542,"name":"beebo","steam_id":76561199120277007,"connected_time":957000000000,"state":"active","ping":48},{"user_id":547,"name":"SuperBob103","steam_id":76561199175360012,"connected_time":926000000000,"state":"active","ping":48},{"user_id":527,"name":"Minimi","steam_id":76561198873850443,"connected_time":1376000000000,"state":"active","ping":42},{"user_id":548,"name":"f(u)*ck","steam_id":76561198007575097,"connected_time":894000000000,"state":"active","ping":68},{"user_id":451,"name":"ashley","steam_id":76561198448551449,"connected_time":2884000000000,"state":"active","ping":34},{"user_id":448,"name":"$n√òw","steam_id":76561198238781028,"connected_time":3150000000000,"state":"active","ping":105},{"user_id":457,"name":"sora","steam_id":76561198096547662,"connected_time":2730000000000,"state":"active","ping":50},{"user_id":442,"name":"gnarly business","steam_id":76561198832688767,"connected_time":3731000000000,"state":"active","ping":46},{"user_id":466,"name":"N3lly","steam_id":76561198815271970,"connected_time":2392000000000,"state":"active","ping":66},{"user_id":549,"name":"Mapavri","steam_id":76561198370196400,"connected_time":893000000000,"state":"active","ping":88},{"user_id":550,"name":"INKA","steam_id":76561198352479900,"connected_time":844000000000,"state":"active","ping":70},{"user_id":552,"name":"MelFunnySmell","steam_id":76561198077506613,"connected_time":574000000000,"state":"active","ping":75},{"user_id":559,"name":"regimiro","steam_id":76561198120457008,"connected_time":103000000000,"state":"active","ping":77},{"user_id":468,"name":"Wedgeridoo","steam_id":76561198082813907,"connected_time":2235000000000,"state":"active","ping":120},{"user_id":551,"name":"Sagger","steam_id":76561198065915748,"connected_time":834000000000,"state":"active","ping":54},{"user_id":495,"name":"Pinkchup","steam_id":76561198106802803,"connected_time":1703000000000,"state":"active","ping":77},{"user_id":554,"name":"stonebum","steam_id":76561198057004606,"connected_time":276000000000,"state":"active","ping":56},{"user_id":557,"name":"brainrot","steam_id":76561199414716848,"connected_time":245000000000,"state":"active","ping":76},{"user_id":520,"name":"Kraiti","steam_id":76561198847296908,"connected_time":1469000000000,"state":"active","ping":85}]},{"server_id":114,"name":"Uncletopia | London | 2 | All Maps","name_short":"lon-2","host":"lon-1.uk.uncletopia.com","port":27025,"enabled":true,"region":"eu","cc":"gb","latitude":51.509865,"longitude":-0.118092,"reserved":0,"last_update":"0001-01-01T00:00:00Z","name_a2s":"Uncletopia | London | 2 | All Maps","protocol":17,"map":"pl_barnblitz","folder":"tf","game":"Team Fortress","app_id":440,"player_count":24,"max_players":24,"Bots":0,"server_type":"Dedicated","server_os":"Linux","password":true,"vac":true,"version":"7757534","steam_id":85568392924470941,"keywords":["nocrits","nodmgspread","payload","uncletopia"],"game_id":440,"stv_port":27026,"stv_name":"Uncletopia | London | 2 | All Maps | STV","players":[{"user_id":724,"name":"The cost of living in the UK","steam_id":76561199000520747,"connected_time":2792000000000,"state":"active","ping":45},{"user_id":734,"name":"S'all good, man","steam_id":76561198363882056,"connected_time":1418000000000,"state":"active","ping":44},{"user_id":684,"name":"giclure :;","steam_id":76561197986362828,"connected_time":4950000000000,"state":"active","ping":103},{"user_id":713,"name":"Lubrsi","steam_id":76561198040208195,"connected_time":3327000000000,"state":"active","ping":49},{"user_id":733,"name":"Tyzone‚ô•","steam_id":76561198024844539,"connected_time":1432000000000,"state":"active","ping":48},{"user_id":741,"name":"pigswill","steam_id":76561197999081865,"connected_time":1080000000000,"state":"active","ping":135},{"user_id":735,"name":"Fatman","steam_id":76561197992925209,"connected_time":1377000000000,"state":"active","ping":60},{"user_id":744,"name":"Floyd","steam_id":76561198125333672,"connected_time":901000000000,"state":"active","ping":78},{"user_id":736,"name":"jar","steam_id":76561198156384007,"connected_time":1366000000000,"state":"active","ping":47},{"user_id":731,"name":"Squishy","steam_id":76561198124618876,"connected_time":1836000000000,"state":"active","ping":104},{"user_id":742,"name":"Sabour","steam_id":76561197963965445,"connected_time":1076000000000,"state":"active","ping":71},{"user_id":737,"name":"Cosmetic brain","steam_id":76561198055936410,"connected_time":1328000000000,"state":"active","ping":77},{"user_id":738,"name":"Nuke242","steam_id":76561198149582738,"connected_time":1324000000000,"state":"active","ping":45},{"user_id":718,"name":"choob303","steam_id":76561198206375860,"connected_time":3068000000000,"state":"active","ping":58},{"user_id":710,"name":"five easy hot d0gs","steam_id":76561198163081194,"connected_time":3723000000000,"state":"active","ping":48},{"user_id":745,"name":"subway vergil","steam_id":76561199110064166,"connected_time":883000000000,"state":"active","ping":63},{"user_id":719,"name":"FireStorm","steam_id":76561198350478325,"connected_time":3044000000000,"state":"active","ping":43},{"user_id":720,"name":"Ar|es","steam_id":76561198819160313,"connected_time":3037000000000,"state":"active","ping":88},{"user_id":746,"name":"Sarge21","steam_id":76561198089944847,"connected_time":295000000000,"state":"active","ping":49},{"user_id":725,"name":"ThatGamingKiwi","steam_id":76561199170522237,"connected_time":2753000000000,"state":"active","ping":146},{"user_id":723,"name":"Sneikijs","steam_id":76561198052549308,"connected_time":2887000000000,"state":"active","ping":49},{"user_id":747,"name":"Bod Dog","steam_id":76561198080631634,"connected_time":288000000000,"state":"active","ping":60},{"user_id":707,"name":"A Pigeon","steam_id":76561198114090555,"connected_time":3876000000000,"state":"active","ping":77},{"user_id":727,"name":"Father Krang","steam_id":76561197996783226,"connected_time":2231000000000,"state":"active","ping":75}]},{"server_id":320,"name":"Uncletopia | London | 3 | All Maps","name_short":"lon-3","host":"lon-1.uk.uncletopia.com","port":27035,"enabled":true,"region":"eu","cc":"gb","latitude":51.509865,"longitude":-0.118092,"reserved":0,"last_update":"0001-01-01T00:00:00Z","name_a2s":"Uncletopia | London | 3 | All Maps","protocol":17,"map":"koth_viaduct","folder":"tf","game":"Team Fortress","app_id":440,"player_count":2,"max_players":24,"Bots":0,"server_type":"Dedicated","server_os":"Linux","password":true,"vac":true,"version":"7757534","steam_id":85568392924510192,"keywords":["cp","nocrits","nodmgspread","uncletopia"],"game_id":440,"stv_port":27036,"stv_name":"Uncletopia | London | 3 | All Maps | STV","players":[{"user_id":22,"name":"eoy","steam_id":76561198116511067,"connected_time":172000000000,"state":"active","ping":75},{"user_id":23,"name":"dust","steam_id":76561198293557665,"connected_time":106000000000,"state":"active","ping":107}]},{"server_id":321,"name":"Uncletopia | London | 4 | All Maps","name_short":"lon-4","host":"lon-1.uk.uncletopia.com","port":27045,"enabled":true,"region":"eu","cc":"gb","latitude":51.509865,"longitude":-0.118092,"reserved":0,"last_update":"0001-01-01T00:00:00Z","name_a2s":"Uncletopia | London | 4 | All Maps","protocol":17,"map":"pl_borneo","folder":"tf","game":"Team Fortress","app_id":440,"player_count":24,"max_players":24,"Bots":0,"server_type":"Dedicated","server_os":"Linux","password":true,"vac":true,"version":"7757534","steam_id":85568392924510193,"keywords":["nocrits","nodmgspread","payload","uncletopia"],"game_id":440,"stv_port":27046,"stv_name":"Uncletopia | London | 4 | All Maps | STV","players":[{"user_id":94,"name":"V1","steam_id":76561198845397091,"connected_time":2830000000000,"state":"active","ping":51},{"user_id":95,"name":"beheading video from 2009","steam_id":76561198834897089,"connected_time":2826000000000,"state":"active","ping":73},{"user_id":96,"name":"lelecobi324","steam_id":76561198878030367,"connected_time":2786000000000,"state":"active","ping":103},{"user_id":119,"name":"KosmikMe","steam_id":76561198063812690,"connected_time":995000000000,"state":"active","ping":82},{"user_id":138,"name":"Svettiga Gunnar","steam_id":76561197998579531,"connected_time":366000000000,"state":"active","ping":71},{"user_id":126,"name":"tom","steam_id":76561199477192379,"connected_time":685000000000,"state":"active","ping":102},{"user_id":135,"name":"Adrenaline","steam_id":76561197970852048,"connected_time":430000000000,"state":"active","ping":68},{"user_id":132,"name":"BAGASSER","steam_id":76561198051283300,"connected_time":466000000000,"state":"active","ping":76},{"user_id":124,"name":"TheFox.tf","steam_id":76561197996851702,"connected_time":848000000000,"state":"active","ping":60},{"user_id":118,"name":"Bolton Freeman","steam_id":76561198096196978,"connected_time":1105000000000,"state":"active","ping":58},{"user_id":133,"name":"SPONGE","steam_id":76561198040933472,"connected_time":462000000000,"state":"active","ping":61},{"user_id":125,"name":"frosty","steam_id":76561198094560834,"connected_time":699000000000,"state":"active","ping":45},{"user_id":92,"name":"Vezage","steam_id":76561198064916164,"connected_time":3233000000000,"state":"active","ping":72},{"user_id":115,"name":"ricky pee pee","steam_id":76561198152620745,"connected_time":1590000000000,"state":"active","ping":59},{"user_id":136,"name":"Digital Love","steam_id":76561198048250715,"connected_time":415000000000,"state":"active","ping":63},{"user_id":128,"name":"tralalaOuiOui","steam_id":76561197963471507,"connected_time":647000000000,"state":"active","ping":49},{"user_id":129,"name":"SlwoF√∏","steam_id":76561198049663931,"connected_time":644000000000,"state":"active","ping":60},{"user_id":140,"name":"Thors","steam_id":76561197968739075,"connected_time":296000000000,"state":"active","ping":43},{"user_id":112,"name":"Charlie Sheen","steam_id":76561198136160579,"connected_time":1659000000000,"state":"active","ping":73},{"user_id":117,"name":"Femboy Gaming","steam_id":76561199230209215,"connected_time":1196000000000,"state":"active","ping":63},{"user_id":103,"name":"Regan","steam_id":76561198100631086,"connected_time":2602000000000,"state":"active","ping":74},{"user_id":130,"name":"fluzeraa","steam_id":76561198038748489,"connected_time":613000000000,"state":"active","ping":68},{"user_id":141,"name":"Bobirulez","steam_id":76561198009125458,"connected_time":248000000000,"state":"active","ping":77},{"user_id":139,"name":"cinny","steam_id":76561198832112629,"connected_time":340000000000,"state":"active","ping":82}]},{"server_id":21,"name":"Uncletopia | London | 5 | All Maps","name_short":"lon-5","host":"lon-1.uk.uncletopia.com","port":27055,"enabled":true,"region":"eu","cc":"gb","latitude":51.509865,"longitude":-0.118092,"reserved":0,"last_update":"0001-01-01T00:00:00Z","name_a2s":"Uncletopia | London | 5 | All Maps","protocol":17,"map":"koth_lakeside_final","folder":"tf","game":"Team Fortress","app_id":440,"player_count":0,"max_players":24,"Bots":0,"server_type":"Dedicated","server_os":"Linux","password":true,"vac":true,"version":"7757534","steam_id":85568392924742829,"keywords":["cp","nocrits","nodmgspread","uncletopia"],"game_id":440,"stv_port":27056,"stv_name":"Uncletopia | London | 5 | All Maps | STV","players":null},{"server_id":22,"name":"Uncletopia | London | 6 | All Maps","name_short":"lon-6","host":"lon-1.uk.uncletopia.com","port":27065,"enabled":true,"region":"eu","cc":"gb","latitude":51.509865,"longitude":-0.118092,"reserved":0,"last_update":"0001-01-01T00:00:00Z","name_a2s":"Uncletopia | London | 6 | All Maps","protocol":17,"map":"koth_cascade","folder":"tf","game":"Team Fortress","app_id":440,"player_count":0,"max_players":24,"Bots":0,"server_type":"Dedicated","server_os":"Linux","password":true,"vac":true,"version":"7757534","steam_id":85568392924742830,"keywords":["cp","nocrits","nodmgspread","uncletopia"],"game_id":440,"stv_port":27066,"stv_name":"Uncletopia | London | 6 | All Maps | STV","players":null},{"server_id":40,"name":"Uncletopia | London | 7 | No Payload","name_short":"lon-7","host":"lon-1.uk.uncletopia.com","port":27075,"enabled":true,"region":"eu","cc":"gb","latitude":51.509865,"longitude":-0.118092,"reserved":0,"last_update":"0001-01-01T00:00:00Z","name_a2s":"Uncletopia | London | 7 | No Payload","protocol":17,"map":"koth_lakeside_final","folder":"tf","game":"Team Fortress","app_id":440,"player_count":0,"max_players":24,"Bots":0,"server_type":"Dedicated","server_os":"Linux","password":true,"vac":true,"version":"7757534","steam_id":85568392924964314,"keywords":["cp","nocrits","nodmgspread","uncletopia"],"game_id":440,"stv_port":27076,"stv_name":"Uncletopia | London | 7 | No Payload | STV","players":null},{"server_id":41,"name":"Uncletopia | London | 8 | Community","name_short":"lon-8","host":"lon-1.uk.uncletopia.com","port":27085,"enabled":true,"region":"eu","cc":"gb","latitude":51.509865,"longitude":-0.118092,"reserved":0,"last_update":"0001-01-01T00:00:00Z","name_a2s":"Uncletopia | London | 8 | Community","protocol":17,"map":"workshop/cp_alloy_rc3.ugc592805587","folder":"tf","game":"Team Fortress","app_id":440,"player_count":0,"max_players":24,"Bots":0,"server_type":"Dedicated","server_os":"Linux","password":true,"vac":true,"version":"7757534","steam_id":85568392924964315,"keywords":["cp","nocrits","nodmgspread","uncletopia"],"game_id":440,"stv_port":27086,"stv_name":"Uncletopia | London | 8 | Community | STV","players":null},{"server_id":300,"name":"Uncletopia | Montr√©al | 1 | All Maps","name_short":"mtl-1","host":"mtl-1.ca.uncletopia.com","port":27015,"enabled":true,"region":"us-east","cc":"ca","latitude":45.50889,"longitude":-73.56167,"reserved":0,"last_update":"0001-01-01T00:00:00Z","name_a2s":"Uncletopia | Montr√©al | 1 | All Maps","protocol":17,"map":"cp_snakewater_final1","folder":"tf","game":"Team Fortress","app_id":440,"player_count":0,"max_players":24,"Bots":0,"server_type":"Dedicated","server_os":"Linux","password":true,"vac":true,"version":"7757534","steam_id":85568392924500087,"keywords":["cp","nocrits","nodmgspread","uncletopia"],"game_id":440,"stv_port":27016,"stv_name":"Uncletopia | Montr√©al | 1 | All Maps | STV","players":null},{"server_id":301,"name":"Uncletopia | Montr√©al | 2 | All Maps","name_short":"mtl-2","host":"mtl-1.ca.uncletopia.com","port":27025,"enabled":true,"region":"us-east","cc":"ca","latitude":45.50889,"longitude":-73.56167,"reserved":0,"last_update":"0001-01-01T00:00:00Z","name_a2s":"Uncletopia | Montr√©al | 2 | All Maps","protocol":17,"map":"cp_altitude","folder":"tf","game":"Team Fortress","app_id":440,"player_count":0,"max_players":24,"Bots":0,"server_type":"Dedicated","server_os":"Linux","password":true,"vac":true,"version":"7757534","steam_id":85568392924500088,"keywords":["cp","nocrits","nodmgspread","uncletopia"],"game_id":440,"stv_port":27026,"stv_name":"Uncletopia | Montr√©al | 2 | All Maps | STV","players":null},{"server_id":302,"name":"Uncletopia | Montr√©al | 3 | All Maps","name_short":"mtl-3","host":"mtl-1.ca.uncletopia.com","port":27035,"enabled":true,"region":"us-east","cc":"ca","latitude":45.50889,"longitude":-73.56167,"reserved":0,"last_update":"0001-01-01T00:00:00Z","name_a2s":"Uncletopia | Montr√©al | 3 | All Maps","protocol":17,"map":"pl_swiftwater_final1","folder":"tf","game":"Team Fortress","app_id":440,"player_count":0,"max_players":24,"Bots":0,"server_type":"Dedicated","server_os":"Linux","password":true,"vac":true,"version":"7757534","steam_id":85568392924500089,"keywords":["nocrits","nodmgspread","payload","uncletopia"],"game_id":440,"stv_port":27036,"stv_name":"Uncletopia | Montr√©al | 3 | All Maps | STV","players":null},{"server_id":303,"name":"Uncletopia | Montr√©al | 4 | No Payload","name_short":"mtl-4","host":"mtl-1.ca.uncletopia.com","port":27045,"enabled":true,"region":"us-east","cc":"ca","latitude":45.50889,"longitude":-73.56167,"reserved":0,"last_update":"0001-01-01T00:00:00Z","name_a2s":"Uncletopia | Montr√©al | 4 | No Payload","protocol":17,"map":"cp_mossrock","folder":"tf","game":"Team Fortress","app_id":440,"player_count":0,"max_players":24,"Bots":0,"server_type":"Dedicated","server_os":"Linux","password":true,"vac":true,"version":"7757534","steam_id":85568392924500090,"keywords":["cp","nocrits","nodmgspread","uncletopia"],"game_id":440,"stv_port":27046,"stv_name":"Uncletopia | Montr√©al | 4 | No Payload | STV","players":null},{"server_id":13,"name":"Uncletopia | New York City | 1 | All Maps","name_short":"nyc-1","host":"nyc-1.us.uncletopia.com","port":27015,"enabled":true,"region":"us-east","cc":"us","latitude":40.73061,"longitude":-73.93524,"reserved":0,"last_update":"0001-01-01T00:00:00Z","name_a2s":"Uncletopia | New York City | 1 | All Maps","protocol":17,"map":"cp_dustbowl","folder":"tf","game":"Team Fortress","app_id":440,"player_count":21,"max_players":24,"Bots":0,"server_type":"Dedicated","server_os":"Linux","password":true,"vac":true,"version":"7757534","steam_id":85568392924469993,"keywords":["cp","nocrits","nodmgspread","uncletopia"],"game_id":440,"stv_port":27016,"stv_name":"Uncletopia | New York City | 1 | All Maps | STV","players":[{"user_id":118,"name":"BerthaEartha","steam_id":76561198799428743,"connected_time":13592000000000,"state":"active","ping":63},{"user_id":260,"name":"Sentient Sandvich","steam_id":76561197995714103,"connected_time":489000000000,"state":"active","ping":76},{"user_id":277,"name":"LaVulpe","steam_id":76561198016124597,"connected_time":9000000000,"state":"spawning","ping":71},{"user_id":266,"name":"Alchemist","steam_id":76561198072447444,"connected_time":295000000000,"state":"active","ping":46},{"user_id":273,"name":"Fredrick","steam_id":76561197981419964,"connected_time":107000000000,"state":"active","ping":46},{"user_id":241,"name":"man behind the slaughter (F2P)","steam_id":76561198854070384,"connected_time":3379000000000,"state":"active","ping":115},{"user_id":229,"name":"aiden","steam_id":76561198449527009,"connected_time":3749000000000,"state":"active","ping":68},{"user_id":264,"name":"StatesideSnake","steam_id":76561198272957048,"connected_time":329000000000,"state":"active","ping":107},{"user_id":263,"name":"Cursed mario","steam_id":76561198971168093,"connected_time":348000000000,"state":"active","ping":171},{"user_id":265,"name":"Robo","steam_id":76561198058317490,"connected_time":320000000000,"state":"active","ping":67},{"user_id":251,"name":"LuBzEur0b3ats","steam_id":76561199041041574,"connected_time":2561000000000,"state":"active","ping":58},{"user_id":275,"name":"Prof. Oli","steam_id":76561198980241587,"connected_time":57000000000,"state":"active","ping":81},{"user_id":271,"name":"Nose","steam_id":76561198362418490,"connected_time":150000000000,"state":"active","ping":93},{"user_id":212,"name":"CRAZY engineer","steam_id":76561198887937902,"connected_time":5388000000000,"state":"active","ping":52},{"user_id":269,"name":"faze pantalla","steam_id":76561198250215734,"connected_time":210000000000,"state":"active","ping":92},{"user_id":270,"name":"faze waadden","steam_id":76561198325569425,"connected_time":206000000000,"state":"active","ping":86},{"user_id":272,"name":"Radicos","steam_id":76561198051633077,"connected_time":147000000000,"state":"active","ping":134},{"user_id":256,"name":"you forgot the sauce","steam_id":76561198387016713,"connected_time":1234000000000,"state":"active","ping":58},{"user_id":274,"name":"Koi","steam_id":76561198064411172,"connected_time":106000000000,"state":"active","ping":38},{"user_id":276,"name":"BasicPeaches","steam_id":76561198190890150,"connected_time":25000000000,"state":"active","ping":65},{"user_id":144,"name":"bingle fantano 2","steam_id":76561197997139225,"connected_time":10851000000000,"state":"active","ping":53}]},{"server_id":14,"name":"Uncletopia | New York City | 2 | All Maps","name_short":"nyc-2","host":"nyc-1.us.uncletopia.com","port":27025,"enabled":true,"region":"us-east","cc":"us","latitude":40.73061,"longitude":-73.93524,"reserved":0,"last_update":"0001-01-01T00:00:00Z","name_a2s":"Uncletopia | New York City | 2 | All Maps","protocol":17,"map":"pl_borneo","folder":"tf","game":"Team Fortress","app_id":440,"player_count":24,"max_players":24,"Bots":0,"server_type":"Dedicated","server_os":"Linux","password":true,"vac":true,"version":"7757534","steam_id":85568392924469994,"keywords":["nocrits","nodmgspread","payload","uncletopia"],"game_id":440,"stv_port":27026,"stv_name":"Uncletopia | New York City | 2 | All Maps | STV","players":[{"user_id":523,"name":"Peri","steam_id":76561198255311543,"connected_time":822000000000,"state":"active","ping":66},{"user_id":524,"name":"your local forecast","steam_id":76561198042243083,"connected_time":788000000000,"state":"active","ping":44},{"user_id":389,"name":"LOITUMA","steam_id":76561198105669920,"connected_time":6781000000000,"state":"active","ping":119},{"user_id":535,"name":"Egpta","steam_id":76561198237840238,"connected_time":126000000000,"state":"active","ping":58},{"user_id":527,"name":"eNoble","steam_id":76561197993408761,"connected_time":754000000000,"state":"active","ping":114},{"user_id":526,"name":"Splnter","steam_id":76561198874186629,"connected_time":777000000000,"state":"active","ping":57},{"user_id":534,"name":"Aeri","steam_id":76561197996522919,"connected_time":545000000000,"state":"active","ping":57},{"user_id":469,"name":"white ray","steam_id":76561198026664629,"connected_time":2148000000000,"state":"active","ping":48},{"user_id":532,"name":"EvesTheMonks","steam_id":76561198121842278,"connected_time":616000000000,"state":"active","ping":66},{"user_id":491,"name":"The Goat","steam_id":76561197960432083,"connected_time":1663000000000,"state":"active","ping":76},{"user_id":375,"name":"Cuntslinger","steam_id":76561198303948269,"connected_time":7789000000000,"state":"active","ping":77},{"user_id":492,"name":"Normalux","steam_id":76561198293891426,"connected_time":1644000000000,"state":"active","ping":83},{"user_id":489,"name":"Mr_Frosty","steam_id":76561199380389079,"connected_time":1717000000000,"state":"active","ping":91},{"user_id":376,"name":"Tallyden","steam_id":76561197998572962,"connected_time":7789000000000,"state":"active","ping":78},{"user_id":528,"name":"ChebJeb","steam_id":76561198981377081,"connected_time":750000000000,"state":"active","ping":68},{"user_id":529,"name":"GotYourNose","steam_id":76561198803527852,"connected_time":716000000000,"state":"active","ping":48},{"user_id":530,"name":"BorstchBag","steam_id":76561198155294045,"connected_time":706000000000,"state":"active","ping":100},{"user_id":392,"name":"Cheese Sandwich","steam_id":76561198154238064,"connected_time":6542000000000,"state":"active","ping":131},{"user_id":417,"name":"LunarrD","steam_id":76561198811220107,"connected_time":3534000000000,"state":"active","ping":74},{"user_id":368,"name":"Two-Teste Tommy","steam_id":76561198064308936,"connected_time":8580000000000,"state":"active","ping":59},{"user_id":531,"name":"flappyflap2","steam_id":76561198285048973,"connected_time":648000000000,"state":"active","ping":40},{"user_id":514,"name":"rice white","steam_id":76561198320732910,"connected_time":1150000000000,"state":"active","ping":62},{"user_id":424,"name":"Fine Wine","steam_id":76561198125528334,"connected_time":3033000000000,"state":"active","ping":60},{"user_id":459,"name":"Cosmic Torgue","steam_id":76561198828724945,"connected_time":2344000000000,"state":"active","ping":101}]},{"server_id":15,"name":"Uncletopia | New York City | 3 | Stopwatch Beta","name_short":"nyc-3","host":"nyc-1.us.uncletopia.com","port":27035,"enabled":true,"region":"us-east","cc":"us","latitude":40.73061,"longitude":-73.93524,"reserved":0,"last_update":"0001-01-01T00:00:00Z","name_a2s":"Uncletopia | New York City | 3 | Stopwatch Beta","protocol":17,"map":"workshop/koth_ramjam_rc1.ugc459778887","folder":"tf","game":"Team Fortress","app_id":440,"player_count":13,"max_players":24,"Bots":0,"server_type":"Dedicated","server_os":"Linux","password":true,"vac":true,"version":"7757534","steam_id":85568392924742820,"keywords":["cp","nocrits","nodmgspread","uncletopia"],"game_id":440,"stv_port":27036,"stv_name":"Uncletopia | New York City | 3 | Stopwatch Beta | STV","players":[{"user_id":68,"name":"RadioactiveOilyOafs","steam_id":76561198041901197,"connected_time":141000000000,"state":"active","ping":65},{"user_id":60,"name":"ComputeCore167","steam_id":76561198301250353,"connected_time":681000000000,"state":"active","ping":89},{"user_id":69,"name":"WokToYou","steam_id":76561198049693624,"connected_time":104000000000,"state":"active","ping":70},{"user_id":53,"name":"Orange Joe","steam_id":76561198082208637,"connected_time":1576000000000,"state":"active","ping":74},{"user_id":26,"name":"ball fondler","steam_id":76561199013798048,"connected_time":2224000000000,"state":"active","ping":55},{"user_id":52,"name":"Yosh","steam_id":76561198027078899,"connected_time":1670000000000,"state":"active","ping":90},{"user_id":65,"name":"Mug Wump","steam_id":76561198353201957,"connected_time":318000000000,"state":"active","ping":71},{"user_id":54,"name":"acronym","steam_id":76561199043048553,"connected_time":1545000000000,"state":"active","ping":86},{"user_id":39,"name":"trollos (real)","steam_id":76561199195097493,"connected_time":2025000000000,"state":"active","ping":52},{"user_id":67,"name":"Mablinlok","steam_id":76561197992718242,"connected_time":263000000000,"state":"active","ping":72},{"user_id":56,"name":"Jarvis from Avengers","steam_id":76561198164035863,"connected_time":1144000000000,"state":"active","ping":60},{"user_id":57,"name":"Fleetway","steam_id":76561198392105594,"connected_time":1083000000000,"state":"active","ping":60},{"user_id":49,"name":"JustLooking","steam_id":76561198207877387,"connected_time":1861000000000,"state":"active","ping":42}]},{"server_id":16,"name":"Uncletopia | New York City | 4 | Community","name_short":"nyc-4","host":"nyc-1.us.uncletopia.com","port":27045,"enabled":true,"region":"us-east","cc":"us","latitude":40.73061,"longitude":-73.93524,"reserved":0,"last_update":"0001-01-01T00:00:00Z","name_a2s":"Uncletopia | New York City | 4 | Community","protocol":17,"map":"workshop/pl_corrode_rc2.ugc546577989","folder":"tf","game":"Team Fortress","app_id":440,"player_count":0,"max_players":24,"Bots":0,"server_type":"Dedicated","server_os":"Linux","password":true,"vac":true,"version":"7757534","steam_id":85568392924742821,"keywords":["nocrits","nodmgspread","payload","uncletopia"],"game_id":440,"stv_port":27046,"stv_name":"Uncletopia | New York City | 4 | Community | STV","players":null},{"server_id":142,"name":"Uncletopia | S√£o Paulo | 1 | All Maps","name_short":"sao-1","host":"sao-1.br.uncletopia.com","port":27015,"enabled":true,"region":"sa","cc":"br","latitude":-23.533773,"longitude":-46.62529,"reserved":0,"last_update":"0001-01-01T00:00:00Z","name_a2s":"Uncletopia | S√£o Paulo | 1 | All Maps","protocol":17,"map":"koth_lakeside_final","folder":"tf","game":"Team Fortress","app_id":440,"player_count":2,"max_players":24,"Bots":0,"server_type":"Dedicated","server_os":"Linux","password":true,"vac":true,"version":"7757534","steam_id":85568392924469996,"keywords":["cp","nocrits","nodmgspread","uncletopia"],"game_id":440,"stv_port":27016,"stv_name":"Uncletopia | S√£o Paulo | 1 | All Maps | STV","players":[{"user_id":17,"name":"Kakaroto 286","steam_id":76561199006539437,"connected_time":325000000000,"state":"active","ping":49},{"user_id":18,"name":"demson","steam_id":76561199087663959,"connected_time":86000000000,"state":"active","ping":56}]},{"server_id":143,"name":"Uncletopia | S√£o Paulo | 2 | All Maps","name_short":"sao-2","host":"sao-2.br.uncletopia.com","port":27015,"enabled":true,"region":"sa","cc":"br","latitude":-23.533773,"longitude":-46.62529,"reserved":0,"last_update":"0001-01-01T00:00:00Z","name_a2s":"Uncletopia | S√£o Paulo | 2 | All Maps","protocol":17,"map":"pl_borneo","folder":"tf","game":"Team Fortress","app_id":440,"player_count":0,"max_players":24,"Bots":0,"server_type":"Dedicated","server_os":"Linux","password":true,"vac":true,"version":"7757534","steam_id":85568392924485349,"keywords":["nocrits","nodmgspread","payload","uncletopia"],"game_id":440,"stv_port":27016,"stv_name":"Uncletopia | S√£o Paulo | 2 | All Maps | STV","players":null},{"server_id":7,"name":"Uncletopia | Seattle | 1 | All Maps","name_short":"sea-1","host":"sea-1.us.uncletopia.com","port":27015,"enabled":true,"region":"us-west","cc":"us","latitude":47.608013,"longitude":-122.33517,"reserved":0,"last_update":"0001-01-01T00:00:00Z","name_a2s":"Uncletopia | Seattle | 1 | All Maps","protocol":17,"map":"pl_swiftwater_final1","folder":"tf","game":"Team Fortress","app_id":440,"player_count":24,"max_players":24,"Bots":0,"server_type":"Dedicated","server_os":"Linux","password":true,"vac":true,"version":"7757534","steam_id":85568392924469997,"keywords":["nocrits","nodmgspread","payload","uncletopia"],"game_id":440,"stv_port":27016,"stv_name":"Uncletopia | Seattle | 1 | All Maps | STV","players":[{"user_id":394,"name":"Fujiwara no Mokou","steam_id":76561198063315650,"connected_time":7960000000000,"state":"active","ping":85},{"user_id":448,"name":"Blitzy","steam_id":76561198149472890,"connected_time":4280000000000,"state":"active","ping":60},{"user_id":478,"name":"¬∞Creamy Gilligan","steam_id":76561198001569384,"connected_time":515000000000,"state":"active","ping":126},{"user_id":466,"name":"Bastard_Yanisaur","steam_id":76561199134114075,"connected_time":1993000000000,"state":"active","ping":124},{"user_id":439,"name":"fake gamer","steam_id":76561198049784197,"connected_time":5141000000000,"state":"active","ping":61},{"user_id":460,"name":"lili","steam_id":76561199391478575,"connected_time":2416000000000,"state":"active","ping":77},{"user_id":468,"name":"üÖúüÖîüÖîüÖöüÖ¢üÖ£üÖî\ufffd\ufffd\ufffd","steam_id":76561197999748343,"connected_time":1912000000000,"state":"active","ping":91},{"user_id":482,"name":"gamer_2099","steam_id":76561199058461779,"connected_time":136000000000,"state":"active","ping":100},{"user_id":476,"name":"EEBIGAA","steam_id":76561198056535988,"connected_time":1251000000000,"state":"active","ping":73},{"user_id":451,"name":"Kyrisuu","steam_id":76561198362711064,"connected_time":4135000000000,"state":"active","ping":114},{"user_id":471,"name":"Kc","steam_id":76561198210734407,"connected_time":1486000000000,"state":"active","ping":116},{"user_id":470,"name":"Chicken soup","steam_id":76561198820390472,"connected_time":1511000000000,"state":"active","ping":96},{"user_id":418,"name":"CIA","steam_id":76561198000136489,"connected_time":6066000000000,"state":"active","ping":53},{"user_id":472,"name":"SadFapping","steam_id":76561198076651049,"connected_time":1323000000000,"state":"active","ping":48},{"user_id":458,"name":"The Moon","steam_id":76561198082926682,"connected_time":3196000000000,"state":"active","ping":64},{"user_id":445,"name":"shart","steam_id":76561198039002838,"connected_time":4737000000000,"state":"active","ping":139},{"user_id":479,"name":"Lochness_monster","steam_id":76561198417831973,"connected_time":359000000000,"state":"active","ping":62},{"user_id":461,"name":"fish","steam_id":76561198059510391,"connected_time":2267000000000,"state":"active","ping":63},{"user_id":436,"name":"‚ô• Milo Stefferson ‚ô•","steam_id":76561198056269538,"connected_time":5304000000000,"state":"active","ping":57},{"user_id":465,"name":"yoshido","steam_id":76561198846313229,"connected_time":2084000000000,"state":"active","ping":102},{"user_id":443,"name":"ratie","steam_id":76561198059399661,"connected_time":5076000000000,"state":"active","ping":84},{"user_id":426,"name":"chanoc","steam_id":76561198026734746,"connected_time":5866000000000,"state":"active","ping":66},{"user_id":428,"name":"The Professor","steam_id":76561198046165617,"connected_time":5855000000000,"state":"active","ping":119},{"user_id":447,"name":"Dlion0","steam_id":76561198069810035,"connected_time":4411000000000,"state":"active","ping":90}]},{"server_id":119,"name":"Uncletopia | Seattle | 2 | All Maps","name_short":"sea-2","host":"sea-1.us.uncletopia.com","port":27025,"enabled":true,"region":"us-west","cc":"us","latitude":47.608013,"longitude":-122.33517,"reserved":0,"last_update":"0001-01-01T00:00:00Z","name_a2s":"Uncletopia | Seattle | 2 | All Maps","protocol":17,"map":"pl_barnblitz","folder":"tf","game":"Team Fortress","app_id":440,"player_count":16,"max_players":24,"Bots":0,"server_type":"Dedicated","server_os":"Linux","password":true,"vac":true,"version":"7757534","steam_id":85568392924469998,"keywords":["nocrits","nodmgspread","payload","uncletopia"],"game_id":440,"stv_port":27026,"stv_name":"Uncletopia | Seattle | 2 | All Maps | STV","players":[{"user_id":240,"name":"A Shiny Meat Bicycle","steam_id":76561198358757709,"connected_time":1572000000000,"state":"active","ping":158},{"user_id":216,"name":"The Pepsi¬Æ Superbowl¬Æ!","steam_id":76561198080828981,"connected_time":3228000000000,"state":"active","ping":70},{"user_id":265,"name":"MrChaosOK","steam_id":76561197976353083,"connected_time":24000000000,"state":"active","ping":73},{"user_id":258,"name":"hit every bodyshot and run","steam_id":76561198206922028,"connected_time":574000000000,"state":"active","ping":78},{"user_id":236,"name":"chimplicity","steam_id":76561198012097062,"connected_time":2079000000000,"state":"active","ping":95},{"user_id":197,"name":"N√º√æ","steam_id":76561198043956703,"connected_time":4566000000000,"state":"active","ping":67},{"user_id":245,"name":"GoldtoothFour","steam_id":76561198055529332,"connected_time":1273000000000,"state":"active","ping":98},{"user_id":239,"name":"Aibroc","steam_id":76561199164997748,"connected_time":1774000000000,"state":"active","ping":84},{"user_id":233,"name":"Painkiller","steam_id":76561198049787400,"connected_time":2135000000000,"state":"active","ping":89},{"user_id":252,"name":"Erlenmeyer","steam_id":76561199044703828,"connected_time":936000000000,"state":"active","ping":117},{"user_id":198,"name":"en.wikipedia.org/wiki/Nae_Nae","steam_id":76561198418288939,"connected_time":4532000000000,"state":"active","ping":69},{"user_id":260,"name":"Ôº≥Ôº¨Ôº∂Ôº¥Ôº£Ôº®Ôº°Ôº≠Ôº∞","steam_id":76561198883157736,"connected_time":545000000000,"state":"active","ping":59},{"user_id":162,"name":"Chimpanzee","steam_id":76561198850387282,"connected_time":6654000000000,"state":"active","ping":127},{"user_id":257,"name":"Karl Wheezer","steam_id":76561198848722936,"connected_time":661000000000,"state":"active","ping":53},{"user_id":263,"name":"Nez","steam_id":76561197963109059,"connected_time":193000000000,"state":"active","ping":96},{"user_id":175,"name":"Keamy","steam_id":76561199471434875,"connected_time":5933000000000,"state":"active","ping":36}]},{"server_id":406,"name":"Uncletopia | Seattle | 3 | Stopwatch Beta","name_short":"sea-3","host":"sea-1.us.uncletopia.com","port":27035,"enabled":true,"region":"us-west","cc":"us","latitude":47.608013,"longitude":-122.33517,"reserved":0,"last_update":"0001-01-01T00:00:00Z","name_a2s":"Uncletopia | Seattle | 3 | Stopwatch Beta","protocol":17,"map":"koth_lakeside_final","folder":"tf","game":"Team Fortress","app_id":440,"player_count":0,"max_players":24,"Bots":0,"server_type":"Dedicated","server_os":"Linux","password":true,"vac":true,"version":"7757534","steam_id":85568392924515217,"keywords":["cp","nocrits","nodmgspread","uncletopia"],"game_id":440,"stv_port":27036,"stv_name":"Uncletopia | Seattle | 3 | Stopwatch Beta | STV","players":null},{"server_id":17,"name":"Uncletopia | San Francisco | 1 | All Maps","name_short":"sfo-1","host":"sfo-1.us.uncletopia.com","port":27015,"enabled":true,"region":"us-west","cc":"us","latitude":37.77397,"longitude":-122.4313,"reserved":0,"last_update":"0001-01-01T00:00:00Z","name_a2s":"Uncletopia | San Francisco | 1 | All Maps","protocol":17,"map":"koth_lakeside_final","folder":"tf","game":"Team Fortress","app_id":440,"player_count":0,"max_players":24,"Bots":0,"server_type":"Dedicated","server_os":"Linux","password":true,"vac":true,"version":"7757534","steam_id":85568392924469999,"keywords":["cp","nocrits","nodmgspread","uncletopia"],"game_id":440,"stv_port":27016,"stv_name":"Uncletopia | San Francisco | 1 | All Maps | STV","players":null},{"server_id":18,"name":"Uncletopia | San Francisco | 2 | All Maps","name_short":"sfo-2","host":"sfo-1.us.uncletopia.com","port":27025,"enabled":true,"region":"us-west","cc":"us","latitude":37.77397,"longitude":-122.4313,"reserved":0,"last_update":"0001-01-01T00:00:00Z","name_a2s":"Uncletopia | San Francisco | 2 | All Maps","protocol":17,"map":"koth_highpass","folder":"tf","game":"Team Fortress","app_id":440,"player_count":0,"max_players":24,"Bots":0,"server_type":"Dedicated","server_os":"Linux","password":true,"vac":true,"version":"7757534","steam_id":85568392924470000,"keywords":["cp","nocrits","nodmgspread","uncletopia"],"game_id":440,"stv_port":27026,"stv_name":"Uncletopia | San Francisco | 2 | All Maps | STV","players":null},{"server_id":19,"name":"Uncletopia | San Francisco | 3 | Stopwatch Beta","name_short":"sfo-3","host":"sfo-1.us.uncletopia.com","port":27035,"enabled":true,"region":"us-west","cc":"us","latitude":37.77397,"longitude":-122.4313,"reserved":0,"last_update":"0001-01-01T00:00:00Z","name_a2s":"Uncletopia | San Francisco | 3 | Stopwatch Beta","protocol":17,"map":"pl_borneo","folder":"tf","game":"Team Fortress","app_id":440,"player_count":0,"max_players":24,"Bots":0,"server_type":"Dedicated","server_os":"Linux","password":true,"vac":true,"version":"7757534","steam_id":85568392924742824,"keywords":["nocrits","nodmgspread","payload","uncletopia"],"game_id":440,"stv_port":27036,"stv_name":"Uncletopia | San Francisco | 3 | Stopwatch Beta | STV","players":null},{"server_id":20,"name":"Uncletopia | San Francisco | 4 | Community","name_short":"sfo-4","host":"sfo-1.us.uncletopia.com","port":27045,"enabled":true,"region":"us-west","cc":"us","latitude":37.77397,"longitude":-122.4313,"reserved":0,"last_update":"0001-01-01T00:00:00Z","name_a2s":"Uncletopia | San Francisco | 4 | Community","protocol":17,"map":"cp_altitude","folder":"tf","game":"Team Fortress","app_id":440,"player_count":0,"max_players":24,"Bots":0,"server_type":"Dedicated","server_os":"Linux","password":true,"vac":true,"version":"7757534","steam_id":85568392924742826,"keywords":["cp","nocrits","nodmgspread","uncletopia"],"game_id":440,"stv_port":27046,"stv_name":"Uncletopia | San Francisco | 4 | Community | STV","players":null},{"server_id":141,"name":"Uncletopia | Sydney | 1 | All Maps","name_short":"syd-1","host":"syd-1.au.uncletopia.com","port":27015,"enabled":true,"region":"au","cc":"au","latitude":-33.865143,"longitude":151.2099,"reserved":0,"last_update":"0001-01-01T00:00:00Z","name_a2s":"Uncletopia | Sydney | 1 | All Maps","protocol":17,"map":"koth_viaduct","folder":"tf","game":"Team Fortress","app_id":440,"player_count":0,"max_players":24,"Bots":0,"server_type":"Dedicated","server_os":"Linux","password":true,"vac":true,"version":"7757534","steam_id":85568392924470001,"keywords":["cp","nocrits","nodmgspread","uncletopia"],"game_id":440,"stv_port":27016,"stv_name":"Uncletopia | Sydney | 1 | All Maps | STV","players":null},{"server_id":123,"name":"Uncletopia | Sydney | 2 | All Maps","name_short":"syd-2","host":"syd-1.au.uncletopia.com","port":27025,"enabled":true,"region":"au","cc":"au","latitude":-33.865143,"longitude":151.2099,"reserved":0,"last_update":"0001-01-01T00:00:00Z","name_a2s":"Uncletopia | Sydney | 2 | All Maps","protocol":17,"map":"cp_process_final","folder":"tf","game":"Team Fortress","app_id":440,"player_count":0,"max_players":24,"Bots":0,"server_type":"Dedicated","server_os":"Linux","password":true,"vac":true,"version":"7757534","steam_id":85568392924470002,"keywords":["cp","nocrits","nodmgspread","uncletopia"],"game_id":440,"stv_port":27026,"stv_name":"Uncletopia | Sydney | 2 | All Maps | STV","players":null},{"server_id":395,"name":"Uncletopia | Sydney | 3 | All Maps","name_short":"syd-3","host":"syd-1.au.uncletopia.com","port":27035,"enabled":true,"region":"au","cc":"au","latitude":-33.865143,"longitude":151.2099,"reserved":0,"last_update":"0001-01-01T00:00:00Z","name_a2s":"Uncletopia | Sydney | 3 | All Maps","protocol":17,"map":"cp_sunshine","folder":"tf","game":"Team Fortress","app_id":440,"player_count":0,"max_players":24,"Bots":0,"server_type":"Dedicated","server_os":"Linux","password":true,"vac":true,"version":"7757534","steam_id":85568392925194467,"keywords":["cp","nocrits","nodmgspread","uncletopia"],"game_id":440,"stv_port":27036,"stv_name":"Uncletopia | Sydney | 3 | All Maps | STV","players":null},{"server_id":396,"name":"Uncletopia | Sydney | 4 | All Maps","name_short":"syd-4","host":"syd-1.au.uncletopia.com","port":27045,"enabled":true,"region":"au","cc":"au","latitude":-33.865143,"longitude":151.2099,"reserved":0,"last_update":"0001-01-01T00:00:00Z","name_a2s":"Uncletopia | Sydney | 4 | All Maps","protocol":17,"map":"koth_highpass","folder":"tf","game":"Team Fortress","app_id":440,"player_count":0,"max_players":24,"Bots":0,"server_type":"Dedicated","server_os":"Linux","password":true,"vac":true,"version":"7757534","steam_id":85568392925397958,"keywords":["cp","nocrits","nodmgspread","uncletopia"],"game_id":440,"stv_port":27046,"stv_name":"Uncletopia | Sydney | 4 | All Maps | STV","players":null},{"server_id":58,"name":"Uncletopia | Sydney | 5 | Stopwatch Beta","name_short":"syd-5","host":"syd-1.au.uncletopia.com","port":27055,"enabled":true,"region":"au","cc":"au","latitude":-33.865143,"longitude":151.2099,"reserved":0,"last_update":"0001-01-01T00:00:00Z","name_a2s":"Uncletopia | Sydney | 5 | Stopwatch Beta","protocol":17,"map":"koth_cascade","folder":"tf","game":"Team Fortress","app_id":440,"player_count":0,"max_players":24,"Bots":0,"server_type":"Dedicated","server_os":"Linux","password":true,"vac":true,"version":"7757534","steam_id":85568392925397959,"keywords":["cp","nocrits","nodmgspread","uncletopia"],"game_id":440,"stv_port":27056,"stv_name":"Uncletopia | Sydney | 5 | Stopwatch Beta | STV","players":null},{"server_id":59,"name":"Uncletopia | Sydney | 6 | Community","name_short":"syd-6","host":"syd-1.au.uncletopia.com","port":27065,"enabled":true,"region":"au","cc":"au","latitude":-33.865143,"longitude":151.2099,"reserved":0,"last_update":"0001-01-01T00:00:00Z","name_a2s":"Uncletopia | Sydney | 6 | Community","protocol":17,"map":"cp_snakewater_final1","folder":"tf","game":"Team Fortress","app_id":440,"player_count":0,"max_players":24,"Bots":0,"server_type":"Dedicated","server_os":"Linux","password":true,"vac":true,"version":"7757534","steam_id":85568392925397960,"keywords":["cp","nocrits","nodmgspread","uncletopia"],"game_id":440,"stv_port":27066,"stv_name":"Uncletopia | Sydney | 6 | Community | STV","players":null},{"server_id":49,"name":"Uncletopia | Warsaw | 1 | All Maps","name_short":"waw-1","host":"waw-1.pl.uncletopia.com","port":27015,"enabled":true,"region":"eu","cc":"pl","latitude":52.2297,"longitude":21.017532,"reserved":0,"last_update":"0001-01-01T00:00:00Z","name_a2s":"","protocol":0,"map":"","folder":"","game":"","app_id":0,"player_count":0,"max_players":0,"Bots":0,"server_type":"","server_os":"","password":false,"vac":false,"version":"","steam_id":0,"keywords":null,"game_id":0,"stv_port":0,"stv_name":"","players":null},{"server_id":50,"name":"Uncletopia | Warsaw | 2 | All Maps","name_short":"waw-2","host":"waw-1.pl.uncletopia.com","port":27025,"enabled":true,"region":"eu","cc":"pl","latitude":52.2297,"longitude":21.017532,"reserved":0,"last_update":"0001-01-01T00:00:00Z","name_a2s":"Uncletopia | Warsaw | 2 | All Maps","protocol":17,"map":"koth_viaduct","folder":"tf","game":"Team Fortress","app_id":440,"player_count":0,"max_players":24,"Bots":0,"server_type":"Dedicated","server_os":"Linux","password":true,"vac":true,"version":"7757534","steam_id":85568392925397851,"keywords":["cp","nocrits","nodmgspread","uncletopia"],"game_id":440,"stv_port":27026,"stv_name":"Uncletopia | Warsaw | 2 | All Maps | STV","players":null},{"server_id":51,"name":"Uncletopia | Warsaw | 3 | All Maps","name_short":"waw-3","host":"waw-1.pl.uncletopia.com","port":27035,"enabled":true,"region":"eu","cc":"pl","latitude":52.2297,"longitude":21.017532,"reserved":0,"last_update":"0001-01-01T00:00:00Z","name_a2s":"Uncletopia | Warsaw | 3 | All Maps","protocol":17,"map":"koth_lakeside_final","folder":"tf","game":"Team Fortress","app_id":440,"player_count":0,"max_players":24,"Bots":0,"server_type":"Dedicated","server_os":"Linux","password":true,"vac":true,"version":"7757534","steam_id":85568392925397852,"keywords":["cp","nocrits","nodmgspread","uncletopia"],"game_id":440,"stv_port":27036,"stv_name":"Uncletopia | Warsaw | 3 | All Maps | STV","players":null},{"server_id":52,"name":"Uncletopia | Warsaw | 4 | All Maps","name_short":"waw-4","host":"waw-1.pl.uncletopia.com","port":27045,"enabled":true,"region":"eu","cc":"pl","latitude":52.2297,"longitude":21.017532,"reserved":0,"last_update":"0001-01-01T00:00:00Z","name_a2s":"Uncletopia | Warsaw | 4 | All Maps","protocol":17,"map":"koth_lakeside_final","folder":"tf","game":"Team Fortress","app_id":440,"player_count":0,"max_players":24,"Bots":0,"server_type":"Dedicated","server_os":"Linux","password":true,"vac":true,"version":"7757534","steam_id":85568392925397853,"keywords":["cp","nocrits","nodmgspread","uncletopia"],"game_id":440,"stv_port":27046,"stv_name":"Uncletopia | Warsaw | 4 | All Maps | STV","players":null},{"server_id":53,"name":"Uncletopia | Warsaw | 5 | Stopwatch Beta","name_short":"waw-5","host":"waw-1.pl.uncletopia.com","port":27055,"enabled":true,"region":"eu","cc":"pl","latitude":52.2297,"longitude":21.017532,"reserved":0,"last_update":"0001-01-01T00:00:00Z","name_a2s":"Uncletopia | Warsaw | 5 | Stopwatch Beta","protocol":17,"map":"pl_borneo","folder":"tf","game":"Team Fortress","app_id":440,"player_count":0,"max_players":24,"Bots":0,"server_type":"Dedicated","server_os":"Linux","password":true,"vac":true,"version":"7757534","steam_id":85568392925397854,"keywords":["nocrits","nodmgspread","payload","uncletopia"],"game_id":440,"stv_port":27056,"stv_name":"Uncletopia | Warsaw | 5 | Stopwatch Beta | STV","players":null},{"server_id":54,"name":"Uncletopia | Warsaw | 6 | Community","name_short":"waw-6","host":"waw-1.pl.uncletopia.com","port":27065,"enabled":true,"region":"eu","cc":"pl","latitude":52.2297,"longitude":21.017532,"reserved":0,"last_update":"0001-01-01T00:00:00Z","name_a2s":"Uncletopia | Warsaw | 6 | Community","protocol":17,"map":"workshop/koth_kemptown_rc1.ugc767410655","folder":"tf","game":"Team Fortress","app_id":440,"player_count":0,"max_players":24,"Bots":0,"server_type":"Dedicated","server_os":"Linux","password":true,"vac":true,"version":"7757534","steam_id":85568392925397856,"keywords":["cp","nocrits","nodmgspread","uncletopia"],"game_id":440,"stv_port":27066,"stv_name":"Uncletopia | Warsaw | 6 | Community | STV","players":null}]}