{"status":true,"message":"","result":[{"server_id":9,"name":"Uncletopia | Atlanta | 1 | All Maps","name_short":"atl-1","host":"atl-1.us.uncletopia.com","port":27015,"enabled":true,"region":"us-east","cc":"us","latitude":33.753746,"longitude":-84.38633,"reserved":0,"last_update":"0001-01-01T00:00:00Z","name_a2s":"Uncletopia | Atlanta | 1 | All Maps","protocol":17,"map":"koth_viaduct","folder":"tf","game":"Team Fortress","app_id":440,"player_count":0,"max_players":24,"Bots":0,"server_type":"Dedicated","server_os":"Linux","password":true,"vac":true,"version":"7882260","steam_id":85568392924469982,"keywords":["cp","nocrits","nodmgspread","uncletopia"],"game_id":440,"stv_port":27016,"stv_name":"Uncletopia | Atlanta | 1 | All Maps | STV","players":null},{"server_id":104,"name":"Uncletopia | Atlanta | 2 | All Maps","name_short":"atl-2","host":"atl-1.us.uncletopia.com","port":27025,"enabled":true,"region":"us-east","cc":"us","latitude":33.753746,"longitude":-84.38633,"reserved":0,"last_update":"0001-01-01T00:00:00Z","name_a2s":"Uncletopia | Atlanta | 2 | All Maps","protocol":17,"map":"cp_process_final","folder":"tf","game":"Team Fortress","app_id":440,"player_count":0,"max_players":24,"Bots":0,"server_type":"Dedicated","server_os":"Linux","password":true,"vac":true,"version":"7882260","steam_id":85568392924469983,"keywords":["cp","nocrits","nodmgspread","uncletopia"],"game_id":440,"stv_port":27026,"stv_name":"Uncletopia | Atlanta | 2 | All Maps | STV","players":null},{"server_id":400,"name":"Uncletopia | Atlanta | 3 | Community","name_short":"atl-3","host":"atl-1.us.uncletopia.com","port":27035,"enabled":true,"region":"us-east","cc":"us","latitude":33.753746,"longitude":-84.38633,"reserved":0,"last_update":"0001-01-01T00:00:00Z","name_a2s":"Uncletopia | Atlanta | 3 | Community","protocol":17,"map":"cp_sunshine","folder":"tf","game":"Team Fortress","app_id":440,"player_count":0,"max_players":24,"Bots":0,"server_type":"Dedicated","server_os":"Linux","password":true,"vac":true,"version":"7882260","steam_id":85568392924515187,"keywords":["cp","nocrits","nodmgspread","uncletopia"],"game_id":440,"stv_port":27036,"stv_name":"Uncletopia | Atlanta | 3 | Community | STV","players":null},{"server_id":401,"name":"Uncletopia | Atlanta | 4 | No Payload","name_short":"atl-4","host":"atl-1.us.uncletopia.com","port":27045,"enabled":true,"region":"us-east","cc":"us","latitude":33.753746,"longitude":-84.38633,"reserved":0,"last_update":"0001-01-01T00:00:00Z","name_a2s":"","protocol":0,"map":"","folder":"","game":"","app_id":0,"player_count":0,"max_players":0,"Bots":0,"server_type":"","server_os":"","password":false,"vac":false,"version":"","steam_id":0,"keywords":null,"game_id":0,"stv_port":0,"stv_name":"","players":null},{"server_id":2,"name":"Uncletopia | Chicago | 1 | All Maps","name_short":"chi-1","host":"chi-1.us.uncletopia.com","port":27015,"enabled":true,"region":"us-central","cc":"us","latitude":41.881832,"longitude":-87.62318,"reserved":0,"last_update":"0001-01-01T00:00:00Z","name_a2s":"Uncletopia | Chicago | 1 | All Maps","protocol":17,"map":"cp_freight_final1","folder":"tf","game":"Team Fortress","app_id":440,"player_count":6,"max_players":24,"Bots":0,"server_type":"Dedicated","server_os":"Linux","password":true,"vac":true,"version":"7882260","steam_id":85568392924469984,"keywords":["cp","nocrits","nodmgspread","uncletopia"],"game_id":440,"stv_port":27016,"stv_name":"Uncletopia | Chicago | 1 | All Maps | STV","players":[{"user_id":3,"name":"luma","steam_id":76561198076875817,"connected_time":1529000000000,"state":"active","ping":57},{"user_id":4,"name":"elyktsorb","steam_id":76561198158964488,"connected_time":1514000000000,"state":"active","ping":46},{"user_id":11,"name":"Cynicalrage #TF2center","steam_id":76561198085805532,"connected_time":118000000000,"state":"active","ping":44},{"user_id":6,"name":"ladies man 217","steam_id":76561199229880376,"connected_time":1320000000000,"state":"active","ping":121},{"user_id":10,"name":"_Canon","steam_id":76561199090938801,"connected_time":132000000000,"state":"active","ping":71},{"user_id":9,"name":"Pinkerton","steam_id":76561198329688876,"connected_time":640000000000,"state":"active","ping":97}]},{"server_id":106,"name":"Uncletopia | Chicago | 2 | All Maps","name_short":"chi-2","host":"chi-1.us.uncletopia.com","port":27025,"enabled":true,"region":"us-central","cc":"us","latitude":41.881832,"longitude":-87.62318,"reserved":0,"last_update":"0001-01-01T00:00:00Z","name_a2s":"Uncletopia | Chicago | 2 | All Maps","protocol":17,"map":"pl_frontier_final","folder":"tf","game":"Team Fortress","app_id":440,"player_count":0,"max_players":24,"Bots":0,"server_type":"Dedicated","server_os":"Linux","password":true,"vac":true,"version":"7882260","steam_id":85568392924469985,"keywords":["nocrits","nodmgspread","payload","uncletopia"],"game_id":440,"stv_port":27026,"stv_name":"Uncletopia | Chicago | 2 | All Maps | STV","players":null},{"server_id":402,"name":"Uncletopia | Chicago | 3 | All Maps","name_short":"chi-3","host":"chi-1.us.uncletopia.com","port":27035,"enabled":true,"region":"us-central","cc":"us","latitude":41.881832,"longitude":-87.62318,"reserved":0,"last_update":"0001-01-01T00:00:00Z","name_a2s":"Uncletopia | Chicago | 3 | All Maps","protocol":17,"map":"pl_snowycoast","folder":"tf","game":"Team Fortress","app_id":440,"player_count":0,"max_players":24,"Bots":0,"server_type":"Dedicated","server_os":"Linux","password":true,"vac":true,"version":"7882260","steam_id":85568392924515191,"keywords":["nocrits","nodmgspread","payload","uncletopia"],"game_id":440,"stv_port":27036,"stv_name":"Uncletopia | Chicago | 3 | All Maps | STV","players":null},{"server_id":403,"name":"Uncletopia | Chicago | 4 | All Maps","name_short":"chi-4","host":"chi-1.us.uncletopia.com","port":27045,"enabled":true,"region":"us-central","cc":"us","latitude":41.881832,"longitude":-87.62318,"reserved":0,"last_update":"0001-01-01T00:00:00Z","name_a2s":"Uncletopia | Chicago | 4 | All Maps","protocol":17,"map":"koth_cascade","folder":"tf","game":"Team Fortress","app_id":440,"player_count":24,"max_players":24,"Bots":0,"server_type":"Dedicated","server_os":"Linux","password":true,"vac":true,"version":"7882260","steam_id":85568392924515193,"keywords":["cp","nocrits","nodmgspread","uncletopia"],"game_id":440,"stv_port":27046,"stv_name":"Uncletopia | Chicago | 4 | All Maps | STV","players":[{"user_id":3,"name":"Horseless Headless Scotsman","steam_id":76561198128494897,"connected_time":1540000000000,"state":"active","ping":85},{"user_id":4,"name":"jin","steam_id":76561198119873148,"connected_time":1536000000000,"state":"active","ping":57},{"user_id":5,"name":"gerry0107","steam_id":76561198277578620,"connected_time":1532000000000,"state":"active","ping":64},{"user_id":7,"name":"Pongallow","steam_id":76561198146876078,"connected_time":1528000000000,"state":"active","ping":44},{"user_id":8,"name":"MapleSyrup","steam_id":76561199222442855,"connected_time":1497000000000,"state":"active","ping":105},{"user_id":38,"name":"Your Local Queer Librarian","steam_id":76561198013077080,"connected_time":602000000000,"state":"active","ping":61},{"user_id":10,"name":"Jawkins","steam_id":76561198043928826,"connected_time":1480000000000,"state":"active","ping":83},{"user_id":43,"name":"Prez Pineapple","steam_id":76561198253755258,"connected_time":302000000000,"state":"active","ping":111},{"user_id":45,"name":"ExtremeDucks","steam_id":76561198351756464,"connected_time":13000000000,"state":"spawning","ping":66},{"user_id":46,"name":"Omni-S","steam_id":76561198082396372,"connected_time":12000000000,"state":"spawning","ping":60},{"user_id":17,"name":"reallyfriendly","steam_id":76561197996819313,"connected_time":1202000000000,"state":"active","ping":73},{"user_id":44,"name":"hatsune miku‚ô°","steam_id":76561199445009981,"connected_time":252000000000,"state":"active","ping":101},{"user_id":21,"name":"my fault g","steam_id":76561198119826352,"connected_time":974000000000,"state":"active","ping":74},{"user_id":39,"name":"Bobby 3th","steam_id":76561198081793950,"connected_time":592000000000,"state":"active","ping":50},{"user_id":25,"name":"Pretty executor trap qeen","steam_id":76561198085044565,"connected_time":938000000000,"state":"active","ping":89},{"user_id":26,"name":"Twisted4k","steam_id":76561198031237102,"connected_time":887000000000,"state":"active","ping":76},{"user_id":30,"name":"Panzer Gaming","steam_id":76561198926896335,"connected_time":795000000000,"state":"active","ping":113},{"user_id":32,"name":"ReputedOcelot","steam_id":76561198233075052,"connected_time":763000000000,"state":"active","ping":113},{"user_id":33,"name":"cow","steam_id":76561198117331762,"connected_time":748000000000,"state":"active","ping":44},{"user_id":34,"name":"Cherry.C","steam_id":76561198962500536,"connected_time":742000000000,"state":"active","ping":60},{"user_id":42,"name":"Kaluka","steam_id":76561198036861445,"connected_time":377000000000,"state":"active","ping":71},{"user_id":36,"name":"ScaryTree","steam_id":76561199384362833,"connected_time":693000000000,"state":"active","ping":143},{"user_id":37,"name":"skittle ducks jr.","steam_id":76561198309823950,"connected_time":665000000000,"state":"active","ping":86},{"user_id":40,"name":"I am Gamer","steam_id":76561198047845399,"connected_time":561000000000,"state":"active","ping":68}]},{"server_id":36,"name":"Uncletopia | Chicago | 5 | All Maps","name_short":"chi-5","host":"chi-2.us.uncletopia.com","port":27015,"enabled":true,"region":"us-central","cc":"us","latitude":41.881832,"longitude":-87.62318,"reserved":0,"last_update":"0001-01-01T00:00:00Z","name_a2s":"Uncletopia | Chicago | 5 | All Maps","protocol":17,"map":"pl_badwater","folder":"tf","game":"Team Fortress","app_id":440,"player_count":0,"max_players":24,"Bots":0,"server_type":"Dedicated","server_os":"Linux","password":true,"vac":true,"version":"7882260","steam_id":85568392924866362,"keywords":["nocrits","nodmgspread","payload","uncletopia"],"game_id":440,"stv_port":27016,"stv_name":"Uncletopia | Chicago | 5 | All Maps | STV","players":null},{"server_id":37,"name":"Uncletopia | Chicago | 6 | All Maps","name_short":"chi-6","host":"chi-2.us.uncletopia.com","port":27025,"enabled":true,"region":"us-central","cc":"us","latitude":41.881832,"longitude":-87.62318,"reserved":0,"last_update":"0001-01-01T00:00:00Z","name_a2s":"Uncletopia | Chicago | 6 | All Maps","protocol":17,"map":"koth_cascade","folder":"tf","game":"Team Fortress","app_id":440,"player_count":0,"max_players":24,"Bots":0,"server_type":"Dedicated","server_os":"Linux","password":true,"vac":true,"version":"7882260","steam_id":85568392924866363,"keywords":["cp","nocrits","nodmgspread","uncletopia"],"game_id":440,"stv_port":27026,"stv_name":"Uncletopia | Chicago | 6 | All Maps | STV","players":null},{"server_id":38,"name":"Uncletopia | Chicago | 7 | Stopwatch Beta","name_short":"chi-7","host":"chi-2.us.uncletopia.com","port":27035,"enabled":true,"region":"us-central","cc":"us","latitude":41.881832,"longitude":-87.62318,"reserved":0,"last_update":"0001-01-01T00:00:00Z","name_a2s":"Uncletopia | Chicago | 7 | Stopwatch Beta","protocol":17,"map":"pl_borneo","folder":"tf","game":"Team Fortress","app_id":440,"player_count":0,"max_players":24,"Bots":0,"server_type":"Dedicated","server_os":"Linux","password":true,"vac":true,"version":"7882260","steam_id":85568392924866364,"keywords":["nocrits","nodmgspread","payload","uncletopia"],"game_id":440,"stv_port":27036,"stv_name":"Uncletopia | Chicago | 7 | Stopwatch Beta | STV","players":null},{"server_id":39,"name":"Uncletopia | Chicago | 8 | Community","name_short":"chi-8","host":"chi-2.us.uncletopia.com","port":27045,"enabled":true,"region":"us-central","cc":"us","latitude":41.881832,"longitude":-87.62318,"reserved":0,"last_update":"0001-01-01T00:00:00Z","name_a2s":"Uncletopia | Chicago | 8 | Community","protocol":17,"map":"cp_snakewater_final1","folder":"tf","game":"Team Fortress","app_id":440,"player_count":0,"max_players":24,"Bots":0,"server_type":"Dedicated","server_os":"Linux","password":true,"vac":true,"version":"7882260","steam_id":85568392924866365,"keywords":["cp","nocrits","nodmgspread","uncletopia"],"game_id":440,"stv_port":27046,"stv_name":"Uncletopia | Chicago | 8 | Community | STV","players":null},{"server_id":8,"name":"Uncletopia | Dallas | 1 | All Maps","name_short":"dal-1","host":"dal-1.us.uncletopia.com","port":27015,"enabled":true,"region":"us-central","cc":"us","latitude":32.779167,"longitude":-96.80889,"reserved":0,"last_update":"0001-01-01T00:00:00Z","name_a2s":"Uncletopia | Dallas | 1 | All Maps","protocol":17,"map":"pl_pier","folder":"tf","game":"Team Fortress","app_id":440,"player_count":0,"max_players":24,"Bots":0,"server_type":"Dedicated","server_os":"Linux","password":true,"vac":true,"version":"7882260","steam_id":85568392924469986,"keywords":["nocrits","nodmgspread","payload","uncletopia"],"game_id":440,"stv_port":27016,"stv_name":"Uncletopia | Dallas | 1 | All Maps | STV","players":null},{"server_id":108,"name":"Uncletopia | Dallas | 2 | All Maps","name_short":"dal-2","host":"dal-1.us.uncletopia.com","port":27025,"enabled":true,"region":"us-central","cc":"us","latitude":32.779167,"longitude":-96.80889,"reserved":0,"last_update":"0001-01-01T00:00:00Z","name_a2s":"Uncletopia | Dallas | 2 | All Maps","protocol":17,"map":"pl_barnblitz","folder":"tf","game":"Team Fortress","app_id":440,"player_count":12,"max_players":24,"Bots":0,"server_type":"Dedicated","server_os":"Linux","password":true,"vac":true,"version":"7882260","steam_id":85568392924469988,"keywords":["nocrits","nodmgspread","payload","uncletopia"],"game_id":440,"stv_port":27026,"stv_name":"Uncletopia | Dallas | 2 | All Maps | STV","players":[{"user_id":16,"name":"lycoris","steam_id":76561199113965768,"connected_time":1123000000000,"state":"active","ping":86},{"user_id":21,"name":"Quillz","steam_id":76561197996567754,"connected_time":270000000000,"state":"active","ping":75},{"user_id":8,"name":"highschool drop-out","steam_id":76561198366299848,"connected_time":1504000000000,"state":"active","ping":64},{"user_id":18,"name":"ÁßÅ„Å´„ÅØÁà∂„Åå„ÅÑ„Åæ„Åõ„Çì","steam_id":76561199130537227,"connected_time":445000000000,"state":"active","ping":78},{"user_id":22,"name":"Alaska","steam_id":76561198062026641,"connected_time":270000000000,"state":"active","ping":142},{"user_id":20,"name":"Mr.Bady","steam_id":76561199094651706,"connected_time":363000000000,"state":"active","ping":111},{"user_id":11,"name":"OrangeGlazer","steam_id":76561198127358240,"connected_time":1481000000000,"state":"active","ping":72},{"user_id":23,"name":"Sparky","steam_id":76561198114574421,"connected_time":186000000000,"state":"active","ping":84},{"user_id":24,"name":"TheRedBaron","steam_id":76561198032114629,"connected_time":76000000000,"state":"active","ping":169},{"user_id":15,"name":"‚ù§Flaxks‚ù§","steam_id":76561198410260447,"connected_time":1192000000000,"state":"active","ping":87},{"user_id":17,"name":"feenman","steam_id":76561199383834799,"connected_time":1113000000000,"state":"active","ping":70},{"user_id":25,"name":"Abu_iraq","steam_id":76561199436259546,"connected_time":22000000000,"state":"active","ping":310}]},{"server_id":5,"name":"Uncletopia | Frankfurt | 1 | All Maps","name_short":"frk-1","host":"frk-1.de.uncletopia.com","port":27015,"enabled":true,"region":"eu","cc":"de","latitude":50.110924,"longitude":8.682127,"reserved":0,"last_update":"0001-01-01T00:00:00Z","name_a2s":"Uncletopia | Frankfurt | 1 | All Maps","protocol":17,"map":"pl_frontier_final","folder":"tf","game":"Team Fortress","app_id":440,"player_count":24,"max_players":24,"Bots":0,"server_type":"Dedicated","server_os":"Linux","password":true,"vac":true,"version":"7882260","steam_id":85568392924469989,"keywords":["nocrits","nodmgspread","payload","uncletopia"],"game_id":440,"stv_port":27016,"stv_name":"Uncletopia | Frankfurt | 1 | All Maps | STV","players":[{"user_id":147,"name":"‚ô•ImWithMilk","steam_id":76561198269577569,"connected_time":2470000000000,"state":"active","ping":69},{"user_id":125,"name":"Uncle Ryo","steam_id":76561198008733234,"connected_time":3821000000000,"state":"active","ping":73},{"user_id":179,"name":"Limbless Andr√©","steam_id":76561198077283223,"connected_time":41000000000,"state":"active","ping":81},{"user_id":110,"name":"Pico","steam_id":76561198063552545,"connected_time":4729000000000,"state":"active","ping":99},{"user_id":170,"name":"Random Class Gaming","steam_id":76561198362116755,"connected_time":307000000000,"state":"active","ping":134},{"user_id":158,"name":"Milk","steam_id":76561198125876588,"connected_time":731000000000,"state":"active","ping":56},{"user_id":151,"name":"Alen","steam_id":76561199036330383,"connected_time":2249000000000,"state":"active","ping":147},{"user_id":156,"name":"Mateumt","steam_id":76561198101669791,"connected_time":903000000000,"state":"active","ping":59},{"user_id":127,"name":"Pain in a Box","steam_id":76561197990777173,"connected_time":3617000000000,"state":"active","ping":96},{"user_id":153,"name":"Mak≈Çowicz","steam_id":76561198281831506,"connected_time":1621000000000,"state":"active","ping":81},{"user_id":176,"name":"i look at gay people","steam_id":76561198078032019,"connected_time":149000000000,"state":"active","ping":75},{"user_id":157,"name":"slifer the executive producer","steam_id":76561198322087870,"connected_time":880000000000,"state":"active","ping":111},{"user_id":166,"name":"djstrawberry22","steam_id":76561198318496072,"connected_time":456000000000,"state":"active","ping":107},{"user_id":159,"name":"trans werewolf","steam_id":76561198107235989,"connected_time":701000000000,"state":"active","ping":62},{"user_id":142,"name":"Goober","steam_id":76561198054795379,"connected_time":2771000000000,"state":"active","ping":55},{"user_id":173,"name":"Pinochet","steam_id":76561198194042394,"connected_time":197000000000,"state":"active","ping":141},{"user_id":172,"name":"Deacon Dracul","steam_id":76561198046880663,"connected_time":268000000000,"state":"active","ping":98},{"user_id":152,"name":"RiX","steam_id":76561197969053733,"connected_time":1784000000000,"state":"active","ping":70},{"user_id":171,"name":"hisham","steam_id":76561198414437290,"connected_time":296000000000,"state":"active","ping":110},{"user_id":161,"name":"Mega Man Legends 3","steam_id":76561198014110199,"connected_time":636000000000,"state":"active","ping":59},{"user_id":177,"name":"Alice can't hit pipes","steam_id":76561198052410860,"connected_time":120000000000,"state":"active","ping":136},{"user_id":167,"name":"chickenoidi","steam_id":76561198449498382,"connected_time":448000000000,"state":"active","ping":92},{"user_id":174,"name":"LOBZIK","steam_id":76561198114830120,"connected_time":185000000000,"state":"active","ping":78},{"user_id":175,"name":"mercurial","steam_id":76561198046227550,"connected_time":172000000000,"state":"active","ping":58}]},{"server_id":110,"name":"Uncletopia | Frankfurt | 2 | All Maps","name_short":"frk-2","host":"frk-1.de.uncletopia.com","port":27025,"enabled":true,"region":"eu","cc":"de","latitude":50.110924,"longitude":8.682127,"reserved":0,"last_update":"0001-01-01T00:00:00Z","name_a2s":"Uncletopia | Frankfurt | 2 | All Maps","protocol":17,"map":"koth_highpass","folder":"tf","game":"Team Fortress","app_id":440,"player_count":6,"max_players":24,"Bots":0,"server_type":"Dedicated","server_os":"Linux","password":true,"vac":true,"version":"7882260","steam_id":85568392924469990,"keywords":["cp","nocrits","nodmgspread","uncletopia"],"game_id":440,"stv_port":27026,"stv_name":"Uncletopia | Frankfurt | 2 | All Maps | STV","players":[{"user_id":11,"name":"luccathron787","steam_id":76561199438419495,"connected_time":1215000000000,"state":"active","ping":43},{"user_id":12,"name":"Engi-Nearing","steam_id":76561199221172552,"connected_time":1203000000000,"state":"active","ping":62},{"user_id":13,"name":"cajo1918","steam_id":76561199475862195,"connected_time":635000000000,"state":"active","ping":77},{"user_id":14,"name":"pl.haker","steam_id":76561198278440186,"connected_time":624000000000,"state":"active","ping":74},{"user_id":17,"name":"Arcex","steam_id":76561198869864117,"connected_time":66000000000,"state":"active","ping":69},{"user_id":18,"name":"Faraday's Law","steam_id":76561198105385977,"connected_time":65000000000,"state":"spawning","ping":53}]},{"server_id":308,"name":"Uncletopia | Frankfurt | 3 | All Maps","name_short":"frk-3","host":"frk-1.de.uncletopia.com","port":27035,"enabled":true,"region":"eu","cc":"de","latitude":50.110924,"longitude":8.682127,"reserved":0,"last_update":"0001-01-01T00:00:00Z","name_a2s":"Uncletopia | Frankfurt | 3 | All Maps","protocol":17,"map":"pl_snowycoast","folder":"tf","game":"Team Fortress","app_id":440,"player_count":0,"max_players":24,"Bots":0,"server_type":"Dedicated","server_os":"Linux","password":true,"vac":true,"version":"7882260","steam_id":85568392924504274,"keywords":["nocrits","nodmgspread","payload","uncletopia"],"game_id":440,"stv_port":27036,"stv_name":"Uncletopia | Frankfurt | 3 | All Maps | STV","players":null},{"server_id":309,"name":"Uncletopia | Frankfurt | 4 | All Maps","name_short":"frk-4","host":"frk-1.de.uncletopia.com","port":27045,"enabled":true,"region":"eu","cc":"de","latitude":50.110924,"longitude":8.682127,"reserved":0,"last_update":"0001-01-01T00:00:00Z","name_a2s":"Uncletopia | Frankfurt | 4 | All Maps","protocol":17,"map":"pl_badwater","folder":"tf","game":"Team Fortress","app_id":440,"player_count":24,"max_players":24,"Bots":0,"server_type":"Dedicated","server_os":"Linux","password":true,"vac":true,"version":"7882260","steam_id":85568392924504275,"keywords":["nocrits","nodmgspread","payload","uncletopia"],"game_id":440,"stv_port":27046,"stv_name":"Uncletopia | Frankfurt | 4 | All Maps | STV","players":[{"user_id":247,"name":"heavy like a brinks truck","steam_id":76561198257158275,"connected_time":2847000000000,"state":"active","ping":147},{"user_id":296,"name":"Tywhip","steam_id":76561199207545191,"connected_time":149000000000,"state":"active","ping":55},{"user_id":291,"name":"Cagnus Marlsen","steam_id":76561198077859721,"connected_time":359000000000,"state":"active","ping":56},{"user_id":243,"name":"hedon/","steam_id":76561198249832770,"connected_time":3361000000000,"state":"active","ping":56},{"user_id":283,"name":"truebosnianking","steam_id":76561199440060597,"connected_time":1467000000000,"state":"active","ping":83},{"user_id":292,"name":"XPullaHiiri","steam_id":76561198031652375,"connected_time":218000000000,"state":"active","ping":83},{"user_id":274,"name":"—è —Å–æ—Å–∞–ª –º–µ–Ω—è –µ–±–∞–ª","steam_id":76561197971140507,"connected_time":2038000000000,"state":"active","ping":74},{"user_id":289,"name":"miki","steam_id":76561199015907872,"connected_time":781000000000,"state":"active","ping":64},{"user_id":278,"name":"üÉî Nugg1t(she/they)","steam_id":76561198065652251,"connected_time":1733000000000,"state":"active","ping":42},{"user_id":254,"name":"Munibe","steam_id":76561198107967904,"connected_time":2593000000000,"state":"active","ping":80},{"user_id":255,"name":"true","steam_id":76561198031145243,"connected_time":2574000000000,"state":"active","ping":88},{"user_id":260,"name":"Ratatatatatatouille","steam_id":76561198182267098,"connected_time":2444000000000,"state":"active","ping":78},{"user_id":271,"name":"MekBlue","steam_id":76561198047680770,"connected_time":2150000000000,"state":"active","ping":88},{"user_id":262,"name":"I have aids","steam_id":76561198860347851,"connected_time":2352000000000,"state":"active","ping":128},{"user_id":285,"name":"B.batt","steam_id":76561198998684199,"connected_time":1137000000000,"state":"active","ping":112},{"user_id":267,"name":"Rerken","steam_id":76561199201353504,"connected_time":2164000000000,"state":"active","ping":94},{"user_id":268,"name":"Kvadrat","steam_id":76561198022834916,"connected_time":2162000000000,"state":"active","ping":114},{"user_id":269,"name":"–¢–æ—Ç —Å–∞–º—ã–π –∫–æ—Ç–æ—Ä—ã\ufffd","steam_id":76561198214926087,"connected_time":2162000000000,"state":"active","ping":89},{"user_id":272,"name":"Pramanix is my only frien","steam_id":76561198325612834,"connected_time":2121000000000,"state":"active","ping":101},{"user_id":293,"name":"Yanniki","steam_id":76561197986058110,"connected_time":211000000000,"state":"active","ping":65},{"user_id":286,"name":"mumbler","steam_id":76561197970641239,"connected_time":1034000000000,"state":"active","ping":55},{"user_id":276,"name":"quickfast","steam_id":76561199438900919,"connected_time":2007000000000,"state":"active","ping":57},{"user_id":295,"name":"Grenade Launcher","steam_id":76561198441974031,"connected_time":198000000000,"state":"active","ping":59},{"user_id":281,"name":"twitch/auratf2","steam_id":76561197988085026,"connected_time":1558000000000,"state":"active","ping":76}]},{"server_id":310,"name":"Uncletopia | Frankfurt | 5 | All Maps","name_short":"frk-5","host":"frk-1.de.uncletopia.com","port":27055,"enabled":true,"region":"eu","cc":"de","latitude":50.110924,"longitude":8.682127,"reserved":0,"last_update":"0001-01-01T00:00:00Z","name_a2s":"Uncletopia | Frankfurt | 5 | All Maps","protocol":17,"map":"pl_borneo","folder":"tf","game":"Team Fortress","app_id":440,"player_count":23,"max_players":24,"Bots":0,"server_type":"Dedicated","server_os":"Linux","password":true,"vac":true,"version":"7882260","steam_id":85568392924504277,"keywords":["nocrits","nodmgspread","payload","uncletopia"],"game_id":440,"stv_port":27056,"stv_name":"Uncletopia | Frankfurt | 5 | All Maps | STV","players":[{"user_id":197,"name":"Mion","steam_id":76561198132206682,"connected_time":1176000000000,"state":"active","ping":51},{"user_id":170,"name":"Fish 'n' Chips","steam_id":76561198033476886,"connected_time":3083000000000,"state":"active","ping":45},{"user_id":213,"name":"Menty","steam_id":76561198036748212,"connected_time":320000000000,"state":"active","ping":45},{"user_id":209,"name":"Osama Bin Pacc Smoking","steam_id":76561198877260644,"connected_time":636000000000,"state":"active","ping":70},{"user_id":186,"name":"Dog ?","steam_id":76561198347020945,"connected_time":2196000000000,"state":"active","ping":76},{"user_id":214,"name":"‚ú™ qua ‚ú™","steam_id":76561198066408333,"connected_time":133000000000,"state":"active","ping":54},{"user_id":207,"name":"Dolcelatte","steam_id":76561198038501770,"connected_time":756000000000,"state":"active","ping":58},{"user_id":17,"name":"Ran33","steam_id":76561197991474499,"connected_time":14746000000000,"state":"active","ping":95},{"user_id":199,"name":"AjsTii","steam_id":76561198070734444,"connected_time":1136000000000,"state":"active","ping":52},{"user_id":208,"name":"Goga11","steam_id":76561198451145010,"connected_time":755000000000,"state":"active","ping":116},{"user_id":215,"name":"demoman from tf2","steam_id":76561198053394831,"connected_time":132000000000,"state":"active","ping":50},{"user_id":192,"name":"Creamy","steam_id":76561198063907478,"connected_time":1703000000000,"state":"active","ping":76},{"user_id":200,"name":"Leibeigener","steam_id":76561199275478305,"connected_time":1116000000000,"state":"active","ping":33},{"user_id":183,"name":"Marchioly","steam_id":76561198335079215,"connected_time":2342000000000,"state":"active","ping":107},{"user_id":201,"name":"Ziemniaczki z koperkiem","steam_id":76561198829123464,"connected_time":1095000000000,"state":"active","ping":66},{"user_id":202,"name":"hybrid","steam_id":76561197996468677,"connected_time":1086000000000,"state":"active","ping":57},{"user_id":203,"name":"OxygeNxo","steam_id":76561198031632028,"connected_time":1079000000000,"state":"active","ping":74},{"user_id":211,"name":"b_a1Ln","steam_id":76561198135213739,"connected_time":585000000000,"state":"active","ping":118},{"user_id":206,"name":"t√Øger","steam_id":76561198260483157,"connected_time":862000000000,"state":"active","ping":88},{"user_id":194,"name":"Dragon's Fury \u003e You","steam_id":76561198799097492,"connected_time":1356000000000,"state":"active","ping":49},{"user_id":153,"name":"Urfangonultasadana","steam_id":76561199389286151,"connected_time":4811000000000,"state":"active","ping":88},{"user_id":191,"name":"Sylvanas","steam_id":76561198154904165,"connected_time":1735000000000,"state":"active","ping":116},{"user_id":146,"name":"Tekky","steam_id":76561197990987315,"connected_time":5575000000000,"state":"active","ping":56}]},{"server_id":311,"name":"Uncletopia | Frankfurt | 6 | All Maps","name_short":"frk-6","host":"frk-1.de.uncletopia.com","port":27065,"enabled":true,"region":"eu","cc":"de","latitude":50.110924,"longitude":8.682127,"reserved":0,"last_update":"0001-01-01T00:00:00Z","name_a2s":"Uncletopia | Frankfurt | 6 | All Maps","protocol":17,"map":"pl_badwater","folder":"tf","game":"Team Fortress","app_id":440,"player_count":0,"max_players":24,"Bots":0,"server_type":"Dedicated","server_os":"Linux","password":true,"vac":true,"version":"7882260","steam_id":85568392924504278,"keywords":["nocrits","nodmgspread","payload","uncletopia"],"game_id":440,"stv_port":27066,"stv_name":"Uncletopia | Frankfurt | 6 | All Maps | STV","players":null},{"server_id":23,"name":"Uncletopia | Frankfurt | 7 | Stopwatch Beta","name_short":"frk-7","host":"frk-1.de.uncletopia.com","port":27075,"enabled":true,"region":"eu","cc":"de","latitude":50.110924,"longitude":8.682127,"reserved":0,"last_update":"0001-01-01T00:00:00Z","name_a2s":"Uncletopia | Frankfurt | 7 | Stopwatch Beta","protocol":17,"map":"cp_dustbowl","folder":"tf","game":"Team Fortress","app_id":440,"player_count":0,"max_players":24,"Bots":0,"server_type":"Dedicated","server_os":"Linux","password":true,"vac":true,"version":"7882260","steam_id":85568392924742827,"keywords":["cp","nocrits","nodmgspread","uncletopia"],"game_id":440,"stv_port":27076,"stv_name":"Uncletopia | Frankfurt | 7 | Stopwatch Beta | STV","players":null},{"server_id":24,"name":"Uncletopia | Frankfurt | 8 | Community","name_short":"frk-8","host":"frk-1.de.uncletopia.com","port":27085,"enabled":true,"region":"eu","cc":"de","latitude":50.110924,"longitude":8.682127,"reserved":0,"last_update":"0001-01-01T00:00:00Z","name_a2s":"Uncletopia | Frankfurt | 8 | Community","protocol":17,"map":"workshop/cp_caldera_rc2.ugc2834196889","folder":"tf","game":"Team Fortress","app_id":440,"player_count":0,"max_players":24,"Bots":0,"server_type":"Dedicated","server_os":"Linux","password":true,"vac":true,"version":"7882260","steam_id":85568392924742828,"keywords":["cp","nocrits","nodmgspread","uncletopia"],"game_id":440,"stv_port":27086,"stv_name":"Uncletopia | Frankfurt | 8 | Community | STV","players":null},{"server_id":202,"name":"Uncletopia | Hong Kong | 1 | All Maps","name_short":"hgk-1","host":"hgk-1.hk.uncletopia.com","port":27015,"enabled":true,"region":"asia","cc":"hk","latitude":22.302711,"longitude":114.177216,"reserved":0,"last_update":"0001-01-01T00:00:00Z","name_a2s":"Uncletopia | Hong Kong | 1 | All Maps","protocol":17,"map":"koth_viaduct","folder":"tf","game":"Team Fortress","app_id":440,"player_count":20,"max_players":24,"Bots":0,"server_type":"Dedicated","server_os":"Linux","password":true,"vac":true,"version":"7882260","steam_id":85568392924494504,"keywords":["cp","nocrits","nodmgspread","uncletopia"],"game_id":440,"stv_port":27016,"stv_name":"Uncletopia | Hong Kong | 1 | All Maps | STV","players":[{"user_id":304,"name":"cellum95","steam_id":76561198172146871,"connected_time":83000000000,"state":"active","ping":89},{"user_id":305,"name":"ksvk","steam_id":76561198152588681,"connected_time":81000000000,"state":"active","ping":80},{"user_id":286,"name":"PissDrinker98","steam_id":76561198856157761,"connected_time":2005000000000,"state":"active","ping":105},{"user_id":261,"name":"WW2 Ace","steam_id":76561198962485791,"connected_time":3909000000000,"state":"active","ping":136},{"user_id":271,"name":"spinach (old mouse)","steam_id":76561198042539541,"connected_time":3087000000000,"state":"active","ping":75},{"user_id":288,"name":"Deep Fried Pyro","steam_id":76561198063545062,"connected_time":1558000000000,"state":"active","ping":95},{"user_id":306,"name":"bruh","steam_id":76561199068229379,"connected_time":26000000000,"state":"spawning","ping":52},{"user_id":249,"name":"bodacious bogey","steam_id":76561198055553140,"connected_time":5158000000000,"state":"active","ping":75},{"user_id":307,"name":"alphawarrior999","steam_id":76561199001580062,"connected_time":2000000000,"state":"spawning","ping":157},{"user_id":298,"name":"Missile","steam_id":76561198375891540,"connected_time":1177000000000,"state":"active","ping":80},{"user_id":292,"name":"screaming sniper","steam_id":76561199085568674,"connected_time":1459000000000,"state":"active","ping":73},{"user_id":252,"name":"V","steam_id":76561198092969425,"connected_time":5100000000000,"state":"active","ping":107},{"user_id":274,"name":"Pillboi","steam_id":76561198011172886,"connected_time":2923000000000,"state":"active","ping":40},{"user_id":290,"name":"Dashinix","steam_id":76561198129263849,"connected_time":1512000000000,"state":"active","ping":79},{"user_id":275,"name":"Turbo.RF4","steam_id":76561199061012484,"connected_time":2762000000000,"state":"active","ping":67},{"user_id":299,"name":"SPEED","steam_id":76561198044969832,"connected_time":1175000000000,"state":"active","ping":100},{"user_id":295,"name":"Xoro","steam_id":76561198332104915,"connected_time":1341000000000,"state":"active","ping":122},{"user_id":302,"name":"brizzard","steam_id":76561198048438653,"connected_time":877000000000,"state":"active","ping":55},{"user_id":254,"name":"Momoxhien","steam_id":76561198414997429,"connected_time":4916000000000,"state":"active","ping":61},{"user_id":270,"name":"green shit","steam_id":76561198024666371,"connected_time":3123000000000,"state":"active","ping":105}]},{"server_id":1,"name":"Uncletopia | Los Angeles | 1 | All Maps","name_short":"lax-1","host":"lax-1.us.uncletopia.com","port":27015,"enabled":true,"region":"us-west","cc":"us","latitude":33.94279,"longitude":-118.41004,"reserved":0,"last_update":"0001-01-01T00:00:00Z","name_a2s":"Uncletopia | Los Angeles | 1 | All Maps","protocol":17,"map":"koth_viaduct","folder":"tf","game":"Team Fortress","app_id":440,"player_count":0,"max_players":24,"Bots":0,"server_type":"Dedicated","server_os":"Linux","password":true,"vac":true,"version":"7882260","steam_id":85568392924469991,"keywords":["cp","nocrits","nodmgspread","uncletopia"],"game_id":440,"stv_port":27016,"stv_name":"Uncletopia | Los Angeles | 1 | All Maps | STV","players":null},{"server_id":112,"name":"Uncletopia | Los Angeles | 2 | All Maps","name_short":"lax-2","host":"lax-1.us.uncletopia.com","port":27025,"enabled":true,"region":"us-west","cc":"us","latitude":33.94279,"longitude":-118.41004,"reserved":0,"last_update":"0001-01-01T00:00:00Z","name_a2s":"Uncletopia | Los Angeles | 2 | All Maps","protocol":17,"map":"cp_sunshine","folder":"tf","game":"Team Fortress","app_id":440,"player_count":0,"max_players":24,"Bots":0,"server_type":"Dedicated","server_os":"Linux","password":true,"vac":true,"version":"7882260","steam_id":85568392924469992,"keywords":["cp","nocrits","nodmgspread","uncletopia"],"game_id":440,"stv_port":27026,"stv_name":"Uncletopia | Los Angeles | 2 | All Maps | STV","players":null},{"server_id":324,"name":"Uncletopia | Los Angeles | 3 | All Maps","name_short":"lax-3","host":"lax-1.us.uncletopia.com","port":27035,"enabled":true,"region":"us-west","cc":"us","latitude":33.94279,"longitude":-118.41004,"reserved":0,"last_update":"0001-01-01T00:00:00Z","name_a2s":"Uncletopia | Los Angeles | 3 | All Maps","protocol":17,"map":"koth_highpass","folder":"tf","game":"Team Fortress","app_id":440,"player_count":0,"max_players":24,"Bots":0,"server_type":"Dedicated","server_os":"Linux","password":true,"vac":true,"version":"7882260","steam_id":85568392924510198,"keywords":["cp","nocrits","nodmgspread","uncletopia"],"game_id":440,"stv_port":27036,"stv_name":"Uncletopia | Los Angeles | 3 | All Maps | STV","players":null},{"server_id":25,"name":"Uncletopia | Los Angeles | 4 | Stopwatch Beta","name_short":"lax-4","host":"lax-1.us.uncletopia.com","port":27045,"enabled":true,"region":"us-west","cc":"us","latitude":33.94279,"longitude":-118.41004,"reserved":0,"last_update":"0001-01-01T00:00:00Z","name_a2s":"Uncletopia | Los Angeles | 4 | Stopwatch Beta","protocol":17,"map":"workshop/koth_ramjam_rc1.ugc459778887","folder":"tf","game":"Team Fortress","app_id":440,"player_count":0,"max_players":24,"Bots":0,"server_type":"Dedicated","server_os":"Linux","password":true,"vac":true,"version":"7882260","steam_id":85568392924510199,"keywords":["cp","nocrits","nodmgspread","uncletopia"],"game_id":440,"stv_port":27046,"stv_name":"Uncletopia | Los Angeles | 4 | Stopwatch Beta | STV","players":null},{"server_id":11,"name":"Uncletopia | London | 1 | All Maps","name_short":"lon-1","host":"lon-1.uk.uncletopia.com","port":27015,"enabled":true,"region":"eu","cc":"gb","latitude":51.509865,"longitude":-0.118092,"reserved":0,"last_update":"0001-01-01T00:00:00Z","name_a2s":"Uncletopia | London | 1 | All Maps","protocol":17,"map":"koth_cascade","folder":"tf","game":"Team Fortress","app_id":440,"player_count":0,"max_players":24,"Bots":0,"server_type":"Dedicated","server_os":"Linux","password":true,"vac":true,"version":"7882260","steam_id":85568392924367362,"keywords":["cp","nocrits","nodmgspread","uncletopia"],"game_id":440,"stv_port":27016,"stv_name":"Uncletopia | London | 1 | All Maps | STV","players":null},{"server_id":114,"name":"Uncletopia | London | 2 | All Maps","name_short":"lon-2","host":"lon-1.uk.uncletopia.com","port":27025,"enabled":true,"region":"eu","cc":"gb","latitude":51.509865,"longitude":-0.118092,"reserved":0,"last_update":"0001-01-01T00:00:00Z","name_a2s":"Uncletopia | London | 2 | All Maps","protocol":17,"map":"cp_sunshine","folder":"tf","game":"Team Fortress","app_id":440,"player_count":0,"max_players":24,"Bots":0,"server_type":"Dedicated","server_os":"Linux","password":true,"vac":true,"version":"7882260","steam_id":85568392924470941,"keywords":["cp","nocrits","nodmgspread","uncletopia"],"game_id":440,"stv_port":27026,"stv_name":"Uncletopia | London | 2 | All Maps | STV","players":null},{"server_id":320,"name":"Uncletopia | London | 3 | All Maps","name_short":"lon-3","host":"lon-1.uk.uncletopia.com","port":27035,"enabled":true,"region":"eu","cc":"gb","latitude":51.509865,"longitude":-0.118092,"reserved":0,"last_update":"0001-01-01T00:00:00Z","name_a2s":"Uncletopia | London | 3 | All Maps","protocol":17,"map":"koth_highpass","folder":"tf","game":"Team Fortress","app_id":440,"player_count":0,"max_players":24,"Bots":0,"server_type":"Dedicated","server_os":"Linux","password":true,"vac":true,"version":"7882260","steam_id":85568392924510192,"keywords":["cp","nocrits","nodmgspread","uncletopia"],"game_id":440,"stv_port":27036,"stv_name":"Uncletopia | London | 3 | All Maps | STV","players":null},{"server_id":321,"name":"Uncletopia | London | 4 | All Maps","name_short":"lon-4","host":"lon-1.uk.uncletopia.com","port":27045,"enabled":true,"region":"eu","cc":"gb","latitude":51.509865,"longitude":-0.118092,"reserved":0,"last_update":"0001-01-01T00:00:00Z","name_a2s":"Uncletopia | London | 4 | All Maps","protocol":17,"map":"cp_sunshine","folder":"tf","game":"Team Fortress","app_id":440,"player_count":0,"max_players":24,"Bots":0,"server_type":"Dedicated","server_os":"Linux","password":true,"vac":true,"version":"7882260","steam_id":85568392924510193,"keywords":["cp","nocrits","nodmgspread","uncletopia"],"game_id":440,"stv_port":27046,"stv_name":"Uncletopia | London | 4 | All Maps | STV","players":null},{"server_id":21,"name":"Uncletopia | London | 5 | All Maps","name_short":"lon-5","host":"lon-1.uk.uncletopia.com","port":27055,"enabled":true,"region":"eu","cc":"gb","latitude":51.509865,"longitude":-0.118092,"reserved":0,"last_update":"0001-01-01T00:00:00Z","name_a2s":"Uncletopia | London | 5 | All Maps","protocol":17,"map":"cp_sunshine","folder":"tf","game":"Team Fortress","app_id":440,"player_count":0,"max_players":24,"Bots":0,"server_type":"Dedicated","server_os":"Linux","password":true,"vac":true,"version":"7882260","steam_id":85568392924742829,"keywords":["cp","nocrits","nodmgspread","uncletopia"],"game_id":440,"stv_port":27056,"stv_name":"Uncletopia | London | 5 | All Maps | STV","players":null},{"server_id":22,"name":"Uncletopia | London | 6 | All Maps","name_short":"lon-6","host":"lon-1.uk.uncletopia.com","port":27065,"enabled":true,"region":"eu","cc":"gb","latitude":51.509865,"longitude":-0.118092,"reserved":0,"last_update":"0001-01-01T00:00:00Z","name_a2s":"Uncletopia | London | 6 | All Maps","protocol":17,"map":"pl_pier","folder":"tf","game":"Team Fortress","app_id":440,"player_count":5,"max_players":24,"Bots":0,"server_type":"Dedicated","server_os":"Linux","password":true,"vac":true,"version":"7882260","steam_id":85568392924742830,"keywords":["nocrits","nodmgspread","payload","uncletopia"],"game_id":440,"stv_port":27066,"stv_name":"Uncletopia | London | 6 | All Maps | STV","players":[{"user_id":6,"name":"Somethingü§ô","steam_id":76561198375358222,"connected_time":957000000000,"state":"active","ping":42},{"user_id":7,"name":"Woman (Real)","steam_id":76561199151823932,"connected_time":832000000000,"state":"active","ping":72},{"user_id":8,"name":"Fr3nzyfull","steam_id":76561199156792382,"connected_time":493000000000,"state":"active","ping":65},{"user_id":9,"name":"Bread 0f Box","steam_id":76561198165594721,"connected_time":259000000000,"state":"active","ping":55},{"user_id":10,"name":"mixxxa_french","steam_id":76561198085098243,"connected_time":204000000000,"state":"active","ping":110}]},{"server_id":40,"name":"Uncletopia | London | 7 | No Payload","name_short":"lon-7","host":"lon-1.uk.uncletopia.com","port":27075,"enabled":true,"region":"eu","cc":"gb","latitude":51.509865,"longitude":-0.118092,"reserved":0,"last_update":"0001-01-01T00:00:00Z","name_a2s":"Uncletopia | London | 7 | No Payload","protocol":17,"map":"ctf_2fort","folder":"tf","game":"Team Fortress","app_id":440,"player_count":0,"max_players":24,"Bots":0,"server_type":"Dedicated","server_os":"Linux","password":true,"vac":true,"version":"7882260","steam_id":85568392924964314,"keywords":["ctf","nocrits","nodmgspread","uncletopia"],"game_id":440,"stv_port":27076,"stv_name":"Uncletopia | London | 7 | No Payload | STV","players":null},{"server_id":41,"name":"Uncletopia | London | 8 | Community","name_short":"lon-8","host":"lon-1.uk.uncletopia.com","port":27085,"enabled":true,"region":"eu","cc":"gb","latitude":51.509865,"longitude":-0.118092,"reserved":0,"last_update":"0001-01-01T00:00:00Z","name_a2s":"Uncletopia | London | 8 | Community","protocol":17,"map":"pl_swiftwater_final1","folder":"tf","game":"Team Fortress","app_id":440,"player_count":0,"max_players":24,"Bots":0,"server_type":"Dedicated","server_os":"Linux","password":true,"vac":true,"version":"7882260","steam_id":85568392924964315,"keywords":["nocrits","nodmgspread","payload","uncletopia"],"game_id":440,"stv_port":27086,"stv_name":"Uncletopia | London | 8 | Community | STV","players":null},{"server_id":300,"name":"Uncletopia | Montr√©al | 1 | All Maps","name_short":"mtl-1","host":"mtl-1.ca.uncletopia.com","port":27015,"enabled":true,"region":"us-east","cc":"ca","latitude":45.50889,"longitude":-73.56167,"reserved":0,"last_update":"0001-01-01T00:00:00Z","name_a2s":"Uncletopia | Montr√©al | 1 | All Maps","protocol":17,"map":"pl_snowycoast","folder":"tf","game":"Team Fortress","app_id":440,"player_count":0,"max_players":24,"Bots":0,"server_type":"Dedicated","server_os":"Linux","password":true,"vac":true,"version":"7882260","steam_id":85568392924500087,"keywords":["nocrits","nodmgspread","payload","uncletopia"],"game_id":440,"stv_port":27016,"stv_name":"Uncletopia | Montr√©al | 1 | All Maps | STV","players":null},{"server_id":301,"name":"Uncletopia | Montr√©al | 2 | All Maps","name_short":"mtl-2","host":"mtl-1.ca.uncletopia.com","port":27025,"enabled":true,"region":"us-east","cc":"ca","latitude":45.50889,"longitude":-73.56167,"reserved":0,"last_update":"0001-01-01T00:00:00Z","name_a2s":"Uncletopia | Montr√©al | 2 | All Maps","protocol":17,"map":"cp_sunshine","folder":"tf","game":"Team Fortress","app_id":440,"player_count":0,"max_players":24,"Bots":0,"server_type":"Dedicated","server_os":"Linux","password":true,"vac":true,"version":"7882260","steam_id":85568392924500088,"keywords":["cp","nocrits","nodmgspread","uncletopia"],"game_id":440,"stv_port":27026,"stv_name":"Uncletopia | Montr√©al | 2 | All Maps | STV","players":null},{"server_id":302,"name":"Uncletopia | Montr√©al | 3 | All Maps","name_short":"mtl-3","host":"mtl-1.ca.uncletopia.com","port":27035,"enabled":true,"region":"us-east","cc":"ca","latitude":45.50889,"longitude":-73.56167,"reserved":0,"last_update":"0001-01-01T00:00:00Z","name_a2s":"Uncletopia | Montr√©al | 3 | All Maps","protocol":17,"map":"pl_borneo","folder":"tf","game":"Team Fortress","app_id":440,"player_count":0,"max_players":24,"Bots":0,"server_type":"Dedicated","server_os":"Linux","password":true,"vac":true,"version":"7882260","steam_id":85568392924500089,"keywords":["nocrits","nodmgspread","payload","uncletopia"],"game_id":440,"stv_port":27036,"stv_name":"Uncletopia | Montr√©al | 3 | All Maps | STV","players":null},{"server_id":303,"name":"Uncletopia | Montr√©al | 4 | No Payload","name_short":"mtl-4","host":"mtl-1.ca.uncletopia.com","port":27045,"enabled":true,"region":"us-east","cc":"ca","latitude":45.50889,"longitude":-73.56167,"reserved":0,"last_update":"0001-01-01T00:00:00Z","name_a2s":"Uncletopia | Montr√©al | 4 | No Payload","protocol":17,"map":"cp_altitude","folder":"tf","game":"Team Fortress","app_id":440,"player_count":0,"max_players":24,"Bots":0,"server_type":"Dedicated","server_os":"Linux","password":true,"vac":true,"version":"7882260","steam_id":85568392924500090,"keywords":["cp","nocrits","nodmgspread","uncletopia"],"game_id":440,"stv_port":27046,"stv_name":"Uncletopia | Montr√©al | 4 | No Payload | STV","players":null},{"server_id":13,"name":"Uncletopia | New York City | 1 | All Maps","name_short":"nyc-1","host":"nyc-1.us.uncletopia.com","port":27015,"enabled":true,"region":"us-east","cc":"us","latitude":40.73061,"longitude":-73.93524,"reserved":0,"last_update":"0001-01-01T00:00:00Z","name_a2s":"Uncletopia | New York City | 1 | All Maps","protocol":17,"map":"pl_borneo","folder":"tf","game":"Team Fortress","app_id":440,"player_count":0,"max_players":24,"Bots":0,"server_type":"Dedicated","server_os":"Linux","password":true,"vac":true,"version":"7882260","steam_id":85568392924469993,"keywords":["nocrits","nodmgspread","payload","uncletopia"],"game_id":440,"stv_port":27016,"stv_name":"Uncletopia | New York City | 1 | All Maps | STV","players":null},{"server_id":14,"name":"Uncletopia | New York City | 2 | All Maps","name_short":"nyc-2","host":"nyc-1.us.uncletopia.com","port":27025,"enabled":true,"region":"us-east","cc":"us","latitude":40.73061,"longitude":-73.93524,"reserved":0,"last_update":"0001-01-01T00:00:00Z","name_a2s":"Uncletopia | New York City | 2 | All Maps","protocol":17,"map":"pl_upward","folder":"tf","game":"Team Fortress","app_id":440,"player_count":0,"max_players":24,"Bots":0,"server_type":"Dedicated","server_os":"Linux","password":true,"vac":true,"version":"7882260","steam_id":85568392924469994,"keywords":["nocrits","nodmgspread","payload","uncletopia"],"game_id":440,"stv_port":27026,"stv_name":"Uncletopia | New York City | 2 | All Maps | STV","players":null},{"server_id":15,"name":"Uncletopia | New York City | 3 | Stopwatch Beta","name_short":"nyc-3","host":"nyc-1.us.uncletopia.com","port":27035,"enabled":true,"region":"us-east","cc":"us","latitude":40.73061,"longitude":-73.93524,"reserved":0,"last_update":"0001-01-01T00:00:00Z","name_a2s":"Uncletopia | New York City | 3 | Stopwatch Beta","protocol":17,"map":"koth_lakeside_final","folder":"tf","game":"Team Fortress","app_id":440,"player_count":0,"max_players":24,"Bots":0,"server_type":"Dedicated","server_os":"Linux","password":true,"vac":true,"version":"7882260","steam_id":85568392924742820,"keywords":["cp","nocrits","nodmgspread","uncletopia"],"game_id":440,"stv_port":27036,"stv_name":"Uncletopia | New York City | 3 | Stopwatch Beta | STV","players":null},{"server_id":16,"name":"Uncletopia | New York City | 4 | Community","name_short":"nyc-4","host":"nyc-1.us.uncletopia.com","port":27045,"enabled":true,"region":"us-east","cc":"us","latitude":40.73061,"longitude":-73.93524,"reserved":0,"last_update":"0001-01-01T00:00:00Z","name_a2s":"Uncletopia | New York City | 4 | Community","protocol":17,"map":"pl_badwater","folder":"tf","game":"Team Fortress","app_id":440,"player_count":0,"max_players":24,"Bots":0,"server_type":"Dedicated","server_os":"Linux","password":true,"vac":true,"version":"7882260","steam_id":85568392924742821,"keywords":["nocrits","nodmgspread","payload","uncletopia"],"game_id":440,"stv_port":27046,"stv_name":"Uncletopia | New York City | 4 | Community | STV","players":null},{"server_id":142,"name":"Uncletopia | S√£o Paulo | 1 | All Maps","name_short":"sao-1","host":"sao-1.br.uncletopia.com","port":27015,"enabled":true,"region":"sa","cc":"br","latitude":-23.533773,"longitude":-46.62529,"reserved":0,"last_update":"0001-01-01T00:00:00Z","name_a2s":"Uncletopia | S√£o Paulo | 1 | All Maps","protocol":17,"map":"cp_process_final","folder":"tf","game":"Team Fortress","app_id":440,"player_count":0,"max_players":24,"Bots":0,"server_type":"Dedicated","server_os":"Linux","password":true,"vac":true,"version":"7882260","steam_id":85568392924469996,"keywords":["cp","nocrits","nodmgspread","uncletopia"],"game_id":440,"stv_port":27016,"stv_name":"Uncletopia | S√£o Paulo | 1 | All Maps | STV","players":null},{"server_id":143,"name":"Uncletopia | S√£o Paulo | 2 | All Maps","name_short":"sao-2","host":"sao-2.br.uncletopia.com","port":27015,"enabled":true,"region":"sa","cc":"br","latitude":-23.533773,"longitude":-46.62529,"reserved":0,"last_update":"0001-01-01T00:00:00Z","name_a2s":"Uncletopia | S√£o Paulo | 2 | All Maps","protocol":17,"map":"pl_pier","folder":"tf","game":"Team Fortress","app_id":440,"player_count":0,"max_players":24,"Bots":0,"server_type":"Dedicated","server_os":"Linux","password":true,"vac":true,"version":"7882260","steam_id":85568392924485349,"keywords":["nocrits","nodmgspread","payload","uncletopia"],"game_id":440,"stv_port":27016,"stv_name":"Uncletopia | S√£o Paulo | 2 | All Maps | STV","players":null},{"server_id":7,"name":"Uncletopia | Seattle | 1 | All Maps","name_short":"sea-1","host":"sea-1.us.uncletopia.com","port":27015,"enabled":true,"region":"us-west","cc":"us","latitude":47.608013,"longitude":-122.33517,"reserved":0,"last_update":"0001-01-01T00:00:00Z","name_a2s":"Uncletopia | Seattle | 1 | All Maps","protocol":17,"map":"pl_pier","folder":"tf","game":"Team Fortress","app_id":440,"player_count":24,"max_players":24,"Bots":0,"server_type":"Dedicated","server_os":"Linux","password":true,"vac":true,"version":"7882260","steam_id":85568392924469997,"keywords":["nocrits","nodmgspread","payload","uncletopia"],"game_id":440,"stv_port":27016,"stv_name":"Uncletopia | Seattle | 1 | All Maps | STV","players":[{"user_id":940,"name":"shitass (Shrimp Arc)","steam_id":76561198210572481,"connected_time":8681000000000,"state":"active","ping":75},{"user_id":1029,"name":"Raizen","steam_id":76561199092445367,"connected_time":2074000000000,"state":"active","ping":96},{"user_id":1006,"name":"FI LO","steam_id":76561198976530881,"connected_time":3906000000000,"state":"active","ping":74},{"user_id":1035,"name":"Crusader","steam_id":76561198144092743,"connected_time":1264000000000,"state":"active","ping":91},{"user_id":1020,"name":"LightningBlitz47","steam_id":76561198310971283,"connected_time":2735000000000,"state":"active","ping":58},{"user_id":1026,"name":"It's Over!","steam_id":76561198104086771,"connected_time":2322000000000,"state":"active","ping":73},{"user_id":1023,"name":"Grassman (Cc)","steam_id":76561198026488532,"connected_time":2376000000000,"state":"active","ping":62},{"user_id":1036,"name":"Vespen","steam_id":76561198259984019,"connected_time":1228000000000,"state":"active","ping":72},{"user_id":1000,"name":"Disc0","steam_id":76561198067337267,"connected_time":4428000000000,"state":"active","ping":45},{"user_id":1040,"name":"Little Linguine","steam_id":76561198816986370,"connected_time":958000000000,"state":"active","ping":58},{"user_id":1031,"name":"ADumbCanadian","steam_id":76561198315362358,"connected_time":1688000000000,"state":"active","ping":51},{"user_id":1033,"name":"„Ç∏„Éß„Éº„Ç§","steam_id":76561199220049605,"connected_time":1294000000000,"state":"active","ping":75},{"user_id":1008,"name":"marvxpensiv3","steam_id":76561199020502894,"connected_time":3719000000000,"state":"active","ping":92},{"user_id":1028,"name":"BurningKev","steam_id":76561198057688837,"connected_time":2222000000000,"state":"active","ping":83},{"user_id":976,"name":"Kujo","steam_id":76561198342579745,"connected_time":6655000000000,"state":"active","ping":75},{"user_id":1043,"name":"Cargoshorts Johnny","steam_id":76561198281732417,"connected_time":261000000000,"state":"active","ping":135},{"user_id":1039,"name":"Satan-2","steam_id":76561199231742764,"connected_time":1111000000000,"state":"active","ping":113},{"user_id":1025,"name":"Doctor Bad Dragon","steam_id":76561198058773212,"connected_time":2356000000000,"state":"active","ping":46},{"user_id":968,"name":"Azby_","steam_id":76561198230307016,"connected_time":6839000000000,"state":"active","ping":65},{"user_id":1002,"name":"yahweh","steam_id":76561198347225801,"connected_time":4318000000000,"state":"active","ping":49},{"user_id":1038,"name":"MasterGoop","steam_id":76561198285594777,"connected_time":1202000000000,"state":"active","ping":84},{"user_id":1034,"name":"Ermine","steam_id":76561198072831312,"connected_time":1293000000000,"state":"active","ping":108},{"user_id":971,"name":"Isaacord","steam_id":76561198070259559,"connected_time":6789000000000,"state":"active","ping":91},{"user_id":1018,"name":"Admiral Oink","steam_id":76561198101763615,"connected_time":2834000000000,"state":"active","ping":118}]},{"server_id":119,"name":"Uncletopia | Seattle | 2 | All Maps","name_short":"sea-2","host":"sea-1.us.uncletopia.com","port":27025,"enabled":true,"region":"us-west","cc":"us","latitude":47.608013,"longitude":-122.33517,"reserved":0,"last_update":"0001-01-01T00:00:00Z","name_a2s":"Uncletopia | Seattle | 2 | All Maps","protocol":17,"map":"cp_process_final","folder":"tf","game":"Team Fortress","app_id":440,"player_count":0,"max_players":24,"Bots":0,"server_type":"Dedicated","server_os":"Linux","password":true,"vac":true,"version":"7882260","steam_id":85568392924469998,"keywords":["cp","nocrits","nodmgspread","uncletopia"],"game_id":440,"stv_port":27026,"stv_name":"Uncletopia | Seattle | 2 | All Maps | STV","players":null},{"server_id":406,"name":"Uncletopia | Seattle | 3 | Stopwatch Beta","name_short":"sea-3","host":"sea-1.us.uncletopia.com","port":27035,"enabled":true,"region":"us-west","cc":"us","latitude":47.608013,"longitude":-122.33517,"reserved":0,"last_update":"0001-01-01T00:00:00Z","name_a2s":"Uncletopia | Seattle | 3 | Stopwatch Beta","protocol":17,"map":"pl_upward","folder":"tf","game":"Team Fortress","app_id":440,"player_count":0,"max_players":24,"Bots":0,"server_type":"Dedicated","server_os":"Linux","password":true,"vac":true,"version":"7882260","steam_id":85568392924515217,"keywords":["nocrits","nodmgspread","payload","uncletopia"],"game_id":440,"stv_port":27036,"stv_name":"Uncletopia | Seattle | 3 | Stopwatch Beta | STV","players":null},{"server_id":17,"name":"Uncletopia | San Francisco | 1 | All Maps","name_short":"sfo-1","host":"sfo-1.us.uncletopia.com","port":27015,"enabled":true,"region":"us-west","cc":"us","latitude":37.77397,"longitude":-122.4313,"reserved":0,"last_update":"0001-01-01T00:00:00Z","name_a2s":"Uncletopia | San Francisco | 1 | All Maps","protocol":17,"map":"cp_process_final","folder":"tf","game":"Team Fortress","app_id":440,"player_count":0,"max_players":24,"Bots":0,"server_type":"Dedicated","server_os":"Linux","password":true,"vac":true,"version":"7757534","steam_id":85568392924469999,"keywords":["cp","nocrits","nodmgspread","uncletopia"],"game_id":440,"stv_port":27016,"stv_name":"Uncletopia | San Francisco | 1 | All Maps | STV","players":null},{"server_id":18,"name":"Uncletopia | San Francisco | 2 | All Maps","name_short":"sfo-2","host":"sfo-1.us.uncletopia.com","port":27025,"enabled":true,"region":"us-west","cc":"us","latitude":37.77397,"longitude":-122.4313,"reserved":0,"last_update":"0001-01-01T00:00:00Z","name_a2s":"Uncletopia | San Francisco | 2 | All Maps","protocol":17,"map":"koth_highpass","folder":"tf","game":"Team Fortress","app_id":440,"player_count":0,"max_players":24,"Bots":0,"server_type":"Dedicated","server_os":"Linux","password":true,"vac":true,"version":"7757534","steam_id":85568392924470000,"keywords":["cp","nocrits","nodmgspread","uncletopia"],"game_id":440,"stv_port":27026,"stv_name":"Uncletopia | San Francisco | 2 | All Maps | STV","players":null},{"server_id":19,"name":"Uncletopia | San Francisco | 3 | Stopwatch Beta","name_short":"sfo-3","host":"sfo-1.us.uncletopia.com","port":27035,"enabled":true,"region":"us-west","cc":"us","latitude":37.77397,"longitude":-122.4313,"reserved":0,"last_update":"0001-01-01T00:00:00Z","name_a2s":"Uncletopia | San Francisco | 3 | Stopwatch Beta","protocol":17,"map":"koth_lakeside_final","folder":"tf","game":"Team Fortress","app_id":440,"player_count":0,"max_players":24,"Bots":0,"server_type":"Dedicated","server_os":"Linux","password":true,"vac":true,"version":"7757534","steam_id":85568392924742824,"keywords":["cp","nocrits","nodmgspread","uncletopia"],"game_id":440,"stv_port":27036,"stv_name":"Uncletopia | San Francisco | 3 | Stopwatch Beta | STV","players":null},{"server_id":20,"name":"Uncletopia | San Francisco | 4 | Community","name_short":"sfo-4","host":"sfo-1.us.uncletopia.com","port":27045,"enabled":true,"region":"us-west","cc":"us","latitude":37.77397,"longitude":-122.4313,"reserved":0,"last_update":"0001-01-01T00:00:00Z","name_a2s":"Uncletopia | San Francisco | 4 | Community","protocol":17,"map":"cp_altitude","folder":"tf","game":"Team Fortress","app_id":440,"player_count":0,"max_players":24,"Bots":0,"server_type":"Dedicated","server_os":"Linux","password":true,"vac":true,"version":"7757534","steam_id":85568392924742826,"keywords":["cp","nocrits","nodmgspread","uncletopia"],"game_id":440,"stv_port":27046,"stv_name":"Uncletopia | San Francisco | 4 | Community | STV","players":null},{"server_id":141,"name":"Uncletopia | Sydney | 1 | All Maps","name_short":"syd-1","host":"syd-1.au.uncletopia.com","port":27015,"enabled":true,"region":"au","cc":"au","latitude":-33.865143,"longitude":151.2099,"reserved":0,"last_update":"0001-01-01T00:00:00Z","name_a2s":"Uncletopia | Sydney | 1 | All Maps","protocol":17,"map":"pl_pier","folder":"tf","game":"Team Fortress","app_id":440,"player_count":17,"max_players":24,"Bots":0,"server_type":"Dedicated","server_os":"Linux","password":true,"vac":true,"version":"7882260","steam_id":85568392924470001,"keywords":["nocrits","nodmgspread","payload","uncletopia"],"game_id":440,"stv_port":27016,"stv_name":"Uncletopia | Sydney | 1 | All Maps | STV","players":[{"user_id":309,"name":"Comedy Mode","steam_id":76561198293250088,"connected_time":4335000000000,"state":"active","ping":138},{"user_id":336,"name":"Lumalee ‚ù§","steam_id":76561198157613299,"connected_time":1742000000000,"state":"active","ping":57},{"user_id":354,"name":"Longwind","steam_id":76561198062482453,"connected_time":351000000000,"state":"active","ping":53},{"user_id":337,"name":"Boiling","steam_id":76561199125271770,"connected_time":1551000000000,"state":"active","ping":66},{"user_id":345,"name":"sf/k","steam_id":76561198047758776,"connected_time":1069000000000,"state":"active","ping":44},{"user_id":352,"name":"[FTW] RonnieD'","steam_id":76561197993957267,"connected_time":635000000000,"state":"active","ping":52},{"user_id":318,"name":"covenofbats","steam_id":76561198152117315,"connected_time":3403000000000,"state":"active","ping":39},{"user_id":314,"name":"itsame","steam_id":76561198059284918,"connected_time":3498000000000,"state":"active","ping":58},{"user_id":271,"name":"Jodelk√∂nig Franzl Lang","steam_id":76561198007667830,"connected_time":6873000000000,"state":"active","ping":50},{"user_id":326,"name":"Sgt Pavlov","steam_id":76561197977615123,"connected_time":2671000000000,"state":"active","ping":71},{"user_id":335,"name":"miyamoto is daddy","steam_id":76561199483818230,"connected_time":1747000000000,"state":"active","ping":70},{"user_id":351,"name":"BloxWich","steam_id":76561198120361288,"connected_time":747000000000,"state":"active","ping":66},{"user_id":357,"name":"vicho","steam_id":76561199447372008,"connected_time":259000000000,"state":"active","ping":70},{"user_id":358,"name":"Rodan","steam_id":76561198038401873,"connected_time":251000000000,"state":"active","ping":90},{"user_id":288,"name":"Pug","steam_id":76561198136794372,"connected_time":6022000000000,"state":"active","ping":44},{"user_id":360,"name":"Tofu","steam_id":76561198025637573,"connected_time":104000000000,"state":"active","ping":33},{"user_id":362,"name":"JECKL505","steam_id":76561198017971785,"connected_time":45000000000,"state":"active","ping":328}]},{"server_id":123,"name":"Uncletopia | Sydney | 2 | All Maps","name_short":"syd-2","host":"syd-1.au.uncletopia.com","port":27025,"enabled":true,"region":"au","cc":"au","latitude":-33.865143,"longitude":151.2099,"reserved":0,"last_update":"0001-01-01T00:00:00Z","name_a2s":"Uncletopia | Sydney | 2 | All Maps","protocol":17,"map":"plr_hightower","folder":"tf","game":"Team Fortress","app_id":440,"player_count":23,"max_players":24,"Bots":0,"server_type":"Dedicated","server_os":"Linux","password":true,"vac":true,"version":"7882260","steam_id":85568392924470002,"keywords":["nocrits","nodmgspread","payload","uncletopia"],"game_id":440,"stv_port":27026,"stv_name":"Uncletopia | Sydney | 2 | All Maps | STV","players":[{"user_id":220,"name":"Bob Ross","steam_id":76561198081686896,"connected_time":831000000000,"state":"active","ping":55},{"user_id":175,"name":"asian.forty.seven","steam_id":76561199164513885,"connected_time":4950000000000,"state":"active","ping":73},{"user_id":174,"name":"tim88435","steam_id":76561198089653987,"connected_time":5023000000000,"state":"active","ping":51},{"user_id":178,"name":"RustyMeat","steam_id":76561198119162442,"connected_time":4552000000000,"state":"active","ping":63},{"user_id":179,"name":"SIRROM12 (SIRR)","steam_id":76561198116738329,"connected_time":4509000000000,"state":"active","ping":70},{"user_id":180,"name":"TimTam","steam_id":76561198158862578,"connected_time":4491000000000,"state":"active","ping":68},{"user_id":190,"name":"SCHEFF","steam_id":76561198078226216,"connected_time":2981000000000,"state":"active","ping":59},{"user_id":218,"name":"Sleepy Cat","steam_id":76561198142401028,"connected_time":1040000000000,"state":"active","ping":45},{"user_id":191,"name":"floop flub","steam_id":76561198418968979,"connected_time":2926000000000,"state":"active","ping":45},{"user_id":211,"name":"Just Brando","steam_id":76561198914415738,"connected_time":1593000000000,"state":"active","ping":57},{"user_id":217,"name":"Little Red all grown up","steam_id":76561198054040718,"connected_time":1202000000000,"state":"active","ping":50},{"user_id":193,"name":"That's Life","steam_id":76561198073918339,"connected_time":2794000000000,"state":"active","ping":50},{"user_id":194,"name":"Matchfighter","steam_id":76561198043200309,"connected_time":2772000000000,"state":"active","ping":55},{"user_id":225,"name":"Eldred777","steam_id":76561198050353643,"connected_time":689000000000,"state":"active","ping":75},{"user_id":215,"name":"Qubixo","steam_id":76561198325726133,"connected_time":1483000000000,"state":"active","ping":59},{"user_id":219,"name":"fuschu","steam_id":76561198125648728,"connected_time":936000000000,"state":"active","ping":45},{"user_id":221,"name":"Steve","steam_id":76561198429235506,"connected_time":830000000000,"state":"active","ping":49},{"user_id":222,"name":"floatingdeadfish","steam_id":76561198414875516,"connected_time":827000000000,"state":"active","ping":34},{"user_id":235,"name":"CHOIB","steam_id":76561198387938667,"connected_time":2000000000,"state":"spawning","ping":40},{"user_id":224,"name":"chonk","steam_id":76561198002924796,"connected_time":782000000000,"state":"active","ping":60},{"user_id":227,"name":"Meerkat","steam_id":76561198298662979,"connected_time":453000000000,"state":"active","ping":38},{"user_id":231,"name":"sheytoon","steam_id":76561198060824434,"connected_time":310000000000,"state":"active","ping":51},{"user_id":233,"name":"Gold","steam_id":76561198380886711,"connected_time":218000000000,"state":"active","ping":137}]},{"server_id":395,"name":"Uncletopia | Sydney | 3 | All Maps","name_short":"syd-3","host":"syd-1.au.uncletopia.com","port":27035,"enabled":true,"region":"au","cc":"au","latitude":-33.865143,"longitude":151.2099,"reserved":0,"last_update":"0001-01-01T00:00:00Z","name_a2s":"Uncletopia | Sydney | 3 | All Maps","protocol":17,"map":"koth_cascade","folder":"tf","game":"Team Fortress","app_id":440,"player_count":0,"max_players":24,"Bots":0,"server_type":"Dedicated","server_os":"Linux","password":true,"vac":true,"version":"7882260","steam_id":85568392925194467,"keywords":["cp","nocrits","nodmgspread","uncletopia"],"game_id":440,"stv_port":27036,"stv_name":"Uncletopia | Sydney | 3 | All Maps | STV","players":null},{"server_id":396,"name":"Uncletopia | Sydney | 4 | All Maps","name_short":"syd-4","host":"syd-1.au.uncletopia.com","port":27045,"enabled":true,"region":"au","cc":"au","latitude":-33.865143,"longitude":151.2099,"reserved":0,"last_update":"0001-01-01T00:00:00Z","name_a2s":"Uncletopia | Sydney | 4 | All Maps","protocol":17,"map":"koth_cascade","folder":"tf","game":"Team Fortress","app_id":440,"player_count":0,"max_players":24,"Bots":0,"server_type":"Dedicated","server_os":"Linux","password":true,"vac":true,"version":"7882260","steam_id":85568392925397958,"keywords":["cp","nocrits","nodmgspread","uncletopia"],"game_id":440,"stv_port":27046,"stv_name":"Uncletopia | Sydney | 4 | All Maps | STV","players":null},{"server_id":58,"name":"Uncletopia | Sydney | 5 | Stopwatch Beta","name_short":"syd-5","host":"syd-1.au.uncletopia.com","port":27055,"enabled":true,"region":"au","cc":"au","latitude":-33.865143,"longitude":151.2099,"reserved":0,"last_update":"0001-01-01T00:00:00Z","name_a2s":"Uncletopia | Sydney | 5 | Stopwatch Beta","protocol":17,"map":"pl_swiftwater_final1","folder":"tf","game":"Team Fortress","app_id":440,"player_count":0,"max_players":24,"Bots":0,"server_type":"Dedicated","server_os":"Linux","password":true,"vac":true,"version":"7882260","steam_id":85568392925397959,"keywords":["nocrits","nodmgspread","payload","uncletopia"],"game_id":440,"stv_port":27056,"stv_name":"Uncletopia | Sydney | 5 | Stopwatch Beta | STV","players":null},{"server_id":59,"name":"Uncletopia | Sydney | 6 | Community","name_short":"syd-6","host":"syd-1.au.uncletopia.com","port":27065,"enabled":true,"region":"au","cc":"au","latitude":-33.865143,"longitude":151.2099,"reserved":0,"last_update":"0001-01-01T00:00:00Z","name_a2s":"Uncletopia | Sydney | 6 | Community","protocol":17,"map":"pl_snowycoast","folder":"tf","game":"Team Fortress","app_id":440,"player_count":0,"max_players":24,"Bots":0,"server_type":"Dedicated","server_os":"Linux","password":true,"vac":true,"version":"7882260","steam_id":85568392925397960,"keywords":["nocrits","nodmgspread","payload","uncletopia"],"game_id":440,"stv_port":27066,"stv_name":"Uncletopia | Sydney | 6 | Community | STV","players":null},{"server_id":49,"name":"Uncletopia | Warsaw | 1 | All Maps","name_short":"waw-1","host":"waw-1.pl.uncletopia.com","port":27015,"enabled":true,"region":"eu","cc":"pl","latitude":52.2297,"longitude":21.017532,"reserved":0,"last_update":"0001-01-01T00:00:00Z","name_a2s":"","protocol":0,"map":"","folder":"","game":"","app_id":0,"player_count":0,"max_players":0,"Bots":0,"server_type":"","server_os":"","password":false,"vac":false,"version":"","steam_id":0,"keywords":null,"game_id":0,"stv_port":0,"stv_name":"","players":null},{"server_id":50,"name":"Uncletopia | Warsaw | 2 | All Maps","name_short":"waw-2","host":"waw-1.pl.uncletopia.com","port":27025,"enabled":true,"region":"eu","cc":"pl","latitude":52.2297,"longitude":21.017532,"reserved":0,"last_update":"0001-01-01T00:00:00Z","name_a2s":"Uncletopia | Warsaw | 2 | All Maps","protocol":17,"map":"pl_swiftwater_final1","folder":"tf","game":"Team Fortress","app_id":440,"player_count":0,"max_players":24,"Bots":0,"server_type":"Dedicated","server_os":"Linux","password":true,"vac":true,"version":"7882260","steam_id":85568392925397851,"keywords":["nocrits","nodmgspread","payload","uncletopia"],"game_id":440,"stv_port":27026,"stv_name":"Uncletopia | Warsaw | 2 | All Maps | STV","players":null},{"server_id":51,"name":"Uncletopia | Warsaw | 3 | All Maps","name_short":"waw-3","host":"waw-1.pl.uncletopia.com","port":27035,"enabled":true,"region":"eu","cc":"pl","latitude":52.2297,"longitude":21.017532,"reserved":0,"last_update":"0001-01-01T00:00:00Z","name_a2s":"Uncletopia | Warsaw | 3 | All Maps","protocol":17,"map":"koth_viaduct","folder":"tf","game":"Team Fortress","app_id":440,"player_count":0,"max_players":24,"Bots":0,"server_type":"Dedicated","server_os":"Linux","password":true,"vac":true,"version":"7882260","steam_id":85568392925397852,"keywords":["cp","nocrits","nodmgspread","uncletopia"],"game_id":440,"stv_port":27036,"stv_name":"Uncletopia | Warsaw | 3 | All Maps | STV","players":null},{"server_id":52,"name":"Uncletopia | Warsaw | 4 | All Maps","name_short":"waw-4","host":"waw-1.pl.uncletopia.com","port":27045,"enabled":true,"region":"eu","cc":"pl","latitude":52.2297,"longitude":21.017532,"reserved":0,"last_update":"0001-01-01T00:00:00Z","name_a2s":"Uncletopia | Warsaw | 4 | All Maps","protocol":17,"map":"koth_highpass","folder":"tf","game":"Team Fortress","app_id":440,"player_count":0,"max_players":24,"Bots":0,"server_type":"Dedicated","server_os":"Linux","password":true,"vac":true,"version":"7882260","steam_id":85568392925397853,"keywords":["cp","nocrits","nodmgspread","uncletopia"],"game_id":440,"stv_port":27046,"stv_name":"Uncletopia | Warsaw | 4 | All Maps | STV","players":null},{"server_id":53,"name":"Uncletopia | Warsaw | 5 | Stopwatch Beta","name_short":"waw-5","host":"waw-1.pl.uncletopia.com","port":27055,"enabled":true,"region":"eu","cc":"pl","latitude":52.2297,"longitude":21.017532,"reserved":0,"last_update":"0001-01-01T00:00:00Z","name_a2s":"Uncletopia | Warsaw | 5 | Stopwatch Beta","protocol":17,"map":"cp_mountainlab","folder":"tf","game":"Team Fortress","app_id":440,"player_count":0,"max_players":24,"Bots":0,"server_type":"Dedicated","server_os":"Linux","password":true,"vac":true,"version":"7882260","steam_id":85568392925397854,"keywords":["cp","nocrits","nodmgspread","uncletopia"],"game_id":440,"stv_port":27056,"stv_name":"Uncletopia | Warsaw | 5 | Stopwatch Beta | STV","players":null},{"server_id":54,"name":"Uncletopia | Warsaw | 6 | Community","name_short":"waw-6","host":"waw-1.pl.uncletopia.com","port":27065,"enabled":true,"region":"eu","cc":"pl","latitude":52.2297,"longitude":21.017532,"reserved":0,"last_update":"0001-01-01T00:00:00Z","name_a2s":"Uncletopia | Warsaw | 6 | Community","protocol":17,"map":"koth_viaduct","folder":"tf","game":"Team Fortress","app_id":440,"player_count":0,"max_players":24,"Bots":0,"server_type":"Dedicated","server_os":"Linux","password":true,"vac":true,"version":"7882260","steam_id":85568392925397856,"keywords":["cp","nocrits","nodmgspread","uncletopia"],"game_id":440,"stv_port":27066,"stv_name":"Uncletopia | Warsaw | 6 | Community | STV","players":null}]}