{"status":true,"message":"","result":[{"server_id":9,"name":"Uncletopia | Atlanta | 1 | All Maps","name_short":"atl-1","host":"atl-1.us.uncletopia.com","port":27015,"enabled":true,"region":"us-east","cc":"us","latitude":33.753746,"longitude":-84.38633,"reserved":0,"last_update":"0001-01-01T00:00:00Z","name_a2s":"Uncletopia | Atlanta | 1 | All Maps","protocol":17,"map":"pl_badwater","folder":"tf","game":"Team Fortress","app_id":440,"player_count":24,"max_players":24,"Bots":0,"server_type":"Dedicated","server_os":"Linux","password":true,"vac":true,"version":"7882260","steam_id":85568392924469982,"keywords":["nocrits","nodmgspread","payload","uncletopia"],"game_id":440,"stv_port":27016,"stv_name":"Uncletopia | Atlanta | 1 | All Maps | STV","players":[{"user_id":662,"name":"Cornonjacob","steam_id":76561198051799397,"connected_time":353000000000,"state":"active","ping":127},{"user_id":619,"name":"Monkey Mode","steam_id":76561197961267543,"connected_time":4033000000000,"state":"active","ping":53},{"user_id":655,"name":"CheeseLikeSubstance","steam_id":76561197977170646,"connected_time":1247000000000,"state":"active","ping":67},{"user_id":656,"name":"gamerroo","steam_id":76561199065347643,"connected_time":1182000000000,"state":"active","ping":73},{"user_id":660,"name":"Franz","steam_id":76561198041929745,"connected_time":503000000000,"state":"active","ping":112},{"user_id":643,"name":"BIG HOG","steam_id":76561198079923652,"connected_time":1904000000000,"state":"active","ping":64},{"user_id":635,"name":"chubbbo","steam_id":76561198943598378,"connected_time":2790000000000,"state":"active","ping":40},{"user_id":663,"name":"I LOVE MARIJUANA","steam_id":76561198307012859,"connected_time":342000000000,"state":"active","ping":89},{"user_id":653,"name":"chexo4","steam_id":76561198150532531,"connected_time":1406000000000,"state":"active","ping":49},{"user_id":659,"name":"Jona2180","steam_id":76561198807012900,"connected_time":618000000000,"state":"active","ping":66},{"user_id":601,"name":"trackin ops like NORAD","steam_id":76561198040675606,"connected_time":6351000000000,"state":"active","ping":76},{"user_id":645,"name":"hashmap","steam_id":76561198043794014,"connected_time":1848000000000,"state":"active","ping":64},{"user_id":658,"name":"Herdez Hot Salsa","steam_id":76561197991740906,"connected_time":819000000000,"state":"active","ping":85},{"user_id":591,"name":"lil hog","steam_id":76561199230929836,"connected_time":7475000000000,"state":"active","ping":103},{"user_id":610,"name":"pull up in that wtf","steam_id":76561198143132686,"connected_time":5022000000000,"state":"active","ping":108},{"user_id":615,"name":"dem a. lition","steam_id":76561198021308963,"connected_time":4529000000000,"state":"active","ping":83},{"user_id":664,"name":"highschool drop-out","steam_id":76561198366299848,"connected_time":322000000000,"state":"active","ping":48},{"user_id":616,"name":"Mobius","steam_id":76561199121973450,"connected_time":4448000000000,"state":"active","ping":65},{"user_id":654,"name":"Yukon Cornelius","steam_id":76561198261512781,"connected_time":1319000000000,"state":"active","ping":48},{"user_id":644,"name":"Scorpianswag","steam_id":76561198260651036,"connected_time":1898000000000,"state":"active","ping":79},{"user_id":661,"name":"angel \u003c3","steam_id":76561198159850954,"connected_time":380000000000,"state":"active","ping":60},{"user_id":665,"name":"bkiller","steam_id":76561198029265697,"connected_time":181000000000,"state":"active","ping":67},{"user_id":600,"name":"Onyx","steam_id":76561198275349640,"connected_time":6450000000000,"state":"active","ping":76},{"user_id":623,"name":"nat","steam_id":76561198111914797,"connected_time":3274000000000,"state":"active","ping":70}]},{"server_id":104,"name":"Uncletopia | Atlanta | 2 | All Maps","name_short":"atl-2","host":"atl-1.us.uncletopia.com","port":27025,"enabled":true,"region":"us-east","cc":"us","latitude":33.753746,"longitude":-84.38633,"reserved":0,"last_update":"0001-01-01T00:00:00Z","name_a2s":"Uncletopia | Atlanta | 2 | All Maps","protocol":17,"map":"pl_upward","folder":"tf","game":"Team Fortress","app_id":440,"player_count":24,"max_players":24,"Bots":0,"server_type":"Dedicated","server_os":"Linux","password":true,"vac":true,"version":"7882260","steam_id":85568392924469983,"keywords":["nocrits","nodmgspread","payload","uncletopia"],"game_id":440,"stv_port":27026,"stv_name":"Uncletopia | Atlanta | 2 | All Maps | STV","players":[{"user_id":523,"name":"PhatBoiAP","steam_id":76561198020483817,"connected_time":5185000000000,"state":"active","ping":80},{"user_id":553,"name":"LerN","steam_id":76561198083463877,"connected_time":2132000000000,"state":"active","ping":70},{"user_id":504,"name":"C Papi","steam_id":76561198027779564,"connected_time":6567000000000,"state":"active","ping":48},{"user_id":569,"name":"ʕ•ᴥ•ʔ the bear","steam_id":76561197989591976,"connected_time":212000000000,"state":"active","ping":83},{"user_id":550,"name":"Tattletails","steam_id":76561198055690341,"connected_time":2301000000000,"state":"active","ping":159},{"user_id":557,"name":"MortusMelee","steam_id":76561198038434895,"connected_time":1957000000000,"state":"active","ping":83},{"user_id":525,"name":"Gm_Trash","steam_id":76561199445091548,"connected_time":5151000000000,"state":"active","ping":100},{"user_id":555,"name":"Skellacat","steam_id":76561199090786845,"connected_time":2097000000000,"state":"active","ping":60},{"user_id":551,"name":"Neclipse","steam_id":76561197986244028,"connected_time":2190000000000,"state":"active","ping":83},{"user_id":566,"name":"Flaxks","steam_id":76561198410260447,"connected_time":774000000000,"state":"active","ping":80},{"user_id":568,"name":"A MULTI CAR PILEUP","steam_id":76561198051421643,"connected_time":260000000000,"state":"active","ping":45},{"user_id":458,"name":"riSygneD","steam_id":76561198331618687,"connected_time":10175000000000,"state":"active","ping":87},{"user_id":570,"name":"BennBap","steam_id":76561198171881453,"connected_time":204000000000,"state":"active","ping":160},{"user_id":531,"name":"Abu Hajar the Delhi Dominator","steam_id":76561198091352205,"connected_time":4458000000000,"state":"active","ping":96},{"user_id":526,"name":"Frosum","steam_id":76561198041672289,"connected_time":5090000000000,"state":"active","ping":99},{"user_id":541,"name":"Aloha :3","steam_id":76561198148517055,"connected_time":3370000000000,"state":"active","ping":103},{"user_id":529,"name":"The Shaqtus","steam_id":76561198154663468,"connected_time":5015000000000,"state":"active","ping":98},{"user_id":533,"name":"DwarfMan","steam_id":76561198058422001,"connected_time":3767000000000,"state":"active","ping":92},{"user_id":571,"name":"JellyParrot","steam_id":76561199190990163,"connected_time":191000000000,"state":"active","ping":55},{"user_id":565,"name":"Icarus","steam_id":76561198189984828,"connected_time":860000000000,"state":"active","ping":54},{"user_id":567,"name":"Shadow Wizard Money Gang","steam_id":76561198202240772,"connected_time":498000000000,"state":"active","ping":73},{"user_id":572,"name":"CERTIFIED GOAT","steam_id":76561198119826352,"connected_time":171000000000,"state":"active","ping":64},{"user_id":573,"name":"(◎﹏◎)","steam_id":76561198007464245,"connected_time":167000000000,"state":"active","ping":60},{"user_id":515,"name":"TheGhostThatWas","steam_id":76561198055836483,"connected_time":5618000000000,"state":"active","ping":60}]},{"server_id":400,"name":"Uncletopia | Atlanta | 3 | Community","name_short":"atl-3","host":"atl-1.us.uncletopia.com","port":27035,"enabled":true,"region":"us-east","cc":"us","latitude":33.753746,"longitude":-84.38633,"reserved":0,"last_update":"0001-01-01T00:00:00Z","name_a2s":"Uncletopia | Atlanta | 3 | Community","protocol":17,"map":"workshop/koth_slaughter_rc1.ugc1712845210","folder":"tf","game":"Team Fortress","app_id":440,"player_count":24,"max_players":24,"Bots":0,"server_type":"Dedicated","server_os":"Linux","password":true,"vac":true,"version":"7882260","steam_id":85568392924515187,"keywords":["cp","nocrits","nodmgspread","uncletopia"],"game_id":440,"stv_port":27036,"stv_name":"Uncletopia | Atlanta | 3 | Community | STV","players":[{"user_id":251,"name":"Pinhead Larry","steam_id":76561198329193255,"connected_time":762000000000,"state":"active","ping":97},{"user_id":253,"name":"Hatfam","steam_id":76561199192629036,"connected_time":362000000000,"state":"active","ping":116},{"user_id":249,"name":"Ba-Zing-Ga","steam_id":76561198323260286,"connected_time":1184000000000,"state":"active","ping":88},{"user_id":252,"name":"Linkedfurhire","steam_id":76561198149363268,"connected_time":713000000000,"state":"active","ping":45},{"user_id":254,"name":"Huey","steam_id":76561198972816386,"connected_time":268000000000,"state":"active","ping":60},{"user_id":226,"name":"solger","steam_id":76561199180146165,"connected_time":3000000000000,"state":"active","ping":72},{"user_id":255,"name":"Marshall","steam_id":76561198042570322,"connected_time":259000000000,"state":"active","ping":72},{"user_id":256,"name":"Samrizo el Chorizo","steam_id":76561198009838162,"connected_time":223000000000,"state":"active","ping":72},{"user_id":257,"name":"Pizza","steam_id":76561198118748364,"connected_time":211000000000,"state":"active","ping":60},{"user_id":258,"name":"Black Chan","steam_id":76561198053355299,"connected_time":151000000000,"state":"active","ping":136},{"user_id":261,"name":"Ⓑ⓪⓪ⓣⓨⓒⓐⓚⓔⓢ","steam_id":76561198088776421,"connected_time":119000000000,"state":"active","ping":77},{"user_id":229,"name":"pollito_luchador","steam_id":76561199051466304,"connected_time":2859000000000,"state":"active","ping":72},{"user_id":220,"name":"PEPSI POWERED MAN","steam_id":76561198362668431,"connected_time":3118000000000,"state":"active","ping":95},{"user_id":260,"name":"Makina","steam_id":76561198057475567,"connected_time":125000000000,"state":"active","ping":101},{"user_id":262,"name":"Meurik","steam_id":76561198078032795,"connected_time":108000000000,"state":"active","ping":161},{"user_id":247,"name":"mari_","steam_id":76561198137855741,"connected_time":1859000000000,"state":"active","ping":61},{"user_id":263,"name":"kingtonyfunnyface","steam_id":76561199181860517,"connected_time":100000000000,"state":"active","ping":83},{"user_id":264,"name":"Badboyblue21","steam_id":76561199138663244,"connected_time":99000000000,"state":"active","ping":136},{"user_id":224,"name":"Avro","steam_id":76561198343276573,"connected_time":3020000000000,"state":"active","ping":69},{"user_id":246,"name":"law","steam_id":76561199377248816,"connected_time":1908000000000,"state":"active","ping":74},{"user_id":210,"name":"cass","steam_id":76561198074502046,"connected_time":4648000000000,"state":"active","ping":89},{"user_id":245,"name":"Big Dick Swinging","steam_id":76561198053819929,"connected_time":2051000000000,"state":"active","ping":90},{"user_id":265,"name":"B","steam_id":76561199174945581,"connected_time":74000000000,"state":"active","ping":62},{"user_id":266,"name":"GameboyAdvancedSPMobileHotspot","steam_id":76561198413739460,"connected_time":60000000000,"state":"active","ping":225}]},{"server_id":401,"name":"Uncletopia | Atlanta | 4 | No Payload","name_short":"atl-4","host":"atl-1.us.uncletopia.com","port":27045,"enabled":true,"region":"us-east","cc":"us","latitude":33.753746,"longitude":-84.38633,"reserved":0,"last_update":"0001-01-01T00:00:00Z","name_a2s":"","protocol":0,"map":"","folder":"","game":"","app_id":0,"player_count":0,"max_players":0,"Bots":0,"server_type":"","server_os":"","password":false,"vac":false,"version":"","steam_id":0,"keywords":null,"game_id":0,"stv_port":0,"stv_name":"","players":null},{"server_id":2,"name":"Uncletopia | Chicago | 1 | All Maps","name_short":"chi-1","host":"chi-1.us.uncletopia.com","port":27015,"enabled":true,"region":"us-central","cc":"us","latitude":41.881832,"longitude":-87.62318,"reserved":0,"last_update":"0001-01-01T00:00:00Z","name_a2s":"Uncletopia | Chicago | 1 | All Maps","protocol":17,"map":"pl_borneo","folder":"tf","game":"Team Fortress","app_id":440,"player_count":24,"max_players":24,"Bots":0,"server_type":"Dedicated","server_os":"Linux","password":true,"vac":true,"version":"7882260","steam_id":85568392924469984,"keywords":["nocrits","nodmgspread","payload","uncletopia"],"game_id":440,"stv_port":27016,"stv_name":"Uncletopia | Chicago | 1 | All Maps | STV","players":[{"user_id":526,"name":"buddadog","steam_id":76561199116860581,"connected_time":661000000000,"state":"active","ping":90},{"user_id":512,"name":"Praise_to_the_Flashlight!","steam_id":76561199001728789,"connected_time":1126000000000,"state":"active","ping":57},{"user_id":509,"name":"Je t'aime ta mere","steam_id":76561198233279668,"connected_time":1175000000000,"state":"active","ping":76},{"user_id":529,"name":"Bird","steam_id":76561198231624620,"connected_time":323000000000,"state":"active","ping":76},{"user_id":535,"name":"Joshkinz","steam_id":76561199087994881,"connected_time":32000000000,"state":"spawning","ping":46},{"user_id":503,"name":"[يهودي] Bill Clinton [אל","steam_id":76561198163291190,"connected_time":1961000000000,"state":"active","ping":83},{"user_id":426,"name":"Mank","steam_id":76561198189421005,"connected_time":9506000000000,"state":"active","ping":46},{"user_id":514,"name":"The Mann With The Plann","steam_id":76561199001472144,"connected_time":1062000000000,"state":"active","ping":83},{"user_id":528,"name":"Thundermonkey (SMOKE)","steam_id":76561198017631728,"connected_time":401000000000,"state":"active","ping":62},{"user_id":516,"name":"m yfrogs","steam_id":76561198371149432,"connected_time":1047000000000,"state":"active","ping":45},{"user_id":517,"name":"Dr. Tropen","steam_id":76561198405271669,"connected_time":986000000000,"state":"active","ping":72},{"user_id":518,"name":"DinkleBerg","steam_id":76561198891626233,"connected_time":927000000000,"state":"active","ping":73},{"user_id":508,"name":"capybara(happy womens month)","steam_id":76561198798828328,"connected_time":1189000000000,"state":"active","ping":50},{"user_id":534,"name":"Sarbanes-Oxley","steam_id":76561197975898479,"connected_time":64000000000,"state":"active","ping":74},{"user_id":520,"name":"Magefeus","steam_id":76561198072946192,"connected_time":859000000000,"state":"active","ping":57},{"user_id":521,"name":"Captain","steam_id":76561198003428369,"connected_time":853000000000,"state":"active","ping":83},{"user_id":522,"name":"TinyHorseNati","steam_id":76561198273657587,"connected_time":814000000000,"state":"active","ping":54},{"user_id":530,"name":"alan","steam_id":76561198281442409,"connected_time":305000000000,"state":"active","ping":45},{"user_id":486,"name":"chloe","steam_id":76561198369849908,"connected_time":4556000000000,"state":"active","ping":57},{"user_id":492,"name":"xavier64","steam_id":76561199405220871,"connected_time":3531000000000,"state":"active","ping":115},{"user_id":533,"name":"PTR","steam_id":76561198237253772,"connected_time":188000000000,"state":"active","ping":63},{"user_id":532,"name":"stupid haver","steam_id":76561198044443985,"connected_time":297000000000,"state":"active","ping":81},{"user_id":525,"name":"frank","steam_id":76561198137777483,"connected_time":701000000000,"state":"active","ping":74},{"user_id":455,"name":"The Necronomiconeconomist","steam_id":76561198010358323,"connected_time":7140000000000,"state":"active","ping":64}]},{"server_id":106,"name":"Uncletopia | Chicago | 2 | All Maps","name_short":"chi-2","host":"chi-1.us.uncletopia.com","port":27025,"enabled":true,"region":"us-central","cc":"us","latitude":41.881832,"longitude":-87.62318,"reserved":0,"last_update":"0001-01-01T00:00:00Z","name_a2s":"Uncletopia | Chicago | 2 | All Maps","protocol":17,"map":"koth_harvest_final","folder":"tf","game":"Team Fortress","app_id":440,"player_count":24,"max_players":24,"Bots":0,"server_type":"Dedicated","server_os":"Linux","password":true,"vac":true,"version":"7882260","steam_id":85568392924469985,"keywords":["cp","nocrits","nodmgspread","uncletopia"],"game_id":440,"stv_port":27026,"stv_name":"Uncletopia | Chicago | 2 | All Maps | STV","players":[{"user_id":412,"name":"Amoxicilina","steam_id":76561198168486429,"connected_time":767000000000,"state":"active","ping":123},{"user_id":405,"name":"bobo","steam_id":76561198123287268,"connected_time":1486000000000,"state":"active","ping":45},{"user_id":386,"name":"Nemo","steam_id":76561198836696938,"connected_time":2012000000000,"state":"active","ping":135},{"user_id":408,"name":"capeeKo","steam_id":76561197970346623,"connected_time":1217000000000,"state":"active","ping":82},{"user_id":407,"name":"unfathomable depths of sadness ","steam_id":76561198048925904,"connected_time":1461000000000,"state":"active","ping":120},{"user_id":356,"name":"vv","steam_id":76561198134813102,"connected_time":4373000000000,"state":"active","ping":58},{"user_id":391,"name":"M249 | Spectre","steam_id":76561198118334485,"connected_time":1888000000000,"state":"active","ping":70},{"user_id":415,"name":"Uncle Dad","steam_id":76561198058073652,"connected_time":725000000000,"state":"active","ping":75},{"user_id":420,"name":"Gravity","steam_id":76561198066875223,"connected_time":475000000000,"state":"active","ping":73},{"user_id":416,"name":"White Boy Freestyle #337","steam_id":76561198880396651,"connected_time":711000000000,"state":"active","ping":90},{"user_id":368,"name":"yesod","steam_id":76561198212866289,"connected_time":3134000000000,"state":"active","ping":103},{"user_id":390,"name":"derz","steam_id":76561198010742216,"connected_time":1950000000000,"state":"active","ping":53},{"user_id":417,"name":"starkiller_141","steam_id":76561198162426849,"connected_time":693000000000,"state":"active","ping":48},{"user_id":392,"name":"SunNc","steam_id":76561198097711843,"connected_time":1884000000000,"state":"active","ping":112},{"user_id":393,"name":"Ringo x Seiran","steam_id":76561198357437908,"connected_time":1873000000000,"state":"active","ping":62},{"user_id":418,"name":"darps","steam_id":76561198105227318,"connected_time":662000000000,"state":"active","ping":51},{"user_id":380,"name":"Ferret","steam_id":76561198060416458,"connected_time":2579000000000,"state":"active","ping":106},{"user_id":411,"name":"SiltyStar85","steam_id":76561198309175923,"connected_time":1109000000000,"state":"active","ping":90},{"user_id":394,"name":"Zelumie","steam_id":76561198147335801,"connected_time":1872000000000,"state":"active","ping":53},{"user_id":395,"name":"Tenerance Love","steam_id":76561199132268907,"connected_time":1869000000000,"state":"active","ping":57},{"user_id":419,"name":"MED","steam_id":76561198389670774,"connected_time":653000000000,"state":"active","ping":135},{"user_id":425,"name":"viagra addict","steam_id":76561198017705248,"connected_time":117000000000,"state":"active","ping":47},{"user_id":423,"name":"❤ A Good Name (she/her) ❤","steam_id":76561198858190691,"connected_time":241000000000,"state":"active","ping":113},{"user_id":378,"name":"nav","steam_id":76561198872608266,"connected_time":2728000000000,"state":"active","ping":77}]},{"server_id":402,"name":"Uncletopia | Chicago | 3 | All Maps","name_short":"chi-3","host":"chi-1.us.uncletopia.com","port":27035,"enabled":true,"region":"us-central","cc":"us","latitude":41.881832,"longitude":-87.62318,"reserved":0,"last_update":"0001-01-01T00:00:00Z","name_a2s":"Uncletopia | Chicago | 3 | All Maps","protocol":17,"map":"plr_hightower","folder":"tf","game":"Team Fortress","app_id":440,"player_count":22,"max_players":24,"Bots":0,"server_type":"Dedicated","server_os":"Linux","password":true,"vac":true,"version":"7882260","steam_id":85568392924515191,"keywords":["nocrits","nodmgspread","payload","uncletopia"],"game_id":440,"stv_port":27036,"stv_name":"Uncletopia | Chicago | 3 | All Maps | STV","players":[{"user_id":576,"name":"truck nuts","steam_id":76561198074624639,"connected_time":1481000000000,"state":"active","ping":55},{"user_id":562,"name":"a bellhop","steam_id":76561198046797995,"connected_time":3053000000000,"state":"active","ping":65},{"user_id":573,"name":"Kronos_Titan","steam_id":76561199091925123,"connected_time":1837000000000,"state":"active","ping":102},{"user_id":514,"name":"NUt","steam_id":76561198031007966,"connected_time":6513000000000,"state":"active","ping":69},{"user_id":363,"name":"Protato","steam_id":76561198061182563,"connected_time":16803000000000,"state":"active","ping":75},{"user_id":570,"name":"Cats in 3D","steam_id":76561198048051416,"connected_time":2057000000000,"state":"active","ping":71},{"user_id":588,"name":"Snake Handler","steam_id":76561198027198306,"connected_time":19000000000,"state":"active","ping":66},{"user_id":583,"name":"spaceboots","steam_id":76561197977322319,"connected_time":789000000000,"state":"active","ping":64},{"user_id":589,"name":"jalapeno handjob","steam_id":76561198123298824,"connected_time":2000000000,"state":"spawning","ping":69},{"user_id":574,"name":"Floaty","steam_id":76561198066487242,"connected_time":1805000000000,"state":"active","ping":57},{"user_id":563,"name":"superwarm07","steam_id":76561199196313157,"connected_time":2928000000000,"state":"active","ping":83},{"user_id":567,"name":"wiiblob","steam_id":76561198109106242,"connected_time":2362000000000,"state":"active","ping":139},{"user_id":568,"name":"Mister Rattlebones","steam_id":76561198065560157,"connected_time":2354000000000,"state":"active","ping":48},{"user_id":547,"name":"Bolty","steam_id":76561198084199165,"connected_time":4119000000000,"state":"active","ping":75},{"user_id":585,"name":"Nukem","steam_id":76561198166236574,"connected_time":340000000000,"state":"active","ping":86},{"user_id":578,"name":"meatBALL sub lova 39 (meatball)","steam_id":76561199031308269,"connected_time":1214000000000,"state":"active","ping":84},{"user_id":548,"name":"Tay","steam_id":76561198059605568,"connected_time":3819000000000,"state":"active","ping":73},{"user_id":532,"name":"x❤x_1337_VVeed_VVizard_x❤x","steam_id":76561198067436825,"connected_time":5495000000000,"state":"active","ping":77},{"user_id":569,"name":"Dr. Robotniks Mean Bean Machine","steam_id":76561198047980627,"connected_time":2333000000000,"state":"active","ping":46},{"user_id":545,"name":"LegendaryMister151","steam_id":76561198064890524,"connected_time":4893000000000,"state":"active","ping":82},{"user_id":564,"name":"Rafl","steam_id":76561198055222756,"connected_time":2786000000000,"state":"active","ping":84},{"user_id":571,"name":"pipis","steam_id":76561198140971525,"connected_time":2004000000000,"state":"active","ping":60}]},{"server_id":403,"name":"Uncletopia | Chicago | 4 | All Maps","name_short":"chi-4","host":"chi-1.us.uncletopia.com","port":27045,"enabled":true,"region":"us-central","cc":"us","latitude":41.881832,"longitude":-87.62318,"reserved":0,"last_update":"0001-01-01T00:00:00Z","name_a2s":"Uncletopia | Chicago | 4 | All Maps","protocol":17,"map":"pl_pier","folder":"tf","game":"Team Fortress","app_id":440,"player_count":24,"max_players":24,"Bots":0,"server_type":"Dedicated","server_os":"Linux","password":true,"vac":true,"version":"7882260","steam_id":85568392924515193,"keywords":["nocrits","nodmgspread","payload","uncletopia"],"game_id":440,"stv_port":27046,"stv_name":"Uncletopia | Chicago | 4 | All Maps | STV","players":[{"user_id":412,"name":"Epicmullen","steam_id":76561198259850795,"connected_time":1056000000000,"state":"active","ping":77},{"user_id":406,"name":"Iron","steam_id":76561198247918478,"connected_time":1666000000000,"state":"active","ping":97},{"user_id":385,"name":"mashallah","steam_id":76561198075111427,"connected_time":4053000000000,"state":"active","ping":71},{"user_id":322,"name":"BlackCatSDB","steam_id":76561198257409038,"connected_time":7959000000000,"state":"active","ping":60},{"user_id":417,"name":"ball thrower","steam_id":76561198433240073,"connected_time":820000000000,"state":"active","ping":51},{"user_id":382,"name":"Mr. Crispy Lips","steam_id":76561198028157625,"connected_time":4263000000000,"state":"active","ping":89},{"user_id":404,"name":"Crisp","steam_id":76561198132644084,"connected_time":2197000000000,"state":"active","ping":70},{"user_id":407,"name":"Life I'm Unworthioli","steam_id":76561198030291655,"connected_time":1663000000000,"state":"active","ping":55},{"user_id":410,"name":"Shadow WIZARD MoneyGang","steam_id":76561197986051713,"connected_time":1096000000000,"state":"active","ping":79},{"user_id":418,"name":"4d4","steam_id":76561198402360789,"connected_time":814000000000,"state":"active","ping":60},{"user_id":409,"name":"Aeonspassed","steam_id":76561198014016451,"connected_time":1097000000000,"state":"active","ping":52},{"user_id":415,"name":"ZBaldTop","steam_id":76561199396318132,"connected_time":1003000000000,"state":"active","ping":56},{"user_id":376,"name":"LORD CANTI","steam_id":76561198254479725,"connected_time":4627000000000,"state":"active","ping":45},{"user_id":340,"name":"dog","steam_id":76561198263873491,"connected_time":6501000000000,"state":"active","ping":39},{"user_id":414,"name":"FUSION","steam_id":76561197972659738,"connected_time":1048000000000,"state":"active","ping":58},{"user_id":425,"name":"You dad","steam_id":76561198044013623,"connected_time":303000000000,"state":"active","ping":70},{"user_id":397,"name":"Kng","steam_id":76561198993248203,"connected_time":2880000000000,"state":"active","ping":91},{"user_id":380,"name":"blitzkriiegi","steam_id":76561198200944766,"connected_time":4345000000000,"state":"active","ping":50},{"user_id":398,"name":"machineclone","steam_id":76561198076320219,"connected_time":2422000000000,"state":"active","ping":143},{"user_id":420,"name":"Psychosis","steam_id":76561198078659070,"connected_time":748000000000,"state":"active","ping":71},{"user_id":424,"name":"Gomba","steam_id":76561198186115035,"connected_time":353000000000,"state":"active","ping":55},{"user_id":395,"name":"The Juice","steam_id":76561198065307144,"connected_time":3462000000000,"state":"active","ping":74},{"user_id":423,"name":"Also Known As Assteeth","steam_id":76561198049837377,"connected_time":517000000000,"state":"active","ping":65},{"user_id":421,"name":"Mossed Ball","steam_id":76561199031256509,"connected_time":720000000000,"state":"active","ping":85}]},{"server_id":36,"name":"Uncletopia | Chicago | 5 | All Maps","name_short":"chi-5","host":"chi-2.us.uncletopia.com","port":27015,"enabled":true,"region":"us-central","cc":"us","latitude":41.881832,"longitude":-87.62318,"reserved":0,"last_update":"0001-01-01T00:00:00Z","name_a2s":"Uncletopia | Chicago | 5 | All Maps","protocol":17,"map":"pl_pier","folder":"tf","game":"Team Fortress","app_id":440,"player_count":24,"max_players":24,"Bots":0,"server_type":"Dedicated","server_os":"Linux","password":true,"vac":true,"version":"7882260","steam_id":85568392924866362,"keywords":["nocrits","nodmgspread","payload","uncletopia"],"game_id":440,"stv_port":27016,"stv_name":"Uncletopia | Chicago | 5 | All Maps | STV","players":[{"user_id":630,"name":"cow","steam_id":76561198117331762,"connected_time":489000000000,"state":"active","ping":43},{"user_id":637,"name":"BreadGod","steam_id":76561198050665205,"connected_time":393000000000,"state":"active","ping":62},{"user_id":606,"name":"bubbles","steam_id":76561198974276335,"connected_time":3200000000000,"state":"active","ping":44},{"user_id":593,"name":"BIDEN BLAST","steam_id":76561198107343544,"connected_time":4125000000000,"state":"active","ping":88},{"user_id":534,"name":"Skeleton Dad","steam_id":76561198021489595,"connected_time":7463000000000,"state":"active","ping":81},{"user_id":619,"name":"msay","steam_id":76561198170888029,"connected_time":2353000000000,"state":"active","ping":98},{"user_id":564,"name":"Toastie","steam_id":76561198246760934,"connected_time":6710000000000,"state":"active","ping":80},{"user_id":631,"name":"shadow wizard money gang","steam_id":76561198418414338,"connected_time":471000000000,"state":"active","ping":91},{"user_id":639,"name":"Saucy Boy","steam_id":76561198178332031,"connected_time":241000000000,"state":"active","ping":68},{"user_id":633,"name":"supcupman","steam_id":76561198051513866,"connected_time":437000000000,"state":"active","ping":124},{"user_id":629,"name":"Shorts","steam_id":76561198025009692,"connected_time":927000000000,"state":"active","ping":83},{"user_id":620,"name":"beefmachine","steam_id":76561198001196512,"connected_time":2337000000000,"state":"active","ping":52},{"user_id":621,"name":"MasterCrafter27","steam_id":76561198151035981,"connected_time":2306000000000,"state":"active","ping":105},{"user_id":608,"name":"knight","steam_id":76561199467779621,"connected_time":3127000000000,"state":"active","ping":157},{"user_id":595,"name":"wunkem","steam_id":76561198055948497,"connected_time":4110000000000,"state":"active","ping":64},{"user_id":603,"name":"Daso","steam_id":76561198219209367,"connected_time":3845000000000,"state":"active","ping":67},{"user_id":634,"name":"Pizza the Hut","steam_id":76561197970450546,"connected_time":435000000000,"state":"active","ping":115},{"user_id":609,"name":"Dr Oshawott","steam_id":76561198042021629,"connected_time":3102000000000,"state":"active","ping":68},{"user_id":636,"name":"gorf?","steam_id":76561198142286417,"connected_time":424000000000,"state":"active","ping":60},{"user_id":627,"name":"JtsRes","steam_id":76561197994809241,"connected_time":1156000000000,"state":"active","ping":62},{"user_id":623,"name":"RokkitFrog","steam_id":76561198046465850,"connected_time":2279000000000,"state":"active","ping":76},{"user_id":575,"name":"Lil' King Trashmouth","steam_id":76561198073442946,"connected_time":6503000000000,"state":"active","ping":74},{"user_id":640,"name":"waku waku","steam_id":76561197999151676,"connected_time":238000000000,"state":"active","ping":67},{"user_id":594,"name":"JohnnyGitGud","steam_id":76561198401455467,"connected_time":4125000000000,"state":"active","ping":115}]},{"server_id":37,"name":"Uncletopia | Chicago | 6 | All Maps","name_short":"chi-6","host":"chi-2.us.uncletopia.com","port":27025,"enabled":true,"region":"us-central","cc":"us","latitude":41.881832,"longitude":-87.62318,"reserved":0,"last_update":"0001-01-01T00:00:00Z","name_a2s":"Uncletopia | Chicago | 6 | All Maps","protocol":17,"map":"cp_snakewater_final1","folder":"tf","game":"Team Fortress","app_id":440,"player_count":23,"max_players":24,"Bots":0,"server_type":"Dedicated","server_os":"Linux","password":true,"vac":true,"version":"7882260","steam_id":85568392924866363,"keywords":["cp","nocrits","nodmgspread","uncletopia"],"game_id":440,"stv_port":27026,"stv_name":"Uncletopia | Chicago | 6 | All Maps | STV","players":[{"user_id":324,"name":"Kasodani Kyouko","steam_id":76561198023178589,"connected_time":1046000000000,"state":"active","ping":87},{"user_id":325,"name":"[Sc.B.V.G] Eagley Beagley Eagle","steam_id":76561198166730618,"connected_time":1033000000000,"state":"active","ping":63},{"user_id":326,"name":"Achtan","steam_id":76561198078189844,"connected_time":1023000000000,"state":"active","ping":57},{"user_id":295,"name":"Pyroic","steam_id":76561198347123470,"connected_time":3225000000000,"state":"active","ping":97},{"user_id":282,"name":"BigBubble42","steam_id":76561198136286123,"connected_time":3775000000000,"state":"active","ping":50},{"user_id":241,"name":"nori_420 (mute)","steam_id":76561199117134203,"connected_time":6256000000000,"state":"active","ping":106},{"user_id":327,"name":"Two","steam_id":76561198207078715,"connected_time":1019000000000,"state":"active","ping":99},{"user_id":318,"name":"[DEEP] Danmar33","steam_id":76561198056453091,"connected_time":2241000000000,"state":"active","ping":46},{"user_id":328,"name":"CloudVic","steam_id":76561198118868716,"connected_time":969000000000,"state":"active","ping":78},{"user_id":336,"name":"bravo muchacho","steam_id":76561198224614084,"connected_time":420000000000,"state":"active","ping":60},{"user_id":329,"name":"raw.dot","steam_id":76561198033033884,"connected_time":909000000000,"state":"active","ping":64},{"user_id":334,"name":"Smug ¬‿¬ Smug","steam_id":76561198325526945,"connected_time":595000000000,"state":"active","ping":75},{"user_id":341,"name":"Clear Sights","steam_id":76561198006215683,"connected_time":36000000000,"state":"active","ping":61},{"user_id":296,"name":"Glass Joe","steam_id":76561198317365741,"connected_time":3181000000000,"state":"active","ping":66},{"user_id":287,"name":"Mainframe","steam_id":76561198097154599,"connected_time":3687000000000,"state":"active","ping":77},{"user_id":331,"name":"a4ツ","steam_id":76561199152294799,"connected_time":874000000000,"state":"active","ping":73},{"user_id":335,"name":"Tanya Forger","steam_id":76561198889997809,"connected_time":551000000000,"state":"active","ping":90},{"user_id":301,"name":"thecal","steam_id":76561198307893384,"connected_time":3072000000000,"state":"active","ping":49},{"user_id":338,"name":"No Maidens?","steam_id":76561198866418556,"connected_time":371000000000,"state":"active","ping":100},{"user_id":332,"name":"God (horny)","steam_id":76561198131089513,"connected_time":802000000000,"state":"active","ping":59},{"user_id":291,"name":"jayhong","steam_id":76561198046772832,"connected_time":3668000000000,"state":"active","ping":41},{"user_id":339,"name":"Ghworg","steam_id":76561198324891401,"connected_time":366000000000,"state":"active","ping":48},{"user_id":263,"name":"Ace Chromatica","steam_id":76561198042211131,"connected_time":5502000000000,"state":"active","ping":55}]},{"server_id":38,"name":"Uncletopia | Chicago | 7 | Stopwatch Beta","name_short":"chi-7","host":"chi-2.us.uncletopia.com","port":27035,"enabled":true,"region":"us-central","cc":"us","latitude":41.881832,"longitude":-87.62318,"reserved":0,"last_update":"0001-01-01T00:00:00Z","name_a2s":"Uncletopia | Chicago | 7 | Stopwatch Beta","protocol":17,"map":"pl_upward","folder":"tf","game":"Team Fortress","app_id":440,"player_count":0,"max_players":24,"Bots":0,"server_type":"Dedicated","server_os":"Linux","password":true,"vac":true,"version":"7882260","steam_id":85568392924866364,"keywords":["nocrits","nodmgspread","payload","uncletopia"],"game_id":440,"stv_port":27036,"stv_name":"Uncletopia | Chicago | 7 | Stopwatch Beta | STV","players":null},{"server_id":39,"name":"Uncletopia | Chicago | 8 | Community","name_short":"chi-8","host":"chi-2.us.uncletopia.com","port":27045,"enabled":true,"region":"us-central","cc":"us","latitude":41.881832,"longitude":-87.62318,"reserved":0,"last_update":"0001-01-01T00:00:00Z","name_a2s":"Uncletopia | Chicago | 8 | Community","protocol":17,"map":"workshop/cp_bruhstbowl_b5.ugc2878604990","folder":"tf","game":"Team Fortress","app_id":440,"player_count":0,"max_players":24,"Bots":0,"server_type":"Dedicated","server_os":"Linux","password":true,"vac":true,"version":"7882260","steam_id":85568392924866365,"keywords":["cp","nocrits","nodmgspread","uncletopia"],"game_id":440,"stv_port":27046,"stv_name":"Uncletopia | Chicago | 8 | Community | STV","players":null},{"server_id":8,"name":"Uncletopia | Dallas | 1 | All Maps","name_short":"dal-1","host":"dal-1.us.uncletopia.com","port":27015,"enabled":true,"region":"us-central","cc":"us","latitude":32.779167,"longitude":-96.80889,"reserved":0,"last_update":"0001-01-01T00:00:00Z","name_a2s":"Uncletopia | Dallas | 1 | All Maps","protocol":17,"map":"cp_sunshine","folder":"tf","game":"Team Fortress","app_id":440,"player_count":24,"max_players":24,"Bots":0,"server_type":"Dedicated","server_os":"Linux","password":true,"vac":true,"version":"7882260","steam_id":85568392924469986,"keywords":["cp","nocrits","nodmgspread","uncletopia"],"game_id":440,"stv_port":27016,"stv_name":"Uncletopia | Dallas | 1 | All Maps | STV","players":[{"user_id":730,"name":"semillams cuenta","steam_id":76561199223089296,"connected_time":1783000000000,"state":"active","ping":135},{"user_id":725,"name":"how tf","steam_id":76561198179370087,"connected_time":2157000000000,"state":"active","ping":59},{"user_id":735,"name":"errant","steam_id":76561197961758410,"connected_time":800000000000,"state":"active","ping":42},{"user_id":717,"name":"java","steam_id":76561198030276792,"connected_time":3485000000000,"state":"active","ping":75},{"user_id":691,"name":"$5 biggie bag","steam_id":76561198298310744,"connected_time":5462000000000,"state":"active","ping":84},{"user_id":745,"name":"LooperDooper","steam_id":76561198162464484,"connected_time":19000000000,"state":"spawning","ping":83},{"user_id":711,"name":"sithreis","steam_id":76561198000564263,"connected_time":3541000000000,"state":"active","ping":65},{"user_id":642,"name":"J.G. Klaus","steam_id":76561198001111196,"connected_time":8816000000000,"state":"active","ping":50},{"user_id":481,"name":"lanoc","steam_id":76561198055415367,"connected_time":20759000000000,"state":"active","ping":64},{"user_id":737,"name":"skegeton","steam_id":76561198095581099,"connected_time":788000000000,"state":"active","ping":55},{"user_id":743,"name":"TTV.silverfan420","steam_id":76561198013873028,"connected_time":492000000000,"state":"active","ping":71},{"user_id":629,"name":"HappyJack","steam_id":76561197960516534,"connected_time":9578000000000,"state":"active","ping":94},{"user_id":733,"name":"Quomples","steam_id":76561198140996628,"connected_time":926000000000,"state":"active","ping":61},{"user_id":710,"name":"cheetara","steam_id":76561198010019214,"connected_time":3543000000000,"state":"active","ping":63},{"user_id":742,"name":"bird doctor","steam_id":76561199144340440,"connected_time":583000000000,"state":"active","ping":60},{"user_id":731,"name":"Rowdyshark101","steam_id":76561199019123695,"connected_time":1671000000000,"state":"active","ping":56},{"user_id":695,"name":"Moonflower ✦","steam_id":76561198191782483,"connected_time":5275000000000,"state":"active","ping":52},{"user_id":739,"name":"Idk","steam_id":76561198971629959,"connected_time":780000000000,"state":"active","ping":135},{"user_id":746,"name":"KevilPo","steam_id":76561199244507267,"connected_time":1000000000,"state":"spawning","ping":57},{"user_id":740,"name":"Bogey","steam_id":76561198096227944,"connected_time":780000000000,"state":"active","ping":49},{"user_id":702,"name":"Mando","steam_id":76561198139662905,"connected_time":4832000000000,"state":"active","ping":66},{"user_id":721,"name":"yomommasabitch","steam_id":76561198323217150,"connected_time":2409000000000,"state":"active","ping":42},{"user_id":727,"name":"Captain Buggy","steam_id":76561198024444448,"connected_time":2140000000000,"state":"active","ping":102},{"user_id":719,"name":"Battery Acid Slurper","steam_id":76561198439793697,"connected_time":2660000000000,"state":"active","ping":95}]},{"server_id":108,"name":"Uncletopia | Dallas | 2 | All Maps","name_short":"dal-2","host":"dal-1.us.uncletopia.com","port":27025,"enabled":true,"region":"us-central","cc":"us","latitude":32.779167,"longitude":-96.80889,"reserved":0,"last_update":"0001-01-01T00:00:00Z","name_a2s":"Uncletopia | Dallas | 2 | All Maps","protocol":17,"map":"pl_goldrush","folder":"tf","game":"Team Fortress","app_id":440,"player_count":23,"max_players":24,"Bots":0,"server_type":"Dedicated","server_os":"Linux","password":true,"vac":true,"version":"7882260","steam_id":85568392924469988,"keywords":["nocrits","nodmgspread","payload","uncletopia"],"game_id":440,"stv_port":27026,"stv_name":"Uncletopia | Dallas | 2 | All Maps | STV","players":[{"user_id":726,"name":"mac_cheese","steam_id":76561198071334162,"connected_time":2826000000000,"state":"active","ping":95},{"user_id":750,"name":"Qみどり","steam_id":76561198304166877,"connected_time":1428000000000,"state":"active","ping":74},{"user_id":730,"name":"Just Chuck","steam_id":76561198121697504,"connected_time":2772000000000,"state":"active","ping":76},{"user_id":768,"name":"Gek Ambassador","steam_id":76561199080135821,"connected_time":816000000000,"state":"active","ping":62},{"user_id":746,"name":"lilmanband","steam_id":76561198082460728,"connected_time":2003000000000,"state":"active","ping":38},{"user_id":743,"name":"SharkBearGator","steam_id":76561198071233739,"connected_time":2050000000000,"state":"active","ping":38},{"user_id":765,"name":"Tyler Fortnite","steam_id":76561198259131021,"connected_time":991000000000,"state":"active","ping":98},{"user_id":770,"name":"Paulie Walnuts","steam_id":76561198066568730,"connected_time":545000000000,"state":"active","ping":74},{"user_id":771,"name":"Dill","steam_id":76561198285015436,"connected_time":315000000000,"state":"active","ping":55},{"user_id":727,"name":"danielarmvt","steam_id":76561198799723201,"connected_time":2822000000000,"state":"active","ping":89},{"user_id":757,"name":"milk, cereal, THEN bowl","steam_id":76561198149666258,"connected_time":1313000000000,"state":"active","ping":81},{"user_id":744,"name":"Akornical","steam_id":76561199171025092,"connected_time":2046000000000,"state":"active","ping":96},{"user_id":758,"name":"Provocator","steam_id":76561197961830410,"connected_time":1267000000000,"state":"active","ping":87},{"user_id":769,"name":"Deadangla Merkel","steam_id":76561198038258405,"connected_time":700000000000,"state":"active","ping":45},{"user_id":733,"name":"0x01FE","steam_id":76561198838881917,"connected_time":2715000000000,"state":"active","ping":63},{"user_id":721,"name":"BaRs","steam_id":76561198981717009,"connected_time":3793000000000,"state":"active","ping":59},{"user_id":763,"name":"Quietsharp","steam_id":76561198277968438,"connected_time":1050000000000,"state":"active","ping":87},{"user_id":754,"name":"RushHack","steam_id":76561198161169421,"connected_time":1341000000000,"state":"active","ping":83},{"user_id":772,"name":"Arrluk","steam_id":76561198396679452,"connected_time":106000000000,"state":"active","ping":104},{"user_id":736,"name":"fire","steam_id":76561198044354279,"connected_time":2648000000000,"state":"active","ping":77},{"user_id":737,"name":"Communist Zobomafoo","steam_id":76561198068173978,"connected_time":2642000000000,"state":"active","ping":58},{"user_id":766,"name":"Pan-Demonica","steam_id":76561198294350105,"connected_time":874000000000,"state":"active","ping":69},{"user_id":742,"name":"Drez47","steam_id":76561198380714058,"connected_time":2070000000000,"state":"active","ping":61}]},{"server_id":5,"name":"Uncletopia | Frankfurt | 1 | All Maps","name_short":"frk-1","host":"frk-1.de.uncletopia.com","port":27015,"enabled":true,"region":"eu","cc":"de","latitude":50.110924,"longitude":8.682127,"reserved":0,"last_update":"0001-01-01T00:00:00Z","name_a2s":"Uncletopia | Frankfurt | 1 | All Maps","protocol":17,"map":"ctf_turbine","folder":"tf","game":"Team Fortress","app_id":440,"player_count":0,"max_players":24,"Bots":0,"server_type":"Dedicated","server_os":"Linux","password":true,"vac":true,"version":"7882260","steam_id":85568392924469989,"keywords":["ctf","nocrits","nodmgspread","uncletopia"],"game_id":440,"stv_port":27016,"stv_name":"Uncletopia | Frankfurt | 1 | All Maps | STV","players":null},{"server_id":110,"name":"Uncletopia | Frankfurt | 2 | All Maps","name_short":"frk-2","host":"frk-1.de.uncletopia.com","port":27025,"enabled":true,"region":"eu","cc":"de","latitude":50.110924,"longitude":8.682127,"reserved":0,"last_update":"0001-01-01T00:00:00Z","name_a2s":"Uncletopia | Frankfurt | 2 | All Maps","protocol":17,"map":"pl_frontier_final","folder":"tf","game":"Team Fortress","app_id":440,"player_count":0,"max_players":24,"Bots":0,"server_type":"Dedicated","server_os":"Linux","password":true,"vac":true,"version":"7882260","steam_id":85568392924469990,"keywords":["nocrits","nodmgspread","payload","uncletopia"],"game_id":440,"stv_port":27026,"stv_name":"Uncletopia | Frankfurt | 2 | All Maps | STV","players":null},{"server_id":308,"name":"Uncletopia | Frankfurt | 3 | All Maps","name_short":"frk-3","host":"frk-1.de.uncletopia.com","port":27035,"enabled":true,"region":"eu","cc":"de","latitude":50.110924,"longitude":8.682127,"reserved":0,"last_update":"0001-01-01T00:00:00Z","name_a2s":"Uncletopia | Frankfurt | 3 | All Maps","protocol":17,"map":"pl_frontier_final","folder":"tf","game":"Team Fortress","app_id":440,"player_count":0,"max_players":24,"Bots":0,"server_type":"Dedicated","server_os":"Linux","password":true,"vac":true,"version":"7882260","steam_id":85568392924504274,"keywords":["nocrits","nodmgspread","payload","uncletopia"],"game_id":440,"stv_port":27036,"stv_name":"Uncletopia | Frankfurt | 3 | All Maps | STV","players":null},{"server_id":309,"name":"Uncletopia | Frankfurt | 4 | All Maps","name_short":"frk-4","host":"frk-1.de.uncletopia.com","port":27045,"enabled":true,"region":"eu","cc":"de","latitude":50.110924,"longitude":8.682127,"reserved":0,"last_update":"0001-01-01T00:00:00Z","name_a2s":"Uncletopia | Frankfurt | 4 | All Maps","protocol":17,"map":"pl_snowycoast","folder":"tf","game":"Team Fortress","app_id":440,"player_count":0,"max_players":24,"Bots":0,"server_type":"Dedicated","server_os":"Linux","password":true,"vac":true,"version":"7882260","steam_id":85568392924504275,"keywords":["nocrits","nodmgspread","payload","uncletopia"],"game_id":440,"stv_port":27046,"stv_name":"Uncletopia | Frankfurt | 4 | All Maps | STV","players":null},{"server_id":310,"name":"Uncletopia | Frankfurt | 5 | All Maps","name_short":"frk-5","host":"frk-1.de.uncletopia.com","port":27055,"enabled":true,"region":"eu","cc":"de","latitude":50.110924,"longitude":8.682127,"reserved":0,"last_update":"0001-01-01T00:00:00Z","name_a2s":"Uncletopia | Frankfurt | 5 | All Maps","protocol":17,"map":"koth_viaduct","folder":"tf","game":"Team Fortress","app_id":440,"player_count":0,"max_players":24,"Bots":0,"server_type":"Dedicated","server_os":"Linux","password":true,"vac":true,"version":"7882260","steam_id":85568392924504277,"keywords":["cp","nocrits","nodmgspread","uncletopia"],"game_id":440,"stv_port":27056,"stv_name":"Uncletopia | Frankfurt | 5 | All Maps | STV","players":null},{"server_id":311,"name":"Uncletopia | Frankfurt | 6 | All Maps","name_short":"frk-6","host":"frk-1.de.uncletopia.com","port":27065,"enabled":true,"region":"eu","cc":"de","latitude":50.110924,"longitude":8.682127,"reserved":0,"last_update":"0001-01-01T00:00:00Z","name_a2s":"Uncletopia | Frankfurt | 6 | All Maps","protocol":17,"map":"cp_dustbowl","folder":"tf","game":"Team Fortress","app_id":440,"player_count":0,"max_players":24,"Bots":0,"server_type":"Dedicated","server_os":"Linux","password":true,"vac":true,"version":"7882260","steam_id":85568392924504278,"keywords":["cp","nocrits","nodmgspread","uncletopia"],"game_id":440,"stv_port":27066,"stv_name":"Uncletopia | Frankfurt | 6 | All Maps | STV","players":null},{"server_id":23,"name":"Uncletopia | Frankfurt | 7 | Stopwatch Beta","name_short":"frk-7","host":"frk-1.de.uncletopia.com","port":27075,"enabled":true,"region":"eu","cc":"de","latitude":50.110924,"longitude":8.682127,"reserved":0,"last_update":"0001-01-01T00:00:00Z","name_a2s":"Uncletopia | Frankfurt | 7 | Stopwatch Beta","protocol":17,"map":"pl_swiftwater_final1","folder":"tf","game":"Team Fortress","app_id":440,"player_count":0,"max_players":24,"Bots":0,"server_type":"Dedicated","server_os":"Linux","password":true,"vac":true,"version":"7882260","steam_id":85568392924742827,"keywords":["nocrits","nodmgspread","payload","uncletopia"],"game_id":440,"stv_port":27076,"stv_name":"Uncletopia | Frankfurt | 7 | Stopwatch Beta | STV","players":null},{"server_id":24,"name":"Uncletopia | Frankfurt | 8 | Community","name_short":"frk-8","host":"frk-1.de.uncletopia.com","port":27085,"enabled":true,"region":"eu","cc":"de","latitude":50.110924,"longitude":8.682127,"reserved":0,"last_update":"0001-01-01T00:00:00Z","name_a2s":"Uncletopia | Frankfurt | 8 | Community","protocol":17,"map":"workshop/pl_barnblitz_pro7.ugc582280235","folder":"tf","game":"Team Fortress","app_id":440,"player_count":0,"max_players":24,"Bots":0,"server_type":"Dedicated","server_os":"Linux","password":true,"vac":true,"version":"7882260","steam_id":85568392924742828,"keywords":["nocrits","nodmgspread","payload","uncletopia"],"game_id":440,"stv_port":27086,"stv_name":"Uncletopia | Frankfurt | 8 | Community | STV","players":null},{"server_id":202,"name":"Uncletopia | Hong Kong | 1 | All Maps","name_short":"hgk-1","host":"hgk-1.hk.uncletopia.com","port":27015,"enabled":true,"region":"asia","cc":"hk","latitude":22.302711,"longitude":114.177216,"reserved":0,"last_update":"0001-01-01T00:00:00Z","name_a2s":"Uncletopia | Hong Kong | 1 | All Maps","protocol":17,"map":"koth_viaduct","folder":"tf","game":"Team Fortress","app_id":440,"player_count":0,"max_players":24,"Bots":0,"server_type":"Dedicated","server_os":"Linux","password":true,"vac":true,"version":"7882260","steam_id":85568392924494504,"keywords":["cp","nocrits","nodmgspread","uncletopia"],"game_id":440,"stv_port":27016,"stv_name":"Uncletopia | Hong Kong | 1 | All Maps | STV","players":null},{"server_id":1,"name":"Uncletopia | Los Angeles | 1 | All Maps","name_short":"lax-1","host":"lax-1.us.uncletopia.com","port":27015,"enabled":true,"region":"us-west","cc":"us","latitude":33.94279,"longitude":-118.41004,"reserved":0,"last_update":"0001-01-01T00:00:00Z","name_a2s":"Uncletopia | Los Angeles | 1 | All Maps","protocol":17,"map":"pl_upward","folder":"tf","game":"Team Fortress","app_id":440,"player_count":24,"max_players":24,"Bots":0,"server_type":"Dedicated","server_os":"Linux","password":true,"vac":true,"version":"7882260","steam_id":85568392924469991,"keywords":["nocrits","nodmgspread","payload","uncletopia"],"game_id":440,"stv_port":27016,"stv_name":"Uncletopia | Los Angeles | 1 | All Maps | STV","players":[{"user_id":415,"name":"Schnitz","steam_id":76561198265484253,"connected_time":10558000000000,"state":"active","ping":48},{"user_id":491,"name":"Chongo","steam_id":76561198017604393,"connected_time":4129000000000,"state":"active","ping":45},{"user_id":538,"name":"raduski","steam_id":76561198795699119,"connected_time":556000000000,"state":"active","ping":89},{"user_id":525,"name":"Len","steam_id":76561199141913673,"connected_time":1098000000000,"state":"active","ping":36},{"user_id":539,"name":"TheRealChizz","steam_id":76561198016055769,"connected_time":471000000000,"state":"active","ping":64},{"user_id":495,"name":"Yurei","steam_id":76561198088750661,"connected_time":3501000000000,"state":"active","ping":50},{"user_id":512,"name":"The Engie Before Christmas","steam_id":76561199049493869,"connected_time":2397000000000,"state":"active","ping":54},{"user_id":537,"name":"Cool Ghost","steam_id":76561198440103807,"connected_time":563000000000,"state":"active","ping":100},{"user_id":540,"name":"Boommanchu","steam_id":76561198057491452,"connected_time":443000000000,"state":"active","ping":127},{"user_id":518,"name":"a chicken","steam_id":76561198313121580,"connected_time":1653000000000,"state":"active","ping":49},{"user_id":541,"name":"walrooos","steam_id":76561198024521839,"connected_time":142000000000,"state":"active","ping":44},{"user_id":531,"name":"Dr. Bubs","steam_id":76561198011696595,"connected_time":935000000000,"state":"active","ping":50},{"user_id":520,"name":"flo rida","steam_id":76561198226169704,"connected_time":1485000000000,"state":"active","ping":55},{"user_id":509,"name":"MegaBitmap","steam_id":76561198086027059,"connected_time":2419000000000,"state":"active","ping":76},{"user_id":501,"name":"sora","steam_id":76561198094256973,"connected_time":2799000000000,"state":"active","ping":102},{"user_id":473,"name":"Gerbias","steam_id":76561198001002427,"connected_time":5219000000000,"state":"active","ping":63},{"user_id":485,"name":"Jimmy","steam_id":76561198857959855,"connected_time":4543000000000,"state":"active","ping":46},{"user_id":499,"name":"PJROCK101","steam_id":76561198070616561,"connected_time":3302000000000,"state":"active","ping":90},{"user_id":536,"name":"will (vqinet)","steam_id":76561199055929199,"connected_time":679000000000,"state":"active","ping":83},{"user_id":458,"name":"FlashofAsh","steam_id":76561198400422981,"connected_time":6428000000000,"state":"active","ping":68},{"user_id":530,"name":"Dongus","steam_id":76561197979056451,"connected_time":958000000000,"state":"active","ping":76},{"user_id":535,"name":"BajaBlast76","steam_id":76561198144272437,"connected_time":868000000000,"state":"active","ping":70},{"user_id":533,"name":"Pyre Elson","steam_id":76561198070842336,"connected_time":906000000000,"state":"active","ping":64},{"user_id":534,"name":"jBracko","steam_id":76561198019261602,"connected_time":889000000000,"state":"active","ping":58}]},{"server_id":112,"name":"Uncletopia | Los Angeles | 2 | All Maps","name_short":"lax-2","host":"lax-1.us.uncletopia.com","port":27025,"enabled":true,"region":"us-west","cc":"us","latitude":33.94279,"longitude":-118.41004,"reserved":0,"last_update":"0001-01-01T00:00:00Z","name_a2s":"Uncletopia | Los Angeles | 2 | All Maps","protocol":17,"map":"pl_hoodoo_final","folder":"tf","game":"Team Fortress","app_id":440,"player_count":24,"max_players":24,"Bots":0,"server_type":"Dedicated","server_os":"Linux","password":true,"vac":true,"version":"7882260","steam_id":85568392924469992,"keywords":["nocrits","nodmgspread","payload","uncletopia"],"game_id":440,"stv_port":27026,"stv_name":"Uncletopia | Los Angeles | 2 | All Maps | STV","players":[{"user_id":22,"name":"HooDoo","steam_id":76561198088994018,"connected_time":6363000000000,"state":"active","ping":76},{"user_id":92,"name":"blossom","steam_id":76561198042735130,"connected_time":1014000000000,"state":"active","ping":79},{"user_id":102,"name":"CreativeUsername","steam_id":76561198186045503,"connected_time":337000000000,"state":"active","ping":98},{"user_id":105,"name":"라니","steam_id":76561198399201495,"connected_time":82000000000,"state":"active","ping":97},{"user_id":106,"name":"Steejans","steam_id":76561198053211279,"connected_time":22000000000,"state":"spawning","ping":259},{"user_id":99,"name":"Yoinkinator","steam_id":76561198011366624,"connected_time":736000000000,"state":"active","ping":53},{"user_id":98,"name":"jadesouledout","steam_id":76561198866936507,"connected_time":841000000000,"state":"active","ping":48},{"user_id":70,"name":"Squatter1","steam_id":76561198078987734,"connected_time":3200000000000,"state":"active","ping":73},{"user_id":34,"name":"Feel the bern","steam_id":76561198078824519,"connected_time":5135000000000,"state":"active","ping":49},{"user_id":103,"name":"One Horned Bitch Destroyer","steam_id":76561198045810191,"connected_time":308000000000,"state":"active","ping":72},{"user_id":85,"name":"Ralph Kramden (Slim Charles)","steam_id":76561197981687895,"connected_time":1619000000000,"state":"active","ping":59},{"user_id":37,"name":"Medic Boyfriend","steam_id":76561198104086771,"connected_time":4971000000000,"state":"active","ping":48},{"user_id":61,"name":"Puke Skyfucker","steam_id":76561198012846213,"connected_time":4356000000000,"state":"active","ping":112},{"user_id":73,"name":"Squishy","steam_id":76561198418729311,"connected_time":3102000000000,"state":"active","ping":76},{"user_id":62,"name":"some nerd","steam_id":76561198297272878,"connected_time":4282000000000,"state":"active","ping":39},{"user_id":88,"name":"XxDragon4321xX","steam_id":76561198046705735,"connected_time":1450000000000,"state":"active","ping":70},{"user_id":74,"name":"i cant aim","steam_id":76561198065873462,"connected_time":3090000000000,"state":"active","ping":46},{"user_id":90,"name":"Pile of Spinach","steam_id":76561198043068841,"connected_time":1161000000000,"state":"active","ping":70},{"user_id":81,"name":"SCUD missile up your ass","steam_id":76561198066452726,"connected_time":2666000000000,"state":"active","ping":60},{"user_id":94,"name":"仙女头子于谦","steam_id":76561199031075505,"connected_time":1001000000000,"state":"active","ping":142},{"user_id":48,"name":"tum","steam_id":76561198084712019,"connected_time":4748000000000,"state":"active","ping":65},{"user_id":59,"name":"Carthage (TRANSRIGHTS)","steam_id":76561198049001571,"connected_time":4414000000000,"state":"active","ping":89},{"user_id":82,"name":"WaywardFinn","steam_id":76561198040391296,"connected_time":2666000000000,"state":"active","ping":122},{"user_id":78,"name":"Thunder","steam_id":76561198097721532,"connected_time":3015000000000,"state":"active","ping":52}]},{"server_id":324,"name":"Uncletopia | Los Angeles | 3 | All Maps","name_short":"lax-3","host":"lax-1.us.uncletopia.com","port":27035,"enabled":true,"region":"us-west","cc":"us","latitude":33.94279,"longitude":-118.41004,"reserved":0,"last_update":"0001-01-01T00:00:00Z","name_a2s":"Uncletopia | Los Angeles | 3 | All Maps","protocol":17,"map":"cp_dustbowl","folder":"tf","game":"Team Fortress","app_id":440,"player_count":24,"max_players":24,"Bots":0,"server_type":"Dedicated","server_os":"Linux","password":true,"vac":true,"version":"7882260","steam_id":85568392924510198,"keywords":["cp","nocrits","nodmgspread","uncletopia"],"game_id":440,"stv_port":27036,"stv_name":"Uncletopia | Los Angeles | 3 | All Maps | STV","players":[{"user_id":161,"name":"...","steam_id":76561198121508845,"connected_time":8197000000000,"state":"active","ping":57},{"user_id":249,"name":"Ypuoi","steam_id":76561198170203261,"connected_time":2000000000000,"state":"active","ping":61},{"user_id":250,"name":"zombiemaker101","steam_id":76561198263767459,"connected_time":1990000000000,"state":"active","ping":120},{"user_id":265,"name":"Jones","steam_id":76561198046037216,"connected_time":1411000000000,"state":"active","ping":101},{"user_id":248,"name":"Truffles","steam_id":76561198095868800,"connected_time":2068000000000,"state":"active","ping":94},{"user_id":275,"name":"Garfelf","steam_id":76561198419850129,"connected_time":407000000000,"state":"active","ping":84},{"user_id":264,"name":"social distance warrior","steam_id":76561198128992994,"connected_time":1422000000000,"state":"active","ping":68},{"user_id":233,"name":"UneditedAndy","steam_id":76561198982544947,"connected_time":2888000000000,"state":"active","ping":55},{"user_id":219,"name":"gerg","steam_id":76561197997127387,"connected_time":3888000000000,"state":"active","ping":56},{"user_id":245,"name":"Antifa Supersoldier","steam_id":76561198141816516,"connected_time":2336000000000,"state":"active","ping":86},{"user_id":259,"name":"Emperor Ape","steam_id":76561198969607981,"connected_time":1628000000000,"state":"active","ping":64},{"user_id":261,"name":"basilberry","steam_id":76561198145275937,"connected_time":1515000000000,"state":"active","ping":100},{"user_id":278,"name":"slafflow","steam_id":76561199381012350,"connected_time":198000000000,"state":"active","ping":71},{"user_id":255,"name":"Lord Aben","steam_id":76561198135266770,"connected_time":1813000000000,"state":"active","ping":44},{"user_id":267,"name":"Feet","steam_id":76561198047302528,"connected_time":1132000000000,"state":"active","ping":67},{"user_id":266,"name":"gwen","steam_id":76561198046815360,"connected_time":1195000000000,"state":"active","ping":47},{"user_id":277,"name":"Smellbow McArmpit","steam_id":76561198109445099,"connected_time":241000000000,"state":"active","ping":76},{"user_id":215,"name":"Hope","steam_id":76561199182558088,"connected_time":3957000000000,"state":"active","ping":75},{"user_id":146,"name":"Grand","steam_id":76561198290143399,"connected_time":9326000000000,"state":"active","ping":83},{"user_id":274,"name":"Pyrotek⁴","steam_id":76561198072747672,"connected_time":433000000000,"state":"active","ping":44},{"user_id":217,"name":"Chiaki Nanami","steam_id":76561198164782653,"connected_time":3918000000000,"state":"active","ping":121},{"user_id":242,"name":"azureglxy","steam_id":76561198861388315,"connected_time":2742000000000,"state":"active","ping":47},{"user_id":268,"name":"gerard way","steam_id":76561199075636624,"connected_time":781000000000,"state":"active","ping":107},{"user_id":280,"name":"squidpunk1312","steam_id":76561198202274248,"connected_time":100000000000,"state":"active","ping":36}]},{"server_id":25,"name":"Uncletopia | Los Angeles | 4 | Stopwatch Beta","name_short":"lax-4","host":"lax-1.us.uncletopia.com","port":27045,"enabled":true,"region":"us-west","cc":"us","latitude":33.94279,"longitude":-118.41004,"reserved":0,"last_update":"0001-01-01T00:00:00Z","name_a2s":"Uncletopia | Los Angeles | 4 | Stopwatch Beta","protocol":17,"map":"koth_viaduct","folder":"tf","game":"Team Fortress","app_id":440,"player_count":0,"max_players":24,"Bots":0,"server_type":"Dedicated","server_os":"Linux","password":true,"vac":true,"version":"7882260","steam_id":85568392924510199,"keywords":["cp","nocrits","nodmgspread","uncletopia"],"game_id":440,"stv_port":27046,"stv_name":"Uncletopia | Los Angeles | 4 | Stopwatch Beta | STV","players":null},{"server_id":11,"name":"Uncletopia | London | 1 | All Maps","name_short":"lon-1","host":"lon-1.uk.uncletopia.com","port":27015,"enabled":true,"region":"eu","cc":"gb","latitude":51.509865,"longitude":-0.118092,"reserved":0,"last_update":"0001-01-01T00:00:00Z","name_a2s":"Uncletopia | London | 1 | All Maps","protocol":17,"map":"pl_badwater","folder":"tf","game":"Team Fortress","app_id":440,"player_count":19,"max_players":24,"Bots":0,"server_type":"Dedicated","server_os":"Linux","password":true,"vac":true,"version":"7882260","steam_id":85568392924367362,"keywords":["nocrits","nodmgspread","payload","uncletopia"],"game_id":440,"stv_port":27016,"stv_name":"Uncletopia | London | 1 | All Maps | STV","players":[{"user_id":696,"name":"de_nerferno","steam_id":76561198051903037,"connected_time":2210000000000,"state":"active","ping":113},{"user_id":698,"name":"Doctor Marijuana","steam_id":76561198288289879,"connected_time":1366000000000,"state":"active","ping":51},{"user_id":653,"name":"shits in urinals","steam_id":76561199480942903,"connected_time":6750000000000,"state":"active","ping":75},{"user_id":701,"name":"Cillian","steam_id":76561199046965320,"connected_time":1007000000000,"state":"active","ping":62},{"user_id":660,"name":"dd","steam_id":76561198257836694,"connected_time":5766000000000,"state":"active","ping":42},{"user_id":705,"name":"diddag","steam_id":76561198041168780,"connected_time":72000000000,"state":"active","ping":75},{"user_id":706,"name":"SkyKing","steam_id":76561198094038320,"connected_time":35000000000,"state":"active","ping":151},{"user_id":638,"name":"Uncletopia's Scariest Pootis","steam_id":76561197970114051,"connected_time":8686000000000,"state":"active","ping":39},{"user_id":647,"name":"frosty","steam_id":76561198094560834,"connected_time":7005000000000,"state":"active","ping":45},{"user_id":688,"name":"vadr","steam_id":76561198334528186,"connected_time":2866000000000,"state":"active","ping":42},{"user_id":673,"name":"COULANTE SURPRISE","steam_id":76561198965913840,"connected_time":4067000000000,"state":"active","ping":50},{"user_id":685,"name":"dinorno","steam_id":76561198146276830,"connected_time":3144000000000,"state":"active","ping":73},{"user_id":703,"name":"killbind irl","steam_id":76561198180637374,"connected_time":470000000000,"state":"active","ping":93},{"user_id":641,"name":".moe","steam_id":76561198153974095,"connected_time":8449000000000,"state":"active","ping":43},{"user_id":606,"name":"Marquis de Hoto","steam_id":76561198080687708,"connected_time":12263000000000,"state":"active","ping":78},{"user_id":697,"name":"Rob","steam_id":76561198346638308,"connected_time":1651000000000,"state":"active","ping":58},{"user_id":684,"name":"etc","steam_id":76561197998394797,"connected_time":3182000000000,"state":"active","ping":45},{"user_id":687,"name":"Meterora","steam_id":76561198092422131,"connected_time":3029000000000,"state":"active","ping":54},{"user_id":650,"name":"Jon","steam_id":76561199380849468,"connected_time":6976000000000,"state":"active","ping":62}]},{"server_id":114,"name":"Uncletopia | London | 2 | All Maps","name_short":"lon-2","host":"lon-1.uk.uncletopia.com","port":27025,"enabled":true,"region":"eu","cc":"gb","latitude":51.509865,"longitude":-0.118092,"reserved":0,"last_update":"0001-01-01T00:00:00Z","name_a2s":"Uncletopia | London | 2 | All Maps","protocol":17,"map":"cp_process_final","folder":"tf","game":"Team Fortress","app_id":440,"player_count":0,"max_players":24,"Bots":0,"server_type":"Dedicated","server_os":"Linux","password":true,"vac":true,"version":"7882260","steam_id":85568392924470941,"keywords":["cp","nocrits","nodmgspread","uncletopia"],"game_id":440,"stv_port":27026,"stv_name":"Uncletopia | London | 2 | All Maps | STV","players":null},{"server_id":320,"name":"Uncletopia | London | 3 | All Maps","name_short":"lon-3","host":"lon-1.uk.uncletopia.com","port":27035,"enabled":true,"region":"eu","cc":"gb","latitude":51.509865,"longitude":-0.118092,"reserved":0,"last_update":"0001-01-01T00:00:00Z","name_a2s":"Uncletopia | London | 3 | All Maps","protocol":17,"map":"koth_viaduct","folder":"tf","game":"Team Fortress","app_id":440,"player_count":0,"max_players":24,"Bots":0,"server_type":"Dedicated","server_os":"Linux","password":true,"vac":true,"version":"7882260","steam_id":85568392924510192,"keywords":["cp","nocrits","nodmgspread","uncletopia"],"game_id":440,"stv_port":27036,"stv_name":"Uncletopia | London | 3 | All Maps | STV","players":null},{"server_id":321,"name":"Uncletopia | London | 4 | All Maps","name_short":"lon-4","host":"lon-1.uk.uncletopia.com","port":27045,"enabled":true,"region":"eu","cc":"gb","latitude":51.509865,"longitude":-0.118092,"reserved":0,"last_update":"0001-01-01T00:00:00Z","name_a2s":"Uncletopia | London | 4 | All Maps","protocol":17,"map":"pl_badwater","folder":"tf","game":"Team Fortress","app_id":440,"player_count":0,"max_players":24,"Bots":0,"server_type":"Dedicated","server_os":"Linux","password":true,"vac":true,"version":"7882260","steam_id":85568392924510193,"keywords":["nocrits","nodmgspread","payload","uncletopia"],"game_id":440,"stv_port":27046,"stv_name":"Uncletopia | London | 4 | All Maps | STV","players":null},{"server_id":21,"name":"Uncletopia | London | 5 | All Maps","name_short":"lon-5","host":"lon-1.uk.uncletopia.com","port":27055,"enabled":true,"region":"eu","cc":"gb","latitude":51.509865,"longitude":-0.118092,"reserved":0,"last_update":"0001-01-01T00:00:00Z","name_a2s":"Uncletopia | London | 5 | All Maps","protocol":17,"map":"cp_sunshine","folder":"tf","game":"Team Fortress","app_id":440,"player_count":0,"max_players":24,"Bots":0,"server_type":"Dedicated","server_os":"Linux","password":true,"vac":true,"version":"7882260","steam_id":85568392924742829,"keywords":["cp","nocrits","nodmgspread","uncletopia"],"game_id":440,"stv_port":27056,"stv_name":"Uncletopia | London | 5 | All Maps | STV","players":null},{"server_id":22,"name":"Uncletopia | London | 6 | All Maps","name_short":"lon-6","host":"lon-1.uk.uncletopia.com","port":27065,"enabled":true,"region":"eu","cc":"gb","latitude":51.509865,"longitude":-0.118092,"reserved":0,"last_update":"0001-01-01T00:00:00Z","name_a2s":"Uncletopia | London | 6 | All Maps","protocol":17,"map":"koth_lakeside_final","folder":"tf","game":"Team Fortress","app_id":440,"player_count":0,"max_players":24,"Bots":0,"server_type":"Dedicated","server_os":"Linux","password":true,"vac":true,"version":"7882260","steam_id":85568392924742830,"keywords":["cp","nocrits","nodmgspread","uncletopia"],"game_id":440,"stv_port":27066,"stv_name":"Uncletopia | London | 6 | All Maps | STV","players":null},{"server_id":40,"name":"Uncletopia | London | 7 | No Payload","name_short":"lon-7","host":"lon-1.uk.uncletopia.com","port":27075,"enabled":true,"region":"eu","cc":"gb","latitude":51.509865,"longitude":-0.118092,"reserved":0,"last_update":"0001-01-01T00:00:00Z","name_a2s":"Uncletopia | London | 7 | No Payload","protocol":17,"map":"koth_nucleus","folder":"tf","game":"Team Fortress","app_id":440,"player_count":0,"max_players":24,"Bots":0,"server_type":"Dedicated","server_os":"Linux","password":true,"vac":true,"version":"7882260","steam_id":85568392924964314,"keywords":["cp","nocrits","nodmgspread","uncletopia"],"game_id":440,"stv_port":27076,"stv_name":"Uncletopia | London | 7 | No Payload | STV","players":null},{"server_id":41,"name":"Uncletopia | London | 8 | Community","name_short":"lon-8","host":"lon-1.uk.uncletopia.com","port":27085,"enabled":true,"region":"eu","cc":"gb","latitude":51.509865,"longitude":-0.118092,"reserved":0,"last_update":"0001-01-01T00:00:00Z","name_a2s":"Uncletopia | London | 8 | Community","protocol":17,"map":"workshop/cp_croissant_final.ugc458840209","folder":"tf","game":"Team Fortress","app_id":440,"player_count":0,"max_players":24,"Bots":0,"server_type":"Dedicated","server_os":"Linux","password":true,"vac":true,"version":"7882260","steam_id":85568392924964315,"keywords":["cp","nocrits","nodmgspread","uncletopia"],"game_id":440,"stv_port":27086,"stv_name":"Uncletopia | London | 8 | Community | STV","players":null},{"server_id":300,"name":"Uncletopia | Montréal | 1 | All Maps","name_short":"mtl-1","host":"mtl-1.ca.uncletopia.com","port":27015,"enabled":true,"region":"us-east","cc":"ca","latitude":45.50889,"longitude":-73.56167,"reserved":0,"last_update":"0001-01-01T00:00:00Z","name_a2s":"Uncletopia | Montréal | 1 | All Maps","protocol":17,"map":"koth_lakeside_final","folder":"tf","game":"Team Fortress","app_id":440,"player_count":0,"max_players":24,"Bots":0,"server_type":"Dedicated","server_os":"Linux","password":true,"vac":true,"version":"7882260","steam_id":85568392924500087,"keywords":["cp","nocrits","nodmgspread","uncletopia"],"game_id":440,"stv_port":27016,"stv_name":"Uncletopia | Montréal | 1 | All Maps | STV","players":null},{"server_id":301,"name":"Uncletopia | Montréal | 2 | All Maps","name_short":"mtl-2","host":"mtl-1.ca.uncletopia.com","port":27025,"enabled":true,"region":"us-east","cc":"ca","latitude":45.50889,"longitude":-73.56167,"reserved":0,"last_update":"0001-01-01T00:00:00Z","name_a2s":"Uncletopia | Montréal | 2 | All Maps","protocol":17,"map":"cp_snakewater_final1","folder":"tf","game":"Team Fortress","app_id":440,"player_count":0,"max_players":24,"Bots":0,"server_type":"Dedicated","server_os":"Linux","password":true,"vac":true,"version":"7882260","steam_id":85568392924500088,"keywords":["cp","nocrits","nodmgspread","uncletopia"],"game_id":440,"stv_port":27026,"stv_name":"Uncletopia | Montréal | 2 | All Maps | STV","players":null},{"server_id":302,"name":"Uncletopia | Montréal | 3 | All Maps","name_short":"mtl-3","host":"mtl-1.ca.uncletopia.com","port":27035,"enabled":true,"region":"us-east","cc":"ca","latitude":45.50889,"longitude":-73.56167,"reserved":0,"last_update":"0001-01-01T00:00:00Z","name_a2s":"Uncletopia | Montréal | 3 | All Maps","protocol":17,"map":"pl_snowycoast","folder":"tf","game":"Team Fortress","app_id":440,"player_count":24,"max_players":24,"Bots":0,"server_type":"Dedicated","server_os":"Linux","password":true,"vac":true,"version":"7882260","steam_id":85568392924500089,"keywords":["nocrits","nodmgspread","payload","uncletopia"],"game_id":440,"stv_port":27036,"stv_name":"Uncletopia | Montréal | 3 | All Maps | STV","players":[{"user_id":131,"name":"arkona","steam_id":76561198368556572,"connected_time":2088000000000,"state":"active","ping":149},{"user_id":144,"name":"Forehead","steam_id":76561198124151399,"connected_time":406000000000,"state":"active","ping":56},{"user_id":113,"name":"Fiendish Frog","steam_id":76561198029478821,"connected_time":3262000000000,"state":"active","ping":66},{"user_id":146,"name":"bcizzo","steam_id":76561197994399953,"connected_time":283000000000,"state":"active","ping":115},{"user_id":140,"name":"Marvelzombie","steam_id":76561198129951058,"connected_time":837000000000,"state":"active","ping":189},{"user_id":116,"name":"TACO LIMEY","steam_id":76561198044856349,"connected_time":2836000000000,"state":"active","ping":75},{"user_id":107,"name":"J21","steam_id":76561198066590783,"connected_time":3661000000000,"state":"active","ping":62},{"user_id":118,"name":"alset333","steam_id":76561198405345260,"connected_time":2757000000000,"state":"active","ping":58},{"user_id":120,"name":"who is gavin?","steam_id":76561198069415057,"connected_time":2637000000000,"state":"active","ping":59},{"user_id":122,"name":"Snipar","steam_id":76561198129725862,"connected_time":2505000000000,"state":"active","ping":71},{"user_id":147,"name":"bobbymcbobington","steam_id":76561199089411172,"connected_time":175000000000,"state":"active","ping":133},{"user_id":123,"name":"sphinxmagoo","steam_id":76561198057001653,"connected_time":2489000000000,"state":"active","ping":56},{"user_id":124,"name":"MOGAN","steam_id":76561198071700821,"connected_time":2399000000000,"state":"active","ping":102},{"user_id":148,"name":"Funee","steam_id":76561198041048289,"connected_time":158000000000,"state":"active","ping":51},{"user_id":149,"name":"spy sex ☾︎♚︎☽","steam_id":76561199138738952,"connected_time":142000000000,"state":"active","ping":102},{"user_id":150,"name":"Buck","steam_id":76561198064244796,"connected_time":122000000000,"state":"active","ping":60},{"user_id":143,"name":"euphoricfilth (it/her)","steam_id":76561198100160865,"connected_time":523000000000,"state":"active","ping":57},{"user_id":141,"name":"Wilson","steam_id":76561197988413004,"connected_time":658000000000,"state":"active","ping":133},{"user_id":151,"name":"[RGGL] Baccouch","steam_id":76561198001480670,"connected_time":63000000000,"state":"active","ping":84},{"user_id":135,"name":"totally not a pile of beans","steam_id":76561198119851931,"connected_time":1805000000000,"state":"active","ping":80},{"user_id":110,"name":"comingupooo","steam_id":76561198295958692,"connected_time":3358000000000,"state":"active","ping":125},{"user_id":130,"name":"Rainy Devil","steam_id":76561198271886440,"connected_time":2159000000000,"state":"active","ping":80},{"user_id":152,"name":"_pel7cu","steam_id":76561198323348986,"connected_time":15000000000,"state":"spawning","ping":78},{"user_id":138,"name":"scrapheap","steam_id":76561198202407087,"connected_time":1770000000000,"state":"active","ping":96}]},{"server_id":303,"name":"Uncletopia | Montréal | 4 | No Payload","name_short":"mtl-4","host":"mtl-1.ca.uncletopia.com","port":27045,"enabled":true,"region":"us-east","cc":"ca","latitude":45.50889,"longitude":-73.56167,"reserved":0,"last_update":"0001-01-01T00:00:00Z","name_a2s":"Uncletopia | Montréal | 4 | No Payload","protocol":17,"map":"cp_steel","folder":"tf","game":"Team Fortress","app_id":440,"player_count":0,"max_players":24,"Bots":0,"server_type":"Dedicated","server_os":"Linux","password":true,"vac":true,"version":"7882260","steam_id":85568392924500090,"keywords":["cp","nocrits","nodmgspread","uncletopia"],"game_id":440,"stv_port":27046,"stv_name":"Uncletopia | Montréal | 4 | No Payload | STV","players":null},{"server_id":13,"name":"Uncletopia | New York City | 1 | All Maps","name_short":"nyc-1","host":"nyc-1.us.uncletopia.com","port":27015,"enabled":true,"region":"us-east","cc":"us","latitude":40.73061,"longitude":-73.93524,"reserved":0,"last_update":"0001-01-01T00:00:00Z","name_a2s":"Uncletopia | New York City | 1 | All Maps","protocol":17,"map":"pl_badwater","folder":"tf","game":"Team Fortress","app_id":440,"player_count":24,"max_players":24,"Bots":0,"server_type":"Dedicated","server_os":"Linux","password":true,"vac":true,"version":"7882260","steam_id":85568392924469993,"keywords":["nocrits","nodmgspread","payload","uncletopia"],"game_id":440,"stv_port":27016,"stv_name":"Uncletopia | New York City | 1 | All Maps | STV","players":[{"user_id":688,"name":"Viokik","steam_id":76561198408846602,"connected_time":1047000000000,"state":"active","ping":54},{"user_id":638,"name":":3","steam_id":76561198909415646,"connected_time":5765000000000,"state":"active","ping":103},{"user_id":682,"name":"Mocha","steam_id":76561198368999744,"connected_time":2648000000000,"state":"active","ping":52},{"user_id":693,"name":"Lylith!!!","steam_id":76561198386687546,"connected_time":801000000000,"state":"active","ping":68},{"user_id":672,"name":"drwwby","steam_id":76561198067741339,"connected_time":2825000000000,"state":"active","ping":72},{"user_id":631,"name":"Colin102004","steam_id":76561198202384334,"connected_time":6350000000000,"state":"active","ping":43},{"user_id":690,"name":"thundah!","steam_id":76561199159928133,"connected_time":861000000000,"state":"active","ping":69},{"user_id":685,"name":"you forgot the sauce","steam_id":76561198387016713,"connected_time":1972000000000,"state":"active","ping":57},{"user_id":691,"name":"Le4n!!!","steam_id":76561198045522596,"connected_time":837000000000,"state":"active","ping":79},{"user_id":694,"name":"bojack from the show bojack hor","steam_id":76561198053006712,"connected_time":782000000000,"state":"active","ping":44},{"user_id":647,"name":"Cream Corn","steam_id":76561198043791586,"connected_time":4999000000000,"state":"active","ping":45},{"user_id":622,"name":"echo","steam_id":76561199411724732,"connected_time":6574000000000,"state":"active","ping":39},{"user_id":687,"name":"Bear bird","steam_id":76561198166769479,"connected_time":1342000000000,"state":"active","ping":82},{"user_id":684,"name":"BlueBruh","steam_id":76561199078613052,"connected_time":1983000000000,"state":"active","ping":97},{"user_id":695,"name":"BoopBerry","steam_id":76561198871571711,"connected_time":532000000000,"state":"active","ping":81},{"user_id":659,"name":"JD","steam_id":76561198202669250,"connected_time":4464000000000,"state":"active","ping":69},{"user_id":642,"name":"scarecrow (funny)","steam_id":76561198082979347,"connected_time":5263000000000,"state":"active","ping":66},{"user_id":639,"name":"Urbanzpinapple","steam_id":76561198115426938,"connected_time":5730000000000,"state":"active","ping":78},{"user_id":678,"name":"Bocchi the Cock","steam_id":76561198152455316,"connected_time":2721000000000,"state":"active","ping":163},{"user_id":679,"name":"yeyoi","steam_id":76561198069821885,"connected_time":2718000000000,"state":"active","ping":58},{"user_id":479,"name":"Periculosum PhD in Funny","steam_id":76561198123370914,"connected_time":12164000000000,"state":"active","ping":95},{"user_id":627,"name":"(TTV) The_Astrum_Guardian","steam_id":76561198130134103,"connected_time":6491000000000,"state":"active","ping":64},{"user_id":666,"name":"Nicejoshua48","steam_id":76561198068277321,"connected_time":3596000000000,"state":"active","ping":92},{"user_id":680,"name":"Hautboi","steam_id":76561199012329221,"connected_time":2711000000000,"state":"active","ping":63}]},{"server_id":14,"name":"Uncletopia | New York City | 2 | All Maps","name_short":"nyc-2","host":"nyc-1.us.uncletopia.com","port":27025,"enabled":true,"region":"us-east","cc":"us","latitude":40.73061,"longitude":-73.93524,"reserved":0,"last_update":"0001-01-01T00:00:00Z","name_a2s":"Uncletopia | New York City | 2 | All Maps","protocol":17,"map":"pl_frontier_final","folder":"tf","game":"Team Fortress","app_id":440,"player_count":24,"max_players":24,"Bots":0,"server_type":"Dedicated","server_os":"Linux","password":true,"vac":true,"version":"7882260","steam_id":85568392924469994,"keywords":["nocrits","nodmgspread","payload","uncletopia"],"game_id":440,"stv_port":27026,"stv_name":"Uncletopia | New York City | 2 | All Maps | STV","players":[{"user_id":318,"name":"Arctic","steam_id":76561199134893517,"connected_time":455000000000,"state":"active","ping":117},{"user_id":285,"name":"Femtofarad","steam_id":76561198308583053,"connected_time":2330000000000,"state":"active","ping":69},{"user_id":314,"name":"drdoofus123","steam_id":76561198016826181,"connected_time":552000000000,"state":"active","ping":61},{"user_id":290,"name":"Oneal","steam_id":76561198026564095,"connected_time":2108000000000,"state":"active","ping":57},{"user_id":293,"name":"Remmy","steam_id":76561198268857418,"connected_time":1754000000000,"state":"active","ping":59},{"user_id":315,"name":"jibby🤔","steam_id":76561198046872382,"connected_time":525000000000,"state":"active","ping":59},{"user_id":308,"name":"Yongle","steam_id":76561198068591156,"connected_time":1054000000000,"state":"active","ping":67},{"user_id":274,"name":"That_shroomy_boi","steam_id":76561199107324153,"connected_time":3380000000000,"state":"active","ping":83},{"user_id":275,"name":"86","steam_id":76561198843258044,"connected_time":3368000000000,"state":"active","ping":66},{"user_id":316,"name":"Skeleton Rick","steam_id":76561197988235877,"connected_time":525000000000,"state":"active","ping":112},{"user_id":280,"name":"Devon","steam_id":76561198151801996,"connected_time":3300000000000,"state":"active","ping":79},{"user_id":320,"name":"simpsons capitalist","steam_id":76561198054731676,"connected_time":261000000000,"state":"active","ping":67},{"user_id":313,"name":"wile","steam_id":76561198125261443,"connected_time":679000000000,"state":"active","ping":127},{"user_id":304,"name":"canadian birds","steam_id":76561198059466588,"connected_time":1320000000000,"state":"active","ping":53},{"user_id":227,"name":"Gentoo Linux Gaming","steam_id":76561197999657118,"connected_time":6808000000000,"state":"active","ping":65},{"user_id":300,"name":"∰","steam_id":76561198064424202,"connected_time":1535000000000,"state":"active","ping":45},{"user_id":321,"name":"lytewerk","steam_id":76561198002819791,"connected_time":247000000000,"state":"active","ping":92},{"user_id":211,"name":"uhooter","steam_id":76561198007829078,"connected_time":7781000000000,"state":"active","ping":60},{"user_id":305,"name":"Bigsumoslammer","steam_id":76561198044505076,"connected_time":1217000000000,"state":"active","ping":46},{"user_id":264,"name":"Cosmic sR","steam_id":76561198081738675,"connected_time":4243000000000,"state":"active","ping":77},{"user_id":297,"name":"Csquared","steam_id":76561198169038599,"connected_time":1669000000000,"state":"active","ping":133},{"user_id":312,"name":"dark_giant","steam_id":76561199476863735,"connected_time":705000000000,"state":"active","ping":49},{"user_id":310,"name":"Sableye","steam_id":76561198061247147,"connected_time":934000000000,"state":"active","ping":75},{"user_id":301,"name":"FrostHaunt","steam_id":76561199099386444,"connected_time":1470000000000,"state":"active","ping":62}]},{"server_id":15,"name":"Uncletopia | New York City | 3 | Stopwatch Beta","name_short":"nyc-3","host":"nyc-1.us.uncletopia.com","port":27035,"enabled":true,"region":"us-east","cc":"us","latitude":40.73061,"longitude":-73.93524,"reserved":0,"last_update":"0001-01-01T00:00:00Z","name_a2s":"Uncletopia | New York City | 3 | Stopwatch Beta","protocol":17,"map":"cp_process_final","folder":"tf","game":"Team Fortress","app_id":440,"player_count":12,"max_players":24,"Bots":0,"server_type":"Dedicated","server_os":"Linux","password":true,"vac":true,"version":"7882260","steam_id":85568392924742820,"keywords":["cp","nocrits","nodmgspread","uncletopia"],"game_id":440,"stv_port":27036,"stv_name":"Uncletopia | New York City | 3 | Stopwatch Beta | STV","players":[{"user_id":459,"name":"concrete_car","steam_id":76561198388207363,"connected_time":1420000000000,"state":"active","ping":69},{"user_id":472,"name":"Final_MarioXD","steam_id":76561199184862419,"connected_time":176000000000,"state":"active","ping":116},{"user_id":453,"name":"c9","steam_id":76561198136642793,"connected_time":2273000000000,"state":"active","ping":83},{"user_id":404,"name":"Freddie Mercury's Ghost","steam_id":76561198140320704,"connected_time":4439000000000,"state":"active","ping":82},{"user_id":424,"name":"theyre 8x worse than us","steam_id":76561198144766439,"connected_time":4051000000000,"state":"active","ping":70},{"user_id":469,"name":"Jesse Bear","steam_id":76561198217075305,"connected_time":391000000000,"state":"active","ping":69},{"user_id":405,"name":"Kenny","steam_id":76561198031540741,"connected_time":4429000000000,"state":"active","ping":108},{"user_id":406,"name":"Great Lord Fazzie","steam_id":76561198073628559,"connected_time":4412000000000,"state":"active","ping":123},{"user_id":468,"name":"Silver","steam_id":76561197994217357,"connected_time":485000000000,"state":"active","ping":130},{"user_id":437,"name":"Chilidestroy","steam_id":76561199101551797,"connected_time":2841000000000,"state":"active","ping":76},{"user_id":409,"name":"alpha turbochad sigma hypermale","steam_id":76561198200174751,"connected_time":4310000000000,"state":"active","ping":91},{"user_id":428,"name":"Wu Wei","steam_id":76561198128249535,"connected_time":4011000000000,"state":"active","ping":86}]},{"server_id":16,"name":"Uncletopia | New York City | 4 | Community","name_short":"nyc-4","host":"nyc-1.us.uncletopia.com","port":27045,"enabled":true,"region":"us-east","cc":"us","latitude":40.73061,"longitude":-73.93524,"reserved":0,"last_update":"0001-01-01T00:00:00Z","name_a2s":"Uncletopia | New York City | 4 | Community","protocol":17,"map":"workshop/koth_slaughter_rc1.ugc1712845210","folder":"tf","game":"Team Fortress","app_id":440,"player_count":0,"max_players":24,"Bots":0,"server_type":"Dedicated","server_os":"Linux","password":true,"vac":true,"version":"7882260","steam_id":85568392924742821,"keywords":["cp","nocrits","nodmgspread","uncletopia"],"game_id":440,"stv_port":27046,"stv_name":"Uncletopia | New York City | 4 | Community | STV","players":null},{"server_id":142,"name":"Uncletopia | São Paulo | 1 | All Maps","name_short":"sao-1","host":"sao-1.br.uncletopia.com","port":27015,"enabled":true,"region":"sa","cc":"br","latitude":-23.533773,"longitude":-46.62529,"reserved":0,"last_update":"0001-01-01T00:00:00Z","name_a2s":"Uncletopia | São Paulo | 1 | All Maps","protocol":17,"map":"koth_lakeside_final","folder":"tf","game":"Team Fortress","app_id":440,"player_count":0,"max_players":24,"Bots":0,"server_type":"Dedicated","server_os":"Linux","password":true,"vac":true,"version":"7882260","steam_id":85568392924469996,"keywords":["cp","nocrits","nodmgspread","uncletopia"],"game_id":440,"stv_port":27016,"stv_name":"Uncletopia | São Paulo | 1 | All Maps | STV","players":null},{"server_id":143,"name":"Uncletopia | São Paulo | 2 | All Maps","name_short":"sao-2","host":"sao-2.br.uncletopia.com","port":27015,"enabled":true,"region":"sa","cc":"br","latitude":-23.533773,"longitude":-46.62529,"reserved":0,"last_update":"0001-01-01T00:00:00Z","name_a2s":"Uncletopia | São Paulo | 2 | All Maps","protocol":17,"map":"koth_lakeside_final","folder":"tf","game":"Team Fortress","app_id":440,"player_count":0,"max_players":24,"Bots":0,"server_type":"Dedicated","server_os":"Linux","password":true,"vac":true,"version":"7882260","steam_id":85568392924485349,"keywords":["cp","nocrits","nodmgspread","uncletopia"],"game_id":440,"stv_port":27016,"stv_name":"Uncletopia | São Paulo | 2 | All Maps | STV","players":null},{"server_id":7,"name":"Uncletopia | Seattle | 1 | All Maps","name_short":"sea-1","host":"sea-1.us.uncletopia.com","port":27015,"enabled":true,"region":"us-west","cc":"us","latitude":47.608013,"longitude":-122.33517,"reserved":0,"last_update":"0001-01-01T00:00:00Z","name_a2s":"Uncletopia | Seattle | 1 | All Maps","protocol":17,"map":"pl_barnblitz","folder":"tf","game":"Team Fortress","app_id":440,"player_count":23,"max_players":24,"Bots":0,"server_type":"Dedicated","server_os":"Linux","password":true,"vac":true,"version":"7882260","steam_id":85568392924469997,"keywords":["nocrits","nodmgspread","payload","uncletopia"],"game_id":440,"stv_port":27016,"stv_name":"Uncletopia | Seattle | 1 | All Maps | STV","players":[{"user_id":692,"name":"TROY","steam_id":76561197983852176,"connected_time":4709000000000,"state":"active","ping":70},{"user_id":722,"name":"smeasly","steam_id":76561198028718812,"connected_time":1748000000000,"state":"active","ping":28},{"user_id":716,"name":"makeshift_burrito","steam_id":76561198042510825,"connected_time":2012000000000,"state":"active","ping":71},{"user_id":728,"name":"bbbbb","steam_id":76561198095480838,"connected_time":1142000000000,"state":"active","ping":71},{"user_id":721,"name":"Google","steam_id":76561198857237473,"connected_time":1844000000000,"state":"active","ping":53},{"user_id":733,"name":"nail","steam_id":76561198212969373,"connected_time":622000000000,"state":"active","ping":69},{"user_id":742,"name":"Snoogs","steam_id":76561198444880931,"connected_time":102000000000,"state":"active","ping":130},{"user_id":739,"name":"PigeonBurd","steam_id":76561198118798394,"connected_time":544000000000,"state":"active","ping":53},{"user_id":731,"name":"Hassium","steam_id":76561198162541373,"connected_time":692000000000,"state":"active","ping":58},{"user_id":715,"name":"SibilantSerpent","steam_id":76561198154488754,"connected_time":2524000000000,"state":"active","ping":57},{"user_id":730,"name":"gloobern","steam_id":76561198341190679,"connected_time":768000000000,"state":"active","ping":67},{"user_id":735,"name":"The Entire Population of Canada","steam_id":76561198090187112,"connected_time":591000000000,"state":"active","ping":120},{"user_id":719,"name":"fwoov","steam_id":76561198129166260,"connected_time":1957000000000,"state":"active","ping":86},{"user_id":703,"name":"Jolly","steam_id":76561198116357972,"connected_time":3678000000000,"state":"active","ping":69},{"user_id":736,"name":"Tom Skirrett","steam_id":76561198014600788,"connected_time":590000000000,"state":"active","ping":69},{"user_id":737,"name":"reymundo","steam_id":76561197989412830,"connected_time":588000000000,"state":"active","ping":90},{"user_id":711,"name":"cl4y","steam_id":76561198281197072,"connected_time":2778000000000,"state":"active","ping":123},{"user_id":741,"name":"Dim","steam_id":76561198061411324,"connected_time":146000000000,"state":"active","ping":127},{"user_id":738,"name":"Verily","steam_id":76561198200558318,"connected_time":586000000000,"state":"active","ping":114},{"user_id":666,"name":"♥haunti","steam_id":76561199235580556,"connected_time":7197000000000,"state":"active","ping":50},{"user_id":724,"name":"Crake","steam_id":76561198001959071,"connected_time":1602000000000,"state":"active","ping":61},{"user_id":740,"name":"Tungsten","steam_id":76561198312854342,"connected_time":508000000000,"state":"active","ping":70},{"user_id":743,"name":"h","steam_id":76561198868164815,"connected_time":84000000000,"state":"active","ping":59}]},{"server_id":119,"name":"Uncletopia | Seattle | 2 | All Maps","name_short":"sea-2","host":"sea-1.us.uncletopia.com","port":27025,"enabled":true,"region":"us-west","cc":"us","latitude":47.608013,"longitude":-122.33517,"reserved":0,"last_update":"0001-01-01T00:00:00Z","name_a2s":"Uncletopia | Seattle | 2 | All Maps","protocol":17,"map":"pl_barnblitz","folder":"tf","game":"Team Fortress","app_id":440,"player_count":24,"max_players":24,"Bots":0,"server_type":"Dedicated","server_os":"Linux","password":true,"vac":true,"version":"7882260","steam_id":85568392924469998,"keywords":["nocrits","nodmgspread","payload","uncletopia"],"game_id":440,"stv_port":27026,"stv_name":"Uncletopia | Seattle | 2 | All Maps | STV","players":[{"user_id":573,"name":"challen","steam_id":76561197961277967,"connected_time":416000000000,"state":"active","ping":63},{"user_id":560,"name":"It's a Doggydog World","steam_id":76561198018232414,"connected_time":1186000000000,"state":"active","ping":80},{"user_id":547,"name":"Howoriginal","steam_id":76561197993701184,"connected_time":2128000000000,"state":"active","ping":110},{"user_id":570,"name":"Lucky_Shot","steam_id":76561199208835578,"connected_time":620000000000,"state":"active","ping":70},{"user_id":562,"name":"Little King Trash Mouth","steam_id":76561198241162728,"connected_time":1162000000000,"state":"active","ping":114},{"user_id":558,"name":"Juuichi11","steam_id":76561198141955085,"connected_time":1263000000000,"state":"active","ping":46},{"user_id":561,"name":"Lambchop","steam_id":76561198043900363,"connected_time":1184000000000,"state":"active","ping":75},{"user_id":574,"name":"pafijohn","steam_id":76561198002535190,"connected_time":406000000000,"state":"active","ping":69},{"user_id":575,"name":"The dreaded jar","steam_id":76561199087010656,"connected_time":355000000000,"state":"active","ping":57},{"user_id":504,"name":"Thanks Ants","steam_id":76561197966221018,"connected_time":4178000000000,"state":"active","ping":43},{"user_id":478,"name":"SnareString","steam_id":76561199082119457,"connected_time":5856000000000,"state":"active","ping":56},{"user_id":571,"name":"Long of Neck","steam_id":76561198038997485,"connected_time":606000000000,"state":"active","ping":124},{"user_id":533,"name":"llllllL","steam_id":76561198858474714,"connected_time":2765000000000,"state":"active","ping":54},{"user_id":577,"name":"Keamy","steam_id":76561199471434875,"connected_time":142000000000,"state":"active","ping":44},{"user_id":565,"name":".HareYarko","steam_id":76561197972617632,"connected_time":814000000000,"state":"active","ping":133},{"user_id":566,"name":"Amogous Supreme","steam_id":76561198025476774,"connected_time":778000000000,"state":"active","ping":72},{"user_id":524,"name":"Rose","steam_id":76561198955581861,"connected_time":2918000000000,"state":"active","ping":75},{"user_id":525,"name":"HazmatHarry_TTV","steam_id":76561199003107869,"connected_time":2916000000000,"state":"active","ping":68},{"user_id":578,"name":"♥ Milo Stefferson ♥ (Soupca","steam_id":76561198056269538,"connected_time":32000000000,"state":"active","ping":60},{"user_id":508,"name":"SolarusD","steam_id":76561198029279861,"connected_time":4128000000000,"state":"active","ping":64},{"user_id":576,"name":"Mapachito Lindo","steam_id":76561198031359995,"connected_time":204000000000,"state":"active","ping":45},{"user_id":552,"name":"stick","steam_id":76561198134334367,"connected_time":1610000000000,"state":"active","ping":101},{"user_id":572,"name":"Pah-Wraith Gul Dukat","steam_id":76561198033918106,"connected_time":586000000000,"state":"active","ping":78},{"user_id":556,"name":"Vincent Van Bro","steam_id":76561197966919802,"connected_time":1277000000000,"state":"active","ping":57}]},{"server_id":406,"name":"Uncletopia | Seattle | 3 | Stopwatch Beta","name_short":"sea-3","host":"sea-1.us.uncletopia.com","port":27035,"enabled":true,"region":"us-west","cc":"us","latitude":47.608013,"longitude":-122.33517,"reserved":0,"last_update":"0001-01-01T00:00:00Z","name_a2s":"Uncletopia | Seattle | 3 | Stopwatch Beta","protocol":17,"map":"cp_snakewater_final1","folder":"tf","game":"Team Fortress","app_id":440,"player_count":20,"max_players":24,"Bots":0,"server_type":"Dedicated","server_os":"Linux","password":true,"vac":true,"version":"7882260","steam_id":85568392924515217,"keywords":["cp","nocrits","nodmgspread","uncletopia"],"game_id":440,"stv_port":27036,"stv_name":"Uncletopia | Seattle | 3 | Stopwatch Beta | STV","players":[{"user_id":88,"name":"rye bread","steam_id":76561198067289381,"connected_time":276000000000,"state":"active","ping":97},{"user_id":87,"name":"BargainBinBastard","steam_id":76561198357388300,"connected_time":368000000000,"state":"active","ping":97},{"user_id":65,"name":"goldhed","steam_id":76561198051751133,"connected_time":1387000000000,"state":"active","ping":75},{"user_id":97,"name":"FaceLaces","steam_id":76561198194417725,"connected_time":14000000000,"state":"spawning","ping":71},{"user_id":89,"name":"UnusualTofu","steam_id":76561198060103750,"connected_time":256000000000,"state":"active","ping":76},{"user_id":81,"name":"Fizzz","steam_id":76561198097863181,"connected_time":609000000000,"state":"active","ping":121},{"user_id":74,"name":"FRANKY!!!","steam_id":76561199211305343,"connected_time":929000000000,"state":"active","ping":72},{"user_id":84,"name":"kn","steam_id":76561198388123421,"connected_time":519000000000,"state":"active","ping":74},{"user_id":90,"name":"odifin","steam_id":76561198081699142,"connected_time":231000000000,"state":"active","ping":107},{"user_id":91,"name":"checkswing","steam_id":76561198999816132,"connected_time":196000000000,"state":"active","ping":116},{"user_id":92,"name":"mango cafe","steam_id":76561198142328193,"connected_time":77000000000,"state":"active","ping":47},{"user_id":48,"name":"Banana Republic Heavy","steam_id":76561198279378368,"connected_time":2184000000000,"state":"active","ping":169},{"user_id":50,"name":"zeel107","steam_id":76561198063892990,"connected_time":1898000000000,"state":"active","ping":48},{"user_id":94,"name":"sobadorci","steam_id":76561198208627555,"connected_time":63000000000,"state":"spawning","ping":88},{"user_id":95,"name":"Jagermeister","steam_id":76561198103515747,"connected_time":62000000000,"state":"active","ping":62},{"user_id":96,"name":"Human_Duck_Box","steam_id":76561199216572071,"connected_time":58000000000,"state":"active","ping":50},{"user_id":57,"name":"ggjjpp360","steam_id":76561199275187032,"connected_time":1759000000000,"state":"active","ping":111},{"user_id":67,"name":"TTV Hunter","steam_id":76561198115812405,"connected_time":1186000000000,"state":"active","ping":117},{"user_id":68,"name":"🅜🅔🅔🅚🅢🅣🅔\ufffd\ufffd\ufffd","steam_id":76561197999748343,"connected_time":1182000000000,"state":"active","ping":89},{"user_id":70,"name":"down horrendous","steam_id":76561198093241352,"connected_time":1143000000000,"state":"active","ping":59}]},{"server_id":17,"name":"Uncletopia | San Francisco | 1 | All Maps","name_short":"sfo-1","host":"sfo-1.us.uncletopia.com","port":27015,"enabled":true,"region":"us-west","cc":"us","latitude":37.77397,"longitude":-122.4313,"reserved":0,"last_update":"0001-01-01T00:00:00Z","name_a2s":"Uncletopia | San Francisco | 1 | All Maps","protocol":17,"map":"pl_upward","folder":"tf","game":"Team Fortress","app_id":440,"player_count":24,"max_players":24,"Bots":0,"server_type":"Dedicated","server_os":"Linux","password":true,"vac":true,"version":"7882260","steam_id":85568392924469999,"keywords":["nocrits","nodmgspread","payload","uncletopia"],"game_id":440,"stv_port":27016,"stv_name":"Uncletopia | San Francisco | 1 | All Maps | STV","players":[{"user_id":206,"name":"Goodra Is The Best Dragon Type","steam_id":76561199194702127,"connected_time":3935000000000,"state":"active","ping":121},{"user_id":259,"name":"The Assistant Regional Manager","steam_id":76561199221484936,"connected_time":1018000000000,"state":"active","ping":71},{"user_id":260,"name":"ryghehn","steam_id":76561198195359229,"connected_time":1016000000000,"state":"active","ping":53},{"user_id":176,"name":"caRat","steam_id":76561198859267372,"connected_time":5315000000000,"state":"active","ping":113},{"user_id":229,"name":"Shamrock Shake Oct.10.2020 @8pm","steam_id":76561198833313201,"connected_time":2982000000000,"state":"active","ping":69},{"user_id":256,"name":"SomeFuckingGuy #SAVETF2","steam_id":76561199239165015,"connected_time":1064000000000,"state":"active","ping":75},{"user_id":261,"name":"Skip Hop Doo Bop","steam_id":76561199161571849,"connected_time":1004000000000,"state":"active","ping":45},{"user_id":263,"name":"Outrider","steam_id":76561198148385743,"connected_time":988000000000,"state":"active","ping":133},{"user_id":264,"name":"Rock under the sun","steam_id":76561198881093314,"connected_time":987000000000,"state":"active","ping":81},{"user_id":241,"name":"Flyingcat9000","steam_id":76561198179561797,"connected_time":2156000000000,"state":"active","ping":35},{"user_id":268,"name":"TF2C | fac -AA-","steam_id":76561198009818412,"connected_time":883000000000,"state":"active","ping":93},{"user_id":247,"name":"nory","steam_id":76561198031819070,"connected_time":1510000000000,"state":"active","ping":48},{"user_id":240,"name":"Caspian","steam_id":76561199041466962,"connected_time":2236000000000,"state":"active","ping":41},{"user_id":252,"name":"hosewater","steam_id":76561198023383126,"connected_time":1399000000000,"state":"active","ping":65},{"user_id":265,"name":"HideOnTate","steam_id":76561198209880837,"connected_time":981000000000,"state":"active","ping":72},{"user_id":253,"name":"Pyro","steam_id":76561198067663978,"connected_time":1365000000000,"state":"active","ping":61},{"user_id":248,"name":"CCNikova","steam_id":76561198398190933,"connected_time":1496000000000,"state":"active","ping":77},{"user_id":245,"name":"A Nyquil Chicken","steam_id":76561198344471115,"connected_time":1719000000000,"state":"active","ping":57},{"user_id":255,"name":"Artyom","steam_id":76561198152149679,"connected_time":1320000000000,"state":"active","ping":60},{"user_id":266,"name":"fart","steam_id":76561198206922028,"connected_time":965000000000,"state":"active","ping":65},{"user_id":243,"name":"Sorasonic","steam_id":76561198042463115,"connected_time":1941000000000,"state":"active","ping":56},{"user_id":254,"name":"Ad3ptus","steam_id":76561198272045750,"connected_time":1363000000000,"state":"active","ping":57},{"user_id":267,"name":"TheAlphaDoor","steam_id":76561198336551859,"connected_time":956000000000,"state":"active","ping":38},{"user_id":270,"name":"CPTforever","steam_id":76561198237767198,"connected_time":330000000000,"state":"active","ping":45}]},{"server_id":18,"name":"Uncletopia | San Francisco | 2 | All Maps","name_short":"sfo-2","host":"sfo-1.us.uncletopia.com","port":27025,"enabled":true,"region":"us-west","cc":"us","latitude":37.77397,"longitude":-122.4313,"reserved":0,"last_update":"0001-01-01T00:00:00Z","name_a2s":"Uncletopia | San Francisco | 2 | All Maps","protocol":17,"map":"pl_badwater","folder":"tf","game":"Team Fortress","app_id":440,"player_count":0,"max_players":24,"Bots":0,"server_type":"Dedicated","server_os":"Linux","password":true,"vac":true,"version":"7882260","steam_id":85568392924470000,"keywords":["nocrits","nodmgspread","payload","uncletopia"],"game_id":440,"stv_port":27026,"stv_name":"Uncletopia | San Francisco | 2 | All Maps | STV","players":null},{"server_id":19,"name":"Uncletopia | San Francisco | 3 | Stopwatch Beta","name_short":"sfo-3","host":"sfo-1.us.uncletopia.com","port":27035,"enabled":true,"region":"us-west","cc":"us","latitude":37.77397,"longitude":-122.4313,"reserved":0,"last_update":"0001-01-01T00:00:00Z","name_a2s":"Uncletopia | San Francisco | 3 | Stopwatch Beta","protocol":17,"map":"pl_snowycoast","folder":"tf","game":"Team Fortress","app_id":440,"player_count":0,"max_players":24,"Bots":0,"server_type":"Dedicated","server_os":"Linux","password":true,"vac":true,"version":"7882260","steam_id":85568392924742824,"keywords":["nocrits","nodmgspread","payload","uncletopia"],"game_id":440,"stv_port":27036,"stv_name":"Uncletopia | San Francisco | 3 | Stopwatch Beta | STV","players":null},{"server_id":20,"name":"Uncletopia | San Francisco | 4 | Community","name_short":"sfo-4","host":"sfo-1.us.uncletopia.com","port":27045,"enabled":true,"region":"us-west","cc":"us","latitude":37.77397,"longitude":-122.4313,"reserved":0,"last_update":"0001-01-01T00:00:00Z","name_a2s":"Uncletopia | San Francisco | 4 | Community","protocol":17,"map":"workshop/koth_ramjam_rc1.ugc459778887","folder":"tf","game":"Team Fortress","app_id":440,"player_count":0,"max_players":24,"Bots":0,"server_type":"Dedicated","server_os":"Linux","password":true,"vac":true,"version":"7882260","steam_id":85568392924742826,"keywords":["cp","nocrits","nodmgspread","uncletopia"],"game_id":440,"stv_port":27046,"stv_name":"Uncletopia | San Francisco | 4 | Community | STV","players":null},{"server_id":141,"name":"Uncletopia | Sydney | 1 | All Maps","name_short":"syd-1","host":"syd-1.au.uncletopia.com","port":27015,"enabled":true,"region":"au","cc":"au","latitude":-33.865143,"longitude":151.2099,"reserved":0,"last_update":"0001-01-01T00:00:00Z","name_a2s":"Uncletopia | Sydney | 1 | All Maps","protocol":17,"map":"pl_frontier_final","folder":"tf","game":"Team Fortress","app_id":440,"player_count":0,"max_players":24,"Bots":0,"server_type":"Dedicated","server_os":"Linux","password":true,"vac":true,"version":"7882260","steam_id":85568392924470001,"keywords":["nocrits","nodmgspread","payload","uncletopia"],"game_id":440,"stv_port":27016,"stv_name":"Uncletopia | Sydney | 1 | All Maps | STV","players":null},{"server_id":123,"name":"Uncletopia | Sydney | 2 | All Maps","name_short":"syd-2","host":"syd-1.au.uncletopia.com","port":27025,"enabled":true,"region":"au","cc":"au","latitude":-33.865143,"longitude":151.2099,"reserved":0,"last_update":"0001-01-01T00:00:00Z","name_a2s":"Uncletopia | Sydney | 2 | All Maps","protocol":17,"map":"cp_process_final","folder":"tf","game":"Team Fortress","app_id":440,"player_count":0,"max_players":24,"Bots":0,"server_type":"Dedicated","server_os":"Linux","password":true,"vac":true,"version":"7882260","steam_id":85568392924470002,"keywords":["cp","nocrits","nodmgspread","uncletopia"],"game_id":440,"stv_port":27026,"stv_name":"Uncletopia | Sydney | 2 | All Maps | STV","players":null},{"server_id":395,"name":"Uncletopia | Sydney | 3 | All Maps","name_short":"syd-3","host":"syd-1.au.uncletopia.com","port":27035,"enabled":true,"region":"au","cc":"au","latitude":-33.865143,"longitude":151.2099,"reserved":0,"last_update":"0001-01-01T00:00:00Z","name_a2s":"Uncletopia | Sydney | 3 | All Maps","protocol":17,"map":"pl_pier","folder":"tf","game":"Team Fortress","app_id":440,"player_count":0,"max_players":24,"Bots":0,"server_type":"Dedicated","server_os":"Linux","password":true,"vac":true,"version":"7882260","steam_id":85568392925194467,"keywords":["nocrits","nodmgspread","payload","uncletopia"],"game_id":440,"stv_port":27036,"stv_name":"Uncletopia | Sydney | 3 | All Maps | STV","players":null},{"server_id":396,"name":"Uncletopia | Sydney | 4 | All Maps","name_short":"syd-4","host":"syd-1.au.uncletopia.com","port":27045,"enabled":true,"region":"au","cc":"au","latitude":-33.865143,"longitude":151.2099,"reserved":0,"last_update":"0001-01-01T00:00:00Z","name_a2s":"Uncletopia | Sydney | 4 | All Maps","protocol":17,"map":"cp_mountainlab","folder":"tf","game":"Team Fortress","app_id":440,"player_count":0,"max_players":24,"Bots":0,"server_type":"Dedicated","server_os":"Linux","password":true,"vac":true,"version":"7882260","steam_id":85568392925397958,"keywords":["cp","nocrits","nodmgspread","uncletopia"],"game_id":440,"stv_port":27046,"stv_name":"Uncletopia | Sydney | 4 | All Maps | STV","players":null},{"server_id":58,"name":"Uncletopia | Sydney | 5 | Stopwatch Beta","name_short":"syd-5","host":"syd-1.au.uncletopia.com","port":27055,"enabled":true,"region":"au","cc":"au","latitude":-33.865143,"longitude":151.2099,"reserved":0,"last_update":"0001-01-01T00:00:00Z","name_a2s":"Uncletopia | Sydney | 5 | Stopwatch Beta","protocol":17,"map":"koth_viaduct","folder":"tf","game":"Team Fortress","app_id":440,"player_count":0,"max_players":24,"Bots":0,"server_type":"Dedicated","server_os":"Linux","password":true,"vac":true,"version":"7882260","steam_id":85568392925397959,"keywords":["cp","nocrits","nodmgspread","uncletopia"],"game_id":440,"stv_port":27056,"stv_name":"Uncletopia | Sydney | 5 | Stopwatch Beta | STV","players":null},{"server_id":59,"name":"Uncletopia | Sydney | 6 | Community","name_short":"syd-6","host":"syd-1.au.uncletopia.com","port":27065,"enabled":true,"region":"au","cc":"au","latitude":-33.865143,"longitude":151.2099,"reserved":0,"last_update":"0001-01-01T00:00:00Z","name_a2s":"Uncletopia | Sydney | 6 | Community","protocol":17,"map":"pl_upward","folder":"tf","game":"Team Fortress","app_id":440,"player_count":0,"max_players":24,"Bots":0,"server_type":"Dedicated","server_os":"Linux","password":true,"vac":true,"version":"7882260","steam_id":85568392925397960,"keywords":["nocrits","nodmgspread","payload","uncletopia"],"game_id":440,"stv_port":27066,"stv_name":"Uncletopia | Sydney | 6 | Community | STV","players":null},{"server_id":49,"name":"Uncletopia | Warsaw | 1 | All Maps","name_short":"waw-1","host":"waw-1.pl.uncletopia.com","port":27015,"enabled":true,"region":"eu","cc":"pl","latitude":52.2297,"longitude":21.017532,"reserved":0,"last_update":"0001-01-01T00:00:00Z","name_a2s":"","protocol":0,"map":"","folder":"","game":"","app_id":0,"player_count":0,"max_players":0,"Bots":0,"server_type":"","server_os":"","password":false,"vac":false,"version":"","steam_id":0,"keywords":null,"game_id":0,"stv_port":0,"stv_name":"","players":null},{"server_id":50,"name":"Uncletopia | Warsaw | 2 | All Maps","name_short":"waw-2","host":"waw-1.pl.uncletopia.com","port":27025,"enabled":true,"region":"eu","cc":"pl","latitude":52.2297,"longitude":21.017532,"reserved":0,"last_update":"0001-01-01T00:00:00Z","name_a2s":"Uncletopia | Warsaw | 2 | All Maps","protocol":17,"map":"pl_barnblitz","folder":"tf","game":"Team Fortress","app_id":440,"player_count":0,"max_players":24,"Bots":0,"server_type":"Dedicated","server_os":"Linux","password":true,"vac":true,"version":"7882260","steam_id":85568392925397851,"keywords":["nocrits","nodmgspread","payload","uncletopia"],"game_id":440,"stv_port":27026,"stv_name":"Uncletopia | Warsaw | 2 | All Maps | STV","players":null},{"server_id":51,"name":"Uncletopia | Warsaw | 3 | All Maps","name_short":"waw-3","host":"waw-1.pl.uncletopia.com","port":27035,"enabled":true,"region":"eu","cc":"pl","latitude":52.2297,"longitude":21.017532,"reserved":0,"last_update":"0001-01-01T00:00:00Z","name_a2s":"Uncletopia | Warsaw | 3 | All Maps","protocol":17,"map":"pl_borneo","folder":"tf","game":"Team Fortress","app_id":440,"player_count":0,"max_players":24,"Bots":0,"server_type":"Dedicated","server_os":"Linux","password":true,"vac":true,"version":"7882260","steam_id":85568392925397852,"keywords":["nocrits","nodmgspread","payload","uncletopia"],"game_id":440,"stv_port":27036,"stv_name":"Uncletopia | Warsaw | 3 | All Maps | STV","players":null},{"server_id":52,"name":"Uncletopia | Warsaw | 4 | All Maps","name_short":"waw-4","host":"waw-1.pl.uncletopia.com","port":27045,"enabled":true,"region":"eu","cc":"pl","latitude":52.2297,"longitude":21.017532,"reserved":0,"last_update":"0001-01-01T00:00:00Z","name_a2s":"Uncletopia | Warsaw | 4 | All Maps","protocol":17,"map":"pl_snowycoast","folder":"tf","game":"Team Fortress","app_id":440,"player_count":0,"max_players":24,"Bots":0,"server_type":"Dedicated","server_os":"Linux","password":true,"vac":true,"version":"7882260","steam_id":85568392925397853,"keywords":["nocrits","nodmgspread","payload","uncletopia"],"game_id":440,"stv_port":27046,"stv_name":"Uncletopia | Warsaw | 4 | All Maps | STV","players":null},{"server_id":53,"name":"Uncletopia | Warsaw | 5 | Stopwatch Beta","name_short":"waw-5","host":"waw-1.pl.uncletopia.com","port":27055,"enabled":true,"region":"eu","cc":"pl","latitude":52.2297,"longitude":21.017532,"reserved":0,"last_update":"0001-01-01T00:00:00Z","name_a2s":"Uncletopia | Warsaw | 5 | Stopwatch Beta","protocol":17,"map":"koth_highpass","folder":"tf","game":"Team Fortress","app_id":440,"player_count":0,"max_players":24,"Bots":0,"server_type":"Dedicated","server_os":"Linux","password":true,"vac":true,"version":"7882260","steam_id":85568392925397854,"keywords":["cp","nocrits","nodmgspread","uncletopia"],"game_id":440,"stv_port":27056,"stv_name":"Uncletopia | Warsaw | 5 | Stopwatch Beta | STV","players":null},{"server_id":54,"name":"Uncletopia | Warsaw | 6 | Community","name_short":"waw-6","host":"waw-1.pl.uncletopia.com","port":27065,"enabled":true,"region":"eu","cc":"pl","latitude":52.2297,"longitude":21.017532,"reserved":0,"last_update":"0001-01-01T00:00:00Z","name_a2s":"Uncletopia | Warsaw | 6 | Community","protocol":17,"map":"workshop/koth_trenchfoot_b1a.ugc731436616","folder":"tf","game":"Team Fortress","app_id":440,"player_count":0,"max_players":24,"Bots":0,"server_type":"Dedicated","server_os":"Linux","password":true,"vac":true,"version":"7882260","steam_id":85568392925397856,"keywords":["cp","nocrits","nodmgspread","uncletopia"],"game_id":440,"stv_port":27066,"stv_name":"Uncletopia | Warsaw | 6 | Community | STV","players":null}]}