{"status":true,"message":"","result":[{"server_id":9,"name":"Uncletopia | Atlanta | 1 | All Maps","name_short":"atl-1","host":"atl-1.us.uncletopia.com","port":27015,"enabled":true,"region":"us-east","cc":"us","latitude":33.753746,"longitude":-84.38633,"reserved":0,"last_update":"0001-01-01T00:00:00Z","name_a2s":"Uncletopia | Atlanta | 1 | All Maps","protocol":17,"map":"pl_snowycoast","folder":"tf","game":"Team Fortress","app_id":440,"player_count":24,"max_players":24,"Bots":0,"server_type":"Dedicated","server_os":"Linux","password":true,"vac":true,"version":"7961495","steam_id":85568392924469982,"keywords":["nocrits","nodmgspread","payload","uncletopia"],"game_id":440,"stv_port":27016,"stv_name":"Uncletopia | Atlanta | 1 | All Maps | STV","players":[{"user_id":512,"name":"ATL1 | cola","steam_id":76561198374390458,"connected_time":5338000000000,"state":"active","ping":61},{"user_id":486,"name":"gesture jester","steam_id":76561198850632709,"connected_time":6766000000000,"state":"active","ping":72},{"user_id":510,"name":"ash","steam_id":76561198127890645,"connected_time":5478000000000,"state":"active","ping":66},{"user_id":561,"name":"kashroomski","steam_id":76561198057076267,"connected_time":1998000000000,"state":"active","ping":93},{"user_id":556,"name":"CoffeeZombee","steam_id":76561198172708053,"connected_time":2226000000000,"state":"active","ping":62},{"user_id":552,"name":"hyazz","steam_id":76561199100342013,"connected_time":2642000000000,"state":"active","ping":93},{"user_id":564,"name":"lil hog","steam_id":76561199230929836,"connected_time":1410000000000,"state":"active","ping":80},{"user_id":540,"name":"FEBLUCAXZ","steam_id":76561198355845884,"connected_time":3391000000000,"state":"active","ping":105},{"user_id":565,"name":"chexo4","steam_id":76561198150532531,"connected_time":1408000000000,"state":"active","ping":54},{"user_id":536,"name":"rose","steam_id":76561198048882285,"connected_time":3703000000000,"state":"active","ping":63},{"user_id":499,"name":"Le4n!!!","steam_id":76561198045522596,"connected_time":5947000000000,"state":"active","ping":70},{"user_id":524,"name":"Hugs","steam_id":76561198062726277,"connected_time":4920000000000,"state":"active","ping":74},{"user_id":569,"name":"frog from pond","steam_id":76561198184900753,"connected_time":1303000000000,"state":"active","ping":75},{"user_id":523,"name":"luxin","steam_id":76561198399383047,"connected_time":4923000000000,"state":"active","ping":60},{"user_id":566,"name":"Grandpa´s Last Drop of Cum","steam_id":76561198079516696,"connected_time":1405000000000,"state":"active","ping":98},{"user_id":548,"name":"Heathcliff","steam_id":76561198044288534,"connected_time":2851000000000,"state":"active","ping":80},{"user_id":537,"name":"bkiller","steam_id":76561198029265697,"connected_time":3408000000000,"state":"active","ping":60},{"user_id":539,"name":"Sophie","steam_id":76561198170408057,"connected_time":3397000000000,"state":"active","ping":58},{"user_id":461,"name":"Nickorea","steam_id":76561198025784788,"connected_time":8074000000000,"state":"active","ping":61},{"user_id":525,"name":"xdab","steam_id":76561198086904171,"connected_time":4919000000000,"state":"active","ping":45},{"user_id":570,"name":"Dreszerg","steam_id":76561198838757422,"connected_time":1062000000000,"state":"active","ping":81},{"user_id":572,"name":"why","steam_id":76561199059732212,"connected_time":441000000000,"state":"active","ping":60},{"user_id":535,"name":"punchy","steam_id":76561198200000641,"connected_time":4299000000000,"state":"active","ping":60},{"user_id":573,"name":"Decolour","steam_id":76561199045608372,"connected_time":280000000000,"state":"active","ping":81}]},{"server_id":104,"name":"Uncletopia | Atlanta | 2 | All Maps","name_short":"atl-2","host":"atl-1.us.uncletopia.com","port":27025,"enabled":true,"region":"us-east","cc":"us","latitude":33.753746,"longitude":-84.38633,"reserved":0,"last_update":"0001-01-01T00:00:00Z","name_a2s":"Uncletopia | Atlanta | 2 | All Maps","protocol":17,"map":"ctf_turbine","folder":"tf","game":"Team Fortress","app_id":440,"player_count":23,"max_players":24,"Bots":0,"server_type":"Dedicated","server_os":"Linux","password":true,"vac":true,"version":"7961495","steam_id":85568392924469983,"keywords":["ctf","nocrits","nodmgspread","uncletopia"],"game_id":440,"stv_port":27026,"stv_name":"Uncletopia | Atlanta | 2 | All Maps | STV","players":[{"user_id":671,"name":"DivineBanana","steam_id":76561198026529731,"connected_time":2268000000000,"state":"active","ping":87},{"user_id":656,"name":"Lifial","steam_id":76561198271885819,"connected_time":3002000000000,"state":"active","ping":82},{"user_id":657,"name":"menonamed","steam_id":76561198199564382,"connected_time":2989000000000,"state":"active","ping":67},{"user_id":682,"name":"Sauce","steam_id":76561198398722419,"connected_time":1091000000000,"state":"active","ping":86},{"user_id":695,"name":"Coms","steam_id":76561198204995668,"connected_time":795000000000,"state":"active","ping":78},{"user_id":697,"name":"Lone_Bacon2","steam_id":76561198067488643,"connected_time":453000000000,"state":"active","ping":94},{"user_id":639,"name":"Almonicus","steam_id":76561198044401351,"connected_time":4333000000000,"state":"active","ping":89},{"user_id":633,"name":"Aku+","steam_id":76561198813782795,"connected_time":5210000000000,"state":"active","ping":159},{"user_id":644,"name":"Sultry Citrus","steam_id":76561198043985536,"connected_time":4247000000000,"state":"active","ping":84},{"user_id":698,"name":"Minislaughtr","steam_id":76561198044481155,"connected_time":434000000000,"state":"active","ping":99},{"user_id":640,"name":"Brad Bones","steam_id":76561198068129320,"connected_time":4320000000000,"state":"active","ping":74},{"user_id":699,"name":"4pi3","steam_id":76561199093363610,"connected_time":296000000000,"state":"active","ping":72},{"user_id":674,"name":"Monkey Mode","steam_id":76561197961267543,"connected_time":1793000000000,"state":"active","ping":49},{"user_id":664,"name":"floppy muppet","steam_id":76561198003076261,"connected_time":2784000000000,"state":"active","ping":60},{"user_id":632,"name":"Killbasa","steam_id":76561198064868400,"connected_time":5373000000000,"state":"active","ping":88},{"user_id":659,"name":"LiMPs","steam_id":76561198176806234,"connected_time":2900000000000,"state":"active","ping":68},{"user_id":669,"name":"DDB of the Stars","steam_id":76561198013680660,"connected_time":2409000000000,"state":"active","ping":63},{"user_id":645,"name":"Oxygen User","steam_id":76561199111975528,"connected_time":4099000000000,"state":"active","ping":71},{"user_id":677,"name":"FrostStorm","steam_id":76561198142685151,"connected_time":1372000000000,"state":"active","ping":86},{"user_id":685,"name":"Papa Chef","steam_id":76561198254604476,"connected_time":1021000000000,"state":"active","ping":172},{"user_id":694,"name":"who_dis?","steam_id":76561199156798560,"connected_time":837000000000,"state":"active","ping":97},{"user_id":585,"name":"Gungus Dingaling","steam_id":76561198018270898,"connected_time":8970000000000,"state":"active","ping":72},{"user_id":670,"name":"Tang","steam_id":76561198121340574,"connected_time":2373000000000,"state":"active","ping":99}]},{"server_id":400,"name":"Uncletopia | Atlanta | 3 | Stopwatch","name_short":"atl-3","host":"atl-1.us.uncletopia.com","port":27035,"enabled":true,"region":"us-east","cc":"us","latitude":33.753746,"longitude":-84.38633,"reserved":0,"last_update":"0001-01-01T00:00:00Z","name_a2s":"Uncletopia | Atlanta | 3 | Stopwatch","protocol":17,"map":"cp_gullywash_final1","folder":"tf","game":"Team Fortress","app_id":440,"player_count":0,"max_players":24,"Bots":0,"server_type":"Dedicated","server_os":"Linux","password":true,"vac":true,"version":"7961495","steam_id":85568392924515187,"keywords":["cp","nocrits","nodmgspread","uncletopia"],"game_id":440,"stv_port":27036,"stv_name":"Uncletopia | Atlanta | 3 | Stopwatch | STV","players":null},{"server_id":401,"name":"Uncletopia | Atlanta | 4 | Community","name_short":"atl-4","host":"atl-1.us.uncletopia.com","port":27045,"enabled":true,"region":"us-east","cc":"us","latitude":33.753746,"longitude":-84.38633,"reserved":0,"last_update":"0001-01-01T00:00:00Z","name_a2s":"Uncletopia | Atlanta | 4 | Community","protocol":17,"map":"workshop/koth_slaughter_rc1.ugc1712845210","folder":"tf","game":"Team Fortress","app_id":440,"player_count":0,"max_players":24,"Bots":0,"server_type":"Dedicated","server_os":"Linux","password":true,"vac":true,"version":"7961495","steam_id":85568392924515188,"keywords":["cp","nocrits","nodmgspread","uncletopia"],"game_id":440,"stv_port":27046,"stv_name":"Uncletopia | Atlanta | 4 | Community | STV","players":null},{"server_id":2,"name":"Uncletopia | Chicago | 1 | All Maps","name_short":"chi-1","host":"chi-1.us.uncletopia.com","port":27015,"enabled":true,"region":"us-central","cc":"us","latitude":41.881832,"longitude":-87.62318,"reserved":0,"last_update":"0001-01-01T00:00:00Z","name_a2s":"Uncletopia | Chicago | 1 | All Maps","protocol":17,"map":"pl_upward","folder":"tf","game":"Team Fortress","app_id":440,"player_count":24,"max_players":24,"Bots":0,"server_type":"Dedicated","server_os":"Linux","password":true,"vac":true,"version":"7961495","steam_id":85568392924469984,"keywords":["nocrits","nodmgspread","payload","uncletopia"],"game_id":440,"stv_port":27016,"stv_name":"Uncletopia | Chicago | 1 | All Maps | STV","players":[{"user_id":665,"name":"Glowington","steam_id":76561198152007695,"connected_time":2795000000000,"state":"active","ping":57},{"user_id":712,"name":"slushie","steam_id":76561199031270716,"connected_time":359000000000,"state":"active","ping":86},{"user_id":701,"name":"auts","steam_id":76561198055198646,"connected_time":614000000000,"state":"active","ping":74},{"user_id":659,"name":"sleepyhead","steam_id":76561199489506838,"connected_time":3009000000000,"state":"active","ping":66},{"user_id":667,"name":"season xiii prediction spreadsh","steam_id":76561198079416036,"connected_time":2726000000000,"state":"active","ping":42},{"user_id":715,"name":"blonk-182","steam_id":76561198035304483,"connected_time":323000000000,"state":"active","ping":45},{"user_id":718,"name":"Zezzdr","steam_id":76561198135844269,"connected_time":61000000000,"state":"active","ping":60},{"user_id":683,"name":"OH BOY","steam_id":76561199052273428,"connected_time":2159000000000,"state":"active","ping":50},{"user_id":679,"name":"Pineapple Wax","steam_id":76561198064358218,"connected_time":2386000000000,"state":"active","ping":49},{"user_id":698,"name":"mechiimi ★","steam_id":76561198321627268,"connected_time":751000000000,"state":"active","ping":122},{"user_id":707,"name":"Gorf","steam_id":76561199060557282,"connected_time":495000000000,"state":"active","ping":71},{"user_id":688,"name":"bluntsmoker1829","steam_id":76561198238451764,"connected_time":1441000000000,"state":"active","ping":76},{"user_id":717,"name":"YouR dad","steam_id":76561198044013623,"connected_time":270000000000,"state":"active","ping":69},{"user_id":704,"name":"kite","steam_id":76561198346516392,"connected_time":576000000000,"state":"active","ping":72},{"user_id":664,"name":"Xx_gam3rberg_xX","steam_id":76561199035781025,"connected_time":2803000000000,"state":"active","ping":113},{"user_id":705,"name":"Data","steam_id":76561197996329548,"connected_time":576000000000,"state":"active","ping":74},{"user_id":668,"name":"LuckyTaco","steam_id":76561198871931383,"connected_time":2701000000000,"state":"active","ping":75},{"user_id":644,"name":"better than dusterdan","steam_id":76561198201259645,"connected_time":4634000000000,"state":"active","ping":70},{"user_id":714,"name":"Sk311","steam_id":76561197973249315,"connected_time":339000000000,"state":"active","ping":67},{"user_id":691,"name":"lolfreyja","steam_id":76561198249206656,"connected_time":1317000000000,"state":"active","ping":69},{"user_id":686,"name":"joseph stalin","steam_id":76561199230441293,"connected_time":1545000000000,"state":"active","ping":82},{"user_id":716,"name":"YummerBummer","steam_id":76561198094773987,"connected_time":322000000000,"state":"active","ping":73},{"user_id":663,"name":"chubbs","steam_id":76561198039267516,"connected_time":2814000000000,"state":"active","ping":95},{"user_id":693,"name":"w a l k  q u i e t","steam_id":76561198143453873,"connected_time":1302000000000,"state":"active","ping":60}]},{"server_id":106,"name":"Uncletopia | Chicago | 2 | All Maps","name_short":"chi-2","host":"chi-1.us.uncletopia.com","port":27025,"enabled":true,"region":"us-central","cc":"us","latitude":41.881832,"longitude":-87.62318,"reserved":0,"last_update":"0001-01-01T00:00:00Z","name_a2s":"Uncletopia | Chicago | 2 | All Maps","protocol":17,"map":"pl_thundermountain","folder":"tf","game":"Team Fortress","app_id":440,"player_count":24,"max_players":24,"Bots":0,"server_type":"Dedicated","server_os":"Linux","password":true,"vac":true,"version":"7961495","steam_id":85568392924469985,"keywords":["nocrits","nodmgspread","payload","uncletopia"],"game_id":440,"stv_port":27026,"stv_name":"Uncletopia | Chicago | 2 | All Maps | STV","players":[{"user_id":525,"name":"RUF","steam_id":76561198062315805,"connected_time":2728000000000,"state":"active","ping":101},{"user_id":539,"name":"Oh, it's Zach","steam_id":76561198103309672,"connected_time":2010000000000,"state":"active","ping":54},{"user_id":555,"name":"bobby  peanstalk","steam_id":76561198040495463,"connected_time":578000000000,"state":"active","ping":48},{"user_id":532,"name":"beta central","steam_id":76561198301876831,"connected_time":2563000000000,"state":"active","ping":58},{"user_id":545,"name":"VioletSpecs (She/Her)","steam_id":76561198089366466,"connected_time":1631000000000,"state":"active","ping":73},{"user_id":556,"name":"Praxeas Busybody","steam_id":76561198035618952,"connected_time":222000000000,"state":"active","ping":64},{"user_id":547,"name":"Gram Tokers Count Doinkula","steam_id":76561198112811565,"connected_time":1049000000000,"state":"active","ping":74},{"user_id":510,"name":"nomai","steam_id":76561198076201225,"connected_time":4112000000000,"state":"active","ping":102},{"user_id":535,"name":"Fungus","steam_id":76561198111940278,"connected_time":2459000000000,"state":"active","ping":55},{"user_id":558,"name":"fartzilla","steam_id":76561198057116531,"connected_time":90000000000,"state":"active","ping":55},{"user_id":550,"name":"Der Krieger105","steam_id":76561197978384609,"connected_time":1013000000000,"state":"active","ping":87},{"user_id":548,"name":"EvilMrPotoo ｡◕‿◕｡","steam_id":76561198012566870,"connected_time":1048000000000,"state":"active","ping":60},{"user_id":536,"name":"concrete_car","steam_id":76561198388207363,"connected_time":2452000000000,"state":"active","ping":88},{"user_id":503,"name":"Emmagination","steam_id":76561198107217884,"connected_time":5303000000000,"state":"active","ping":116},{"user_id":549,"name":"TheDon","steam_id":76561198384811047,"connected_time":1047000000000,"state":"active","ping":80},{"user_id":529,"name":"THE FOOL","steam_id":76561198243965308,"connected_time":2659000000000,"state":"active","ping":100},{"user_id":509,"name":"hearthian","steam_id":76561198113235260,"connected_time":4213000000000,"state":"active","ping":101},{"user_id":530,"name":"Yarman53","steam_id":76561198099889202,"connected_time":2648000000000,"state":"active","ping":38},{"user_id":511,"name":"VisciousPotato","steam_id":76561198992859414,"connected_time":3891000000000,"state":"active","ping":56},{"user_id":553,"name":"daffodil","steam_id":76561198049480053,"connected_time":805000000000,"state":"active","ping":61},{"user_id":533,"name":"SpockASD","steam_id":76561198830243167,"connected_time":2558000000000,"state":"active","ping":74},{"user_id":537,"name":"Zlati","steam_id":76561198285458495,"connected_time":2362000000000,"state":"active","ping":70},{"user_id":540,"name":"YourDaddyBigBee","steam_id":76561198111503690,"connected_time":1952000000000,"state":"active","ping":81},{"user_id":554,"name":"Lia_Rein","steam_id":76561198151569597,"connected_time":777000000000,"state":"active","ping":140}]},{"server_id":402,"name":"Uncletopia | Chicago | 3 | All Maps","name_short":"chi-3","host":"chi-1.us.uncletopia.com","port":27035,"enabled":true,"region":"us-central","cc":"us","latitude":41.881832,"longitude":-87.62318,"reserved":0,"last_update":"0001-01-01T00:00:00Z","name_a2s":"Uncletopia | Chicago | 3 | All Maps","protocol":17,"map":"cp_gravelpit","folder":"tf","game":"Team Fortress","app_id":440,"player_count":24,"max_players":24,"Bots":0,"server_type":"Dedicated","server_os":"Linux","password":true,"vac":true,"version":"7961495","steam_id":85568392924515191,"keywords":["cp","nocrits","nodmgspread","uncletopia"],"game_id":440,"stv_port":27036,"stv_name":"Uncletopia | Chicago | 3 | All Maps | STV","players":[{"user_id":156,"name":"Furious George","steam_id":76561198405111646,"connected_time":3952000000000,"state":"active","ping":100},{"user_id":152,"name":"FOX News goblin","steam_id":76561198167648580,"connected_time":4017000000000,"state":"active","ping":81},{"user_id":231,"name":"Mick","steam_id":76561198972619900,"connected_time":467000000000,"state":"active","ping":72},{"user_id":229,"name":"M249 | Spectre","steam_id":76561198118334485,"connected_time":520000000000,"state":"active","ping":73},{"user_id":223,"name":"Honorificabilitudinitatibus","steam_id":76561198008301397,"connected_time":803000000000,"state":"active","ping":93},{"user_id":145,"name":"Soy King","steam_id":76561198263025614,"connected_time":5056000000000,"state":"active","ping":115},{"user_id":237,"name":"Sushi Cookies","steam_id":76561199008634102,"connected_time":100000000000,"state":"active","ping":71},{"user_id":236,"name":"ʕ•ᴥ•ʔ the bear","steam_id":76561197989591976,"connected_time":244000000000,"state":"active","ping":72},{"user_id":186,"name":"㋛ countblanc","steam_id":76561197993171771,"connected_time":1863000000000,"state":"active","ping":45},{"user_id":226,"name":"ballscratch69","steam_id":76561198065381038,"connected_time":766000000000,"state":"active","ping":78},{"user_id":234,"name":"Coach McFish","steam_id":76561198210456405,"connected_time":265000000000,"state":"active","ping":73},{"user_id":188,"name":"Ahhpple","steam_id":76561197993322448,"connected_time":1857000000000,"state":"active","ping":71},{"user_id":217,"name":"Walter Malone","steam_id":76561198078661356,"connected_time":1319000000000,"state":"active","ping":86},{"user_id":220,"name":"SpiritSai","steam_id":76561198019596591,"connected_time":887000000000,"state":"active","ping":68},{"user_id":235,"name":"BIG LION","steam_id":76561198091880358,"connected_time":259000000000,"state":"active","ping":43},{"user_id":238,"name":"PlasticPepsiCan","steam_id":76561199226783116,"connected_time":78000000000,"state":"active","ping":94},{"user_id":232,"name":"twix #IMSORRYGRAPEJUICE","steam_id":76561198040912048,"connected_time":305000000000,"state":"active","ping":59},{"user_id":228,"name":"mr beijing","steam_id":76561198044668836,"connected_time":622000000000,"state":"active","ping":110},{"user_id":227,"name":"Fried_Dough","steam_id":76561198068746207,"connected_time":766000000000,"state":"active","ping":82},{"user_id":168,"name":"bologna forklift 2012","steam_id":76561198199061206,"connected_time":3264000000000,"state":"active","ping":42},{"user_id":199,"name":"HybridAir","steam_id":76561198007906682,"connected_time":1653000000000,"state":"active","ping":71},{"user_id":233,"name":"The_BurritoMan","steam_id":76561199100959451,"connected_time":304000000000,"state":"active","ping":92},{"user_id":155,"name":"og biden pack cart","steam_id":76561198253731826,"connected_time":3984000000000,"state":"active","ping":59},{"user_id":196,"name":"BallBreaker","steam_id":76561198237263498,"connected_time":1725000000000,"state":"active","ping":100}]},{"server_id":403,"name":"Uncletopia | Chicago | 4 | All Maps","name_short":"chi-4","host":"chi-1.us.uncletopia.com","port":27045,"enabled":true,"region":"us-central","cc":"us","latitude":41.881832,"longitude":-87.62318,"reserved":0,"last_update":"0001-01-01T00:00:00Z","name_a2s":"Uncletopia | Chicago | 4 | All Maps","protocol":17,"map":"pl_upward","folder":"tf","game":"Team Fortress","app_id":440,"player_count":24,"max_players":24,"Bots":0,"server_type":"Dedicated","server_os":"Linux","password":true,"vac":true,"version":"7961495","steam_id":85568392924515193,"keywords":["nocrits","nodmgspread","payload","uncletopia"],"game_id":440,"stv_port":27046,"stv_name":"Uncletopia | Chicago | 4 | All Maps | STV","players":[{"user_id":185,"name":"Pyroshark","steam_id":76561198133599422,"connected_time":3969000000000,"state":"active","ping":70},{"user_id":270,"name":"UUUURT","steam_id":76561198047468140,"connected_time":51000000000,"state":"active","ping":84},{"user_id":266,"name":"Mtn. Mama","steam_id":76561198065752835,"connected_time":86000000000,"state":"active","ping":101},{"user_id":258,"name":"HeftyLefty","steam_id":76561199029631762,"connected_time":704000000000,"state":"active","ping":85},{"user_id":262,"name":"RealStanzy","steam_id":76561199060261003,"connected_time":139000000000,"state":"active","ping":70},{"user_id":257,"name":"Andrew's Taint","steam_id":76561198131400543,"connected_time":1025000000000,"state":"active","ping":74},{"user_id":261,"name":"Carson","steam_id":76561198076771071,"connected_time":150000000000,"state":"active","ping":46},{"user_id":254,"name":"Gimplor","steam_id":76561198336945932,"connected_time":1110000000000,"state":"active","ping":64},{"user_id":256,"name":"psi","steam_id":76561198061497429,"connected_time":1079000000000,"state":"active","ping":56},{"user_id":263,"name":"Xx_PR3TTY_R4VE_G!R1_xX","steam_id":76561199059016425,"connected_time":131000000000,"state":"active","ping":55},{"user_id":264,"name":"Wolfking450","steam_id":76561198399975373,"connected_time":104000000000,"state":"spawning","ping":74},{"user_id":259,"name":"Oogie (OddMonster)","steam_id":76561198026802918,"connected_time":572000000000,"state":"active","ping":86},{"user_id":265,"name":"Space Captainface","steam_id":76561197995103493,"connected_time":91000000000,"state":"active","ping":60},{"user_id":160,"name":"Shagbark","steam_id":76561198173447342,"connected_time":6269000000000,"state":"active","ping":80},{"user_id":253,"name":"Frontier Psychiatrist","steam_id":76561198038689088,"connected_time":1166000000000,"state":"active","ping":86},{"user_id":267,"name":"box","steam_id":76561198985635309,"connected_time":82000000000,"state":"active","ping":91},{"user_id":268,"name":"Comfy Monkey","steam_id":76561197998434936,"connected_time":79000000000,"state":"active","ping":55},{"user_id":88,"name":"Brawns","steam_id":76561198045190199,"connected_time":10863000000000,"state":"active","ping":77},{"user_id":214,"name":"Nexusuxen","steam_id":76561198117547131,"connected_time":1937000000000,"state":"active","ping":70},{"user_id":269,"name":"Johnny Lawrence #JohnnyMaxxing","steam_id":76561199367141671,"connected_time":70000000000,"state":"active","ping":61},{"user_id":216,"name":"lcy13vv","steam_id":76561197995997446,"connected_time":1924000000000,"state":"active","ping":52},{"user_id":144,"name":"Werm","steam_id":76561198149601897,"connected_time":7492000000000,"state":"active","ping":76},{"user_id":208,"name":"TacoMan4Life","steam_id":76561198832562728,"connected_time":3098000000000,"state":"active","ping":114},{"user_id":218,"name":"AMistake","steam_id":76561199379196708,"connected_time":1904000000000,"state":"active","ping":70}]},{"server_id":36,"name":"Uncletopia | Chicago | 5 | All Maps","name_short":"chi-5","host":"chi-2.us.uncletopia.com","port":27015,"enabled":true,"region":"us-central","cc":"us","latitude":41.881832,"longitude":-87.62318,"reserved":0,"last_update":"0001-01-01T00:00:00Z","name_a2s":"Uncletopia | Chicago | 5 | All Maps","protocol":17,"map":"pl_snowycoast","folder":"tf","game":"Team Fortress","app_id":440,"player_count":24,"max_players":24,"Bots":0,"server_type":"Dedicated","server_os":"Linux","password":true,"vac":true,"version":"7961495","steam_id":85568392924866362,"keywords":["nocrits","nodmgspread","payload","uncletopia"],"game_id":440,"stv_port":27016,"stv_name":"Uncletopia | Chicago | 5 | All Maps | STV","players":[{"user_id":197,"name":"sheeesh","steam_id":76561198038080028,"connected_time":248000000000,"state":"active","ping":68},{"user_id":169,"name":"Satan's Salad","steam_id":76561198043965827,"connected_time":2025000000000,"state":"active","ping":59},{"user_id":170,"name":"gIBBY","steam_id":76561198080099598,"connected_time":1919000000000,"state":"active","ping":57},{"user_id":189,"name":"guac","steam_id":76561198025481672,"connected_time":786000000000,"state":"active","ping":74},{"user_id":171,"name":"Dieu-Sama","steam_id":76561198002075862,"connected_time":1913000000000,"state":"active","ping":82},{"user_id":184,"name":"Fatpoob","steam_id":76561198056730096,"connected_time":1139000000000,"state":"active","ping":52},{"user_id":179,"name":"SPF420","steam_id":76561198083991705,"connected_time":1452000000000,"state":"active","ping":58},{"user_id":199,"name":"Tiny Desk Engineer","steam_id":76561199049784560,"connected_time":203000000000,"state":"active","ping":92},{"user_id":195,"name":"Mantis","steam_id":76561197964316152,"connected_time":282000000000,"state":"active","ping":78},{"user_id":186,"name":"ultralisk52","steam_id":76561198051666604,"connected_time":941000000000,"state":"active","ping":64},{"user_id":117,"name":"doughboy","steam_id":76561198219012928,"connected_time":4993000000000,"state":"active","ping":105},{"user_id":198,"name":"[DATS➡] Sugar Meowth","steam_id":76561197995251793,"connected_time":228000000000,"state":"active","ping":91},{"user_id":200,"name":"Minkma","steam_id":76561199190633474,"connected_time":186000000000,"state":"active","ping":85},{"user_id":201,"name":"vv","steam_id":76561198134813102,"connected_time":171000000000,"state":"active","ping":59},{"user_id":181,"name":"chok","steam_id":76561198242016100,"connected_time":1215000000000,"state":"active","ping":78},{"user_id":196,"name":"GreenApples","steam_id":76561198120559543,"connected_time":280000000000,"state":"active","ping":99},{"user_id":153,"name":"aisu","steam_id":76561198043768507,"connected_time":2927000000000,"state":"active","ping":62},{"user_id":154,"name":"Mburesh","steam_id":76561198137460717,"connected_time":2915000000000,"state":"active","ping":66},{"user_id":176,"name":"Kay ☭","steam_id":76561198353432576,"connected_time":1627000000000,"state":"active","ping":74},{"user_id":202,"name":"XKarma","steam_id":76561198262503116,"connected_time":168000000000,"state":"active","ping":67},{"user_id":172,"name":"really hot pocket","steam_id":76561198239297686,"connected_time":1878000000000,"state":"active","ping":70},{"user_id":168,"name":"Porkwich","steam_id":76561197995658313,"connected_time":2078000000000,"state":"active","ping":84},{"user_id":178,"name":"coda","steam_id":76561198092052685,"connected_time":1552000000000,"state":"active","ping":60},{"user_id":163,"name":"StudioMania (#SAVETF2)","steam_id":76561198211315795,"connected_time":2165000000000,"state":"active","ping":72}]},{"server_id":37,"name":"Uncletopia | Chicago | 6 | All Maps","name_short":"chi-6","host":"chi-2.us.uncletopia.com","port":27025,"enabled":true,"region":"us-central","cc":"us","latitude":41.881832,"longitude":-87.62318,"reserved":0,"last_update":"0001-01-01T00:00:00Z","name_a2s":"Uncletopia | Chicago | 6 | All Maps","protocol":17,"map":"pl_swiftwater_final1","folder":"tf","game":"Team Fortress","app_id":440,"player_count":24,"max_players":24,"Bots":0,"server_type":"Dedicated","server_os":"Linux","password":true,"vac":true,"version":"7961495","steam_id":85568392924866363,"keywords":["nocrits","nodmgspread","payload","uncletopia"],"game_id":440,"stv_port":27026,"stv_name":"Uncletopia | Chicago | 6 | All Maps | STV","players":[{"user_id":93,"name":"GoldtoothFour","steam_id":76561198055529332,"connected_time":345000000000,"state":"active","ping":54},{"user_id":95,"name":"Cucumber Gaming","steam_id":76561198982680715,"connected_time":131000000000,"state":"active","ping":51},{"user_id":78,"name":"swan","steam_id":76561198012569200,"connected_time":1370000000000,"state":"active","ping":75},{"user_id":28,"name":"Supr","steam_id":76561198093790672,"connected_time":4452000000000,"state":"active","ping":66},{"user_id":29,"name":"ProfessorCagan","steam_id":76561198141372356,"connected_time":4444000000000,"state":"active","ping":97},{"user_id":94,"name":"lukiss","steam_id":76561199134999203,"connected_time":171000000000,"state":"active","ping":87},{"user_id":91,"name":"MTGbigdog","steam_id":76561198838760637,"connected_time":579000000000,"state":"active","ping":87},{"user_id":96,"name":"Cast Iron Crusader","steam_id":76561198066384337,"connected_time":125000000000,"state":"active","ping":57},{"user_id":75,"name":"NeoWolf","steam_id":76561198144759784,"connected_time":1586000000000,"state":"active","ping":89},{"user_id":90,"name":"Rejectツ","steam_id":76561199232156472,"connected_time":661000000000,"state":"active","ping":92},{"user_id":99,"name":"she on my topia till i unck","steam_id":76561198398383076,"connected_time":5000000000,"state":"spawning","ping":83},{"user_id":97,"name":"RoboVampsRebecca","steam_id":76561198087675425,"connected_time":117000000000,"state":"active","ping":45},{"user_id":77,"name":"Fluff","steam_id":76561198978996425,"connected_time":1384000000000,"state":"active","ping":81},{"user_id":81,"name":"Adam (Cursed Confetti Creature)","steam_id":76561198317690197,"connected_time":1361000000000,"state":"active","ping":48},{"user_id":62,"name":"redarcher42","steam_id":76561199027887687,"connected_time":3084000000000,"state":"active","ping":82},{"user_id":53,"name":"Vaudeville Villain","steam_id":76561197991063996,"connected_time":3275000000000,"state":"active","ping":38},{"user_id":54,"name":"Ghost Dragon1122","steam_id":76561198201930302,"connected_time":3271000000000,"state":"active","ping":69},{"user_id":88,"name":"Neopyth","steam_id":76561198031868427,"connected_time":989000000000,"state":"active","ping":59},{"user_id":72,"name":"Thewaffleman141","steam_id":76561198083068694,"connected_time":2140000000000,"state":"active","ping":70},{"user_id":89,"name":"hoboways","steam_id":76561198168035195,"connected_time":789000000000,"state":"active","ping":79},{"user_id":98,"name":"Gugomo","steam_id":76561198121428316,"connected_time":92000000000,"state":"active","ping":100},{"user_id":74,"name":"xSloshua","steam_id":76561198268409369,"connected_time":1651000000000,"state":"active","ping":52},{"user_id":83,"name":"kris736","steam_id":76561198038208255,"connected_time":1298000000000,"state":"active","ping":55},{"user_id":84,"name":"Eins Shinigami","steam_id":76561199030343810,"connected_time":1294000000000,"state":"active","ping":108}]},{"server_id":38,"name":"Uncletopia | Chicago | 7 | Stopwatch","name_short":"chi-7","host":"chi-2.us.uncletopia.com","port":27035,"enabled":true,"region":"us-central","cc":"us","latitude":41.881832,"longitude":-87.62318,"reserved":0,"last_update":"0001-01-01T00:00:00Z","name_a2s":"Uncletopia | Chicago | 7 | Stopwatch","protocol":17,"map":"workshop/pl_vigil_rc10.ugc1266210012","folder":"tf","game":"Team Fortress","app_id":440,"player_count":4,"max_players":24,"Bots":0,"server_type":"Dedicated","server_os":"Linux","password":true,"vac":true,"version":"7961495","steam_id":85568392924866364,"keywords":["nocrits","nodmgspread","payload","uncletopia"],"game_id":440,"stv_port":27036,"stv_name":"Uncletopia | Chicago | 7 | Stopwatch | STV","players":[{"user_id":397,"name":"[Plotholers] odacovA","steam_id":76561199383345208,"connected_time":167000000000,"state":"active","ping":62},{"user_id":396,"name":"Aisforlike","steam_id":76561199482110668,"connected_time":237000000000,"state":"active","ping":62},{"user_id":390,"name":"Western_dragon","steam_id":76561198130456105,"connected_time":486000000000,"state":"active","ping":96},{"user_id":392,"name":"fine","steam_id":76561198054390505,"connected_time":394000000000,"state":"active","ping":46}]},{"server_id":39,"name":"Uncletopia | Chicago | 8 | Community","name_short":"chi-8","host":"chi-2.us.uncletopia.com","port":27045,"enabled":true,"region":"us-central","cc":"us","latitude":41.881832,"longitude":-87.62318,"reserved":0,"last_update":"0001-01-01T00:00:00Z","name_a2s":"Uncletopia | Chicago | 8 | Community","protocol":17,"map":"workshop/koth_synthetic_rc6a.ugc1549817316","folder":"tf","game":"Team Fortress","app_id":440,"player_count":0,"max_players":24,"Bots":0,"server_type":"Dedicated","server_os":"Linux","password":true,"vac":true,"version":"7961495","steam_id":85568392924866365,"keywords":["cp","nocrits","nodmgspread","uncletopia"],"game_id":440,"stv_port":27046,"stv_name":"Uncletopia | Chicago | 8 | Community | STV","players":null},{"server_id":8,"name":"Uncletopia | Dallas | 1 | All Maps","name_short":"dal-1","host":"dal-1.us.uncletopia.com","port":27015,"enabled":true,"region":"us-central","cc":"us","latitude":32.779167,"longitude":-96.80889,"reserved":0,"last_update":"0001-01-01T00:00:00Z","name_a2s":"Uncletopia | Dallas | 1 | All Maps","protocol":17,"map":"koth_lakeside_final","folder":"tf","game":"Team Fortress","app_id":440,"player_count":24,"max_players":24,"Bots":0,"server_type":"Dedicated","server_os":"Linux","password":true,"vac":true,"version":"7961495","steam_id":85568392924469986,"keywords":["cp","nocrits","nodmgspread","uncletopia"],"game_id":440,"stv_port":27016,"stv_name":"Uncletopia | Dallas | 1 | All Maps | STV","players":[{"user_id":135,"name":"ZILICON","steam_id":76561199044705592,"connected_time":207000000000,"state":"active","ping":108},{"user_id":102,"name":"Agent Bowtie","steam_id":76561198175839279,"connected_time":2594000000000,"state":"active","ping":61},{"user_id":133,"name":"momb","steam_id":76561198142234038,"connected_time":661000000000,"state":"active","ping":83},{"user_id":103,"name":"Syndra's Futa Balls","steam_id":76561198058671296,"connected_time":2587000000000,"state":"active","ping":62},{"user_id":59,"name":"Birby","steam_id":76561198884009768,"connected_time":4754000000000,"state":"active","ping":102},{"user_id":84,"name":"MrVast","steam_id":76561198094059897,"connected_time":4245000000000,"state":"active","ping":70},{"user_id":117,"name":"Wooden E","steam_id":76561198020308956,"connected_time":2100000000000,"state":"active","ping":65},{"user_id":121,"name":"NecroticHealer","steam_id":76561198031329332,"connected_time":1758000000000,"state":"active","ping":93},{"user_id":116,"name":"ape","steam_id":76561198997892462,"connected_time":2181000000000,"state":"active","ping":68},{"user_id":131,"name":"Caught a Thundah","steam_id":76561198054495572,"connected_time":743000000000,"state":"active","ping":49},{"user_id":129,"name":"nuttocks","steam_id":76561198042801618,"connected_time":1484000000000,"state":"active","ping":83},{"user_id":122,"name":"Gay ♂ Cat","steam_id":76561198011462710,"connected_time":1757000000000,"state":"active","ping":41},{"user_id":99,"name":"Naciwise","steam_id":76561198008459494,"connected_time":2775000000000,"state":"active","ping":91},{"user_id":104,"name":"Discount TaDa #SaveTF2 Repeat.g","steam_id":76561198340196737,"connected_time":2563000000000,"state":"active","ping":96},{"user_id":95,"name":"thai","steam_id":76561198052462287,"connected_time":3766000000000,"state":"active","ping":104},{"user_id":108,"name":"2kchr0","steam_id":76561198069681848,"connected_time":2389000000000,"state":"active","ping":162},{"user_id":100,"name":"Erectnophobia","steam_id":76561198053743602,"connected_time":2687000000000,"state":"active","ping":80},{"user_id":137,"name":"beans","steam_id":76561198061673313,"connected_time":85000000000,"state":"active","ping":59},{"user_id":134,"name":"PerliousFalcon","steam_id":76561198124801907,"connected_time":638000000000,"state":"active","ping":104},{"user_id":128,"name":"BitPieStudios","steam_id":76561198059216393,"connected_time":1499000000000,"state":"active","ping":89},{"user_id":114,"name":"Rafl","steam_id":76561198055222756,"connected_time":2284000000000,"state":"active","ping":48},{"user_id":136,"name":"NoobNoob","steam_id":76561198447655340,"connected_time":94000000000,"state":"active","ping":107},{"user_id":113,"name":"Bullwinkle J. Moose","steam_id":76561198075977196,"connected_time":2332000000000,"state":"active","ping":55},{"user_id":94,"name":"Viennetta","steam_id":76561198044088335,"connected_time":4019000000000,"state":"active","ping":87}]},{"server_id":108,"name":"Uncletopia | Dallas | 2 | All Maps","name_short":"dal-2","host":"dal-1.us.uncletopia.com","port":27025,"enabled":true,"region":"us-central","cc":"us","latitude":32.779167,"longitude":-96.80889,"reserved":0,"last_update":"0001-01-01T00:00:00Z","name_a2s":"Uncletopia | Dallas | 2 | All Maps","protocol":17,"map":"koth_cascade","folder":"tf","game":"Team Fortress","app_id":440,"player_count":24,"max_players":24,"Bots":0,"server_type":"Dedicated","server_os":"Linux","password":true,"vac":true,"version":"7961495","steam_id":85568392924469988,"keywords":["cp","nocrits","nodmgspread","uncletopia"],"game_id":440,"stv_port":27026,"stv_name":"Uncletopia | Dallas | 2 | All Maps | STV","players":[{"user_id":127,"name":"wajanta","steam_id":76561199040280852,"connected_time":8762000000000,"state":"active","ping":68},{"user_id":223,"name":"gerf.","steam_id":76561198811706201,"connected_time":3519000000000,"state":"active","ping":60},{"user_id":254,"name":"Drakon","steam_id":76561198078210822,"connected_time":2129000000000,"state":"active","ping":98},{"user_id":262,"name":"KANÉ","steam_id":76561198395892272,"connected_time":876000000000,"state":"active","ping":54},{"user_id":259,"name":"Crack Addict","steam_id":76561198166681494,"connected_time":985000000000,"state":"active","ping":58},{"user_id":257,"name":"HemoTox","steam_id":76561197999713466,"connected_time":1318000000000,"state":"active","ping":71},{"user_id":260,"name":"Karma","steam_id":76561198320530905,"connected_time":983000000000,"state":"active","ping":47},{"user_id":256,"name":"Howell at the Moon","steam_id":76561198060827426,"connected_time":1335000000000,"state":"active","ping":81},{"user_id":267,"name":"stuffedidiot","steam_id":76561199181513019,"connected_time":586000000000,"state":"active","ping":133},{"user_id":240,"name":"punk cock","steam_id":76561198418182764,"connected_time":2767000000000,"state":"active","ping":82},{"user_id":268,"name":"Dopefish","steam_id":76561197964755058,"connected_time":199000000000,"state":"active","ping":60},{"user_id":196,"name":"TheJosiahTurner","steam_id":76561198235740776,"connected_time":4925000000000,"state":"active","ping":45},{"user_id":206,"name":"Punished Shitster","steam_id":76561198150452857,"connected_time":4100000000000,"state":"active","ping":47},{"user_id":269,"name":"PROUD MUG MANIAC","steam_id":76561199231250776,"connected_time":185000000000,"state":"active","ping":72},{"user_id":218,"name":"dilfbot","steam_id":76561198099988165,"connected_time":3892000000000,"state":"active","ping":58},{"user_id":263,"name":"savage","steam_id":76561197990118340,"connected_time":870000000000,"state":"active","ping":64},{"user_id":261,"name":"gooch_masta","steam_id":76561198151578423,"connected_time":944000000000,"state":"active","ping":56},{"user_id":258,"name":"Neato!","steam_id":76561198043548668,"connected_time":1221000000000,"state":"active","ping":75},{"user_id":266,"name":"Rat Smacker","steam_id":76561198043629646,"connected_time":622000000000,"state":"active","ping":63},{"user_id":270,"name":"walmart clearance section","steam_id":76561198882986104,"connected_time":173000000000,"state":"active","ping":104},{"user_id":264,"name":"JimmyDribblerJibblerGribbler","steam_id":76561198274536607,"connected_time":841000000000,"state":"active","ping":92},{"user_id":209,"name":"Zero","steam_id":76561198033384990,"connected_time":4082000000000,"state":"active","ping":81},{"user_id":271,"name":"tomiz","steam_id":76561198827013832,"connected_time":167000000000,"state":"active","ping":87},{"user_id":174,"name":"fish (2:3)","steam_id":76561198134331073,"connected_time":6317000000000,"state":"active","ping":121}]},{"server_id":404,"name":"Uncletopia | Dallas | 3 | All Maps","name_short":"dal-3","host":"dal-1.us.uncletopia.com","port":27035,"enabled":true,"region":"us-central","cc":"us","latitude":32.779167,"longitude":-96.80889,"reserved":0,"last_update":"0001-01-01T00:00:00Z","name_a2s":"Uncletopia | Dallas | 3 | All Maps","protocol":17,"map":"koth_cascade","folder":"tf","game":"Team Fortress","app_id":440,"player_count":0,"max_players":24,"Bots":0,"server_type":"Dedicated","server_os":"Linux","password":true,"vac":true,"version":"7961495","steam_id":85568392924515219,"keywords":["cp","nocrits","nodmgspread","uncletopia"],"game_id":440,"stv_port":27036,"stv_name":"Uncletopia | Dallas | 3 | All Maps | STV","players":null},{"server_id":405,"name":"Uncletopia | Dallas | 4 | Community","name_short":"dal-4","host":"dal-1.us.uncletopia.com","port":27045,"enabled":true,"region":"us-central","cc":"us","latitude":32.779167,"longitude":-96.80889,"reserved":0,"last_update":"0001-01-01T00:00:00Z","name_a2s":"Uncletopia | Dallas | 4 | Community","protocol":17,"map":"workshop/pl_fifthcurve_rc1.ugc648227046","folder":"tf","game":"Team Fortress","app_id":440,"player_count":0,"max_players":24,"Bots":0,"server_type":"Dedicated","server_os":"Linux","password":true,"vac":true,"version":"7961495","steam_id":85568392924515220,"keywords":["nocrits","nodmgspread","payload","uncletopia"],"game_id":440,"stv_port":27046,"stv_name":"Uncletopia | Dallas | 4 | Community | STV","players":null},{"server_id":5,"name":"Uncletopia | Frankfurt | 1 | All Maps","name_short":"frk-1","host":"frk-1.de.uncletopia.com","port":27015,"enabled":true,"region":"eu","cc":"de","latitude":50.110924,"longitude":8.682127,"reserved":0,"last_update":"0001-01-01T00:00:00Z","name_a2s":"Uncletopia | Frankfurt | 1 | All Maps","protocol":17,"map":"koth_lakeside_final","folder":"tf","game":"Team Fortress","app_id":440,"player_count":0,"max_players":24,"Bots":0,"server_type":"Dedicated","server_os":"Linux","password":true,"vac":true,"version":"7961495","steam_id":85568392924469989,"keywords":["cp","nocrits","nodmgspread","uncletopia"],"game_id":440,"stv_port":27016,"stv_name":"Uncletopia | Frankfurt | 1 | All Maps | STV","players":null},{"server_id":110,"name":"Uncletopia | Frankfurt | 2 | All Maps","name_short":"frk-2","host":"frk-1.de.uncletopia.com","port":27025,"enabled":true,"region":"eu","cc":"de","latitude":50.110924,"longitude":8.682127,"reserved":0,"last_update":"0001-01-01T00:00:00Z","name_a2s":"Uncletopia | Frankfurt | 2 | All Maps","protocol":17,"map":"cp_snakewater_final1","folder":"tf","game":"Team Fortress","app_id":440,"player_count":0,"max_players":24,"Bots":0,"server_type":"Dedicated","server_os":"Linux","password":true,"vac":true,"version":"7961495","steam_id":85568392924469990,"keywords":["cp","nocrits","nodmgspread","uncletopia"],"game_id":440,"stv_port":27026,"stv_name":"Uncletopia | Frankfurt | 2 | All Maps | STV","players":null},{"server_id":308,"name":"Uncletopia | Frankfurt | 3 | All Maps","name_short":"frk-3","host":"frk-1.de.uncletopia.com","port":27035,"enabled":true,"region":"eu","cc":"de","latitude":50.110924,"longitude":8.682127,"reserved":0,"last_update":"0001-01-01T00:00:00Z","name_a2s":"Uncletopia | Frankfurt | 3 | All Maps","protocol":17,"map":"pl_barnblitz","folder":"tf","game":"Team Fortress","app_id":440,"player_count":0,"max_players":24,"Bots":0,"server_type":"Dedicated","server_os":"Linux","password":true,"vac":true,"version":"7961495","steam_id":85568392924504274,"keywords":["nocrits","nodmgspread","payload","uncletopia"],"game_id":440,"stv_port":27036,"stv_name":"Uncletopia | Frankfurt | 3 | All Maps | STV","players":null},{"server_id":309,"name":"Uncletopia | Frankfurt | 4 | All Maps","name_short":"frk-4","host":"frk-1.de.uncletopia.com","port":27045,"enabled":true,"region":"eu","cc":"de","latitude":50.110924,"longitude":8.682127,"reserved":0,"last_update":"0001-01-01T00:00:00Z","name_a2s":"Uncletopia | Frankfurt | 4 | All Maps","protocol":17,"map":"cp_steel","folder":"tf","game":"Team Fortress","app_id":440,"player_count":11,"max_players":24,"Bots":0,"server_type":"Dedicated","server_os":"Linux","password":true,"vac":true,"version":"7961495","steam_id":85568392924504275,"keywords":["cp","nocrits","nodmgspread","uncletopia"],"game_id":440,"stv_port":27046,"stv_name":"Uncletopia | Frankfurt | 4 | All Maps | STV","players":[{"user_id":718,"name":"jjkun786","steam_id":76561199438517484,"connected_time":2748000000000,"state":"active","ping":87},{"user_id":742,"name":"Montrose","steam_id":76561198338911736,"connected_time":636000000000,"state":"active","ping":163},{"user_id":749,"name":"gatl","steam_id":76561198116926545,"connected_time":172000000000,"state":"active","ping":61},{"user_id":731,"name":"Nittugai","steam_id":76561198067366462,"connected_time":1791000000000,"state":"active","ping":59},{"user_id":743,"name":"3lionz","steam_id":76561198026631106,"connected_time":559000000000,"state":"active","ping":59},{"user_id":729,"name":"Damn Dude","steam_id":76561198076373426,"connected_time":2097000000000,"state":"active","ping":92},{"user_id":721,"name":"bro.Scrub[MicBroke]","steam_id":76561197971095217,"connected_time":2655000000000,"state":"active","ping":80},{"user_id":722,"name":"SnareBreaker","steam_id":76561198854045058,"connected_time":2629000000000,"state":"active","ping":68},{"user_id":684,"name":"Doctor Marijuana","steam_id":76561198288289879,"connected_time":6416000000000,"state":"active","ping":62},{"user_id":734,"name":"Vahtn","steam_id":76561198163892793,"connected_time":1623000000000,"state":"active","ping":104},{"user_id":705,"name":"Iris","steam_id":76561198430295815,"connected_time":3941000000000,"state":"active","ping":71}]},{"server_id":310,"name":"Uncletopia | Frankfurt | 5 | All Maps","name_short":"frk-5","host":"frk-1.de.uncletopia.com","port":27055,"enabled":true,"region":"eu","cc":"de","latitude":50.110924,"longitude":8.682127,"reserved":0,"last_update":"0001-01-01T00:00:00Z","name_a2s":"Uncletopia | Frankfurt | 5 | All Maps","protocol":17,"map":"pl_frontier_final","folder":"tf","game":"Team Fortress","app_id":440,"player_count":0,"max_players":24,"Bots":0,"server_type":"Dedicated","server_os":"Linux","password":true,"vac":true,"version":"7961495","steam_id":85568392924504277,"keywords":["nocrits","nodmgspread","payload","uncletopia"],"game_id":440,"stv_port":27056,"stv_name":"Uncletopia | Frankfurt | 5 | All Maps | STV","players":null},{"server_id":311,"name":"Uncletopia | Frankfurt | 6 | All Maps","name_short":"frk-6","host":"frk-1.de.uncletopia.com","port":27065,"enabled":true,"region":"eu","cc":"de","latitude":50.110924,"longitude":8.682127,"reserved":0,"last_update":"0001-01-01T00:00:00Z","name_a2s":"Uncletopia | Frankfurt | 6 | All Maps","protocol":17,"map":"pl_pier","folder":"tf","game":"Team Fortress","app_id":440,"player_count":0,"max_players":24,"Bots":0,"server_type":"Dedicated","server_os":"Linux","password":true,"vac":true,"version":"7961495","steam_id":85568392924504278,"keywords":["nocrits","nodmgspread","payload","uncletopia"],"game_id":440,"stv_port":27066,"stv_name":"Uncletopia | Frankfurt | 6 | All Maps | STV","players":null},{"server_id":23,"name":"Uncletopia | Frankfurt | 7 | Stopwatch","name_short":"frk-7","host":"frk-1.de.uncletopia.com","port":27075,"enabled":true,"region":"eu","cc":"de","latitude":50.110924,"longitude":8.682127,"reserved":0,"last_update":"0001-01-01T00:00:00Z","name_a2s":"Uncletopia | Frankfurt | 7 | Stopwatch","protocol":17,"map":"workshop/pl_vigil_rc10.ugc1266210012","folder":"tf","game":"Team Fortress","app_id":440,"player_count":0,"max_players":24,"Bots":0,"server_type":"Dedicated","server_os":"Linux","password":true,"vac":true,"version":"7961495","steam_id":85568392924742827,"keywords":["nocrits","nodmgspread","payload","uncletopia"],"game_id":440,"stv_port":27076,"stv_name":"Uncletopia | Frankfurt | 7 | Stopwatch | STV","players":null},{"server_id":24,"name":"Uncletopia | Frankfurt | 8 | Community","name_short":"frk-8","host":"frk-1.de.uncletopia.com","port":27085,"enabled":true,"region":"eu","cc":"de","latitude":50.110924,"longitude":8.682127,"reserved":0,"last_update":"0001-01-01T00:00:00Z","name_a2s":"Uncletopia | Frankfurt | 8 | Community","protocol":17,"map":"workshop/pl_emerge_rc2.ugc888027758","folder":"tf","game":"Team Fortress","app_id":440,"player_count":0,"max_players":24,"Bots":0,"server_type":"Dedicated","server_os":"Linux","password":true,"vac":true,"version":"7961495","steam_id":85568392924742828,"keywords":["nocrits","nodmgspread","payload","uncletopia"],"game_id":440,"stv_port":27086,"stv_name":"Uncletopia | Frankfurt | 8 | Community | STV","players":null},{"server_id":202,"name":"Uncletopia | Hong Kong | 1 | All Maps","name_short":"hgk-1","host":"hgk-1.hk.uncletopia.com","port":27015,"enabled":true,"region":"asia","cc":"hk","latitude":22.302711,"longitude":114.177216,"reserved":0,"last_update":"0001-01-01T00:00:00Z","name_a2s":"Uncletopia | Hong Kong | 1 | All Maps","protocol":17,"map":"pl_borneo","folder":"tf","game":"Team Fortress","app_id":440,"player_count":0,"max_players":24,"Bots":0,"server_type":"Dedicated","server_os":"Linux","password":true,"vac":true,"version":"7961495","steam_id":85568392924494504,"keywords":["nocrits","nodmgspread","payload","uncletopia"],"game_id":440,"stv_port":27016,"stv_name":"Uncletopia | Hong Kong | 1 | All Maps | STV","players":null},{"server_id":1,"name":"Uncletopia | Los Angeles | 1 | All Maps","name_short":"lax-1","host":"lax-1.us.uncletopia.com","port":27015,"enabled":true,"region":"us-west","cc":"us","latitude":33.94279,"longitude":-118.41004,"reserved":0,"last_update":"0001-01-01T00:00:00Z","name_a2s":"Uncletopia | Los Angeles | 1 | All Maps","protocol":17,"map":"cp_powerhouse","folder":"tf","game":"Team Fortress","app_id":440,"player_count":20,"max_players":24,"Bots":0,"server_type":"Dedicated","server_os":"Linux","password":true,"vac":true,"version":"7961495","steam_id":85568392924469991,"keywords":["cp","nocrits","nodmgspread","uncletopia"],"game_id":440,"stv_port":27016,"stv_name":"Uncletopia | Los Angeles | 1 | All Maps | STV","players":[{"user_id":465,"name":"Kylar","steam_id":76561198196979431,"connected_time":254000000000,"state":"active","ping":68},{"user_id":431,"name":"Surfing Garchomp","steam_id":76561199107236884,"connected_time":2806000000000,"state":"active","ping":76},{"user_id":455,"name":"Who","steam_id":76561198013049671,"connected_time":738000000000,"state":"active","ping":56},{"user_id":412,"name":"Drive-By-Fish-Guy","steam_id":76561198105513652,"connected_time":4091000000000,"state":"active","ping":64},{"user_id":461,"name":"orangesuit1","steam_id":76561199020443017,"connected_time":294000000000,"state":"active","ping":64},{"user_id":400,"name":"Shabooyaroll-call","steam_id":76561198112306237,"connected_time":4491000000000,"state":"active","ping":55},{"user_id":466,"name":"waggyaggy (it/she)","steam_id":76561197998241407,"connected_time":230000000000,"state":"active","ping":45},{"user_id":469,"name":"Mom","steam_id":76561198207936000,"connected_time":86000000000,"state":"active","ping":45},{"user_id":467,"name":"Fireheart888","steam_id":76561198044555953,"connected_time":218000000000,"state":"active","ping":116},{"user_id":458,"name":"zoinks","steam_id":76561198127238003,"connected_time":631000000000,"state":"active","ping":52},{"user_id":444,"name":"TheBrocklobster","steam_id":76561198039682984,"connected_time":2121000000000,"state":"active","ping":67},{"user_id":468,"name":"TF2 Fresh Install","steam_id":76561199045220971,"connected_time":140000000000,"state":"active","ping":85},{"user_id":453,"name":"man i love frogs","steam_id":76561198168492250,"connected_time":861000000000,"state":"active","ping":42},{"user_id":462,"name":"[TRR/IO] Tangerine Baker","steam_id":76561199004774964,"connected_time":280000000000,"state":"active","ping":63},{"user_id":404,"name":"᲼᲼᲼","steam_id":76561198845246815,"connected_time":4381000000000,"state":"active","ping":54},{"user_id":445,"name":"Stock Dog","steam_id":76561198070469034,"connected_time":1864000000000,"state":"active","ping":100},{"user_id":463,"name":"MrLeftTurn","steam_id":76561198856743969,"connected_time":276000000000,"state":"active","ping":117},{"user_id":464,"name":"Ferret","steam_id":76561198060416458,"connected_time":274000000000,"state":"active","ping":61},{"user_id":447,"name":"Dax","steam_id":76561198045549713,"connected_time":1666000000000,"state":"active","ping":84},{"user_id":460,"name":"Dr. Bubs","steam_id":76561198011696595,"connected_time":596000000000,"state":"active","ping":52}]},{"server_id":112,"name":"Uncletopia | Los Angeles | 2 | All Maps","name_short":"lax-2","host":"lax-1.us.uncletopia.com","port":27025,"enabled":true,"region":"us-west","cc":"us","latitude":33.94279,"longitude":-118.41004,"reserved":0,"last_update":"0001-01-01T00:00:00Z","name_a2s":"Uncletopia | Los Angeles | 2 | All Maps","protocol":17,"map":"pl_frontier_final","folder":"tf","game":"Team Fortress","app_id":440,"player_count":24,"max_players":24,"Bots":0,"server_type":"Dedicated","server_os":"Linux","password":true,"vac":true,"version":"7961495","steam_id":85568392924469992,"keywords":["nocrits","nodmgspread","payload","uncletopia"],"game_id":440,"stv_port":27026,"stv_name":"Uncletopia | Los Angeles | 2 | All Maps | STV","players":[{"user_id":101,"name":"PianoDeep","steam_id":76561199182813963,"connected_time":696000000000,"state":"active","ping":72},{"user_id":108,"name":"vulcan nightclub pon farr night","steam_id":76561197974283797,"connected_time":378000000000,"state":"active","ping":102},{"user_id":90,"name":"THE man is EPIC","steam_id":76561198085410777,"connected_time":1981000000000,"state":"active","ping":129},{"user_id":106,"name":"Max Headass","steam_id":76561198964210411,"connected_time":387000000000,"state":"active","ping":46},{"user_id":83,"name":"Speed Spell IV","steam_id":76561198298364415,"connected_time":2753000000000,"state":"active","ping":153},{"user_id":79,"name":"chunkysquare","steam_id":76561199076468383,"connected_time":3194000000000,"state":"active","ping":37},{"user_id":100,"name":"Nggghhh.... Lumbago...","steam_id":76561199127423378,"connected_time":851000000000,"state":"active","ping":61},{"user_id":34,"name":"Nibotshooter","steam_id":76561199284825579,"connected_time":4915000000000,"state":"active","ping":60},{"user_id":98,"name":"a chicken","steam_id":76561198313121580,"connected_time":1435000000000,"state":"active","ping":57},{"user_id":107,"name":"Sollyz","steam_id":76561198081110786,"connected_time":383000000000,"state":"active","ping":82},{"user_id":109,"name":"Mocha Josie","steam_id":76561198066452726,"connected_time":365000000000,"state":"active","ping":84},{"user_id":110,"name":"Talented","steam_id":76561198800259660,"connected_time":155000000000,"state":"active","ping":91},{"user_id":67,"name":"sola venereum","steam_id":76561198368179166,"connected_time":3570000000000,"state":"active","ping":38},{"user_id":103,"name":"[☯] randomshagz*","steam_id":76561197968666646,"connected_time":586000000000,"state":"active","ping":70},{"user_id":70,"name":"mentos14","steam_id":76561198097993629,"connected_time":3528000000000,"state":"active","ping":56},{"user_id":97,"name":"Dilbert Jones","steam_id":76561198799249177,"connected_time":1548000000000,"state":"active","ping":65},{"user_id":99,"name":"squilith","steam_id":76561198134923092,"connected_time":878000000000,"state":"active","ping":56},{"user_id":88,"name":"femboy gaming","steam_id":76561199084226553,"connected_time":2114000000000,"state":"active","ping":97},{"user_id":91,"name":"Dinosaur","steam_id":76561199079626189,"connected_time":1962000000000,"state":"active","ping":93},{"user_id":69,"name":"naturia","steam_id":76561198092317849,"connected_time":3555000000000,"state":"active","ping":46},{"user_id":71,"name":"Portal2Player (Waiting for totk","steam_id":76561198062870114,"connected_time":3526000000000,"state":"active","ping":204},{"user_id":104,"name":"Texas guy","steam_id":76561198082315370,"connected_time":406000000000,"state":"active","ping":94},{"user_id":105,"name":"LuckyTF2","steam_id":76561199108883530,"connected_time":406000000000,"state":"active","ping":70},{"user_id":82,"name":"RUMHAM","steam_id":76561198044880032,"connected_time":2928000000000,"state":"active","ping":61}]},{"server_id":324,"name":"Uncletopia | Los Angeles | 3 | All Maps","name_short":"lax-3","host":"lax-1.us.uncletopia.com","port":27035,"enabled":true,"region":"us-west","cc":"us","latitude":33.94279,"longitude":-118.41004,"reserved":0,"last_update":"0001-01-01T00:00:00Z","name_a2s":"Uncletopia | Los Angeles | 3 | All Maps","protocol":17,"map":"koth_lakeside_final","folder":"tf","game":"Team Fortress","app_id":440,"player_count":0,"max_players":24,"Bots":0,"server_type":"Dedicated","server_os":"Linux","password":true,"vac":true,"version":"7961495","steam_id":85568392924510198,"keywords":["cp","nocrits","nodmgspread","uncletopia"],"game_id":440,"stv_port":27036,"stv_name":"Uncletopia | Los Angeles | 3 | All Maps | STV","players":null},{"server_id":25,"name":"Uncletopia | Los Angeles | 4 | Stopwatch","name_short":"lax-4","host":"lax-1.us.uncletopia.com","port":27045,"enabled":true,"region":"us-west","cc":"us","latitude":33.94279,"longitude":-118.41004,"reserved":0,"last_update":"0001-01-01T00:00:00Z","name_a2s":"Uncletopia | Los Angeles | 4 | Stopwatch","protocol":17,"map":"pl_barnblitz","folder":"tf","game":"Team Fortress","app_id":440,"player_count":0,"max_players":24,"Bots":0,"server_type":"Dedicated","server_os":"Linux","password":true,"vac":true,"version":"7961495","steam_id":85568392924510199,"keywords":["nocrits","nodmgspread","payload","uncletopia"],"game_id":440,"stv_port":27046,"stv_name":"Uncletopia | Los Angeles | 4 | Stopwatch | STV","players":null},{"server_id":11,"name":"Uncletopia | London | 1 | All Maps","name_short":"lon-1","host":"lon-1.uk.uncletopia.com","port":27015,"enabled":true,"region":"eu","cc":"gb","latitude":51.509865,"longitude":-0.118092,"reserved":0,"last_update":"0001-01-01T00:00:00Z","name_a2s":"Uncletopia | London | 1 | All Maps","protocol":17,"map":"cp_process_final","folder":"tf","game":"Team Fortress","app_id":440,"player_count":0,"max_players":24,"Bots":0,"server_type":"Dedicated","server_os":"Linux","password":true,"vac":true,"version":"7961495","steam_id":85568392924367362,"keywords":["cp","nocrits","nodmgspread","uncletopia"],"game_id":440,"stv_port":27016,"stv_name":"Uncletopia | London | 1 | All Maps | STV","players":null},{"server_id":114,"name":"Uncletopia | London | 2 | All Maps","name_short":"lon-2","host":"lon-1.uk.uncletopia.com","port":27025,"enabled":true,"region":"eu","cc":"gb","latitude":51.509865,"longitude":-0.118092,"reserved":0,"last_update":"0001-01-01T00:00:00Z","name_a2s":"Uncletopia | London | 2 | All Maps","protocol":17,"map":"cp_altitude","folder":"tf","game":"Team Fortress","app_id":440,"player_count":0,"max_players":24,"Bots":0,"server_type":"Dedicated","server_os":"Linux","password":true,"vac":true,"version":"7961495","steam_id":85568392924470941,"keywords":["cp","nocrits","nodmgspread","uncletopia"],"game_id":440,"stv_port":27026,"stv_name":"Uncletopia | London | 2 | All Maps | STV","players":null},{"server_id":320,"name":"Uncletopia | London | 3 | All Maps","name_short":"lon-3","host":"lon-1.uk.uncletopia.com","port":27035,"enabled":true,"region":"eu","cc":"gb","latitude":51.509865,"longitude":-0.118092,"reserved":0,"last_update":"0001-01-01T00:00:00Z","name_a2s":"Uncletopia | London | 3 | All Maps","protocol":17,"map":"cp_dustbowl","folder":"tf","game":"Team Fortress","app_id":440,"player_count":7,"max_players":24,"Bots":0,"server_type":"Dedicated","server_os":"Linux","password":true,"vac":true,"version":"7961495","steam_id":85568392924510192,"keywords":["cp","nocrits","nodmgspread","uncletopia"],"game_id":440,"stv_port":27036,"stv_name":"Uncletopia | London | 3 | All Maps | STV","players":[{"user_id":580,"name":"sleep addict","steam_id":76561198100694096,"connected_time":486000000000,"state":"active","ping":160},{"user_id":450,"name":"Worm","steam_id":76561198296497176,"connected_time":10482000000000,"state":"active","ping":44},{"user_id":578,"name":"I might knife you","steam_id":76561199267543998,"connected_time":500000000000,"state":"active","ping":69},{"user_id":554,"name":"Shlongulator","steam_id":76561198149779201,"connected_time":3388000000000,"state":"active","ping":57},{"user_id":545,"name":"pootis sentry","steam_id":76561199225363633,"connected_time":3783000000000,"state":"active","ping":102},{"user_id":555,"name":"joecalmatt","steam_id":76561198172552015,"connected_time":3384000000000,"state":"active","ping":44},{"user_id":577,"name":"Kraftlos","steam_id":76561198074350350,"connected_time":952000000000,"state":"active","ping":126}]},{"server_id":321,"name":"Uncletopia | London | 4 | All Maps","name_short":"lon-4","host":"lon-1.uk.uncletopia.com","port":27045,"enabled":true,"region":"eu","cc":"gb","latitude":51.509865,"longitude":-0.118092,"reserved":0,"last_update":"0001-01-01T00:00:00Z","name_a2s":"Uncletopia | London | 4 | All Maps","protocol":17,"map":"koth_lakeside_final","folder":"tf","game":"Team Fortress","app_id":440,"player_count":0,"max_players":24,"Bots":0,"server_type":"Dedicated","server_os":"Linux","password":true,"vac":true,"version":"7961495","steam_id":85568392924510193,"keywords":["cp","nocrits","nodmgspread","uncletopia"],"game_id":440,"stv_port":27046,"stv_name":"Uncletopia | London | 4 | All Maps | STV","players":null},{"server_id":21,"name":"Uncletopia | London | 5 | All Maps","name_short":"lon-5","host":"lon-1.uk.uncletopia.com","port":27055,"enabled":true,"region":"eu","cc":"gb","latitude":51.509865,"longitude":-0.118092,"reserved":0,"last_update":"0001-01-01T00:00:00Z","name_a2s":"Uncletopia | London | 5 | All Maps","protocol":17,"map":"pl_snowycoast","folder":"tf","game":"Team Fortress","app_id":440,"player_count":18,"max_players":24,"Bots":0,"server_type":"Dedicated","server_os":"Linux","password":true,"vac":true,"version":"7961495","steam_id":85568392924742829,"keywords":["nocrits","nodmgspread","payload","uncletopia"],"game_id":440,"stv_port":27056,"stv_name":"Uncletopia | London | 5 | All Maps | STV","players":[{"user_id":697,"name":"Steen","steam_id":76561198122992510,"connected_time":210000000000,"state":"active","ping":45},{"user_id":688,"name":"max-iwnl-","steam_id":76561198027033926,"connected_time":817000000000,"state":"active","ping":45},{"user_id":674,"name":"BobMarleyGod","steam_id":76561198344966538,"connected_time":1574000000000,"state":"active","ping":53},{"user_id":696,"name":"Joe Biden (real)","steam_id":76561198846784757,"connected_time":223000000000,"state":"active","ping":56},{"user_id":698,"name":"Quack!","steam_id":76561198172455974,"connected_time":105000000000,"state":"active","ping":36},{"user_id":671,"name":"frosty","steam_id":76561198094560834,"connected_time":1722000000000,"state":"active","ping":45},{"user_id":699,"name":"Arthur","steam_id":76561198066109166,"connected_time":72000000000,"state":"active","ping":76},{"user_id":700,"name":"SuntanPikachu","steam_id":76561198121242476,"connected_time":47000000000,"state":"active","ping":54},{"user_id":701,"name":"geroxe cruo","steam_id":76561199480942903,"connected_time":12000000000,"state":"active","ping":77},{"user_id":689,"name":"scorpion","steam_id":76561198045099492,"connected_time":651000000000,"state":"active","ping":109},{"user_id":679,"name":"voltimetro","steam_id":76561198195798495,"connected_time":1323000000000,"state":"active","ping":78},{"user_id":695,"name":"M7MD3BD0","steam_id":76561199072750769,"connected_time":362000000000,"state":"active","ping":162},{"user_id":647,"name":"owo","steam_id":76561198158209651,"connected_time":4007000000000,"state":"active","ping":45},{"user_id":638,"name":"The Protein","steam_id":76561198454964357,"connected_time":4484000000000,"state":"active","ping":52},{"user_id":682,"name":"M","steam_id":76561198317592319,"connected_time":1241000000000,"state":"active","ping":81},{"user_id":654,"name":"Hex Reflect","steam_id":76561197972572841,"connected_time":3436000000000,"state":"active","ping":66},{"user_id":692,"name":"Morisan","steam_id":76561198043153528,"connected_time":591000000000,"state":"active","ping":47},{"user_id":694,"name":"Smucky","steam_id":76561198119487465,"connected_time":457000000000,"state":"active","ping":60}]},{"server_id":22,"name":"Uncletopia | London | 6 | All Maps","name_short":"lon-6","host":"lon-1.uk.uncletopia.com","port":27065,"enabled":true,"region":"eu","cc":"gb","latitude":51.509865,"longitude":-0.118092,"reserved":0,"last_update":"0001-01-01T00:00:00Z","name_a2s":"Uncletopia | London | 6 | All Maps","protocol":17,"map":"koth_highpass","folder":"tf","game":"Team Fortress","app_id":440,"player_count":0,"max_players":24,"Bots":0,"server_type":"Dedicated","server_os":"Linux","password":true,"vac":true,"version":"7961495","steam_id":85568392924742830,"keywords":["cp","nocrits","nodmgspread","uncletopia"],"game_id":440,"stv_port":27066,"stv_name":"Uncletopia | London | 6 | All Maps | STV","players":null},{"server_id":40,"name":"Uncletopia | London | 7 | Stopwatch","name_short":"lon-7","host":"lon-1.uk.uncletopia.com","port":27075,"enabled":true,"region":"eu","cc":"gb","latitude":51.509865,"longitude":-0.118092,"reserved":0,"last_update":"0001-01-01T00:00:00Z","name_a2s":"Uncletopia | London | 7 | Stopwatch","protocol":17,"map":"koth_highpass","folder":"tf","game":"Team Fortress","app_id":440,"player_count":0,"max_players":24,"Bots":0,"server_type":"Dedicated","server_os":"Linux","password":true,"vac":true,"version":"7961495","steam_id":85568392924964314,"keywords":["cp","nocrits","nodmgspread","uncletopia"],"game_id":440,"stv_port":27076,"stv_name":"Uncletopia | London | 7 | Stopwatch | STV","players":null},{"server_id":41,"name":"Uncletopia | London | 8 | Community","name_short":"lon-8","host":"lon-1.uk.uncletopia.com","port":27085,"enabled":true,"region":"eu","cc":"gb","latitude":51.509865,"longitude":-0.118092,"reserved":0,"last_update":"0001-01-01T00:00:00Z","name_a2s":"Uncletopia | London | 8 | Community","protocol":17,"map":"cp_snakewater_final1","folder":"tf","game":"Team Fortress","app_id":440,"player_count":0,"max_players":24,"Bots":0,"server_type":"Dedicated","server_os":"Linux","password":true,"vac":true,"version":"7961495","steam_id":85568392924964315,"keywords":["cp","nocrits","nodmgspread","uncletopia"],"game_id":440,"stv_port":27086,"stv_name":"Uncletopia | London | 8 | Community | STV","players":null},{"server_id":300,"name":"Uncletopia | Montréal | 1 | One Thousand Uncles","name_short":"mtl-1","host":"mtl-1.ca.uncletopia.com","port":27015,"enabled":true,"region":"us-east","cc":"ca","latitude":45.50889,"longitude":-73.56167,"reserved":0,"last_update":"0001-01-01T00:00:00Z","name_a2s":"","protocol":0,"map":"","folder":"","game":"","app_id":0,"player_count":10,"max_players":0,"Bots":0,"server_type":"","server_os":"","password":false,"vac":false,"version":"","steam_id":0,"keywords":null,"game_id":0,"stv_port":0,"stv_name":"","players":[{"user_id":299,"name":"Tim the enchanter","steam_id":76561198140046182,"connected_time":1125000000000,"state":"active","ping":142},{"user_id":151,"name":"RacoonGamer","steam_id":76561198100907657,"connected_time":9389000000000,"state":"active","ping":44},{"user_id":300,"name":"poon","steam_id":76561198049740395,"connected_time":1003000000000,"state":"active","ping":47},{"user_id":323,"name":"Lots0","steam_id":76561198043143145,"connected_time":333000000000,"state":"active","ping":103},{"user_id":105,"name":"1-800-GHOST-DANCE","steam_id":76561198835430429,"connected_time":11688000000000,"state":"active","ping":74},{"user_id":305,"name":"KnightMan","steam_id":76561198143531192,"connected_time":451000000000,"state":"active","ping":77},{"user_id":302,"name":"Poyo Boyo","steam_id":76561198010201227,"connected_time":907000000000,"state":"active","ping":61},{"user_id":243,"name":"{♠}_MR. JESTER _{♠}","steam_id":76561198152371294,"connected_time":5503000000000,"state":"active","ping":131},{"user_id":294,"name":"Why not Zoidberg?","steam_id":76561197982207556,"connected_time":2114000000000,"state":"active","ping":75},{"user_id":292,"name":"Cornelius","steam_id":76561198123447388,"connected_time":2313000000000,"state":"active","ping":61}]},{"server_id":301,"name":"Uncletopia | Montréal | 2 | One Thousand Uncles","name_short":"mtl-2","host":"mtl-1.ca.uncletopia.com","port":27025,"enabled":true,"region":"us-east","cc":"ca","latitude":45.50889,"longitude":-73.56167,"reserved":0,"last_update":"0001-01-01T00:00:00Z","name_a2s":"","protocol":0,"map":"","folder":"","game":"","app_id":0,"player_count":0,"max_players":0,"Bots":0,"server_type":"","server_os":"","password":false,"vac":false,"version":"","steam_id":0,"keywords":null,"game_id":0,"stv_port":0,"stv_name":"","players":null},{"server_id":302,"name":"Uncletopia | Montréal | 3 | One Thousand Uncles","name_short":"mtl-3","host":"mtl-1.ca.uncletopia.com","port":27035,"enabled":true,"region":"us-east","cc":"ca","latitude":45.50889,"longitude":-73.56167,"reserved":0,"last_update":"0001-01-01T00:00:00Z","name_a2s":"","protocol":0,"map":"","folder":"","game":"","app_id":0,"player_count":0,"max_players":0,"Bots":0,"server_type":"","server_os":"","password":false,"vac":false,"version":"","steam_id":0,"keywords":null,"game_id":0,"stv_port":0,"stv_name":"","players":null},{"server_id":13,"name":"Uncletopia | New York City | 1 | All Maps","name_short":"nyc-1","host":"nyc-1.us.uncletopia.com","port":27015,"enabled":true,"region":"us-east","cc":"us","latitude":40.73061,"longitude":-73.93524,"reserved":0,"last_update":"0001-01-01T00:00:00Z","name_a2s":"Uncletopia | New York City | 1 | All Maps","protocol":17,"map":"koth_nucleus","folder":"tf","game":"Team Fortress","app_id":440,"player_count":24,"max_players":24,"Bots":0,"server_type":"Dedicated","server_os":"Linux","password":true,"vac":true,"version":"7961495","steam_id":85568392924469993,"keywords":["cp","nocrits","nodmgspread","uncletopia"],"game_id":440,"stv_port":27016,"stv_name":"Uncletopia | New York City | 1 | All Maps | STV","players":[{"user_id":389,"name":"A_Happy_Fellow","steam_id":76561199229475610,"connected_time":760000000000,"state":"active","ping":101},{"user_id":357,"name":"Crab","steam_id":76561198067628664,"connected_time":4042000000000,"state":"active","ping":95},{"user_id":403,"name":"Porcupine's Revenge!","steam_id":76561199121615234,"connected_time":40000000000,"state":"active","ping":293},{"user_id":392,"name":"Piss God","steam_id":76561198090504334,"connected_time":731000000000,"state":"active","ping":58},{"user_id":393,"name":"KOI BOY","steam_id":76561198402739250,"connected_time":727000000000,"state":"active","ping":78},{"user_id":375,"name":"Itsagreyarea","steam_id":76561199496467388,"connected_time":2329000000000,"state":"active","ping":87},{"user_id":367,"name":"Queso2469","steam_id":76561197993024580,"connected_time":2806000000000,"state":"active","ping":54},{"user_id":363,"name":"Lemon Soda","steam_id":76561198140208761,"connected_time":3206000000000,"state":"active","ping":48},{"user_id":372,"name":"slothm442","steam_id":76561199487265826,"connected_time":2370000000000,"state":"active","ping":53},{"user_id":404,"name":"Pepsi","steam_id":76561198401918732,"connected_time":30000000000,"state":"spawning","ping":74},{"user_id":396,"name":"ElElliot","steam_id":76561198842278840,"connected_time":572000000000,"state":"active","ping":77},{"user_id":399,"name":"HazerLazer","steam_id":76561198043945871,"connected_time":118000000000,"state":"active","ping":49},{"user_id":327,"name":"Fudgely","steam_id":76561198039425862,"connected_time":6505000000000,"state":"active","ping":68},{"user_id":360,"name":"mostly ham","steam_id":76561199479937232,"connected_time":3953000000000,"state":"active","ping":74},{"user_id":400,"name":"smocc","steam_id":76561197993726746,"connected_time":65000000000,"state":"active","ping":51},{"user_id":378,"name":"UnlivingSkunk","steam_id":76561198324517387,"connected_time":1827000000000,"state":"active","ping":55},{"user_id":374,"name":"Big Milk","steam_id":76561198066904836,"connected_time":2356000000000,"state":"active","ping":74},{"user_id":397,"name":"Gaaarp","steam_id":76561198074584362,"connected_time":546000000000,"state":"active","ping":51},{"user_id":373,"name":"reymundo","steam_id":76561197989412830,"connected_time":2363000000000,"state":"active","ping":125},{"user_id":361,"name":"Not_Douglas","steam_id":76561199024184136,"connected_time":3469000000000,"state":"active","ping":75},{"user_id":401,"name":"Exhiet","steam_id":76561198218111020,"connected_time":62000000000,"state":"active","ping":57},{"user_id":382,"name":"Mega_Man23","steam_id":76561198138341391,"connected_time":1691000000000,"state":"active","ping":86},{"user_id":402,"name":"Yuzu","steam_id":76561198417913035,"connected_time":62000000000,"state":"active","ping":76},{"user_id":366,"name":"DrChillin","steam_id":76561198043824865,"connected_time":3035000000000,"state":"active","ping":79}]},{"server_id":14,"name":"Uncletopia | New York City | 2 | All Maps","name_short":"nyc-2","host":"nyc-1.us.uncletopia.com","port":27025,"enabled":true,"region":"us-east","cc":"us","latitude":40.73061,"longitude":-73.93524,"reserved":0,"last_update":"0001-01-01T00:00:00Z","name_a2s":"Uncletopia | New York City | 2 | All Maps","protocol":17,"map":"pl_swiftwater_final1","folder":"tf","game":"Team Fortress","app_id":440,"player_count":23,"max_players":24,"Bots":0,"server_type":"Dedicated","server_os":"Linux","password":true,"vac":true,"version":"7961495","steam_id":85568392924469994,"keywords":["nocrits","nodmgspread","payload","uncletopia"],"game_id":440,"stv_port":27026,"stv_name":"Uncletopia | New York City | 2 | All Maps | STV","players":[{"user_id":308,"name":"lfty","steam_id":76561198283841707,"connected_time":214000000000,"state":"active","ping":55},{"user_id":278,"name":"BadLuck","steam_id":76561198096452401,"connected_time":1965000000000,"state":"active","ping":66},{"user_id":300,"name":"Huff Dog","steam_id":76561198113397623,"connected_time":683000000000,"state":"active","ping":83},{"user_id":279,"name":"Ballistic","steam_id":76561197992355477,"connected_time":1795000000000,"state":"active","ping":51},{"user_id":293,"name":"[NAME-REDACTED]","steam_id":76561198035682975,"connected_time":1062000000000,"state":"active","ping":54},{"user_id":272,"name":"leonardo doujinshi","steam_id":76561198025810326,"connected_time":2448000000000,"state":"active","ping":61},{"user_id":291,"name":"big gamer","steam_id":76561199102883421,"connected_time":1096000000000,"state":"active","ping":61},{"user_id":273,"name":"dubstept","steam_id":76561198884973306,"connected_time":2442000000000,"state":"active","ping":92},{"user_id":306,"name":"IGOR","steam_id":76561199128786637,"connected_time":271000000000,"state":"active","ping":91},{"user_id":304,"name":"A Future US Army Soldier","steam_id":76561198008263869,"connected_time":391000000000,"state":"active","ping":45},{"user_id":294,"name":"Jasper™","steam_id":76561198260018463,"connected_time":1016000000000,"state":"active","ping":83},{"user_id":263,"name":"SCP — 049","steam_id":76561198143283556,"connected_time":3339000000000,"state":"active","ping":110},{"user_id":309,"name":"Army","steam_id":76561198211320015,"connected_time":213000000000,"state":"active","ping":63},{"user_id":305,"name":"Parkster2000","steam_id":76561198125878513,"connected_time":287000000000,"state":"active","ping":45},{"user_id":259,"name":"brotalium","steam_id":76561198055439054,"connected_time":3673000000000,"state":"active","ping":60},{"user_id":310,"name":"V@nn1e","steam_id":76561199099194994,"connected_time":213000000000,"state":"active","ping":127},{"user_id":299,"name":"Hoob.egfug","steam_id":76561197980557818,"connected_time":850000000000,"state":"active","ping":64},{"user_id":250,"name":"CRAZY engineer","steam_id":76561198887937902,"connected_time":4412000000000,"state":"active","ping":47},{"user_id":297,"name":"Shrebbie","steam_id":76561198875230824,"connected_time":1001000000000,"state":"active","ping":40},{"user_id":282,"name":"Bitter","steam_id":76561198146532457,"connected_time":1540000000000,"state":"active","ping":82},{"user_id":311,"name":"dandanostar","steam_id":76561198313293205,"connected_time":191000000000,"state":"active","ping":61},{"user_id":249,"name":"the action gamemaster","steam_id":76561198007494744,"connected_time":4637000000000,"state":"active","ping":120},{"user_id":275,"name":"SHADY SWEATER SALESMAN","steam_id":76561198014616865,"connected_time":2303000000000,"state":"active","ping":48}]},{"server_id":15,"name":"Uncletopia | New York City | 3 | Stopwatch","name_short":"nyc-3","host":"nyc-1.us.uncletopia.com","port":27035,"enabled":true,"region":"us-east","cc":"us","latitude":40.73061,"longitude":-73.93524,"reserved":0,"last_update":"0001-01-01T00:00:00Z","name_a2s":"Uncletopia | New York City | 3 | Stopwatch","protocol":17,"map":"pl_snowycoast","folder":"tf","game":"Team Fortress","app_id":440,"player_count":0,"max_players":24,"Bots":0,"server_type":"Dedicated","server_os":"Linux","password":true,"vac":true,"version":"7961495","steam_id":85568392924742820,"keywords":["nocrits","nodmgspread","payload","uncletopia"],"game_id":440,"stv_port":27036,"stv_name":"Uncletopia | New York City | 3 | Stopwatch | STV","players":null},{"server_id":16,"name":"Uncletopia | New York City | 4 | Community","name_short":"nyc-4","host":"nyc-1.us.uncletopia.com","port":27045,"enabled":true,"region":"us-east","cc":"us","latitude":40.73061,"longitude":-73.93524,"reserved":0,"last_update":"0001-01-01T00:00:00Z","name_a2s":"Uncletopia | New York City | 4 | Community","protocol":17,"map":"workshop/cp_reckoner_rc6.ugc674719999","folder":"tf","game":"Team Fortress","app_id":440,"player_count":0,"max_players":24,"Bots":0,"server_type":"Dedicated","server_os":"Linux","password":true,"vac":true,"version":"7961495","steam_id":85568392924742821,"keywords":["cp","nocrits","nodmgspread","uncletopia"],"game_id":440,"stv_port":27046,"stv_name":"Uncletopia | New York City | 4 | Community | STV","players":null},{"server_id":142,"name":"Uncletopia | São Paulo | 1 | All Maps","name_short":"sao-1","host":"sao-1.br.uncletopia.com","port":27015,"enabled":true,"region":"sa","cc":"br","latitude":-23.533773,"longitude":-46.62529,"reserved":0,"last_update":"0001-01-01T00:00:00Z","name_a2s":"Uncletopia | São Paulo | 1 | All Maps","protocol":17,"map":"cp_sunshine","folder":"tf","game":"Team Fortress","app_id":440,"player_count":0,"max_players":24,"Bots":0,"server_type":"Dedicated","server_os":"Linux","password":true,"vac":true,"version":"7961495","steam_id":85568392924469996,"keywords":["cp","nocrits","nodmgspread","uncletopia"],"game_id":440,"stv_port":27016,"stv_name":"Uncletopia | São Paulo | 1 | All Maps | STV","players":null},{"server_id":143,"name":"Uncletopia | São Paulo | 2 | Community","name_short":"sao-2","host":"sao-2.br.uncletopia.com","port":27015,"enabled":true,"region":"sa","cc":"br","latitude":-23.533773,"longitude":-46.62529,"reserved":0,"last_update":"0001-01-01T00:00:00Z","name_a2s":"Uncletopia | São Paulo | 2 | Community","protocol":17,"map":"workshop/pl_highwood_b13.ugc1769496557","folder":"tf","game":"Team Fortress","app_id":440,"player_count":0,"max_players":24,"Bots":0,"server_type":"Dedicated","server_os":"Linux","password":true,"vac":true,"version":"7961495","steam_id":85568392924485349,"keywords":["nocrits","nodmgspread","payload","uncletopia"],"game_id":440,"stv_port":27016,"stv_name":"Uncletopia | São Paulo | 2 | Community | STV","players":null},{"server_id":7,"name":"Uncletopia | Seattle | 1 | All Maps","name_short":"sea-1","host":"sea-1.us.uncletopia.com","port":27015,"enabled":true,"region":"us-west","cc":"us","latitude":47.608013,"longitude":-122.33517,"reserved":0,"last_update":"0001-01-01T00:00:00Z","name_a2s":"Uncletopia | Seattle | 1 | All Maps","protocol":17,"map":"cp_process_final","folder":"tf","game":"Team Fortress","app_id":440,"player_count":24,"max_players":24,"Bots":0,"server_type":"Dedicated","server_os":"Linux","password":true,"vac":true,"version":"7961495","steam_id":85568392924469997,"keywords":["cp","nocrits","nodmgspread","uncletopia"],"game_id":440,"stv_port":27016,"stv_name":"Uncletopia | Seattle | 1 | All Maps | STV","players":[{"user_id":360,"name":"Mignyanne :3","steam_id":76561198048754056,"connected_time":848000000000,"state":"active","ping":60},{"user_id":363,"name":"Escher","steam_id":76561198045058061,"connected_time":434000000000,"state":"active","ping":28},{"user_id":355,"name":"eh dab","steam_id":76561198051448404,"connected_time":1365000000000,"state":"active","ping":124},{"user_id":339,"name":"DaddyGalaxy","steam_id":76561198139697796,"connected_time":1973000000000,"state":"active","ping":59},{"user_id":365,"name":"Racer X","steam_id":76561198073613932,"connected_time":421000000000,"state":"active","ping":133},{"user_id":362,"name":"Kelladrin","steam_id":76561198040727880,"connected_time":451000000000,"state":"active","ping":62},{"user_id":346,"name":"Peppy","steam_id":76561198866629645,"connected_time":1621000000000,"state":"active","ping":59},{"user_id":361,"name":"cielael","steam_id":76561198043971956,"connected_time":758000000000,"state":"active","ping":74},{"user_id":358,"name":"rat gets the cheese","steam_id":76561198031234032,"connected_time":1297000000000,"state":"active","ping":103},{"user_id":364,"name":"Shipmunk","steam_id":76561198063062670,"connected_time":430000000000,"state":"active","ping":105},{"user_id":356,"name":"(TTV) The_Astrum_Guardian","steam_id":76561198130134103,"connected_time":1349000000000,"state":"active","ping":106},{"user_id":334,"name":"DubiousDodo","steam_id":76561198828172686,"connected_time":2403000000000,"state":"active","ping":74},{"user_id":294,"name":"Tsunami","steam_id":76561198097188001,"connected_time":6728000000000,"state":"active","ping":45},{"user_id":366,"name":"checkswing","steam_id":76561198999816132,"connected_time":191000000000,"state":"active","ping":113},{"user_id":357,"name":"owlbortch","steam_id":76561198042849350,"connected_time":1337000000000,"state":"active","ping":134},{"user_id":348,"name":"you just got dyked on","steam_id":76561198018977723,"connected_time":1616000000000,"state":"active","ping":53},{"user_id":328,"name":"lker","steam_id":76561197976975075,"connected_time":3219000000000,"state":"active","ping":105},{"user_id":367,"name":"omnipotent_chicken","steam_id":76561199142911468,"connected_time":190000000000,"state":"active","ping":75},{"user_id":345,"name":"CashGordon","steam_id":76561197975594096,"connected_time":1622000000000,"state":"active","ping":40},{"user_id":295,"name":"Fh","steam_id":76561198000903511,"connected_time":6667000000000,"state":"active","ping":75},{"user_id":330,"name":"kill all ____","steam_id":76561198213385439,"connected_time":2833000000000,"state":"active","ping":80},{"user_id":352,"name":"Dr.Blunt","steam_id":76561198096333958,"connected_time":1420000000000,"state":"active","ping":87},{"user_id":338,"name":"H.A.Z.E.Y \u003c3","steam_id":76561199247095754,"connected_time":2025000000000,"state":"active","ping":60},{"user_id":335,"name":"lynks disease no sound","steam_id":76561198043465434,"connected_time":2402000000000,"state":"active","ping":74}]},{"server_id":119,"name":"Uncletopia | Seattle | 2 | All Maps","name_short":"sea-2","host":"sea-1.us.uncletopia.com","port":27025,"enabled":true,"region":"us-west","cc":"us","latitude":47.608013,"longitude":-122.33517,"reserved":0,"last_update":"0001-01-01T00:00:00Z","name_a2s":"Uncletopia | Seattle | 2 | All Maps","protocol":17,"map":"cp_altitude","folder":"tf","game":"Team Fortress","app_id":440,"player_count":0,"max_players":24,"Bots":0,"server_type":"Dedicated","server_os":"Linux","password":true,"vac":true,"version":"7961495","steam_id":85568392924469998,"keywords":["cp","nocrits","nodmgspread","uncletopia"],"game_id":440,"stv_port":27026,"stv_name":"Uncletopia | Seattle | 2 | All Maps | STV","players":null},{"server_id":406,"name":"Uncletopia | Seattle | 3 | Stopwatch","name_short":"sea-3","host":"sea-1.us.uncletopia.com","port":27035,"enabled":true,"region":"us-west","cc":"us","latitude":47.608013,"longitude":-122.33517,"reserved":0,"last_update":"0001-01-01T00:00:00Z","name_a2s":"Uncletopia | Seattle | 3 | Stopwatch","protocol":17,"map":"pl_pier","folder":"tf","game":"Team Fortress","app_id":440,"player_count":0,"max_players":24,"Bots":0,"server_type":"Dedicated","server_os":"Linux","password":true,"vac":true,"version":"7961495","steam_id":85568392924515217,"keywords":["nocrits","nodmgspread","payload","uncletopia"],"game_id":440,"stv_port":27036,"stv_name":"Uncletopia | Seattle | 3 | Stopwatch | STV","players":null},{"server_id":17,"name":"Uncletopia | San Francisco | 1 | All Maps","name_short":"sfo-1","host":"sfo-1.us.uncletopia.com","port":27015,"enabled":true,"region":"us-west","cc":"us","latitude":37.77397,"longitude":-122.4313,"reserved":0,"last_update":"0001-01-01T00:00:00Z","name_a2s":"Uncletopia | San Francisco | 1 | All Maps","protocol":17,"map":"pl_barnblitz","folder":"tf","game":"Team Fortress","app_id":440,"player_count":24,"max_players":24,"Bots":0,"server_type":"Dedicated","server_os":"Linux","password":true,"vac":true,"version":"7961495","steam_id":85568392924469999,"keywords":["nocrits","nodmgspread","payload","uncletopia"],"game_id":440,"stv_port":27016,"stv_name":"Uncletopia | San Francisco | 1 | All Maps | STV","players":[{"user_id":22,"name":"SoupDelivery","steam_id":76561198064906818,"connected_time":4197000000000,"state":"active","ping":74},{"user_id":68,"name":"yo mama","steam_id":76561198384866172,"connected_time":966000000000,"state":"active","ping":44},{"user_id":57,"name":"Juri Han","steam_id":76561198041678517,"connected_time":1608000000000,"state":"active","ping":51},{"user_id":25,"name":"Klopo","steam_id":76561198871108633,"connected_time":3985000000000,"state":"active","ping":38},{"user_id":56,"name":"Pixeled","steam_id":76561198088917077,"connected_time":1692000000000,"state":"active","ping":117},{"user_id":72,"name":"Enforcer Enthusiast","steam_id":76561199124102271,"connected_time":684000000000,"state":"active","ping":81},{"user_id":73,"name":"Lunarthrope","steam_id":76561198292132147,"connected_time":576000000000,"state":"active","ping":68},{"user_id":64,"name":"big fish","steam_id":76561198186479818,"connected_time":1287000000000,"state":"active","ping":66},{"user_id":65,"name":"gatorbelt","steam_id":76561198145784505,"connected_time":1277000000000,"state":"active","ping":51},{"user_id":63,"name":"NerdyEnforcement","steam_id":76561198437710820,"connected_time":1344000000000,"state":"active","ping":132},{"user_id":75,"name":"Whimsy!","steam_id":76561197989578836,"connected_time":22000000000,"state":"active","ping":60},{"user_id":40,"name":"no vc no c","steam_id":76561197989503095,"connected_time":2131000000000,"state":"active","ping":149},{"user_id":41,"name":"Wiggee","steam_id":76561197972792989,"connected_time":2092000000000,"state":"active","ping":87},{"user_id":42,"name":"JC The Dumb","steam_id":76561199186185567,"connected_time":2086000000000,"state":"active","ping":68},{"user_id":70,"name":"Brando","steam_id":76561198078306678,"connected_time":851000000000,"state":"active","ping":79},{"user_id":59,"name":"Burger Man","steam_id":76561198197096574,"connected_time":1598000000000,"state":"active","ping":116},{"user_id":45,"name":"Waff00","steam_id":76561198848377100,"connected_time":2049000000000,"state":"active","ping":129},{"user_id":46,"name":"Evlestmaple552","steam_id":76561198799352709,"connected_time":2045000000000,"state":"active","ping":148},{"user_id":47,"name":"jxh300","steam_id":76561199196579894,"connected_time":2010000000000,"state":"active","ping":113},{"user_id":50,"name":"ballistic booty bandit","steam_id":76561199016837140,"connected_time":1919000000000,"state":"active","ping":63},{"user_id":51,"name":"knatspray","steam_id":76561198832507482,"connected_time":1902000000000,"state":"active","ping":75},{"user_id":69,"name":"merc","steam_id":76561198162688146,"connected_time":918000000000,"state":"active","ping":61},{"user_id":61,"name":"Stoopnagle","steam_id":76561198011942560,"connected_time":1558000000000,"state":"active","ping":65},{"user_id":66,"name":"Frebresio","steam_id":76561198353493333,"connected_time":1089000000000,"state":"active","ping":69}]},{"server_id":18,"name":"Uncletopia | San Francisco | 2 | All Maps","name_short":"sfo-2","host":"sfo-1.us.uncletopia.com","port":27025,"enabled":true,"region":"us-west","cc":"us","latitude":37.77397,"longitude":-122.4313,"reserved":0,"last_update":"0001-01-01T00:00:00Z","name_a2s":"Uncletopia | San Francisco | 2 | All Maps","protocol":17,"map":"pl_swiftwater_final1","folder":"tf","game":"Team Fortress","app_id":440,"player_count":24,"max_players":24,"Bots":0,"server_type":"Dedicated","server_os":"Linux","password":true,"vac":true,"version":"7961495","steam_id":85568392924470000,"keywords":["nocrits","nodmgspread","payload","uncletopia"],"game_id":440,"stv_port":27026,"stv_name":"Uncletopia | San Francisco | 2 | All Maps | STV","players":[{"user_id":84,"name":"Nate","steam_id":76561198045186954,"connected_time":2337000000000,"state":"active","ping":67},{"user_id":78,"name":"[Industrial] A_HUMBLEBUMBLED","steam_id":76561198064771878,"connected_time":2656000000000,"state":"active","ping":50},{"user_id":104,"name":"milkerstf2","steam_id":76561199074843594,"connected_time":1268000000000,"state":"active","ping":55},{"user_id":89,"name":"hellishBells","steam_id":76561199118782381,"connected_time":2031000000000,"state":"active","ping":113},{"user_id":100,"name":"rhsiegetank","steam_id":76561198359829118,"connected_time":1636000000000,"state":"active","ping":54},{"user_id":106,"name":"Professor Prostate","steam_id":76561198053117503,"connected_time":1123000000000,"state":"active","ping":90},{"user_id":109,"name":"Three Brown Guys","steam_id":76561199112000229,"connected_time":983000000000,"state":"active","ping":62},{"user_id":85,"name":"God's Drunkest Driver","steam_id":76561198069378337,"connected_time":2303000000000,"state":"active","ping":60},{"user_id":91,"name":"were gonna kill you","steam_id":76561198013810925,"connected_time":1986000000000,"state":"active","ping":45},{"user_id":62,"name":"Eden","steam_id":76561198081284664,"connected_time":3610000000000,"state":"active","ping":60},{"user_id":116,"name":"Copy","steam_id":76561198025031590,"connected_time":334000000000,"state":"active","ping":71},{"user_id":92,"name":"Gran","steam_id":76561198021756875,"connected_time":1980000000000,"state":"active","ping":65},{"user_id":110,"name":"❤ Ashley ❤","steam_id":76561198056428303,"connected_time":962000000000,"state":"active","ping":47},{"user_id":68,"name":"Mud Goblin","steam_id":76561198839118505,"connected_time":3056000000000,"state":"active","ping":68},{"user_id":93,"name":"bodyshot cleaner-uppper","steam_id":76561198035683516,"connected_time":1971000000000,"state":"active","ping":57},{"user_id":111,"name":"rancid vibes","steam_id":76561198062712676,"connected_time":923000000000,"state":"active","ping":67},{"user_id":101,"name":"gulch","steam_id":76561199227946025,"connected_time":1384000000000,"state":"active","ping":100},{"user_id":95,"name":"Crimson Head","steam_id":76561198027108358,"connected_time":1885000000000,"state":"active","ping":93},{"user_id":63,"name":"Chicago Shoplifter","steam_id":76561197986530028,"connected_time":3600000000000,"state":"active","ping":88},{"user_id":115,"name":"self sufficient kitten","steam_id":76561197960592612,"connected_time":404000000000,"state":"active","ping":68},{"user_id":107,"name":"Fred McFrizzle","steam_id":76561198085117424,"connected_time":1117000000000,"state":"active","ping":73},{"user_id":114,"name":"claeb :)","steam_id":76561198028761580,"connected_time":806000000000,"state":"active","ping":110},{"user_id":51,"name":"Laventhey","steam_id":76561198977523626,"connected_time":4034000000000,"state":"active","ping":69},{"user_id":117,"name":"gnome zone","steam_id":76561198883349445,"connected_time":297000000000,"state":"active","ping":55}]},{"server_id":19,"name":"Uncletopia | San Francisco | 3 | Stopwatch","name_short":"sfo-3","host":"sfo-1.us.uncletopia.com","port":27035,"enabled":true,"region":"us-west","cc":"us","latitude":37.77397,"longitude":-122.4313,"reserved":0,"last_update":"0001-01-01T00:00:00Z","name_a2s":"Uncletopia | San Francisco | 3 | Stopwatch","protocol":17,"map":"cp_sunshine","folder":"tf","game":"Team Fortress","app_id":440,"player_count":0,"max_players":24,"Bots":0,"server_type":"Dedicated","server_os":"Linux","password":true,"vac":true,"version":"7961495","steam_id":85568392924742824,"keywords":["cp","nocrits","nodmgspread","uncletopia"],"game_id":440,"stv_port":27036,"stv_name":"Uncletopia | San Francisco | 3 | Stopwatch | STV","players":null},{"server_id":20,"name":"Uncletopia | San Francisco | 4 | Community","name_short":"sfo-4","host":"sfo-1.us.uncletopia.com","port":27045,"enabled":true,"region":"us-west","cc":"us","latitude":37.77397,"longitude":-122.4313,"reserved":0,"last_update":"0001-01-01T00:00:00Z","name_a2s":"Uncletopia | San Francisco | 4 | Community","protocol":17,"map":"workshop/koth_synthetic_rc6a.ugc1549817316","folder":"tf","game":"Team Fortress","app_id":440,"player_count":0,"max_players":24,"Bots":0,"server_type":"Dedicated","server_os":"Linux","password":true,"vac":true,"version":"7961495","steam_id":85568392924742826,"keywords":["cp","nocrits","nodmgspread","uncletopia"],"game_id":440,"stv_port":27046,"stv_name":"Uncletopia | San Francisco | 4 | Community | STV","players":null},{"server_id":141,"name":"Uncletopia | Sydney | 1 | All Maps","name_short":"syd-1","host":"syd-1.au.uncletopia.com","port":27015,"enabled":true,"region":"au","cc":"au","latitude":-33.865143,"longitude":151.2099,"reserved":0,"last_update":"0001-01-01T00:00:00Z","name_a2s":"Uncletopia | Sydney | 1 | All Maps","protocol":17,"map":"ctf_2fort","folder":"tf","game":"Team Fortress","app_id":440,"player_count":0,"max_players":24,"Bots":0,"server_type":"Dedicated","server_os":"Linux","password":true,"vac":true,"version":"7961495","steam_id":85568392924470001,"keywords":["ctf","nocrits","nodmgspread","uncletopia"],"game_id":440,"stv_port":27016,"stv_name":"Uncletopia | Sydney | 1 | All Maps | STV","players":null},{"server_id":123,"name":"Uncletopia | Sydney | 2 | All Maps","name_short":"syd-2","host":"syd-1.au.uncletopia.com","port":27025,"enabled":true,"region":"au","cc":"au","latitude":-33.865143,"longitude":151.2099,"reserved":0,"last_update":"0001-01-01T00:00:00Z","name_a2s":"Uncletopia | Sydney | 2 | All Maps","protocol":17,"map":"ctf_2fort","folder":"tf","game":"Team Fortress","app_id":440,"player_count":0,"max_players":24,"Bots":0,"server_type":"Dedicated","server_os":"Linux","password":true,"vac":true,"version":"7961495","steam_id":85568392924470002,"keywords":["ctf","nocrits","nodmgspread","uncletopia"],"game_id":440,"stv_port":27026,"stv_name":"Uncletopia | Sydney | 2 | All Maps | STV","players":null},{"server_id":395,"name":"Uncletopia | Sydney | 3 | All Maps","name_short":"syd-3","host":"syd-1.au.uncletopia.com","port":27035,"enabled":true,"region":"au","cc":"au","latitude":-33.865143,"longitude":151.2099,"reserved":0,"last_update":"0001-01-01T00:00:00Z","name_a2s":"Uncletopia | Sydney | 3 | All Maps","protocol":17,"map":"ctf_2fort","folder":"tf","game":"Team Fortress","app_id":440,"player_count":0,"max_players":24,"Bots":0,"server_type":"Dedicated","server_os":"Linux","password":true,"vac":true,"version":"7961495","steam_id":85568392925194467,"keywords":["ctf","nocrits","nodmgspread","uncletopia"],"game_id":440,"stv_port":27036,"stv_name":"Uncletopia | Sydney | 3 | All Maps | STV","players":null},{"server_id":396,"name":"Uncletopia | Sydney | 4 | All Maps","name_short":"syd-4","host":"syd-1.au.uncletopia.com","port":27045,"enabled":true,"region":"au","cc":"au","latitude":-33.865143,"longitude":151.2099,"reserved":0,"last_update":"0001-01-01T00:00:00Z","name_a2s":"Uncletopia | Sydney | 4 | All Maps","protocol":17,"map":"pl_frontier_final","folder":"tf","game":"Team Fortress","app_id":440,"player_count":0,"max_players":24,"Bots":0,"server_type":"Dedicated","server_os":"Linux","password":true,"vac":true,"version":"7961495","steam_id":85568392925397958,"keywords":["nocrits","nodmgspread","payload","uncletopia"],"game_id":440,"stv_port":27046,"stv_name":"Uncletopia | Sydney | 4 | All Maps | STV","players":null},{"server_id":58,"name":"Uncletopia | Sydney | 5 | Stopwatch","name_short":"syd-5","host":"syd-1.au.uncletopia.com","port":27055,"enabled":true,"region":"au","cc":"au","latitude":-33.865143,"longitude":151.2099,"reserved":0,"last_update":"0001-01-01T00:00:00Z","name_a2s":"Uncletopia | Sydney | 5 | Stopwatch","protocol":17,"map":"pl_frontier_final","folder":"tf","game":"Team Fortress","app_id":440,"player_count":0,"max_players":24,"Bots":0,"server_type":"Dedicated","server_os":"Linux","password":true,"vac":true,"version":"7961495","steam_id":85568392925397959,"keywords":["nocrits","nodmgspread","payload","uncletopia"],"game_id":440,"stv_port":27056,"stv_name":"Uncletopia | Sydney | 5 | Stopwatch | STV","players":null},{"server_id":59,"name":"Uncletopia | Sydney | 6 | Community","name_short":"syd-6","host":"syd-1.au.uncletopia.com","port":27065,"enabled":true,"region":"au","cc":"au","latitude":-33.865143,"longitude":151.2099,"reserved":0,"last_update":"0001-01-01T00:00:00Z","name_a2s":"Uncletopia | Sydney | 6 | Community","protocol":17,"map":"cp_sunshine","folder":"tf","game":"Team Fortress","app_id":440,"player_count":0,"max_players":24,"Bots":0,"server_type":"Dedicated","server_os":"Linux","password":true,"vac":true,"version":"7961495","steam_id":85568392925397960,"keywords":["cp","nocrits","nodmgspread","uncletopia"],"game_id":440,"stv_port":27066,"stv_name":"Uncletopia | Sydney | 6 | Community | STV","players":null},{"server_id":49,"name":"Uncletopia | Warsaw | 1 | One Thousand Uncles","name_short":"waw-1","host":"waw-1.pl.uncletopia.com","port":27015,"enabled":true,"region":"eu","cc":"pl","latitude":52.2297,"longitude":21.017532,"reserved":0,"last_update":"0001-01-01T00:00:00Z","name_a2s":"Uncletopia | Warsaw | 1 | One Thousand Uncles","protocol":17,"map":"pl_chilly","folder":"tf","game":"Team Fortress","app_id":440,"player_count":0,"max_players":32,"Bots":0,"server_type":"Dedicated","server_os":"Linux","password":true,"vac":true,"version":"7961495","steam_id":85568392925397850,"keywords":["alltalk","danepve","increased_maxplayers","nocrits","norespawntime","payload","uncletopia"],"game_id":440,"stv_port":0,"stv_name":"","players":null},{"server_id":50,"name":"Uncletopia | Warsaw | 2 | One Thousand Uncles","name_short":"waw-2","host":"waw-1.pl.uncletopia.com","port":27025,"enabled":true,"region":"eu","cc":"pl","latitude":52.2297,"longitude":21.017532,"reserved":0,"last_update":"0001-01-01T00:00:00Z","name_a2s":"Uncletopia | Warsaw | 2 | One Thousand Uncles","protocol":17,"map":"cp_dustbowl","folder":"tf","game":"Team Fortress","app_id":440,"player_count":0,"max_players":32,"Bots":0,"server_type":"Dedicated","server_os":"Linux","password":true,"vac":true,"version":"7961495","steam_id":85568392925397851,"keywords":["alltalk","cp","danepve","increased_maxplayers","nocrits","norespawntime","uncletopia"],"game_id":440,"stv_port":0,"stv_name":"","players":null},{"server_id":51,"name":"Uncletopia | Warsaw | 3 | All Maps","name_short":"waw-3","host":"waw-1.pl.uncletopia.com","port":27035,"enabled":true,"region":"eu","cc":"pl","latitude":52.2297,"longitude":21.017532,"reserved":0,"last_update":"0001-01-01T00:00:00Z","name_a2s":"Uncletopia | Warsaw | 3 | All Maps","protocol":17,"map":"pl_badwater","folder":"tf","game":"Team Fortress","app_id":440,"player_count":0,"max_players":24,"Bots":0,"server_type":"Dedicated","server_os":"Linux","password":true,"vac":true,"version":"7961495","steam_id":85568392925397852,"keywords":["nocrits","nodmgspread","payload","uncletopia"],"game_id":440,"stv_port":27036,"stv_name":"Uncletopia | Warsaw | 3 | All Maps | STV","players":null},{"server_id":52,"name":"Uncletopia | Warsaw | 4 | All Maps","name_short":"waw-4","host":"waw-1.pl.uncletopia.com","port":27045,"enabled":true,"region":"eu","cc":"pl","latitude":52.2297,"longitude":21.017532,"reserved":0,"last_update":"0001-01-01T00:00:00Z","name_a2s":"Uncletopia | Warsaw | 4 | All Maps","protocol":17,"map":"ctf_2fort","folder":"tf","game":"Team Fortress","app_id":440,"player_count":0,"max_players":24,"Bots":0,"server_type":"Dedicated","server_os":"Linux","password":true,"vac":true,"version":"7961495","steam_id":85568392925397853,"keywords":["ctf","nocrits","nodmgspread","uncletopia"],"game_id":440,"stv_port":27046,"stv_name":"Uncletopia | Warsaw | 4 | All Maps | STV","players":null},{"server_id":53,"name":"Uncletopia | Warsaw | 5 | Stopwatch","name_short":"waw-5","host":"waw-1.pl.uncletopia.com","port":27055,"enabled":true,"region":"eu","cc":"pl","latitude":52.2297,"longitude":21.017532,"reserved":0,"last_update":"0001-01-01T00:00:00Z","name_a2s":"Uncletopia | Warsaw | 5 | Stopwatch","protocol":17,"map":"koth_lakeside_final","folder":"tf","game":"Team Fortress","app_id":440,"player_count":0,"max_players":24,"Bots":0,"server_type":"Dedicated","server_os":"Linux","password":true,"vac":true,"version":"7961495","steam_id":85568392925397854,"keywords":["cp","nocrits","nodmgspread","uncletopia"],"game_id":440,"stv_port":27056,"stv_name":"Uncletopia | Warsaw | 5 | Stopwatch | STV","players":null},{"server_id":54,"name":"Uncletopia | Warsaw | 6 | Community","name_short":"waw-6","host":"waw-1.pl.uncletopia.com","port":27065,"enabled":true,"region":"eu","cc":"pl","latitude":52.2297,"longitude":21.017532,"reserved":0,"last_update":"0001-01-01T00:00:00Z","name_a2s":"Uncletopia | Warsaw | 6 | Community","protocol":17,"map":"workshop/cp_propaganda_b18.ugc1603743849","folder":"tf","game":"Team Fortress","app_id":440,"player_count":0,"max_players":24,"Bots":0,"server_type":"Dedicated","server_os":"Linux","password":true,"vac":true,"version":"7961495","steam_id":85568392925397856,"keywords":["cp","nocrits","nodmgspread","uncletopia"],"game_id":440,"stv_port":27066,"stv_name":"Uncletopia | Warsaw | 6 | Community | STV","players":null}]}