{"status":true,"message":"","result":[{"server_id":9,"name":"Uncletopia | Atlanta | 1 | All Maps","name_short":"atl-1","host":"atl-1.us.uncletopia.com","port":27015,"enabled":true,"region":"us-east","cc":"us","latitude":33.753746,"longitude":-84.38633,"reserved":0,"last_update":"0001-01-01T00:00:00Z","name_a2s":"Uncletopia | Atlanta | 1 | All Maps","protocol":17,"map":"cp_dustbowl","folder":"tf","game":"Team Fortress","app_id":440,"player_count":0,"max_players":24,"Bots":0,"server_type":"Dedicated","server_os":"Linux","password":true,"vac":true,"version":"7961495","steam_id":85568392924469982,"keywords":["cp","nocrits","nodmgspread","uncletopia"],"game_id":440,"stv_port":27016,"stv_name":"Uncletopia | Atlanta | 1 | All Maps | STV","players":null},{"server_id":104,"name":"Uncletopia | Atlanta | 2 | All Maps","name_short":"atl-2","host":"atl-1.us.uncletopia.com","port":27025,"enabled":true,"region":"us-east","cc":"us","latitude":33.753746,"longitude":-84.38633,"reserved":0,"last_update":"0001-01-01T00:00:00Z","name_a2s":"Uncletopia | Atlanta | 2 | All Maps","protocol":17,"map":"koth_cascade","folder":"tf","game":"Team Fortress","app_id":440,"player_count":0,"max_players":24,"Bots":0,"server_type":"Dedicated","server_os":"Linux","password":true,"vac":true,"version":"7961495","steam_id":85568392924469983,"keywords":["cp","nocrits","nodmgspread","uncletopia"],"game_id":440,"stv_port":27026,"stv_name":"Uncletopia | Atlanta | 2 | All Maps | STV","players":null},{"server_id":400,"name":"Uncletopia | Atlanta | 3 | Stopwatch","name_short":"atl-3","host":"atl-1.us.uncletopia.com","port":27035,"enabled":true,"region":"us-east","cc":"us","latitude":33.753746,"longitude":-84.38633,"reserved":0,"last_update":"0001-01-01T00:00:00Z","name_a2s":"Uncletopia | Atlanta | 3 | Stopwatch","protocol":17,"map":"pl_badwater","folder":"tf","game":"Team Fortress","app_id":440,"player_count":0,"max_players":24,"Bots":0,"server_type":"Dedicated","server_os":"Linux","password":true,"vac":true,"version":"7961495","steam_id":85568392924515187,"keywords":["nocrits","nodmgspread","payload","uncletopia"],"game_id":440,"stv_port":27036,"stv_name":"Uncletopia | Atlanta | 3 | Stopwatch | STV","players":null},{"server_id":401,"name":"Uncletopia | Atlanta | 4 | Community","name_short":"atl-4","host":"atl-1.us.uncletopia.com","port":27045,"enabled":true,"region":"us-east","cc":"us","latitude":33.753746,"longitude":-84.38633,"reserved":0,"last_update":"0001-01-01T00:00:00Z","name_a2s":"Uncletopia | Atlanta | 4 | Community","protocol":17,"map":"cp_sunshine","folder":"tf","game":"Team Fortress","app_id":440,"player_count":0,"max_players":24,"Bots":0,"server_type":"Dedicated","server_os":"Linux","password":true,"vac":true,"version":"7961495","steam_id":85568392924515188,"keywords":["cp","nocrits","nodmgspread","uncletopia"],"game_id":440,"stv_port":27046,"stv_name":"Uncletopia | Atlanta | 4 | Community | STV","players":null},{"server_id":2,"name":"Uncletopia | Chicago | 1 | All Maps","name_short":"chi-1","host":"chi-1.us.uncletopia.com","port":27015,"enabled":true,"region":"us-central","cc":"us","latitude":41.881832,"longitude":-87.62318,"reserved":0,"last_update":"0001-01-01T00:00:00Z","name_a2s":"Uncletopia | Chicago | 1 | All Maps","protocol":17,"map":"pl_snowycoast","folder":"tf","game":"Team Fortress","app_id":440,"player_count":24,"max_players":24,"Bots":0,"server_type":"Dedicated","server_os":"Linux","password":true,"vac":true,"version":"7961495","steam_id":85568392924469984,"keywords":["nocrits","nodmgspread","payload","uncletopia"],"game_id":440,"stv_port":27016,"stv_name":"Uncletopia | Chicago | 1 | All Maps | STV","players":[{"user_id":254,"name":"Sicko Mode (Chris Pratt Cover)","steam_id":76561198315786174,"connected_time":1852000000000,"state":"active","ping":93},{"user_id":190,"name":"DerpyNate","steam_id":76561198100249037,"connected_time":5795000000000,"state":"active","ping":39},{"user_id":267,"name":"TheAlmightyG","steam_id":76561198235946096,"connected_time":1000000000000,"state":"active","ping":98},{"user_id":261,"name":"Kraftlos","steam_id":76561198074350350,"connected_time":1523000000000,"state":"active","ping":77},{"user_id":262,"name":"cbv dsjlakflkwijipgjv3rp[tcv","steam_id":76561198304661367,"connected_time":1505000000000,"state":"active","ping":74},{"user_id":265,"name":"Syrup_Bottle","steam_id":76561198869174481,"connected_time":1152000000000,"state":"active","ping":87},{"user_id":237,"name":"your moms car","steam_id":76561199389283507,"connected_time":3025000000000,"state":"active","ping":75},{"user_id":221,"name":"Celestial Bodies","steam_id":76561198212572955,"connected_time":4059000000000,"state":"active","ping":84},{"user_id":270,"name":"Scuba Steve","steam_id":76561198313018251,"connected_time":368000000000,"state":"active","ping":84},{"user_id":256,"name":"Im High","steam_id":76561198049954886,"connected_time":1829000000000,"state":"active","ping":75},{"user_id":185,"name":"Coach McFish","steam_id":76561198210456405,"connected_time":6409000000000,"state":"active","ping":76},{"user_id":259,"name":"Florian","steam_id":76561197998901116,"connected_time":1665000000000,"state":"active","ping":74},{"user_id":224,"name":"snail2646","steam_id":76561198061411251,"connected_time":3932000000000,"state":"active","ping":45},{"user_id":253,"name":"what","steam_id":76561198082336619,"connected_time":1871000000000,"state":"active","ping":77},{"user_id":217,"name":"bagel cream cheese","steam_id":76561198017954785,"connected_time":4132000000000,"state":"active","ping":74},{"user_id":207,"name":"og biden pack cart","steam_id":76561198253731826,"connected_time":4760000000000,"state":"active","ping":59},{"user_id":268,"name":"Maximum Flame","steam_id":76561198073682529,"connected_time":784000000000,"state":"active","ping":39},{"user_id":232,"name":"THORNFIELDGAMER","steam_id":76561199087167473,"connected_time":3093000000000,"state":"active","ping":86},{"user_id":257,"name":"ThreatLvl 9 (she/her)","steam_id":76561198079410533,"connected_time":1824000000000,"state":"active","ping":72},{"user_id":258,"name":"mkl","steam_id":76561197986401685,"connected_time":1796000000000,"state":"active","ping":88},{"user_id":250,"name":"Vin","steam_id":76561198043601929,"connected_time":2149000000000,"state":"active","ping":120},{"user_id":252,"name":"Mr_Frosty","steam_id":76561199380389079,"connected_time":1900000000000,"state":"active","ping":85},{"user_id":166,"name":"Hazeyboi","steam_id":76561198130687838,"connected_time":8166000000000,"state":"active","ping":68},{"user_id":269,"name":"capybara","steam_id":76561198798828328,"connected_time":767000000000,"state":"active","ping":56}]},{"server_id":106,"name":"Uncletopia | Chicago | 2 | All Maps","name_short":"chi-2","host":"chi-1.us.uncletopia.com","port":27025,"enabled":true,"region":"us-central","cc":"us","latitude":41.881832,"longitude":-87.62318,"reserved":0,"last_update":"0001-01-01T00:00:00Z","name_a2s":"Uncletopia | Chicago | 2 | All Maps","protocol":17,"map":"pl_borneo","folder":"tf","game":"Team Fortress","app_id":440,"player_count":24,"max_players":24,"Bots":0,"server_type":"Dedicated","server_os":"Linux","password":true,"vac":true,"version":"7961495","steam_id":85568392924469985,"keywords":["nocrits","nodmgspread","payload","uncletopia"],"game_id":440,"stv_port":27026,"stv_name":"Uncletopia | Chicago | 2 | All Maps | STV","players":[{"user_id":369,"name":"Cupidmeh","steam_id":76561198138669654,"connected_time":546000000000,"state":"active","ping":68},{"user_id":303,"name":"Bishop","steam_id":76561198033860186,"connected_time":5024000000000,"state":"active","ping":85},{"user_id":354,"name":"The Glute Guardian","steam_id":76561198189330642,"connected_time":1428000000000,"state":"active","ping":105},{"user_id":367,"name":"Dr_Cecil","steam_id":76561198873862113,"connected_time":682000000000,"state":"active","ping":104},{"user_id":334,"name":"pelt","steam_id":76561197993593754,"connected_time":3138000000000,"state":"active","ping":49},{"user_id":372,"name":"Takumi Fujiwara","steam_id":76561198146281101,"connected_time":490000000000,"state":"active","ping":76},{"user_id":373,"name":"•Scooby-Douche•","steam_id":76561197998922428,"connected_time":462000000000,"state":"active","ping":60},{"user_id":375,"name":"Toondogjoe","steam_id":76561198117533625,"connected_time":415000000000,"state":"active","ping":55},{"user_id":368,"name":"Mailguy","steam_id":76561199066183834,"connected_time":585000000000,"state":"active","ping":56},{"user_id":382,"name":"flimsy steve","steam_id":76561198421249296,"connected_time":116000000000,"state":"active","ping":80},{"user_id":353,"name":"Oh, it's Zach","steam_id":76561198103309672,"connected_time":1435000000000,"state":"active","ping":56},{"user_id":347,"name":"Gnome Tank","steam_id":76561198984179092,"connected_time":2125000000000,"state":"active","ping":79},{"user_id":377,"name":"NeoWolf","steam_id":76561198144759784,"connected_time":361000000000,"state":"active","ping":96},{"user_id":378,"name":"dave strider","steam_id":76561198065112186,"connected_time":359000000000,"state":"active","ping":76},{"user_id":305,"name":"Ajax","steam_id":76561197962240140,"connected_time":4908000000000,"state":"active","ping":58},{"user_id":328,"name":"BIG-GER BOSS","steam_id":76561198097981127,"connected_time":3790000000000,"state":"active","ping":90},{"user_id":370,"name":"Neopyth","steam_id":76561198031868427,"connected_time":542000000000,"state":"active","ping":65},{"user_id":383,"name":"Chaos","steam_id":76561199068325065,"connected_time":58000000000,"state":"active","ping":91},{"user_id":379,"name":"LocaKola","steam_id":76561198173435430,"connected_time":329000000000,"state":"active","ping":71},{"user_id":371,"name":"Fentanyl Frank","steam_id":76561198225910596,"connected_time":527000000000,"state":"active","ping":60},{"user_id":380,"name":"Seaport Hime","steam_id":76561198055914224,"connected_time":321000000000,"state":"active","ping":71},{"user_id":357,"name":"Pie™","steam_id":76561198158312625,"connected_time":1239000000000,"state":"active","ping":115},{"user_id":358,"name":"SandHanitizer","steam_id":76561198234676500,"connected_time":1218000000000,"state":"active","ping":71},{"user_id":359,"name":"abel","steam_id":76561199401467297,"connected_time":1194000000000,"state":"active","ping":164}]},{"server_id":402,"name":"Uncletopia | Chicago | 3 | All Maps","name_short":"chi-3","host":"chi-1.us.uncletopia.com","port":27035,"enabled":true,"region":"us-central","cc":"us","latitude":41.881832,"longitude":-87.62318,"reserved":0,"last_update":"0001-01-01T00:00:00Z","name_a2s":"Uncletopia | Chicago | 3 | All Maps","protocol":17,"map":"pl_snowycoast","folder":"tf","game":"Team Fortress","app_id":440,"player_count":24,"max_players":24,"Bots":0,"server_type":"Dedicated","server_os":"Linux","password":true,"vac":true,"version":"7961495","steam_id":85568392924515191,"keywords":["nocrits","nodmgspread","payload","uncletopia"],"game_id":440,"stv_port":27036,"stv_name":"Uncletopia | Chicago | 3 | All Maps | STV","players":[{"user_id":19,"name":"101_the_Robot","steam_id":76561198331039848,"connected_time":2479000000000,"state":"active","ping":142},{"user_id":53,"name":"callum","steam_id":76561198070918366,"connected_time":137000000000,"state":"active","ping":61},{"user_id":55,"name":"CHIEF_JUSTICE_FUCKASS","steam_id":76561199261675844,"connected_time":103000000000,"state":"active","ping":100},{"user_id":56,"name":"erf","steam_id":76561198078203677,"connected_time":95000000000,"state":"active","ping":70},{"user_id":42,"name":"Triforce141","steam_id":76561198063896776,"connected_time":850000000000,"state":"active","ping":60},{"user_id":26,"name":"6 million bees","steam_id":76561198400438007,"connected_time":1453000000000,"state":"active","ping":54},{"user_id":28,"name":"crispylego_","steam_id":76561199453679719,"connected_time":1169000000000,"state":"active","ping":116},{"user_id":30,"name":"polarbub","steam_id":76561198991022799,"connected_time":1067000000000,"state":"active","ping":56},{"user_id":52,"name":"aphexjh","steam_id":76561197985854658,"connected_time":199000000000,"state":"active","ping":64},{"user_id":32,"name":"artemisjackson2","steam_id":76561199094686268,"connected_time":1044000000000,"state":"active","ping":76},{"user_id":57,"name":"metalfan666","steam_id":76561198386344068,"connected_time":21000000000,"state":"spawning","ping":79},{"user_id":35,"name":"Brastion","steam_id":76561198257707303,"connected_time":957000000000,"state":"active","ping":86},{"user_id":36,"name":"DeadlyPinkSheep","steam_id":76561198271773858,"connected_time":892000000000,"state":"active","ping":84},{"user_id":37,"name":"a mouse with a gun","steam_id":76561198066154333,"connected_time":891000000000,"state":"active","ping":92},{"user_id":38,"name":"KayleMyself","steam_id":76561198100177108,"connected_time":880000000000,"state":"active","ping":70},{"user_id":39,"name":"Maroo","steam_id":76561198858353573,"connected_time":878000000000,"state":"active","ping":77},{"user_id":40,"name":"Tara","steam_id":76561198020696265,"connected_time":878000000000,"state":"active","ping":68},{"user_id":41,"name":"Feet Bandit","steam_id":76561199152252878,"connected_time":873000000000,"state":"active","ping":82},{"user_id":45,"name":"stivanaker","steam_id":76561198346276579,"connected_time":789000000000,"state":"active","ping":90},{"user_id":46,"name":"BIG LION","steam_id":76561198091880358,"connected_time":778000000000,"state":"active","ping":49},{"user_id":47,"name":"Alpine","steam_id":76561198436177465,"connected_time":762000000000,"state":"active","ping":61},{"user_id":48,"name":"Kartyac","steam_id":76561197991069005,"connected_time":755000000000,"state":"active","ping":77},{"user_id":49,"name":"scauroboros","steam_id":76561198279392720,"connected_time":739000000000,"state":"active","ping":67},{"user_id":51,"name":"Team Fortress 3.141592653589793","steam_id":76561198255964493,"connected_time":691000000000,"state":"active","ping":64}]},{"server_id":403,"name":"Uncletopia | Chicago | 4 | All Maps","name_short":"chi-4","host":"chi-1.us.uncletopia.com","port":27045,"enabled":true,"region":"us-central","cc":"us","latitude":41.881832,"longitude":-87.62318,"reserved":0,"last_update":"0001-01-01T00:00:00Z","name_a2s":"Uncletopia | Chicago | 4 | All Maps","protocol":17,"map":"pl_upward","folder":"tf","game":"Team Fortress","app_id":440,"player_count":23,"max_players":24,"Bots":0,"server_type":"Dedicated","server_os":"Linux","password":true,"vac":true,"version":"7961495","steam_id":85568392924515193,"keywords":["nocrits","nodmgspread","payload","uncletopia"],"game_id":440,"stv_port":27046,"stv_name":"Uncletopia | Chicago | 4 | All Maps | STV","players":[{"user_id":460,"name":"JucaPirama","steam_id":76561198004473680,"connected_time":2260000000000,"state":"active","ping":171},{"user_id":503,"name":"ATL1 | to4st","steam_id":76561198981009008,"connected_time":82000000000,"state":"active","ping":52},{"user_id":504,"name":"Broadsword #LGM","steam_id":76561198011160411,"connected_time":48000000000,"state":"active","ping":94},{"user_id":478,"name":"shadowtaco69","steam_id":76561198112453714,"connected_time":1583000000000,"state":"active","ping":88},{"user_id":414,"name":"SexySpectacles","steam_id":76561198211449103,"connected_time":6585000000000,"state":"active","ping":54},{"user_id":493,"name":"LadyAnon","steam_id":76561198014709418,"connected_time":847000000000,"state":"active","ping":58},{"user_id":498,"name":"yum","steam_id":76561199103766971,"connected_time":432000000000,"state":"active","ping":82},{"user_id":481,"name":"D(b) Hell","steam_id":76561198067869016,"connected_time":1288000000000,"state":"active","ping":44},{"user_id":489,"name":"twitch.tv/kegaman_","steam_id":76561198043632775,"connected_time":1015000000000,"state":"active","ping":106},{"user_id":467,"name":"The All-Seeing Tim","steam_id":76561198075510786,"connected_time":2038000000000,"state":"active","ping":71},{"user_id":462,"name":"cognitiveAfflatus","steam_id":76561198295181426,"connected_time":2231000000000,"state":"active","ping":74},{"user_id":469,"name":"if looks could kill","steam_id":76561198117505303,"connected_time":1976000000000,"state":"active","ping":75},{"user_id":439,"name":"Bobato Chaps","steam_id":76561198065103552,"connected_time":3824000000000,"state":"active","ping":46},{"user_id":491,"name":"Bookmark","steam_id":76561198210918443,"connected_time":904000000000,"state":"active","ping":114},{"user_id":435,"name":"Window Licker #pride","steam_id":76561198386717007,"connected_time":5024000000000,"state":"active","ping":48},{"user_id":451,"name":"guy","steam_id":76561198079925551,"connected_time":2684000000000,"state":"active","ping":63},{"user_id":502,"name":"Once in a Lifetime","steam_id":76561199180652178,"connected_time":308000000000,"state":"active","ping":91},{"user_id":500,"name":"Loading...","steam_id":76561199275152622,"connected_time":406000000000,"state":"active","ping":58},{"user_id":492,"name":"UwU","steam_id":76561198971629959,"connected_time":878000000000,"state":"active","ping":148},{"user_id":482,"name":"gaming elliptical","steam_id":76561198013456569,"connected_time":1259000000000,"state":"active","ping":46},{"user_id":501,"name":"A Cat","steam_id":76561198221549132,"connected_time":370000000000,"state":"active","ping":128},{"user_id":497,"name":"chrissweep","steam_id":76561198072826791,"connected_time":459000000000,"state":"active","ping":72},{"user_id":494,"name":"Lilith","steam_id":76561198125102885,"connected_time":639000000000,"state":"active","ping":72}]},{"server_id":36,"name":"Uncletopia | Chicago | 5 | All Maps","name_short":"chi-5","host":"chi-2.us.uncletopia.com","port":27015,"enabled":true,"region":"us-central","cc":"us","latitude":41.881832,"longitude":-87.62318,"reserved":0,"last_update":"0001-01-01T00:00:00Z","name_a2s":"Uncletopia | Chicago | 5 | All Maps","protocol":17,"map":"koth_viaduct","folder":"tf","game":"Team Fortress","app_id":440,"player_count":24,"max_players":24,"Bots":0,"server_type":"Dedicated","server_os":"Linux","password":true,"vac":true,"version":"7961495","steam_id":85568392924866362,"keywords":["cp","nocrits","nodmgspread","uncletopia"],"game_id":440,"stv_port":27016,"stv_name":"Uncletopia | Chicago | 5 | All Maps | STV","players":[{"user_id":326,"name":"gillmore.samuel","steam_id":76561198109742336,"connected_time":3065000000000,"state":"active","ping":70},{"user_id":364,"name":"Novu","steam_id":76561198886997024,"connected_time":485000000000,"state":"active","ping":88},{"user_id":352,"name":"bookreader","steam_id":76561198978568007,"connected_time":1401000000000,"state":"active","ping":54},{"user_id":320,"name":"鸡炒面组合板","steam_id":76561198032627384,"connected_time":3495000000000,"state":"active","ping":110},{"user_id":370,"name":"The Fiend","steam_id":76561199229771413,"connected_time":223000000000,"state":"active","ping":57},{"user_id":367,"name":"Yummy Kabobz","steam_id":76561198067661705,"connected_time":297000000000,"state":"active","ping":67},{"user_id":328,"name":"gunna sayit","steam_id":76561198034339940,"connected_time":2983000000000,"state":"active","ping":59},{"user_id":310,"name":"graham crackr","steam_id":76561199072720886,"connected_time":4207000000000,"state":"active","ping":59},{"user_id":331,"name":"mini boss","steam_id":76561198062763756,"connected_time":2810000000000,"state":"active","ping":52},{"user_id":351,"name":"Sayeun","steam_id":76561198020835288,"connected_time":1940000000000,"state":"active","ping":112},{"user_id":354,"name":"Fatass Hennessy Sargent","steam_id":76561198363267009,"connected_time":1177000000000,"state":"active","ping":74},{"user_id":348,"name":"single celled organism","steam_id":76561199217620385,"connected_time":2104000000000,"state":"active","ping":66},{"user_id":358,"name":"Nyriss","steam_id":76561198098631397,"connected_time":1129000000000,"state":"active","ping":60},{"user_id":319,"name":"Training Bot [Easy]","steam_id":76561199119473164,"connected_time":3520000000000,"state":"active","ping":80},{"user_id":362,"name":"kohlhagen","steam_id":76561198120440587,"connected_time":886000000000,"state":"active","ping":66},{"user_id":363,"name":"Socko","steam_id":76561198114482437,"connected_time":682000000000,"state":"active","ping":66},{"user_id":368,"name":"Le Meilleur","steam_id":76561198054581325,"connected_time":277000000000,"state":"active","ping":61},{"user_id":349,"name":"B.","steam_id":76561198040445907,"connected_time":2036000000000,"state":"active","ping":74},{"user_id":361,"name":"Oh No! It's Twister!","steam_id":76561198016791916,"connected_time":979000000000,"state":"active","ping":90},{"user_id":371,"name":"lu","steam_id":76561198080731872,"connected_time":20000000000,"state":"active","ping":77},{"user_id":356,"name":"Modest","steam_id":76561198065643694,"connected_time":1146000000000,"state":"active","ping":86},{"user_id":369,"name":"the flying spoon","steam_id":76561199039152146,"connected_time":271000000000,"state":"active","ping":76},{"user_id":359,"name":"Nen","steam_id":76561198893347370,"connected_time":1111000000000,"state":"active","ping":112},{"user_id":360,"name":"Hot Cheese Sundae","steam_id":76561198061189527,"connected_time":1106000000000,"state":"active","ping":74}]},{"server_id":37,"name":"Uncletopia | Chicago | 6 | All Maps","name_short":"chi-6","host":"chi-2.us.uncletopia.com","port":27025,"enabled":true,"region":"us-central","cc":"us","latitude":41.881832,"longitude":-87.62318,"reserved":0,"last_update":"0001-01-01T00:00:00Z","name_a2s":"Uncletopia | Chicago | 6 | All Maps","protocol":17,"map":"pl_pier","folder":"tf","game":"Team Fortress","app_id":440,"player_count":24,"max_players":24,"Bots":0,"server_type":"Dedicated","server_os":"Linux","password":true,"vac":true,"version":"7961495","steam_id":85568392924866363,"keywords":["nocrits","nodmgspread","payload","uncletopia"],"game_id":440,"stv_port":27026,"stv_name":"Uncletopia | Chicago | 6 | All Maps | STV","players":[{"user_id":60,"name":"jimmyfnaf172198yay","steam_id":76561198311446636,"connected_time":1221000000000,"state":"active","ping":60},{"user_id":61,"name":"THGAwesome","steam_id":76561198162847218,"connected_time":1210000000000,"state":"active","ping":105},{"user_id":42,"name":"Lex","steam_id":76561198069948353,"connected_time":2807000000000,"state":"active","ping":89},{"user_id":52,"name":"its chicken casserole not cum","steam_id":76561198113156438,"connected_time":1656000000000,"state":"active","ping":50},{"user_id":80,"name":"economy","steam_id":76561198221128984,"connected_time":227000000000,"state":"active","ping":61},{"user_id":63,"name":"The Looker","steam_id":76561198272961376,"connected_time":1144000000000,"state":"active","ping":86},{"user_id":49,"name":"cool beans","steam_id":76561198321591685,"connected_time":2433000000000,"state":"active","ping":82},{"user_id":64,"name":"DJpocalypse","steam_id":76561199230125964,"connected_time":1098000000000,"state":"active","ping":94},{"user_id":58,"name":"BumpofNight","steam_id":76561198011581312,"connected_time":1250000000000,"state":"active","ping":91},{"user_id":46,"name":"Future Tusk","steam_id":76561198199635217,"connected_time":2588000000000,"state":"active","ping":110},{"user_id":70,"name":"suns","steam_id":76561198079583278,"connected_time":759000000000,"state":"active","ping":45},{"user_id":57,"name":"Nilantive","steam_id":76561198177565082,"connected_time":1258000000000,"state":"active","ping":70},{"user_id":66,"name":"Windup Monkey in a Human Suit","steam_id":76561198119501444,"connected_time":860000000000,"state":"active","ping":108},{"user_id":22,"name":"MTGbigdog","steam_id":76561198838760637,"connected_time":3426000000000,"state":"active","ping":89},{"user_id":41,"name":"Scrux","steam_id":76561198129763115,"connected_time":2909000000000,"state":"active","ping":110},{"user_id":81,"name":"Jeff","steam_id":76561198050929005,"connected_time":131000000000,"state":"active","ping":60},{"user_id":75,"name":"Krodonet","steam_id":76561197970268796,"connected_time":298000000000,"state":"active","ping":69},{"user_id":59,"name":"RyInc","steam_id":76561198874261643,"connected_time":1226000000000,"state":"active","ping":52},{"user_id":50,"name":"Mr.brapswason","steam_id":76561198313133260,"connected_time":1953000000000,"state":"active","ping":39},{"user_id":31,"name":"Bunt","steam_id":76561198124477567,"connected_time":3271000000000,"state":"active","ping":66},{"user_id":76,"name":"twizted","steam_id":76561197960407274,"connected_time":294000000000,"state":"active","ping":68},{"user_id":33,"name":"✨ Rarity ✨","steam_id":76561199172206856,"connected_time":3250000000000,"state":"active","ping":79},{"user_id":65,"name":"Sage","steam_id":76561198882715575,"connected_time":1084000000000,"state":"active","ping":78},{"user_id":78,"name":"Candy Sparkles","steam_id":76561198126871264,"connected_time":270000000000,"state":"active","ping":85}]},{"server_id":38,"name":"Uncletopia | Chicago | 7 | Stopwatch","name_short":"chi-7","host":"chi-2.us.uncletopia.com","port":27035,"enabled":true,"region":"us-central","cc":"us","latitude":41.881832,"longitude":-87.62318,"reserved":0,"last_update":"0001-01-01T00:00:00Z","name_a2s":"Uncletopia | Chicago | 7 | Stopwatch","protocol":17,"map":"workshop/koth_ramjam_rc1.ugc459778887","folder":"tf","game":"Team Fortress","app_id":440,"player_count":0,"max_players":24,"Bots":0,"server_type":"Dedicated","server_os":"Linux","password":true,"vac":true,"version":"7961495","steam_id":85568392924866364,"keywords":["cp","nocrits","nodmgspread","uncletopia"],"game_id":440,"stv_port":27036,"stv_name":"Uncletopia | Chicago | 7 | Stopwatch | STV","players":null},{"server_id":39,"name":"Uncletopia | Chicago | 8 | Community","name_short":"chi-8","host":"chi-2.us.uncletopia.com","port":27045,"enabled":true,"region":"us-central","cc":"us","latitude":41.881832,"longitude":-87.62318,"reserved":0,"last_update":"0001-01-01T00:00:00Z","name_a2s":"Uncletopia | Chicago | 8 | Community","protocol":17,"map":"workshop/koth_slaughter_rc1.ugc1712845210","folder":"tf","game":"Team Fortress","app_id":440,"player_count":0,"max_players":24,"Bots":0,"server_type":"Dedicated","server_os":"Linux","password":true,"vac":true,"version":"7961495","steam_id":85568392924866365,"keywords":["cp","nocrits","nodmgspread","uncletopia"],"game_id":440,"stv_port":27046,"stv_name":"Uncletopia | Chicago | 8 | Community | STV","players":null},{"server_id":8,"name":"Uncletopia | Dallas | 1 | All Maps","name_short":"dal-1","host":"dal-1.us.uncletopia.com","port":27015,"enabled":true,"region":"us-central","cc":"us","latitude":32.779167,"longitude":-96.80889,"reserved":0,"last_update":"0001-01-01T00:00:00Z","name_a2s":"Uncletopia | Dallas | 1 | All Maps","protocol":17,"map":"cp_dustbowl","folder":"tf","game":"Team Fortress","app_id":440,"player_count":24,"max_players":24,"Bots":0,"server_type":"Dedicated","server_os":"Linux","password":true,"vac":true,"version":"7961495","steam_id":85568392924469986,"keywords":["cp","nocrits","nodmgspread","uncletopia"],"game_id":440,"stv_port":27016,"stv_name":"Uncletopia | Dallas | 1 | All Maps | STV","players":[{"user_id":182,"name":"MapleSyrup","steam_id":76561199222442855,"connected_time":509000000000,"state":"active","ping":82},{"user_id":183,"name":"Gungus Dingaling","steam_id":76561198018270898,"connected_time":441000000000,"state":"active","ping":54},{"user_id":185,"name":"DivineBanana","steam_id":76561198026529731,"connected_time":411000000000,"state":"active","ping":95},{"user_id":157,"name":"imng","steam_id":76561198014988031,"connected_time":2703000000000,"state":"active","ping":70},{"user_id":171,"name":"MidSobbes08","steam_id":76561199013101925,"connected_time":1521000000000,"state":"active","ping":150},{"user_id":143,"name":"Charlie","steam_id":76561198798127908,"connected_time":3159000000000,"state":"active","ping":88},{"user_id":137,"name":"Ferguson","steam_id":76561198121349387,"connected_time":4293000000000,"state":"active","ping":62},{"user_id":179,"name":"Pim","steam_id":76561198046050375,"connected_time":821000000000,"state":"active","ping":92},{"user_id":184,"name":"neet","steam_id":76561197968115168,"connected_time":438000000000,"state":"active","ping":73},{"user_id":186,"name":"ark","steam_id":76561198041066271,"connected_time":405000000000,"state":"active","ping":66},{"user_id":167,"name":"ez$ airballer","steam_id":76561198165899125,"connected_time":1677000000000,"state":"active","ping":89},{"user_id":187,"name":"Primordial pouch","steam_id":76561198077993687,"connected_time":390000000000,"state":"active","ping":91},{"user_id":162,"name":"INFINITE","steam_id":76561197971285557,"connected_time":2200000000000,"state":"active","ping":83},{"user_id":194,"name":"Fishstall","steam_id":76561198038126034,"connected_time":62000000000,"state":"active","ping":72},{"user_id":158,"name":"Soapbar","steam_id":76561198081714169,"connected_time":2665000000000,"state":"active","ping":98},{"user_id":189,"name":"Spareee","steam_id":76561199082942101,"connected_time":343000000000,"state":"active","ping":95},{"user_id":159,"name":"A Gamer [F2P]","steam_id":76561198138712892,"connected_time":2366000000000,"state":"active","ping":39},{"user_id":168,"name":"chrisd149","steam_id":76561198018710480,"connected_time":1663000000000,"state":"active","ping":87},{"user_id":169,"name":"Palpy","steam_id":76561198165608201,"connected_time":1656000000000,"state":"active","ping":45},{"user_id":193,"name":"giant_dork","steam_id":76561199105606956,"connected_time":196000000000,"state":"active","ping":82},{"user_id":191,"name":"Tritium","steam_id":76561198043305626,"connected_time":340000000000,"state":"active","ping":101},{"user_id":148,"name":"Voodo133","steam_id":76561198042670351,"connected_time":3081000000000,"state":"active","ping":98},{"user_id":181,"name":"DlTTO","steam_id":76561199427026752,"connected_time":582000000000,"state":"active","ping":98},{"user_id":176,"name":"rawrski","steam_id":76561197972464020,"connected_time":1292000000000,"state":"active","ping":88}]},{"server_id":108,"name":"Uncletopia | Dallas | 2 | All Maps","name_short":"dal-2","host":"dal-1.us.uncletopia.com","port":27025,"enabled":true,"region":"us-central","cc":"us","latitude":32.779167,"longitude":-96.80889,"reserved":0,"last_update":"0001-01-01T00:00:00Z","name_a2s":"Uncletopia | Dallas | 2 | All Maps","protocol":17,"map":"pl_pier","folder":"tf","game":"Team Fortress","app_id":440,"player_count":24,"max_players":24,"Bots":0,"server_type":"Dedicated","server_os":"Linux","password":true,"vac":true,"version":"7961495","steam_id":85568392924469988,"keywords":["nocrits","nodmgspread","payload","uncletopia"],"game_id":440,"stv_port":27026,"stv_name":"Uncletopia | Dallas | 2 | All Maps | STV","players":[{"user_id":209,"name":"Crescent","steam_id":76561198095124633,"connected_time":3758000000000,"state":"active","ping":71},{"user_id":174,"name":"NFL.com","steam_id":76561198113405376,"connected_time":7476000000000,"state":"active","ping":81},{"user_id":207,"name":"Brandino!","steam_id":76561198000446932,"connected_time":3788000000000,"state":"active","ping":101},{"user_id":231,"name":"Intrepid","steam_id":76561198125321034,"connected_time":1812000000000,"state":"active","ping":73},{"user_id":210,"name":"Mana_Kaktus","steam_id":76561198110468307,"connected_time":3748000000000,"state":"active","ping":94},{"user_id":158,"name":"Neptune˖⁺｡˚⋆˙♥","steam_id":76561199054203198,"connected_time":9156000000000,"state":"active","ping":79},{"user_id":240,"name":"get scrongled, idiot","steam_id":76561198115874625,"connected_time":435000000000,"state":"active","ping":96},{"user_id":242,"name":"gooselover42069","steam_id":76561198059562839,"connected_time":144000000000,"state":"active","ping":68},{"user_id":159,"name":"Kc","steam_id":76561198210734407,"connected_time":9153000000000,"state":"active","ping":54},{"user_id":187,"name":"Verily","steam_id":76561198200558318,"connected_time":6112000000000,"state":"active","ping":77},{"user_id":241,"name":"RoyalDrum","steam_id":76561198124224197,"connected_time":435000000000,"state":"active","ping":55},{"user_id":226,"name":"ttv/thedittoguy (birthday today","steam_id":76561199013129784,"connected_time":2568000000000,"state":"active","ping":56},{"user_id":205,"name":"schmuck","steam_id":76561198143789773,"connected_time":4176000000000,"state":"active","ping":53},{"user_id":220,"name":"TechnoBear2099","steam_id":76561198238863596,"connected_time":2967000000000,"state":"active","ping":46},{"user_id":215,"name":"The Caretaker","steam_id":76561198125241411,"connected_time":3615000000000,"state":"active","ping":100},{"user_id":123,"name":"Greasy Guavas","steam_id":76561198089650428,"connected_time":13487000000000,"state":"active","ping":65},{"user_id":224,"name":"DrSkizerz","steam_id":76561199192964063,"connected_time":2607000000000,"state":"active","ping":54},{"user_id":235,"name":"lynks disease no sound","steam_id":76561198043465434,"connected_time":1627000000000,"state":"active","ping":90},{"user_id":218,"name":"TrashPanda (she/her)","steam_id":76561198447864095,"connected_time":3072000000000,"state":"active","ping":63},{"user_id":216,"name":"Big Yoshi","steam_id":76561199160576376,"connected_time":3594000000000,"state":"active","ping":97},{"user_id":228,"name":"An Engineer","steam_id":76561198110381643,"connected_time":2489000000000,"state":"active","ping":48},{"user_id":244,"name":"Menacing","steam_id":76561198009093788,"connected_time":77000000000,"state":"active","ping":46},{"user_id":239,"name":"men kisser","steam_id":76561199026721822,"connected_time":469000000000,"state":"active","ping":113},{"user_id":238,"name":"TOKENLIZARD","steam_id":76561198218765205,"connected_time":471000000000,"state":"active","ping":54}]},{"server_id":404,"name":"Uncletopia | Dallas | 3 | All Maps","name_short":"dal-3","host":"dal-1.us.uncletopia.com","port":27035,"enabled":true,"region":"us-central","cc":"us","latitude":32.779167,"longitude":-96.80889,"reserved":0,"last_update":"0001-01-01T00:00:00Z","name_a2s":"Uncletopia | Dallas | 3 | All Maps","protocol":17,"map":"koth_cascade","folder":"tf","game":"Team Fortress","app_id":440,"player_count":0,"max_players":24,"Bots":0,"server_type":"Dedicated","server_os":"Linux","password":true,"vac":true,"version":"7961495","steam_id":85568392924515219,"keywords":["cp","nocrits","nodmgspread","uncletopia"],"game_id":440,"stv_port":27036,"stv_name":"Uncletopia | Dallas | 3 | All Maps | STV","players":null},{"server_id":405,"name":"Uncletopia | Dallas | 4 | Community","name_short":"dal-4","host":"dal-1.us.uncletopia.com","port":27045,"enabled":true,"region":"us-central","cc":"us","latitude":32.779167,"longitude":-96.80889,"reserved":0,"last_update":"0001-01-01T00:00:00Z","name_a2s":"Uncletopia | Dallas | 4 | Community","protocol":17,"map":"workshop/cp_hazyfort_rc6.ugc1365963729","folder":"tf","game":"Team Fortress","app_id":440,"player_count":0,"max_players":24,"Bots":0,"server_type":"Dedicated","server_os":"Linux","password":true,"vac":true,"version":"7961495","steam_id":85568392924515220,"keywords":["cp","nocrits","nodmgspread","uncletopia"],"game_id":440,"stv_port":27046,"stv_name":"Uncletopia | Dallas | 4 | Community | STV","players":null},{"server_id":5,"name":"Uncletopia | Frankfurt | 1 | All Maps","name_short":"frk-1","host":"frk-1.de.uncletopia.com","port":27015,"enabled":true,"region":"eu","cc":"de","latitude":50.110924,"longitude":8.682127,"reserved":0,"last_update":"0001-01-01T00:00:00Z","name_a2s":"Uncletopia | Frankfurt | 1 | All Maps","protocol":17,"map":"pl_barnblitz","folder":"tf","game":"Team Fortress","app_id":440,"player_count":24,"max_players":24,"Bots":0,"server_type":"Dedicated","server_os":"Linux","password":true,"vac":true,"version":"7961495","steam_id":85568392924469989,"keywords":["nocrits","nodmgspread","payload","uncletopia"],"game_id":440,"stv_port":27016,"stv_name":"Uncletopia | Frankfurt | 1 | All Maps | STV","players":[{"user_id":557,"name":"Conan the Librarian","steam_id":76561198007224654,"connected_time":3873000000000,"state":"active","ping":90},{"user_id":607,"name":"Demegod","steam_id":76561198824513098,"connected_time":304000000000,"state":"active","ping":88},{"user_id":609,"name":"tone' (real)","steam_id":76561198055552635,"connected_time":257000000000,"state":"active","ping":45},{"user_id":591,"name":"rocze","steam_id":76561198088280730,"connected_time":1796000000000,"state":"active","ping":68},{"user_id":564,"name":"chachiply","steam_id":76561198316355509,"connected_time":3567000000000,"state":"active","ping":67},{"user_id":613,"name":"grr","steam_id":76561199429407130,"connected_time":55000000000,"state":"active","ping":91},{"user_id":586,"name":"Swagmaster","steam_id":76561198045828392,"connected_time":2041000000000,"state":"active","ping":70},{"user_id":574,"name":"NoobfromHell","steam_id":76561198394221491,"connected_time":2688000000000,"state":"active","ping":60},{"user_id":575,"name":"The Chosen One","steam_id":76561199046984627,"connected_time":2672000000000,"state":"active","ping":171},{"user_id":594,"name":"chillrend_morphs_high_lod6","steam_id":76561198452963141,"connected_time":1594000000000,"state":"active","ping":79},{"user_id":552,"name":"Cataleptic","steam_id":76561197997966949,"connected_time":3996000000000,"state":"active","ping":71},{"user_id":610,"name":"U SUX","steam_id":76561199231759121,"connected_time":255000000000,"state":"active","ping":106},{"user_id":597,"name":"ducks","steam_id":76561198166148685,"connected_time":1554000000000,"state":"active","ping":45},{"user_id":603,"name":"Eliazz","steam_id":76561198374651481,"connected_time":837000000000,"state":"active","ping":72},{"user_id":611,"name":"Perpetual Pub Push","steam_id":76561198256714846,"connected_time":105000000000,"state":"active","ping":46},{"user_id":606,"name":"Dr.Disrespect","steam_id":76561198043820228,"connected_time":475000000000,"state":"active","ping":48},{"user_id":612,"name":"Manic Miner","steam_id":76561197971870923,"connected_time":98000000000,"state":"active","ping":91},{"user_id":599,"name":"Prism","steam_id":76561198043129088,"connected_time":1456000000000,"state":"active","ping":62},{"user_id":588,"name":"Cosmetic brain","steam_id":76561198055936410,"connected_time":1898000000000,"state":"active","ping":86},{"user_id":596,"name":"Nomakh","steam_id":76561198096414653,"connected_time":1581000000000,"state":"active","ping":80},{"user_id":561,"name":"Don Fatman","steam_id":76561198448963229,"connected_time":3834000000000,"state":"active","ping":59},{"user_id":569,"name":"cherrypowder","steam_id":76561199006915718,"connected_time":2997000000000,"state":"active","ping":68},{"user_id":562,"name":"BaronVonKoblih","steam_id":76561198128206729,"connected_time":3833000000000,"state":"active","ping":58},{"user_id":601,"name":"max","steam_id":76561198039534890,"connected_time":976000000000,"state":"active","ping":92}]},{"server_id":110,"name":"Uncletopia | Frankfurt | 2 | All Maps","name_short":"frk-2","host":"frk-1.de.uncletopia.com","port":27025,"enabled":true,"region":"eu","cc":"de","latitude":50.110924,"longitude":8.682127,"reserved":0,"last_update":"0001-01-01T00:00:00Z","name_a2s":"Uncletopia | Frankfurt | 2 | All Maps","protocol":17,"map":"cp_sunshine","folder":"tf","game":"Team Fortress","app_id":440,"player_count":17,"max_players":24,"Bots":0,"server_type":"Dedicated","server_os":"Linux","password":true,"vac":true,"version":"7961495","steam_id":85568392924469990,"keywords":["cp","nocrits","nodmgspread","uncletopia"],"game_id":440,"stv_port":27026,"stv_name":"Uncletopia | Frankfurt | 2 | All Maps | STV","players":[{"user_id":585,"name":"Boi","steam_id":76561198387049078,"connected_time":2584000000000,"state":"active","ping":172},{"user_id":609,"name":"Vershal Smershal","steam_id":76561198116223995,"connected_time":925000000000,"state":"active","ping":68},{"user_id":616,"name":"Visphiric - Ping Comms Only","steam_id":76561198071938027,"connected_time":10000000000,"state":"active","ping":99},{"user_id":573,"name":"Duncle322","steam_id":76561198258257247,"connected_time":3344000000000,"state":"active","ping":77},{"user_id":582,"name":"Sesse","steam_id":76561198254375590,"connected_time":2714000000000,"state":"active","ping":109},{"user_id":578,"name":"identity","steam_id":76561198120668070,"connected_time":3008000000000,"state":"active","ping":59},{"user_id":610,"name":"steck","steam_id":76561197973948113,"connected_time":869000000000,"state":"active","ping":45},{"user_id":595,"name":"BuzzBees ❤","steam_id":76561198101502273,"connected_time":1922000000000,"state":"active","ping":80},{"user_id":596,"name":"FJADL","steam_id":76561198237008214,"connected_time":1887000000000,"state":"active","ping":64},{"user_id":605,"name":"agent youppii","steam_id":76561198055264447,"connected_time":1271000000000,"state":"active","ping":71},{"user_id":613,"name":"KittyKate ❤","steam_id":76561198116340817,"connected_time":665000000000,"state":"active","ping":101},{"user_id":590,"name":"Mr.Shpee","steam_id":76561198158701474,"connected_time":2451000000000,"state":"active","ping":76},{"user_id":598,"name":"Zamorocian","steam_id":76561198076604017,"connected_time":1838000000000,"state":"active","ping":49},{"user_id":604,"name":"Bajas","steam_id":76561198179339326,"connected_time":1423000000000,"state":"active","ping":75},{"user_id":611,"name":"distinguished gentleman","steam_id":76561199437827758,"connected_time":840000000000,"state":"active","ping":54},{"user_id":612,"name":"WrathNSpeed","steam_id":76561198390944504,"connected_time":781000000000,"state":"spawning","ping":80},{"user_id":559,"name":"else1","steam_id":76561197996558319,"connected_time":3736000000000,"state":"active","ping":81}]},{"server_id":308,"name":"Uncletopia | Frankfurt | 3 | All Maps","name_short":"frk-3","host":"frk-1.de.uncletopia.com","port":27035,"enabled":true,"region":"eu","cc":"de","latitude":50.110924,"longitude":8.682127,"reserved":0,"last_update":"0001-01-01T00:00:00Z","name_a2s":"Uncletopia | Frankfurt | 3 | All Maps","protocol":17,"map":"koth_lakeside_final","folder":"tf","game":"Team Fortress","app_id":440,"player_count":0,"max_players":24,"Bots":0,"server_type":"Dedicated","server_os":"Linux","password":true,"vac":true,"version":"7961495","steam_id":85568392924504274,"keywords":["cp","nocrits","nodmgspread","uncletopia"],"game_id":440,"stv_port":27036,"stv_name":"Uncletopia | Frankfurt | 3 | All Maps | STV","players":null},{"server_id":309,"name":"Uncletopia | Frankfurt | 4 | All Maps","name_short":"frk-4","host":"frk-1.de.uncletopia.com","port":27045,"enabled":true,"region":"eu","cc":"de","latitude":50.110924,"longitude":8.682127,"reserved":0,"last_update":"0001-01-01T00:00:00Z","name_a2s":"Uncletopia | Frankfurt | 4 | All Maps","protocol":17,"map":"koth_highpass","folder":"tf","game":"Team Fortress","app_id":440,"player_count":0,"max_players":24,"Bots":0,"server_type":"Dedicated","server_os":"Linux","password":true,"vac":true,"version":"7961495","steam_id":85568392924504275,"keywords":["cp","nocrits","nodmgspread","uncletopia"],"game_id":440,"stv_port":27046,"stv_name":"Uncletopia | Frankfurt | 4 | All Maps | STV","players":null},{"server_id":310,"name":"Uncletopia | Frankfurt | 5 | All Maps","name_short":"frk-5","host":"frk-1.de.uncletopia.com","port":27055,"enabled":true,"region":"eu","cc":"de","latitude":50.110924,"longitude":8.682127,"reserved":0,"last_update":"0001-01-01T00:00:00Z","name_a2s":"Uncletopia | Frankfurt | 5 | All Maps","protocol":17,"map":"cp_snakewater_final1","folder":"tf","game":"Team Fortress","app_id":440,"player_count":0,"max_players":24,"Bots":0,"server_type":"Dedicated","server_os":"Linux","password":true,"vac":true,"version":"7961495","steam_id":85568392924504277,"keywords":["cp","nocrits","nodmgspread","uncletopia"],"game_id":440,"stv_port":27056,"stv_name":"Uncletopia | Frankfurt | 5 | All Maps | STV","players":null},{"server_id":311,"name":"Uncletopia | Frankfurt | 6 | All Maps","name_short":"frk-6","host":"frk-1.de.uncletopia.com","port":27065,"enabled":true,"region":"eu","cc":"de","latitude":50.110924,"longitude":8.682127,"reserved":0,"last_update":"0001-01-01T00:00:00Z","name_a2s":"Uncletopia | Frankfurt | 6 | All Maps","protocol":17,"map":"pl_frontier_final","folder":"tf","game":"Team Fortress","app_id":440,"player_count":24,"max_players":24,"Bots":0,"server_type":"Dedicated","server_os":"Linux","password":true,"vac":true,"version":"7961495","steam_id":85568392924504278,"keywords":["nocrits","nodmgspread","payload","uncletopia"],"game_id":440,"stv_port":27066,"stv_name":"Uncletopia | Frankfurt | 6 | All Maps | STV","players":[{"user_id":208,"name":"69trillionanimegirls#killtf2","steam_id":76561198890784823,"connected_time":1349000000000,"state":"active","ping":54},{"user_id":134,"name":"KayPay","steam_id":76561198112127032,"connected_time":4921000000000,"state":"active","ping":87},{"user_id":179,"name":"TidB","steam_id":76561198055342304,"connected_time":3608000000000,"state":"active","ping":52},{"user_id":227,"name":"Frager","steam_id":76561198323411853,"connected_time":567000000000,"state":"active","ping":86},{"user_id":212,"name":"potar","steam_id":76561198017677744,"connected_time":1130000000000,"state":"active","ping":82},{"user_id":176,"name":"Scr0b ʕᵔᴥᵔʔ","steam_id":76561198100855323,"connected_time":3717000000000,"state":"active","ping":57},{"user_id":229,"name":"MANMANGLER3000 flick","steam_id":76561198083505031,"connected_time":188000000000,"state":"active","ping":59},{"user_id":222,"name":"Ash","steam_id":76561198148738525,"connected_time":873000000000,"state":"active","ping":117},{"user_id":207,"name":"tired","steam_id":76561198046838168,"connected_time":1475000000000,"state":"active","ping":46},{"user_id":196,"name":"Vytuzas","steam_id":76561198012868436,"connected_time":1925000000000,"state":"active","ping":56},{"user_id":226,"name":"Mentlegen","steam_id":76561198064764010,"connected_time":674000000000,"state":"active","ping":115},{"user_id":217,"name":"sz(k)","steam_id":76561198118500940,"connected_time":1008000000000,"state":"active","ping":62},{"user_id":190,"name":"Snowmotion","steam_id":76561198075022454,"connected_time":2647000000000,"state":"active","ping":64},{"user_id":173,"name":"Dakeyras","steam_id":76561198057069564,"connected_time":3949000000000,"state":"active","ping":97},{"user_id":220,"name":"Blondelashes19","steam_id":76561197989281781,"connected_time":950000000000,"state":"active","ping":60},{"user_id":189,"name":"NonProphet","steam_id":76561198280149820,"connected_time":2876000000000,"state":"active","ping":71},{"user_id":198,"name":"finbar","steam_id":76561198056812396,"connected_time":1898000000000,"state":"active","ping":72},{"user_id":219,"name":"doomed user","steam_id":76561198010299230,"connected_time":969000000000,"state":"active","ping":76},{"user_id":125,"name":"George W Bush","steam_id":76561198846784757,"connected_time":5626000000000,"state":"active","ping":69},{"user_id":221,"name":"big bug buttz","steam_id":76561198115106008,"connected_time":889000000000,"state":"active","ping":83},{"user_id":223,"name":"Lucky Number 13","steam_id":76561198043951279,"connected_time":851000000000,"state":"active","ping":79},{"user_id":163,"name":"akciq ⁧⁧respect","steam_id":76561198390963456,"connected_time":4343000000000,"state":"active","ping":87},{"user_id":228,"name":"selzic ★","steam_id":76561198068100717,"connected_time":276000000000,"state":"active","ping":62},{"user_id":200,"name":"mq","steam_id":76561198091888948,"connected_time":1847000000000,"state":"active","ping":61}]},{"server_id":23,"name":"Uncletopia | Frankfurt | 7 | Stopwatch","name_short":"frk-7","host":"frk-1.de.uncletopia.com","port":27075,"enabled":true,"region":"eu","cc":"de","latitude":50.110924,"longitude":8.682127,"reserved":0,"last_update":"0001-01-01T00:00:00Z","name_a2s":"Uncletopia | Frankfurt | 7 | Stopwatch","protocol":17,"map":"pl_frontier_final","folder":"tf","game":"Team Fortress","app_id":440,"player_count":0,"max_players":24,"Bots":0,"server_type":"Dedicated","server_os":"Linux","password":true,"vac":true,"version":"7961495","steam_id":85568392924742827,"keywords":["nocrits","nodmgspread","payload","uncletopia"],"game_id":440,"stv_port":27076,"stv_name":"Uncletopia | Frankfurt | 7 | Stopwatch | STV","players":null},{"server_id":24,"name":"Uncletopia | Frankfurt | 8 | Community","name_short":"frk-8","host":"frk-1.de.uncletopia.com","port":27085,"enabled":true,"region":"eu","cc":"de","latitude":50.110924,"longitude":8.682127,"reserved":0,"last_update":"0001-01-01T00:00:00Z","name_a2s":"Uncletopia | Frankfurt | 8 | Community","protocol":17,"map":"workshop/koth_ashville_final.ugc2130459942","folder":"tf","game":"Team Fortress","app_id":440,"player_count":0,"max_players":24,"Bots":0,"server_type":"Dedicated","server_os":"Linux","password":true,"vac":true,"version":"7961495","steam_id":85568392924742828,"keywords":["cp","nocrits","nodmgspread","uncletopia"],"game_id":440,"stv_port":27086,"stv_name":"Uncletopia | Frankfurt | 8 | Community | STV","players":null},{"server_id":202,"name":"Uncletopia | Hong Kong | 1 | All Maps","name_short":"hgk-1","host":"hgk-1.hk.uncletopia.com","port":27015,"enabled":true,"region":"asia","cc":"hk","latitude":22.302711,"longitude":114.177216,"reserved":0,"last_update":"0001-01-01T00:00:00Z","name_a2s":"Uncletopia | Hong Kong | 1 | All Maps","protocol":17,"map":"pl_frontier_final","folder":"tf","game":"Team Fortress","app_id":440,"player_count":0,"max_players":24,"Bots":0,"server_type":"Dedicated","server_os":"Linux","password":true,"vac":true,"version":"7961495","steam_id":85568392924494504,"keywords":["nocrits","nodmgspread","payload","uncletopia"],"game_id":440,"stv_port":27016,"stv_name":"Uncletopia | Hong Kong | 1 | All Maps | STV","players":null},{"server_id":1,"name":"Uncletopia | Los Angeles | 1 | All Maps","name_short":"lax-1","host":"lax-1.us.uncletopia.com","port":27015,"enabled":true,"region":"us-west","cc":"us","latitude":33.94279,"longitude":-118.41004,"reserved":0,"last_update":"0001-01-01T00:00:00Z","name_a2s":"Uncletopia | Los Angeles | 1 | All Maps","protocol":17,"map":"pl_barnblitz","folder":"tf","game":"Team Fortress","app_id":440,"player_count":24,"max_players":24,"Bots":0,"server_type":"Dedicated","server_os":"Linux","password":true,"vac":true,"version":"7961495","steam_id":85568392924469991,"keywords":["nocrits","nodmgspread","payload","uncletopia"],"game_id":440,"stv_port":27016,"stv_name":"Uncletopia | Los Angeles | 1 | All Maps | STV","players":[{"user_id":84,"name":"THE CUMEST LORD","steam_id":76561198061412592,"connected_time":2098000000000,"state":"active","ping":129},{"user_id":90,"name":"asm_ghost","steam_id":76561199205363547,"connected_time":1845000000000,"state":"active","ping":83},{"user_id":107,"name":"rat","steam_id":76561198130412963,"connected_time":598000000000,"state":"active","ping":79},{"user_id":97,"name":"joecool","steam_id":76561198414164768,"connected_time":1488000000000,"state":"active","ping":62},{"user_id":101,"name":"Crit-A-Cola enjoyer","steam_id":76561199100884248,"connected_time":1303000000000,"state":"active","ping":73},{"user_id":91,"name":"TacoMan4Life","steam_id":76561198832562728,"connected_time":1788000000000,"state":"active","ping":59},{"user_id":102,"name":"Jimmy","steam_id":76561198857959855,"connected_time":1142000000000,"state":"active","ping":46},{"user_id":93,"name":"Gamer","steam_id":76561198419066993,"connected_time":1765000000000,"state":"active","ping":89},{"user_id":104,"name":"DiamondPug","steam_id":76561199197034266,"connected_time":1028000000000,"state":"active","ping":108},{"user_id":105,"name":"ThePalmTopSushi","steam_id":76561198847076153,"connected_time":847000000000,"state":"active","ping":38},{"user_id":109,"name":"Frank","steam_id":76561198428759980,"connected_time":542000000000,"state":"active","ping":73},{"user_id":106,"name":"TrueBoredom","steam_id":76561198027021364,"connected_time":837000000000,"state":"active","ping":58},{"user_id":108,"name":"Dr. Bonez","steam_id":76561198880581388,"connected_time":566000000000,"state":"active","ping":57},{"user_id":110,"name":"Bad Medic Girlfriend","steam_id":76561198294054569,"connected_time":365000000000,"state":"active","ping":124},{"user_id":111,"name":"duck duck quack","steam_id":76561198803753163,"connected_time":335000000000,"state":"active","ping":114},{"user_id":112,"name":"Saiko","steam_id":76561198982717237,"connected_time":320000000000,"state":"active","ping":59},{"user_id":115,"name":"(Ô)Ô)Wandering Singer(Ô(Ô)","steam_id":76561198126477141,"connected_time":233000000000,"state":"active","ping":131},{"user_id":114,"name":"redarcher42","steam_id":76561199027887687,"connected_time":243000000000,"state":"active","ping":96},{"user_id":116,"name":"Macro","steam_id":76561199442846226,"connected_time":215000000000,"state":"active","ping":106},{"user_id":117,"name":"♥Neko Girlfriend♥","steam_id":76561198143422702,"connected_time":206000000000,"state":"active","ping":110},{"user_id":118,"name":"Sharkinian","steam_id":76561199131996465,"connected_time":173000000000,"state":"active","ping":113},{"user_id":119,"name":"TacoMan","steam_id":76561198049405741,"connected_time":131000000000,"state":"active","ping":134},{"user_id":120,"name":"Sticky Rice","steam_id":76561198192311305,"connected_time":110000000000,"state":"active","ping":67},{"user_id":121,"name":"Czechoslovakia!","steam_id":76561198214713811,"connected_time":49000000000,"state":"active","ping":139}]},{"server_id":112,"name":"Uncletopia | Los Angeles | 2 | All Maps","name_short":"lax-2","host":"lax-1.us.uncletopia.com","port":27025,"enabled":true,"region":"us-west","cc":"us","latitude":33.94279,"longitude":-118.41004,"reserved":0,"last_update":"0001-01-01T00:00:00Z","name_a2s":"Uncletopia | Los Angeles | 2 | All Maps","protocol":17,"map":"koth_lakeside_final","folder":"tf","game":"Team Fortress","app_id":440,"player_count":0,"max_players":24,"Bots":0,"server_type":"Dedicated","server_os":"Linux","password":true,"vac":true,"version":"7961495","steam_id":85568392924469992,"keywords":["cp","nocrits","nodmgspread","uncletopia"],"game_id":440,"stv_port":27026,"stv_name":"Uncletopia | Los Angeles | 2 | All Maps | STV","players":null},{"server_id":324,"name":"Uncletopia | Los Angeles | 3 | All Maps","name_short":"lax-3","host":"lax-1.us.uncletopia.com","port":27035,"enabled":true,"region":"us-west","cc":"us","latitude":33.94279,"longitude":-118.41004,"reserved":0,"last_update":"0001-01-01T00:00:00Z","name_a2s":"Uncletopia | Los Angeles | 3 | All Maps","protocol":17,"map":"pl_frontier_final","folder":"tf","game":"Team Fortress","app_id":440,"player_count":6,"max_players":24,"Bots":0,"server_type":"Dedicated","server_os":"Linux","password":true,"vac":true,"version":"7961495","steam_id":85568392924510198,"keywords":["nocrits","nodmgspread","payload","uncletopia"],"game_id":440,"stv_port":27036,"stv_name":"Uncletopia | Los Angeles | 3 | All Maps | STV","players":[{"user_id":4,"name":"_Toazt","steam_id":76561199011728341,"connected_time":1381000000000,"state":"active","ping":140},{"user_id":5,"name":"Maxtheand","steam_id":76561198967517258,"connected_time":1380000000000,"state":"active","ping":116},{"user_id":11,"name":"Aztea","steam_id":76561198982089893,"connected_time":937000000000,"state":"active","ping":72},{"user_id":7,"name":"DEDbon","steam_id":76561199013314238,"connected_time":1201000000000,"state":"active","ping":104},{"user_id":12,"name":"LIAM","steam_id":76561198324691143,"connected_time":573000000000,"state":"active","ping":88},{"user_id":10,"name":"Meloncholy","steam_id":76561198077424488,"connected_time":1126000000000,"state":"active","ping":40}]},{"server_id":25,"name":"Uncletopia | Los Angeles | 4 | Stopwatch","name_short":"lax-4","host":"lax-1.us.uncletopia.com","port":27045,"enabled":true,"region":"us-west","cc":"us","latitude":33.94279,"longitude":-118.41004,"reserved":0,"last_update":"0001-01-01T00:00:00Z","name_a2s":"Uncletopia | Los Angeles | 4 | Stopwatch","protocol":17,"map":"pl_barnblitz","folder":"tf","game":"Team Fortress","app_id":440,"player_count":0,"max_players":24,"Bots":0,"server_type":"Dedicated","server_os":"Linux","password":true,"vac":true,"version":"7961495","steam_id":85568392924510199,"keywords":["nocrits","nodmgspread","payload","uncletopia"],"game_id":440,"stv_port":27046,"stv_name":"Uncletopia | Los Angeles | 4 | Stopwatch | STV","players":null},{"server_id":11,"name":"Uncletopia | London | 1 | All Maps","name_short":"lon-1","host":"lon-1.uk.uncletopia.com","port":27015,"enabled":true,"region":"eu","cc":"gb","latitude":51.509865,"longitude":-0.118092,"reserved":0,"last_update":"0001-01-01T00:00:00Z","name_a2s":"Uncletopia | London | 1 | All Maps","protocol":17,"map":"pl_swiftwater_final1","folder":"tf","game":"Team Fortress","app_id":440,"player_count":24,"max_players":24,"Bots":0,"server_type":"Dedicated","server_os":"Linux","password":true,"vac":true,"version":"7961495","steam_id":85568392924367362,"keywords":["nocrits","nodmgspread","payload","uncletopia"],"game_id":440,"stv_port":27016,"stv_name":"Uncletopia | London | 1 | All Maps | STV","players":[{"user_id":848,"name":"BreadBubbles","steam_id":76561198174332826,"connected_time":5075000000000,"state":"active","ping":53},{"user_id":870,"name":"goff","steam_id":76561198118989010,"connected_time":2189000000000,"state":"active","ping":55},{"user_id":879,"name":"ashley","steam_id":76561198448551449,"connected_time":1266000000000,"state":"active","ping":37},{"user_id":785,"name":"shooer!","steam_id":76561198110531281,"connected_time":11210000000000,"state":"active","ping":67},{"user_id":893,"name":"Cabbch","steam_id":76561198045955679,"connected_time":10000000000,"state":"active","ping":49},{"user_id":820,"name":"Kphi(i)","steam_id":76561198970587061,"connected_time":7401000000000,"state":"active","ping":43},{"user_id":867,"name":"silversteellady (abi)","steam_id":76561198166953966,"connected_time":2380000000000,"state":"active","ping":72},{"user_id":831,"name":"ber","steam_id":76561197993892057,"connected_time":6134000000000,"state":"active","ping":90},{"user_id":857,"name":"Trapezoid","steam_id":76561198059369295,"connected_time":3677000000000,"state":"active","ping":75},{"user_id":727,"name":"whimsy.","steam_id":76561198878171763,"connected_time":16229000000000,"state":"active","ping":48},{"user_id":888,"name":"Hogs Sidekick","steam_id":76561198136433205,"connected_time":777000000000,"state":"active","ping":41},{"user_id":889,"name":"T/5. Cernuno [16th IR]","steam_id":76561197977897110,"connected_time":609000000000,"state":"active","ping":73},{"user_id":880,"name":"Clown :o)","steam_id":76561198074657015,"connected_time":1097000000000,"state":"active","ping":60},{"user_id":824,"name":"puck","steam_id":76561198121260981,"connected_time":7296000000000,"state":"active","ping":44},{"user_id":878,"name":"sora (live :3)","steam_id":76561198096547662,"connected_time":1966000000000,"state":"active","ping":52},{"user_id":866,"name":"swatton","steam_id":76561198875537106,"connected_time":2530000000000,"state":"active","ping":64},{"user_id":887,"name":"Minimi","steam_id":76561198873850443,"connected_time":809000000000,"state":"active","ping":46},{"user_id":781,"name":"charlotte","steam_id":76561198075129898,"connected_time":11817000000000,"state":"active","ping":31},{"user_id":886,"name":"pyrowo","steam_id":76561198158209651,"connected_time":822000000000,"state":"active","ping":58},{"user_id":862,"name":"Lyra","steam_id":76561198043601838,"connected_time":3120000000000,"state":"active","ping":66},{"user_id":891,"name":"♡ Birdy ♡","steam_id":76561198139632682,"connected_time":300000000000,"state":"active","ping":90},{"user_id":855,"name":"getpost","steam_id":76561198260064876,"connected_time":3881000000000,"state":"active","ping":90},{"user_id":877,"name":"Tre3","steam_id":76561198054795379,"connected_time":2061000000000,"state":"active","ping":64},{"user_id":885,"name":"SOPHIIAA","steam_id":76561198443798981,"connected_time":937000000000,"state":"active","ping":80}]},{"server_id":114,"name":"Uncletopia | London | 2 | All Maps","name_short":"lon-2","host":"lon-1.uk.uncletopia.com","port":27025,"enabled":true,"region":"eu","cc":"gb","latitude":51.509865,"longitude":-0.118092,"reserved":0,"last_update":"0001-01-01T00:00:00Z","name_a2s":"Uncletopia | London | 2 | All Maps","protocol":17,"map":"cp_dustbowl","folder":"tf","game":"Team Fortress","app_id":440,"player_count":19,"max_players":24,"Bots":0,"server_type":"Dedicated","server_os":"Linux","password":true,"vac":true,"version":"7961495","steam_id":85568392924470941,"keywords":["cp","nocrits","nodmgspread","uncletopia"],"game_id":440,"stv_port":27026,"stv_name":"Uncletopia | London | 2 | All Maps | STV","players":[{"user_id":477,"name":"ort","steam_id":76561198304985645,"connected_time":660000000000,"state":"active","ping":75},{"user_id":475,"name":"sherwood","steam_id":76561198021513207,"connected_time":826000000000,"state":"active","ping":45},{"user_id":483,"name":"Machine Elf","steam_id":76561198274465755,"connected_time":415000000000,"state":"active","ping":39},{"user_id":478,"name":"^w^","steam_id":76561198796468920,"connected_time":627000000000,"state":"active","ping":69},{"user_id":474,"name":"sel","steam_id":76561198049891411,"connected_time":876000000000,"state":"active","ping":42},{"user_id":480,"name":"Kekeke","steam_id":76561198063672270,"connected_time":586000000000,"state":"active","ping":98},{"user_id":481,"name":"walter","steam_id":76561198021950957,"connected_time":579000000000,"state":"active","ping":82},{"user_id":482,"name":"1 toke 4 mars bars","steam_id":76561198056460000,"connected_time":574000000000,"state":"active","ping":45},{"user_id":460,"name":"sokige","steam_id":76561198167112371,"connected_time":1711000000000,"state":"active","ping":107},{"user_id":467,"name":"randompixel","steam_id":76561198003941207,"connected_time":1053000000000,"state":"active","ping":56},{"user_id":484,"name":"Plague","steam_id":76561198053648794,"connected_time":344000000000,"state":"active","ping":62},{"user_id":485,"name":"Retrogue","steam_id":76561198131776972,"connected_time":270000000000,"state":"active","ping":32},{"user_id":471,"name":"ThatSiegeKid","steam_id":76561198368037656,"connected_time":952000000000,"state":"active","ping":31},{"user_id":486,"name":"zaj","steam_id":76561198120739203,"connected_time":233000000000,"state":"active","ping":87},{"user_id":487,"name":"NoPfizer","steam_id":76561198307914381,"connected_time":152000000000,"state":"active","ping":50},{"user_id":473,"name":"kyuta","steam_id":76561198382281653,"connected_time":918000000000,"state":"active","ping":89},{"user_id":488,"name":"Gamerrethink","steam_id":76561198079261547,"connected_time":75000000000,"state":"spawning","ping":128},{"user_id":489,"name":"[P-roc] BadJacKS","steam_id":76561197972666377,"connected_time":25000000000,"state":"active","ping":62},{"user_id":490,"name":"sarcasticsatan69","steam_id":76561198407566842,"connected_time":6000000000,"state":"spawning","ping":30}]},{"server_id":320,"name":"Uncletopia | London | 3 | All Maps","name_short":"lon-3","host":"lon-1.uk.uncletopia.com","port":27035,"enabled":true,"region":"eu","cc":"gb","latitude":51.509865,"longitude":-0.118092,"reserved":0,"last_update":"0001-01-01T00:00:00Z","name_a2s":"Uncletopia | London | 3 | All Maps","protocol":17,"map":"cp_process_final","folder":"tf","game":"Team Fortress","app_id":440,"player_count":23,"max_players":24,"Bots":0,"server_type":"Dedicated","server_os":"Linux","password":true,"vac":true,"version":"7961495","steam_id":85568392924510192,"keywords":["cp","nocrits","nodmgspread","uncletopia"],"game_id":440,"stv_port":27036,"stv_name":"Uncletopia | London | 3 | All Maps | STV","players":[{"user_id":270,"name":"LowRender3","steam_id":76561199491761622,"connected_time":1851000000000,"state":"active","ping":101},{"user_id":287,"name":"CornerPin","steam_id":76561198041202334,"connected_time":477000000000,"state":"active","ping":85},{"user_id":277,"name":"Tusho","steam_id":76561198115447383,"connected_time":1281000000000,"state":"active","ping":84},{"user_id":208,"name":"hubert","steam_id":76561198057722639,"connected_time":5523000000000,"state":"active","ping":75},{"user_id":288,"name":"JujuBalu","steam_id":76561198207253071,"connected_time":454000000000,"state":"active","ping":27},{"user_id":237,"name":"Teo","steam_id":76561198030853412,"connected_time":4423000000000,"state":"active","ping":74},{"user_id":294,"name":"jorts simp","steam_id":76561198399037367,"connected_time":65000000000,"state":"active","ping":44},{"user_id":285,"name":"waffle toaster","steam_id":76561198799089628,"connected_time":489000000000,"state":"active","ping":46},{"user_id":256,"name":"Orange Juice Jimmy","steam_id":76561198078638602,"connected_time":2424000000000,"state":"active","ping":57},{"user_id":292,"name":"Cillian","steam_id":76561199471571148,"connected_time":273000000000,"state":"active","ping":73},{"user_id":232,"name":"wG toemas_","steam_id":76561198156188209,"connected_time":5023000000000,"state":"active","ping":44},{"user_id":263,"name":"Kryastorm","steam_id":76561198045127892,"connected_time":2155000000000,"state":"active","ping":61},{"user_id":258,"name":"Mr.Cupcake","steam_id":76561198152711174,"connected_time":2387000000000,"state":"active","ping":84},{"user_id":280,"name":"Spageti","steam_id":76561198074122906,"connected_time":701000000000,"state":"active","ping":84},{"user_id":290,"name":"Gantzero","steam_id":76561198046379464,"connected_time":393000000000,"state":"active","ping":84},{"user_id":251,"name":"FoOzTV","steam_id":76561197998636728,"connected_time":2981000000000,"state":"active","ping":60},{"user_id":223,"name":"mak","steam_id":76561198049312442,"connected_time":5334000000000,"state":"active","ping":55},{"user_id":249,"name":"lonely fortnite gamer girl","steam_id":76561198272948471,"connected_time":3095000000000,"state":"active","ping":139},{"user_id":240,"name":"emo hubert","steam_id":76561198012526576,"connected_time":3411000000000,"state":"active","ping":47},{"user_id":241,"name":"square. possibly cube","steam_id":76561198104896547,"connected_time":3406000000000,"state":"active","ping":74},{"user_id":291,"name":"psycho_geezer","steam_id":76561198013886907,"connected_time":308000000000,"state":"active","ping":59},{"user_id":275,"name":"BLÅHAJ","steam_id":76561199353672293,"connected_time":1704000000000,"state":"active","ping":56},{"user_id":236,"name":"danny","steam_id":76561198056930504,"connected_time":4469000000000,"state":"active","ping":48}]},{"server_id":321,"name":"Uncletopia | London | 4 | All Maps","name_short":"lon-4","host":"lon-1.uk.uncletopia.com","port":27045,"enabled":true,"region":"eu","cc":"gb","latitude":51.509865,"longitude":-0.118092,"reserved":0,"last_update":"0001-01-01T00:00:00Z","name_a2s":"Uncletopia | London | 4 | All Maps","protocol":17,"map":"koth_viaduct","folder":"tf","game":"Team Fortress","app_id":440,"player_count":0,"max_players":24,"Bots":0,"server_type":"Dedicated","server_os":"Linux","password":true,"vac":true,"version":"7961495","steam_id":85568392924510193,"keywords":["cp","nocrits","nodmgspread","uncletopia"],"game_id":440,"stv_port":27046,"stv_name":"Uncletopia | London | 4 | All Maps | STV","players":null},{"server_id":21,"name":"Uncletopia | London | 5 | All Maps","name_short":"lon-5","host":"lon-1.uk.uncletopia.com","port":27055,"enabled":true,"region":"eu","cc":"gb","latitude":51.509865,"longitude":-0.118092,"reserved":0,"last_update":"0001-01-01T00:00:00Z","name_a2s":"Uncletopia | London | 5 | All Maps","protocol":17,"map":"pl_frontier_final","folder":"tf","game":"Team Fortress","app_id":440,"player_count":24,"max_players":24,"Bots":0,"server_type":"Dedicated","server_os":"Linux","password":true,"vac":true,"version":"7961495","steam_id":85568392924742829,"keywords":["nocrits","nodmgspread","payload","uncletopia"],"game_id":440,"stv_port":27056,"stv_name":"Uncletopia | London | 5 | All Maps | STV","players":[{"user_id":347,"name":"edmund","steam_id":76561198378470149,"connected_time":1377000000000,"state":"active","ping":55},{"user_id":371,"name":"Lorenzo Lovers","steam_id":76561198073973581,"connected_time":49000000000,"state":"active","ping":90},{"user_id":330,"name":"Master Joe Roogway","steam_id":76561198153453640,"connected_time":3619000000000,"state":"active","ping":47},{"user_id":340,"name":"Immortal_Toad","steam_id":76561198048194748,"connected_time":1623000000000,"state":"active","ping":66},{"user_id":343,"name":"Setiago","steam_id":76561198060770498,"connected_time":1573000000000,"state":"active","ping":63},{"user_id":344,"name":"A Succulent Chinese Meal","steam_id":76561198069472440,"connected_time":1572000000000,"state":"active","ping":65},{"user_id":365,"name":"Huskai","steam_id":76561198141512362,"connected_time":256000000000,"state":"active","ping":44},{"user_id":346,"name":"mrbeast109385079350229083479082","steam_id":76561198370687830,"connected_time":1553000000000,"state":"active","ping":120},{"user_id":366,"name":"luca","steam_id":76561198069235730,"connected_time":244000000000,"state":"active","ping":107},{"user_id":350,"name":"jojobinks613","steam_id":76561198841293111,"connected_time":1172000000000,"state":"active","ping":148},{"user_id":352,"name":"cuddles","steam_id":76561198805181599,"connected_time":1135000000000,"state":"active","ping":44},{"user_id":335,"name":"mmDuck","steam_id":76561198102527306,"connected_time":2243000000000,"state":"active","ping":54},{"user_id":336,"name":"Snooze","steam_id":76561197989013748,"connected_time":2014000000000,"state":"active","ping":84},{"user_id":353,"name":"Ephix","steam_id":76561197977164055,"connected_time":1120000000000,"state":"active","ping":55},{"user_id":362,"name":"Princess Peach","steam_id":76561198260272240,"connected_time":722000000000,"state":"active","ping":51},{"user_id":355,"name":"A Table","steam_id":76561198056456470,"connected_time":1094000000000,"state":"active","ping":72},{"user_id":356,"name":"Lubrsi","steam_id":76561198040208195,"connected_time":1093000000000,"state":"active","ping":47},{"user_id":363,"name":"vegetable_lover_45","steam_id":76561198361621766,"connected_time":655000000000,"state":"active","ping":44},{"user_id":331,"name":"★TheBabyShpee★","steam_id":76561198142551315,"connected_time":3515000000000,"state":"active","ping":68},{"user_id":367,"name":"nickandrobin","steam_id":76561198162384238,"connected_time":179000000000,"state":"active","ping":33},{"user_id":368,"name":"AAAAAAAAAAAAAAAAAAAAAA","steam_id":76561199376029299,"connected_time":168000000000,"state":"active","ping":148},{"user_id":369,"name":"HilldogGaming♛","steam_id":76561198082209322,"connected_time":167000000000,"state":"active","ping":88},{"user_id":370,"name":"Imperial City Guard","steam_id":76561198083355845,"connected_time":121000000000,"state":"active","ping":59},{"user_id":372,"name":"76Paoleye","steam_id":76561198862271212,"connected_time":30000000000,"state":"active","ping":82}]},{"server_id":22,"name":"Uncletopia | London | 6 | All Maps","name_short":"lon-6","host":"lon-1.uk.uncletopia.com","port":27065,"enabled":true,"region":"eu","cc":"gb","latitude":51.509865,"longitude":-0.118092,"reserved":0,"last_update":"0001-01-01T00:00:00Z","name_a2s":"Uncletopia | London | 6 | All Maps","protocol":17,"map":"cp_process_final","folder":"tf","game":"Team Fortress","app_id":440,"player_count":1,"max_players":24,"Bots":0,"server_type":"Dedicated","server_os":"Linux","password":true,"vac":true,"version":"7961495","steam_id":85568392924742830,"keywords":["cp","nocrits","nodmgspread","uncletopia"],"game_id":440,"stv_port":27066,"stv_name":"Uncletopia | London | 6 | All Maps | STV","players":[{"user_id":432,"name":"barbecuesteve","steam_id":76561198048819671,"connected_time":184000000000,"state":"active","ping":130}]},{"server_id":40,"name":"Uncletopia | London | 7 | Stopwatch","name_short":"lon-7","host":"lon-1.uk.uncletopia.com","port":27075,"enabled":true,"region":"eu","cc":"gb","latitude":51.509865,"longitude":-0.118092,"reserved":0,"last_update":"0001-01-01T00:00:00Z","name_a2s":"Uncletopia | London | 7 | Stopwatch","protocol":17,"map":"pl_borneo","folder":"tf","game":"Team Fortress","app_id":440,"player_count":0,"max_players":24,"Bots":0,"server_type":"Dedicated","server_os":"Linux","password":true,"vac":true,"version":"7961495","steam_id":85568392924964314,"keywords":["nocrits","nodmgspread","payload","uncletopia"],"game_id":440,"stv_port":27076,"stv_name":"Uncletopia | London | 7 | Stopwatch | STV","players":null},{"server_id":41,"name":"Uncletopia | London | 8 | Community","name_short":"lon-8","host":"lon-1.uk.uncletopia.com","port":27085,"enabled":true,"region":"eu","cc":"gb","latitude":51.509865,"longitude":-0.118092,"reserved":0,"last_update":"0001-01-01T00:00:00Z","name_a2s":"Uncletopia | London | 8 | Community","protocol":17,"map":"workshop/cp_logjam_rc12.ugc454812035","folder":"tf","game":"Team Fortress","app_id":440,"player_count":0,"max_players":24,"Bots":0,"server_type":"Dedicated","server_os":"Linux","password":true,"vac":true,"version":"7961495","steam_id":85568392924964315,"keywords":["cp","nocrits","nodmgspread","uncletopia"],"game_id":440,"stv_port":27086,"stv_name":"Uncletopia | London | 8 | Community | STV","players":null},{"server_id":300,"name":"Uncletopia | Montréal | 1 | One Thousand Uncles","name_short":"mtl-1","host":"mtl-1.ca.uncletopia.com","port":27015,"enabled":true,"region":"us-east","cc":"ca","latitude":45.50889,"longitude":-73.56167,"reserved":0,"last_update":"0001-01-01T00:00:00Z","name_a2s":"","protocol":0,"map":"","folder":"","game":"","app_id":0,"player_count":0,"max_players":0,"Bots":0,"server_type":"","server_os":"","password":false,"vac":false,"version":"","steam_id":0,"keywords":null,"game_id":0,"stv_port":0,"stv_name":"","players":null},{"server_id":301,"name":"Uncletopia | Montréal | 2 | One Thousand Uncles","name_short":"mtl-2","host":"mtl-1.ca.uncletopia.com","port":27025,"enabled":true,"region":"us-east","cc":"ca","latitude":45.50889,"longitude":-73.56167,"reserved":0,"last_update":"0001-01-01T00:00:00Z","name_a2s":"","protocol":0,"map":"","folder":"","game":"","app_id":0,"player_count":0,"max_players":0,"Bots":0,"server_type":"","server_os":"","password":false,"vac":false,"version":"","steam_id":0,"keywords":null,"game_id":0,"stv_port":0,"stv_name":"","players":null},{"server_id":302,"name":"Uncletopia | Montréal | 3 | One Thousand Uncles","name_short":"mtl-3","host":"mtl-1.ca.uncletopia.com","port":27035,"enabled":true,"region":"us-east","cc":"ca","latitude":45.50889,"longitude":-73.56167,"reserved":0,"last_update":"0001-01-01T00:00:00Z","name_a2s":"","protocol":0,"map":"","folder":"","game":"","app_id":0,"player_count":2,"max_players":0,"Bots":0,"server_type":"","server_os":"","password":false,"vac":false,"version":"","steam_id":0,"keywords":null,"game_id":0,"stv_port":0,"stv_name":"","players":[{"user_id":58,"name":"Dr. Circumsizer","steam_id":76561198864841966,"connected_time":807000000000,"state":"active","ping":111},{"user_id":59,"name":"Waaagh!","steam_id":76561197995317887,"connected_time":666000000000,"state":"active","ping":32}]},{"server_id":13,"name":"Uncletopia | New York City | 1 | All Maps","name_short":"nyc-1","host":"nyc-1.us.uncletopia.com","port":27015,"enabled":true,"region":"us-east","cc":"us","latitude":40.73061,"longitude":-73.93524,"reserved":0,"last_update":"0001-01-01T00:00:00Z","name_a2s":"Uncletopia | New York City | 1 | All Maps","protocol":17,"map":"pl_badwater","folder":"tf","game":"Team Fortress","app_id":440,"player_count":24,"max_players":24,"Bots":0,"server_type":"Dedicated","server_os":"Linux","password":true,"vac":true,"version":"7961495","steam_id":85568392924469993,"keywords":["nocrits","nodmgspread","payload","uncletopia"],"game_id":440,"stv_port":27016,"stv_name":"Uncletopia | New York City | 1 | All Maps | STV","players":[{"user_id":188,"name":"oppenheimer style","steam_id":76561198026664629,"connected_time":3711000000000,"state":"active","ping":48},{"user_id":234,"name":"majorbobfunction","steam_id":76561198042464632,"connected_time":212000000000,"state":"active","ping":61},{"user_id":223,"name":"Heathcliff","steam_id":76561198044288534,"connected_time":1385000000000,"state":"active","ping":86},{"user_id":228,"name":"The_Epic_Conclusion","steam_id":76561198084250179,"connected_time":745000000000,"state":"active","ping":63},{"user_id":196,"name":"The Undead Knight","steam_id":76561198010654500,"connected_time":2454000000000,"state":"active","ping":88},{"user_id":218,"name":"PointyCactus","steam_id":76561199377064707,"connected_time":1695000000000,"state":"active","ping":45},{"user_id":199,"name":"breathingtrees","steam_id":76561198118931690,"connected_time":2428000000000,"state":"active","ping":61},{"user_id":189,"name":"Frost ♥","steam_id":76561198168870617,"connected_time":3585000000000,"state":"active","ping":56},{"user_id":229,"name":"Electroid","steam_id":76561199092263960,"connected_time":720000000000,"state":"active","ping":73},{"user_id":210,"name":"Mint Jelly","steam_id":76561197991286751,"connected_time":2237000000000,"state":"active","ping":66},{"user_id":215,"name":"Nyle","steam_id":76561198045652639,"connected_time":1896000000000,"state":"active","ping":132},{"user_id":152,"name":"PinkLemonade","steam_id":76561198799286228,"connected_time":6178000000000,"state":"active","ping":54},{"user_id":222,"name":"ash","steam_id":76561198127890645,"connected_time":1416000000000,"state":"active","ping":85},{"user_id":219,"name":"lil hog","steam_id":76561199230929836,"connected_time":1600000000000,"state":"active","ping":118},{"user_id":230,"name":"Transfem Bumblebee","steam_id":76561198119393205,"connected_time":611000000000,"state":"active","ping":86},{"user_id":204,"name":"DeepDive","steam_id":76561198140542184,"connected_time":2367000000000,"state":"active","ping":46},{"user_id":205,"name":"Mipsiek","steam_id":76561198164013471,"connected_time":2363000000000,"state":"active","ping":54},{"user_id":211,"name":"Eto.g33g","steam_id":76561199094821242,"connected_time":2224000000000,"state":"active","ping":126},{"user_id":170,"name":"jackass","steam_id":76561198209380493,"connected_time":5198000000000,"state":"active","ping":44},{"user_id":206,"name":"✪Type_Alpha","steam_id":76561198122780598,"connected_time":2361000000000,"state":"active","ping":59},{"user_id":158,"name":"Ashton","steam_id":76561198300590302,"connected_time":5861000000000,"state":"active","ping":84},{"user_id":207,"name":"CocoNelly the Cat","steam_id":76561198073176682,"connected_time":2361000000000,"state":"active","ping":76},{"user_id":208,"name":"pinkissocool {f2p}","steam_id":76561198989599828,"connected_time":2328000000000,"state":"active","ping":44},{"user_id":233,"name":"Dr.Inkmix(femboy)","steam_id":76561198854070384,"connected_time":339000000000,"state":"active","ping":125}]},{"server_id":14,"name":"Uncletopia | New York City | 2 | All Maps","name_short":"nyc-2","host":"nyc-1.us.uncletopia.com","port":27025,"enabled":true,"region":"us-east","cc":"us","latitude":40.73061,"longitude":-73.93524,"reserved":0,"last_update":"0001-01-01T00:00:00Z","name_a2s":"Uncletopia | New York City | 2 | All Maps","protocol":17,"map":"cp_granary","folder":"tf","game":"Team Fortress","app_id":440,"player_count":24,"max_players":24,"Bots":0,"server_type":"Dedicated","server_os":"Linux","password":true,"vac":true,"version":"7961495","steam_id":85568392924469994,"keywords":["cp","nocrits","nodmgspread","uncletopia"],"game_id":440,"stv_port":27026,"stv_name":"Uncletopia | New York City | 2 | All Maps | STV","players":[{"user_id":277,"name":"bnob?","steam_id":76561198965284387,"connected_time":4824000000000,"state":"active","ping":55},{"user_id":309,"name":"IdkProlly","steam_id":76561198269212968,"connected_time":2226000000000,"state":"active","ping":39},{"user_id":364,"name":"harold of rock salt kingdom","steam_id":76561199016285746,"connected_time":830000000000,"state":"active","ping":96},{"user_id":345,"name":"Bother","steam_id":76561198336750909,"connected_time":1407000000000,"state":"active","ping":42},{"user_id":299,"name":"Conan","steam_id":76561198158321202,"connected_time":2493000000000,"state":"active","ping":127},{"user_id":291,"name":"jailbreak","steam_id":76561198802085218,"connected_time":2855000000000,"state":"active","ping":98},{"user_id":347,"name":"IAmAProfesonal","steam_id":76561199171858953,"connected_time":1314000000000,"state":"active","ping":54},{"user_id":395,"name":"Zimil","steam_id":76561199187045818,"connected_time":144000000000,"state":"active","ping":89},{"user_id":341,"name":"Dr. Han","steam_id":76561198811130843,"connected_time":1469000000000,"state":"active","ping":84},{"user_id":324,"name":"ZombieSlayer77","steam_id":76561199023974356,"connected_time":1911000000000,"state":"active","ping":80},{"user_id":351,"name":"Indigolake","steam_id":76561198202215807,"connected_time":1162000000000,"state":"active","ping":64},{"user_id":350,"name":"Shattered Glass","steam_id":76561198116835391,"connected_time":1168000000000,"state":"active","ping":86},{"user_id":376,"name":"popfulmail","steam_id":76561198865971290,"connected_time":635000000000,"state":"active","ping":86},{"user_id":399,"name":"Cooldog","steam_id":76561198080548713,"connected_time":21000000000,"state":"active","ping":80},{"user_id":397,"name":"z","steam_id":76561198377478982,"connected_time":112000000000,"state":"active","ping":70},{"user_id":293,"name":"viva la vida","steam_id":76561198072179483,"connected_time":2678000000000,"state":"active","ping":77},{"user_id":322,"name":"Kili","steam_id":76561198138456346,"connected_time":1952000000000,"state":"active","ping":143},{"user_id":260,"name":"Oni","steam_id":76561198112066584,"connected_time":5932000000000,"state":"active","ping":75},{"user_id":261,"name":"LANDOFTAWN","steam_id":76561199180861116,"connected_time":5918000000000,"state":"active","ping":88},{"user_id":285,"name":"astrobob911","steam_id":76561199099110654,"connected_time":4091000000000,"state":"active","ping":78},{"user_id":388,"name":"Krispy","steam_id":76561197994783393,"connected_time":315000000000,"state":"active","ping":55},{"user_id":317,"name":"glitch","steam_id":76561197979495589,"connected_time":2065000000000,"state":"active","ping":52},{"user_id":378,"name":"chunger","steam_id":76561198107931997,"connected_time":589000000000,"state":"active","ping":57},{"user_id":382,"name":"emerge","steam_id":76561198186882891,"connected_time":525000000000,"state":"active","ping":78}]},{"server_id":15,"name":"Uncletopia | New York City | 3 | Stopwatch","name_short":"nyc-3","host":"nyc-1.us.uncletopia.com","port":27035,"enabled":true,"region":"us-east","cc":"us","latitude":40.73061,"longitude":-73.93524,"reserved":0,"last_update":"0001-01-01T00:00:00Z","name_a2s":"Uncletopia | New York City | 3 | Stopwatch","protocol":17,"map":"workshop/koth_ashville_final.ugc2130459942","folder":"tf","game":"Team Fortress","app_id":440,"player_count":0,"max_players":24,"Bots":0,"server_type":"Dedicated","server_os":"Linux","password":true,"vac":true,"version":"7961495","steam_id":85568392924742820,"keywords":["cp","nocrits","nodmgspread","uncletopia"],"game_id":440,"stv_port":27036,"stv_name":"Uncletopia | New York City | 3 | Stopwatch | STV","players":null},{"server_id":16,"name":"Uncletopia | New York City | 4 | Community","name_short":"nyc-4","host":"nyc-1.us.uncletopia.com","port":27045,"enabled":true,"region":"us-east","cc":"us","latitude":40.73061,"longitude":-73.93524,"reserved":0,"last_update":"0001-01-01T00:00:00Z","name_a2s":"Uncletopia | New York City | 4 | Community","protocol":17,"map":"workshop/pl_vigil_rc10.ugc1266210012","folder":"tf","game":"Team Fortress","app_id":440,"player_count":0,"max_players":24,"Bots":0,"server_type":"Dedicated","server_os":"Linux","password":true,"vac":true,"version":"7961495","steam_id":85568392924742821,"keywords":["nocrits","nodmgspread","payload","uncletopia"],"game_id":440,"stv_port":27046,"stv_name":"Uncletopia | New York City | 4 | Community | STV","players":null},{"server_id":142,"name":"Uncletopia | São Paulo | 1 | All Maps","name_short":"sao-1","host":"sao-1.br.uncletopia.com","port":27015,"enabled":true,"region":"sa","cc":"br","latitude":-23.533773,"longitude":-46.62529,"reserved":0,"last_update":"0001-01-01T00:00:00Z","name_a2s":"Uncletopia | São Paulo | 1 | All Maps","protocol":17,"map":"koth_lakeside_final","folder":"tf","game":"Team Fortress","app_id":440,"player_count":1,"max_players":24,"Bots":0,"server_type":"Dedicated","server_os":"Linux","password":true,"vac":true,"version":"7961495","steam_id":85568392924469996,"keywords":["cp","nocrits","nodmgspread","uncletopia"],"game_id":440,"stv_port":27016,"stv_name":"Uncletopia | São Paulo | 1 | All Maps | STV","players":[{"user_id":73,"name":"kayky21(F2P)","steam_id":76561198330638899,"connected_time":274000000000,"state":"active","ping":75}]},{"server_id":143,"name":"Uncletopia | São Paulo | 2 | Community","name_short":"sao-2","host":"sao-2.br.uncletopia.com","port":27015,"enabled":true,"region":"sa","cc":"br","latitude":-23.533773,"longitude":-46.62529,"reserved":0,"last_update":"0001-01-01T00:00:00Z","name_a2s":"Uncletopia | São Paulo | 2 | Community","protocol":17,"map":"workshop/koth_ramjam_rc1.ugc459778887","folder":"tf","game":"Team Fortress","app_id":440,"player_count":0,"max_players":24,"Bots":0,"server_type":"Dedicated","server_os":"Linux","password":true,"vac":true,"version":"7961495","steam_id":85568392924485349,"keywords":["cp","nocrits","nodmgspread","uncletopia"],"game_id":440,"stv_port":27016,"stv_name":"Uncletopia | São Paulo | 2 | Community | STV","players":null},{"server_id":7,"name":"Uncletopia | Seattle | 1 | All Maps","name_short":"sea-1","host":"sea-1.us.uncletopia.com","port":27015,"enabled":true,"region":"us-west","cc":"us","latitude":47.608013,"longitude":-122.33517,"reserved":0,"last_update":"0001-01-01T00:00:00Z","name_a2s":"Uncletopia | Seattle | 1 | All Maps","protocol":17,"map":"cp_dustbowl","folder":"tf","game":"Team Fortress","app_id":440,"player_count":24,"max_players":24,"Bots":0,"server_type":"Dedicated","server_os":"Linux","password":true,"vac":true,"version":"7961495","steam_id":85568392924469997,"keywords":["cp","nocrits","nodmgspread","uncletopia"],"game_id":440,"stv_port":27016,"stv_name":"Uncletopia | Seattle | 1 | All Maps | STV","players":[{"user_id":130,"name":"BooGotShot","steam_id":76561198039062270,"connected_time":22176000000000,"state":"active","ping":102},{"user_id":421,"name":"vfa","steam_id":76561198055729118,"connected_time":336000000000,"state":"active","ping":56},{"user_id":382,"name":"Elfy","steam_id":76561199166448617,"connected_time":3878000000000,"state":"active","ping":38},{"user_id":331,"name":"J O S H³²","steam_id":76561198122603779,"connected_time":8040000000000,"state":"active","ping":83},{"user_id":399,"name":"Dextersbrain","steam_id":76561198011831579,"connected_time":1144000000000,"state":"active","ping":52},{"user_id":412,"name":"the keebler","steam_id":76561199486326945,"connected_time":612000000000,"state":"active","ping":129},{"user_id":403,"name":"Rix FPV","steam_id":76561198299320893,"connected_time":886000000000,"state":"active","ping":100},{"user_id":410,"name":"jurt","steam_id":76561198966381490,"connected_time":754000000000,"state":"active","ping":50},{"user_id":416,"name":"♩Karmism♩","steam_id":76561199453410299,"connected_time":531000000000,"state":"active","ping":135},{"user_id":419,"name":"TheBrocklobster","steam_id":76561198039682984,"connected_time":431000000000,"state":"active","ping":90},{"user_id":402,"name":"NewWorldBlues","steam_id":76561198823311447,"connected_time":919000000000,"state":"active","ping":50},{"user_id":413,"name":"The_Blaze_king","steam_id":76561198324842122,"connected_time":592000000000,"state":"active","ping":134},{"user_id":415,"name":"Dude","steam_id":76561199058616824,"connected_time":565000000000,"state":"active","ping":75},{"user_id":392,"name":"NOT FRIENDLY","steam_id":76561198041327231,"connected_time":2205000000000,"state":"active","ping":46},{"user_id":414,"name":"the brown shit on the banana","steam_id":76561198807719872,"connected_time":579000000000,"state":"active","ping":118},{"user_id":417,"name":"Jpcrab09","steam_id":76561198870109960,"connected_time":496000000000,"state":"active","ping":59},{"user_id":418,"name":"EliteSpartan","steam_id":76561198957946041,"connected_time":456000000000,"state":"active","ping":47},{"user_id":375,"name":"[Name Pending]","steam_id":76561198094685223,"connected_time":4605000000000,"state":"active","ping":104},{"user_id":398,"name":"JacobOneHundredPercentWholeWhea","steam_id":76561198045992418,"connected_time":1158000000000,"state":"active","ping":60},{"user_id":408,"name":"tbm john","steam_id":76561198304194081,"connected_time":814000000000,"state":"active","ping":68},{"user_id":326,"name":"Ridley","steam_id":76561198014857463,"connected_time":8892000000000,"state":"active","ping":126},{"user_id":422,"name":"Streamline","steam_id":76561198031098638,"connected_time":306000000000,"state":"active","ping":104},{"user_id":366,"name":"fish (2:3)","steam_id":76561198134331073,"connected_time":5483000000000,"state":"active","ping":49},{"user_id":390,"name":"Grill Skills","steam_id":76561198053575147,"connected_time":2233000000000,"state":"active","ping":52}]},{"server_id":119,"name":"Uncletopia | Seattle | 2 | All Maps","name_short":"sea-2","host":"sea-1.us.uncletopia.com","port":27025,"enabled":true,"region":"us-west","cc":"us","latitude":47.608013,"longitude":-122.33517,"reserved":0,"last_update":"0001-01-01T00:00:00Z","name_a2s":"Uncletopia | Seattle | 2 | All Maps","protocol":17,"map":"pl_swiftwater_final1","folder":"tf","game":"Team Fortress","app_id":440,"player_count":0,"max_players":24,"Bots":0,"server_type":"Dedicated","server_os":"Linux","password":true,"vac":true,"version":"7961495","steam_id":85568392924469998,"keywords":["nocrits","nodmgspread","payload","uncletopia"],"game_id":440,"stv_port":27026,"stv_name":"Uncletopia | Seattle | 2 | All Maps | STV","players":null},{"server_id":406,"name":"Uncletopia | Seattle | 3 | Stopwatch","name_short":"sea-3","host":"sea-1.us.uncletopia.com","port":27035,"enabled":true,"region":"us-west","cc":"us","latitude":47.608013,"longitude":-122.33517,"reserved":0,"last_update":"0001-01-01T00:00:00Z","name_a2s":"Uncletopia | Seattle | 3 | Stopwatch","protocol":17,"map":"cp_sunshine","folder":"tf","game":"Team Fortress","app_id":440,"player_count":0,"max_players":24,"Bots":0,"server_type":"Dedicated","server_os":"Linux","password":true,"vac":true,"version":"7961495","steam_id":85568392924515217,"keywords":["cp","nocrits","nodmgspread","uncletopia"],"game_id":440,"stv_port":27036,"stv_name":"Uncletopia | Seattle | 3 | Stopwatch | STV","players":null},{"server_id":17,"name":"Uncletopia | San Francisco | 1 | All Maps","name_short":"sfo-1","host":"sfo-1.us.uncletopia.com","port":27015,"enabled":true,"region":"us-west","cc":"us","latitude":37.77397,"longitude":-122.4313,"reserved":0,"last_update":"0001-01-01T00:00:00Z","name_a2s":"Uncletopia | San Francisco | 1 | All Maps","protocol":17,"map":"koth_cascade","folder":"tf","game":"Team Fortress","app_id":440,"player_count":1,"max_players":24,"Bots":0,"server_type":"Dedicated","server_os":"Linux","password":true,"vac":true,"version":"7961495","steam_id":85568392924469999,"keywords":["cp","nocrits","nodmgspread","uncletopia"],"game_id":440,"stv_port":27016,"stv_name":"Uncletopia | San Francisco | 1 | All Maps | STV","players":[{"user_id":5,"name":"amaricantanker#574","steam_id":76561198343584037,"connected_time":1612000000000,"state":"active","ping":58}]},{"server_id":18,"name":"Uncletopia | San Francisco | 2 | All Maps","name_short":"sfo-2","host":"sfo-1.us.uncletopia.com","port":27025,"enabled":true,"region":"us-west","cc":"us","latitude":37.77397,"longitude":-122.4313,"reserved":0,"last_update":"0001-01-01T00:00:00Z","name_a2s":"Uncletopia | San Francisco | 2 | All Maps","protocol":17,"map":"pl_upward","folder":"tf","game":"Team Fortress","app_id":440,"player_count":23,"max_players":24,"Bots":0,"server_type":"Dedicated","server_os":"Linux","password":true,"vac":true,"version":"7961495","steam_id":85568392924470000,"keywords":["nocrits","nodmgspread","payload","uncletopia"],"game_id":440,"stv_port":27026,"stv_name":"Uncletopia | San Francisco | 2 | All Maps | STV","players":[{"user_id":365,"name":"infant daughter","steam_id":76561198168492250,"connected_time":1029000000000,"state":"active","ping":72},{"user_id":381,"name":"Wiggee","steam_id":76561197972792989,"connected_time":16000000000,"state":"spawning","ping":93},{"user_id":375,"name":"Pi-Pi","steam_id":76561198450073779,"connected_time":442000000000,"state":"active","ping":61},{"user_id":346,"name":"Defeat","steam_id":76561198065203818,"connected_time":2225000000000,"state":"active","ping":56},{"user_id":168,"name":"usedhalfcart","steam_id":76561198072621852,"connected_time":11045000000000,"state":"active","ping":74},{"user_id":382,"name":"Can You Feel It Mr.Krabs","steam_id":76561198128302414,"connected_time":11000000000,"state":"spawning","ping":98},{"user_id":360,"name":"rynz500","steam_id":76561198043872361,"connected_time":1473000000000,"state":"active","ping":119},{"user_id":344,"name":"Combo","steam_id":76561198067224160,"connected_time":2269000000000,"state":"active","ping":100},{"user_id":302,"name":"chrisblue2005","steam_id":76561199385222289,"connected_time":4692000000000,"state":"active","ping":82},{"user_id":359,"name":"TobyM88","steam_id":76561198073691812,"connected_time":1547000000000,"state":"active","ping":116},{"user_id":376,"name":"Dongus","steam_id":76561197979056451,"connected_time":440000000000,"state":"active","ping":61},{"user_id":383,"name":"MasterGeek.MX","steam_id":76561198063355220,"connected_time":2000000000,"state":"spawning","ping":113},{"user_id":366,"name":"sevvy \u003c3","steam_id":76561198219129496,"connected_time":969000000000,"state":"active","ping":52},{"user_id":371,"name":"FunnyGoomba","steam_id":76561198279865229,"connected_time":620000000000,"state":"active","ping":121},{"user_id":377,"name":"I'm hihg","steam_id":76561198064206331,"connected_time":424000000000,"state":"active","ping":46},{"user_id":379,"name":"udon","steam_id":76561198165872348,"connected_time":321000000000,"state":"active","ping":88},{"user_id":347,"name":"Eden","steam_id":76561198081284664,"connected_time":2101000000000,"state":"active","ping":60},{"user_id":367,"name":"Metagamermario","steam_id":76561199417190355,"connected_time":953000000000,"state":"active","ping":117},{"user_id":370,"name":"jadene11","steam_id":76561199369221113,"connected_time":709000000000,"state":"active","ping":69},{"user_id":353,"name":"Maverick","steam_id":76561198049193435,"connected_time":1834000000000,"state":"active","ping":120},{"user_id":362,"name":"dewey","steam_id":76561198132791511,"connected_time":1213000000000,"state":"active","ping":63},{"user_id":378,"name":"viedoamges","steam_id":76561198025295263,"connected_time":377000000000,"state":"active","ping":91},{"user_id":380,"name":"Ecliptica","steam_id":76561198171951333,"connected_time":272000000000,"state":"active","ping":110}]},{"server_id":19,"name":"Uncletopia | San Francisco | 3 | Stopwatch","name_short":"sfo-3","host":"sfo-1.us.uncletopia.com","port":27035,"enabled":true,"region":"us-west","cc":"us","latitude":37.77397,"longitude":-122.4313,"reserved":0,"last_update":"0001-01-01T00:00:00Z","name_a2s":"Uncletopia | San Francisco | 3 | Stopwatch","protocol":17,"map":"workshop/koth_product_final.ugc454272353","folder":"tf","game":"Team Fortress","app_id":440,"player_count":0,"max_players":24,"Bots":0,"server_type":"Dedicated","server_os":"Linux","password":true,"vac":true,"version":"7961495","steam_id":85568392924742824,"keywords":["cp","nocrits","nodmgspread","uncletopia"],"game_id":440,"stv_port":27036,"stv_name":"Uncletopia | San Francisco | 3 | Stopwatch | STV","players":null},{"server_id":20,"name":"Uncletopia | San Francisco | 4 | Community","name_short":"sfo-4","host":"sfo-1.us.uncletopia.com","port":27045,"enabled":true,"region":"us-west","cc":"us","latitude":37.77397,"longitude":-122.4313,"reserved":0,"last_update":"0001-01-01T00:00:00Z","name_a2s":"Uncletopia | San Francisco | 4 | Community","protocol":17,"map":"pl_pier","folder":"tf","game":"Team Fortress","app_id":440,"player_count":0,"max_players":24,"Bots":0,"server_type":"Dedicated","server_os":"Linux","password":true,"vac":true,"version":"7961495","steam_id":85568392924742826,"keywords":["nocrits","nodmgspread","payload","uncletopia"],"game_id":440,"stv_port":27046,"stv_name":"Uncletopia | San Francisco | 4 | Community | STV","players":null},{"server_id":141,"name":"Uncletopia | Sydney | 1 | All Maps","name_short":"syd-1","host":"syd-1.au.uncletopia.com","port":27015,"enabled":true,"region":"au","cc":"au","latitude":-33.865143,"longitude":151.2099,"reserved":0,"last_update":"0001-01-01T00:00:00Z","name_a2s":"Uncletopia | Sydney | 1 | All Maps","protocol":17,"map":"koth_viaduct","folder":"tf","game":"Team Fortress","app_id":440,"player_count":0,"max_players":24,"Bots":0,"server_type":"Dedicated","server_os":"Linux","password":true,"vac":true,"version":"7961495","steam_id":85568392924470001,"keywords":["cp","nocrits","nodmgspread","uncletopia"],"game_id":440,"stv_port":27016,"stv_name":"Uncletopia | Sydney | 1 | All Maps | STV","players":null},{"server_id":123,"name":"Uncletopia | Sydney | 2 | All Maps","name_short":"syd-2","host":"syd-1.au.uncletopia.com","port":27025,"enabled":true,"region":"au","cc":"au","latitude":-33.865143,"longitude":151.2099,"reserved":0,"last_update":"0001-01-01T00:00:00Z","name_a2s":"Uncletopia | Sydney | 2 | All Maps","protocol":17,"map":"koth_viaduct","folder":"tf","game":"Team Fortress","app_id":440,"player_count":0,"max_players":24,"Bots":0,"server_type":"Dedicated","server_os":"Linux","password":true,"vac":true,"version":"7961495","steam_id":85568392924470002,"keywords":["cp","nocrits","nodmgspread","uncletopia"],"game_id":440,"stv_port":27026,"stv_name":"Uncletopia | Sydney | 2 | All Maps | STV","players":null},{"server_id":395,"name":"Uncletopia | Sydney | 3 | All Maps","name_short":"syd-3","host":"syd-1.au.uncletopia.com","port":27035,"enabled":true,"region":"au","cc":"au","latitude":-33.865143,"longitude":151.2099,"reserved":0,"last_update":"0001-01-01T00:00:00Z","name_a2s":"Uncletopia | Sydney | 3 | All Maps","protocol":17,"map":"pl_frontier_final","folder":"tf","game":"Team Fortress","app_id":440,"player_count":0,"max_players":24,"Bots":0,"server_type":"Dedicated","server_os":"Linux","password":true,"vac":true,"version":"7961495","steam_id":85568392925194467,"keywords":["nocrits","nodmgspread","payload","uncletopia"],"game_id":440,"stv_port":27036,"stv_name":"Uncletopia | Sydney | 3 | All Maps | STV","players":null},{"server_id":396,"name":"Uncletopia | Sydney | 4 | All Maps","name_short":"syd-4","host":"syd-1.au.uncletopia.com","port":27045,"enabled":true,"region":"au","cc":"au","latitude":-33.865143,"longitude":151.2099,"reserved":0,"last_update":"0001-01-01T00:00:00Z","name_a2s":"Uncletopia | Sydney | 4 | All Maps","protocol":17,"map":"cp_process_final","folder":"tf","game":"Team Fortress","app_id":440,"player_count":0,"max_players":24,"Bots":0,"server_type":"Dedicated","server_os":"Linux","password":true,"vac":true,"version":"7961495","steam_id":85568392925397958,"keywords":["cp","nocrits","nodmgspread","uncletopia"],"game_id":440,"stv_port":27046,"stv_name":"Uncletopia | Sydney | 4 | All Maps | STV","players":null},{"server_id":58,"name":"Uncletopia | Sydney | 5 | Stopwatch","name_short":"syd-5","host":"syd-1.au.uncletopia.com","port":27055,"enabled":true,"region":"au","cc":"au","latitude":-33.865143,"longitude":151.2099,"reserved":0,"last_update":"0001-01-01T00:00:00Z","name_a2s":"Uncletopia | Sydney | 5 | Stopwatch","protocol":17,"map":"pl_frontier_final","folder":"tf","game":"Team Fortress","app_id":440,"player_count":0,"max_players":24,"Bots":0,"server_type":"Dedicated","server_os":"Linux","password":true,"vac":true,"version":"7961495","steam_id":85568392925397959,"keywords":["nocrits","nodmgspread","payload","uncletopia"],"game_id":440,"stv_port":27056,"stv_name":"Uncletopia | Sydney | 5 | Stopwatch | STV","players":null},{"server_id":59,"name":"Uncletopia | Sydney | 6 | Community","name_short":"syd-6","host":"syd-1.au.uncletopia.com","port":27065,"enabled":true,"region":"au","cc":"au","latitude":-33.865143,"longitude":151.2099,"reserved":0,"last_update":"0001-01-01T00:00:00Z","name_a2s":"Uncletopia | Sydney | 6 | Community","protocol":17,"map":"cp_sunshine","folder":"tf","game":"Team Fortress","app_id":440,"player_count":0,"max_players":24,"Bots":0,"server_type":"Dedicated","server_os":"Linux","password":true,"vac":true,"version":"7961495","steam_id":85568392925397960,"keywords":["cp","nocrits","nodmgspread","uncletopia"],"game_id":440,"stv_port":27066,"stv_name":"Uncletopia | Sydney | 6 | Community | STV","players":null},{"server_id":49,"name":"Uncletopia | Warsaw | 1 | One Thousand Uncles","name_short":"waw-1","host":"waw-1.pl.uncletopia.com","port":27015,"enabled":true,"region":"eu","cc":"pl","latitude":52.2297,"longitude":21.017532,"reserved":0,"last_update":"0001-01-01T00:00:00Z","name_a2s":"Uncletopia | Warsaw | 1 | One Thousand Uncles","protocol":17,"map":"cp_dustbowl","folder":"tf","game":"Team Fortress","app_id":440,"player_count":29,"max_players":32,"Bots":16,"server_type":"Dedicated","server_os":"Linux","password":true,"vac":true,"version":"7961495","steam_id":85568392925397850,"keywords":["alltalk","bots","cp","danepve","increased_maxplayers","nocrits","norespawntime","uncletopia"],"game_id":440,"stv_port":0,"stv_name":"","players":[{"user_id":179,"name":"LizardMilk_19","steam_id":76561199435002235,"connected_time":940000000000,"state":"active","ping":289},{"user_id":173,"name":"Brick Of Beans","steam_id":76561198828750755,"connected_time":1701000000000,"state":"active","ping":81},{"user_id":20,"name":"0scr_","steam_id":76561198042631352,"connected_time":16622000000000,"state":"active","ping":80},{"user_id":144,"name":"Invicator","steam_id":76561198082895461,"connected_time":3482000000000,"state":"active","ping":62},{"user_id":127,"name":"Voks_","steam_id":76561198159687785,"connected_time":6659000000000,"state":"active","ping":66},{"user_id":172,"name":"SCooler27","steam_id":76561199200454579,"connected_time":1832000000000,"state":"active","ping":84},{"user_id":177,"name":"PuPuruPuruPumPu","steam_id":76561198391950490,"connected_time":1496000000000,"state":"active","ping":99},{"user_id":130,"name":"aaaaaa","steam_id":76561198086304421,"connected_time":6172000000000,"state":"active","ping":89},{"user_id":165,"name":"Scout","steam_id":76561198992898803,"connected_time":2702000000000,"state":"active","ping":77},{"user_id":166,"name":"Benzo Fury","steam_id":76561198025259336,"connected_time":2686000000000,"state":"active","ping":72},{"user_id":183,"name":"RoofRabbid","steam_id":76561198012821810,"connected_time":713000000000,"state":"active","ping":109},{"user_id":168,"name":"Rayco","steam_id":76561198048013129,"connected_time":2666000000000,"state":"active","ping":56},{"user_id":135,"name":"Hans","steam_id":76561198136895244,"connected_time":5389000000000,"state":"active","ping":45}]},{"server_id":50,"name":"Uncletopia | Warsaw | 2 | One Thousand Uncles","name_short":"waw-2","host":"waw-1.pl.uncletopia.com","port":27025,"enabled":true,"region":"eu","cc":"pl","latitude":52.2297,"longitude":21.017532,"reserved":0,"last_update":"0001-01-01T00:00:00Z","name_a2s":"Uncletopia | Warsaw | 2 | One Thousand Uncles","protocol":17,"map":"cp_mercenarypark","folder":"tf","game":"Team Fortress","app_id":440,"player_count":0,"max_players":32,"Bots":0,"server_type":"Dedicated","server_os":"Linux","password":true,"vac":true,"version":"7961495","steam_id":85568392925397851,"keywords":["alltalk","cp","danepve","increased_maxplayers","nocrits","norespawntime","uncletopia"],"game_id":440,"stv_port":0,"stv_name":"","players":null},{"server_id":51,"name":"Uncletopia | Warsaw | 3 | All Maps","name_short":"waw-3","host":"waw-1.pl.uncletopia.com","port":27035,"enabled":true,"region":"eu","cc":"pl","latitude":52.2297,"longitude":21.017532,"reserved":0,"last_update":"0001-01-01T00:00:00Z","name_a2s":"Uncletopia | Warsaw | 3 | All Maps","protocol":17,"map":"plr_pipeline","folder":"tf","game":"Team Fortress","app_id":440,"player_count":0,"max_players":24,"Bots":0,"server_type":"Dedicated","server_os":"Linux","password":true,"vac":true,"version":"7961495","steam_id":85568392925397852,"keywords":["nocrits","nodmgspread","payload","uncletopia"],"game_id":440,"stv_port":27036,"stv_name":"Uncletopia | Warsaw | 3 | All Maps | STV","players":null},{"server_id":52,"name":"Uncletopia | Warsaw | 4 | All Maps","name_short":"waw-4","host":"waw-1.pl.uncletopia.com","port":27045,"enabled":true,"region":"eu","cc":"pl","latitude":52.2297,"longitude":21.017532,"reserved":0,"last_update":"0001-01-01T00:00:00Z","name_a2s":"Uncletopia | Warsaw | 4 | All Maps","protocol":17,"map":"cp_snakewater_final1","folder":"tf","game":"Team Fortress","app_id":440,"player_count":0,"max_players":24,"Bots":0,"server_type":"Dedicated","server_os":"Linux","password":true,"vac":true,"version":"7961495","steam_id":85568392925397853,"keywords":["cp","nocrits","nodmgspread","uncletopia"],"game_id":440,"stv_port":27046,"stv_name":"Uncletopia | Warsaw | 4 | All Maps | STV","players":null},{"server_id":53,"name":"Uncletopia | Warsaw | 5 | Stopwatch","name_short":"waw-5","host":"waw-1.pl.uncletopia.com","port":27055,"enabled":true,"region":"eu","cc":"pl","latitude":52.2297,"longitude":21.017532,"reserved":0,"last_update":"0001-01-01T00:00:00Z","name_a2s":"Uncletopia | Warsaw | 5 | Stopwatch","protocol":17,"map":"koth_highpass","folder":"tf","game":"Team Fortress","app_id":440,"player_count":0,"max_players":24,"Bots":0,"server_type":"Dedicated","server_os":"Linux","password":true,"vac":true,"version":"7961495","steam_id":85568392925397854,"keywords":["cp","nocrits","nodmgspread","uncletopia"],"game_id":440,"stv_port":27056,"stv_name":"Uncletopia | Warsaw | 5 | Stopwatch | STV","players":null},{"server_id":54,"name":"Uncletopia | Warsaw | 6 | Community","name_short":"waw-6","host":"waw-1.pl.uncletopia.com","port":27065,"enabled":true,"region":"eu","cc":"pl","latitude":52.2297,"longitude":21.017532,"reserved":0,"last_update":"0001-01-01T00:00:00Z","name_a2s":"Uncletopia | Warsaw | 6 | Community","protocol":17,"map":"workshop/cp_villa_b19.ugc2113052569","folder":"tf","game":"Team Fortress","app_id":440,"player_count":0,"max_players":24,"Bots":0,"server_type":"Dedicated","server_os":"Linux","password":true,"vac":true,"version":"7961495","steam_id":85568392925397856,"keywords":["cp","nocrits","nodmgspread","uncletopia"],"game_id":440,"stv_port":27066,"stv_name":"Uncletopia | Warsaw | 6 | Community | STV","players":null}]}