{"status":true,"message":"","result":[{"server_id":9,"name":"Uncletopia | Atlanta | 1 | All Maps","name_short":"atl-1","host":"atl-1.us.uncletopia.com","port":27015,"enabled":true,"region":"us-east","cc":"us","latitude":33.753746,"longitude":-84.38633,"reserved":0,"last_update":"0001-01-01T00:00:00Z","name_a2s":"Uncletopia | Atlanta | 1 | All Maps","protocol":17,"map":"pl_borneo","folder":"tf","game":"Team Fortress","app_id":440,"player_count":24,"max_players":24,"Bots":0,"server_type":"Dedicated","server_os":"Linux","password":true,"vac":true,"version":"7757534","steam_id":85568392924469982,"keywords":["nocrits","nodmgspread","payload","uncletopia"],"game_id":440,"stv_port":27016,"stv_name":"Uncletopia | Atlanta | 1 | All Maps | STV","players":[{"user_id":381,"name":"Ghetto Smosh Fan","steam_id":76561198097272509,"connected_time":4346000000000,"state":"active","ping":35},{"user_id":373,"name":"nemo","steam_id":76561198319990195,"connected_time":5405000000000,"state":"active","ping":76},{"user_id":391,"name":"Still-Icarus","steam_id":76561198391481385,"connected_time":3495000000000,"state":"active","ping":67},{"user_id":385,"name":"SparkStorm","steam_id":76561198095817025,"connected_time":3542000000000,"state":"active","ping":36},{"user_id":394,"name":"Decolour","steam_id":76561199045608372,"connected_time":2863000000000,"state":"active","ping":73},{"user_id":353,"name":"Flint","steam_id":76561198066547582,"connected_time":6776000000000,"state":"active","ping":102},{"user_id":404,"name":"[txc] garf","steam_id":76561198083078030,"connected_time":2312000000000,"state":"active","ping":46},{"user_id":414,"name":"ATL1 | Psionic Box","steam_id":76561198151019322,"connected_time":1835000000000,"state":"active","ping":66},{"user_id":427,"name":"mayhem","steam_id":76561199246637881,"connected_time":177000000000,"state":"active","ping":50},{"user_id":441,"name":"sbkcoder","steam_id":76561199045062081,"connected_time":62000000000,"state":"active","ping":75},{"user_id":341,"name":"G_Bob","steam_id":76561198098133233,"connected_time":8047000000000,"state":"active","ping":55},{"user_id":334,"name":"You Want Me","steam_id":76561198135492119,"connected_time":8089000000000,"state":"active","ping":73},{"user_id":416,"name":"[DAD]ShadowFox","steam_id":76561197961270354,"connected_time":1580000000000,"state":"active","ping":56},{"user_id":392,"name":"an inebriated newt fancier","steam_id":76561197985428155,"connected_time":3405000000000,"state":"active","ping":80},{"user_id":420,"name":"RED1 | snoops","steam_id":76561197986760351,"connected_time":1073000000000,"state":"active","ping":75},{"user_id":419,"name":"sansa musa","steam_id":76561198163723555,"connected_time":1345000000000,"state":"active","ping":72},{"user_id":366,"name":"Uganda Knuckles lll","steam_id":76561199121276474,"connected_time":6280000000000,"state":"active","ping":90},{"user_id":410,"name":"schizophrenic with a gun","steam_id":76561198016121536,"connected_time":2002000000000,"state":"active","ping":78},{"user_id":406,"name":"butterbutt!","steam_id":76561198038160740,"connected_time":2286000000000,"state":"active","ping":46},{"user_id":397,"name":"BIG HOG","steam_id":76561198079923652,"connected_time":2602000000000,"state":"active","ping":73},{"user_id":405,"name":"lil hog","steam_id":76561199230929836,"connected_time":2309000000000,"state":"active","ping":89},{"user_id":417,"name":"jack","steam_id":76561198397804555,"connected_time":1532000000000,"state":"active","ping":113},{"user_id":411,"name":"ƒ†1 ‚ô¶ Synth","steam_id":76561198058660228,"connected_time":1901000000000,"state":"active","ping":44},{"user_id":442,"name":"NERDBOBS | Lavie","steam_id":76561198825997674,"connected_time":60000000000,"state":"active","ping":51}]},{"server_id":400,"name":"Uncletopia | Atlanta | 3 | Community","name_short":"atl-3","host":"atl-1.us.uncletopia.com","port":27035,"enabled":true,"region":"us-east","cc":"us","latitude":33.753746,"longitude":-84.38633,"reserved":0,"last_update":"0001-01-01T00:00:00Z","name_a2s":"Uncletopia | Atlanta | 3 | Community","protocol":17,"map":"workshop/cp_propaganda_b18.ugc1603743849","folder":"tf","game":"Team Fortress","app_id":440,"player_count":24,"max_players":24,"Bots":0,"server_type":"Dedicated","server_os":"Linux","password":true,"vac":true,"version":"7757534","steam_id":85568392924515187,"keywords":["cp","nocrits","nodmgspread","uncletopia"],"game_id":440,"stv_port":27036,"stv_name":"Uncletopia | Atlanta | 3 | Community | STV","players":[{"user_id":209,"name":"pogerelite","steam_id":76561199453766677,"connected_time":507000000000,"state":"active","ping":57},{"user_id":167,"name":"Smeller","steam_id":76561198041767882,"connected_time":3391000000000,"state":"active","ping":43},{"user_id":194,"name":"Eden","steam_id":76561198075587475,"connected_time":1397000000000,"state":"active","ping":63},{"user_id":188,"name":"Toasty Gyro","steam_id":76561198001026643,"connected_time":1805000000000,"state":"active","ping":80},{"user_id":206,"name":"GailusTerran","steam_id":76561198319509387,"connected_time":660000000000,"state":"active","ping":59},{"user_id":138,"name":".jpg","steam_id":76561198137237377,"connected_time":4957000000000,"state":"active","ping":86},{"user_id":165,"name":"dog","steam_id":76561198263873491,"connected_time":3459000000000,"state":"active","ping":52},{"user_id":199,"name":"chanoc","steam_id":76561198026734746,"connected_time":1140000000000,"state":"active","ping":103},{"user_id":156,"name":"Elflocky","steam_id":76561199096852639,"connected_time":4112000000000,"state":"active","ping":69},{"user_id":196,"name":"rlty","steam_id":76561198009395055,"connected_time":1381000000000,"state":"active","ping":60},{"user_id":204,"name":"BowlzingShoes","steam_id":76561199127110073,"connected_time":1034000000000,"state":"active","ping":86},{"user_id":200,"name":"Skeleton","steam_id":76561198315213115,"connected_time":1117000000000,"state":"active","ping":118},{"user_id":148,"name":"Kuyumiester","steam_id":76561198126835302,"connected_time":4396000000000,"state":"active","ping":76},{"user_id":213,"name":"BaconLol","steam_id":76561199125317999,"connected_time":154000000000,"state":"active","ping":182},{"user_id":192,"name":"Idiot on his Keyboard","steam_id":76561198217662787,"connected_time":1456000000000,"state":"active","ping":93},{"user_id":181,"name":"Chicken Joe","steam_id":76561198077799885,"connected_time":2731000000000,"state":"active","ping":78},{"user_id":212,"name":"Vanya","steam_id":76561198042631561,"connected_time":327000000000,"state":"active","ping":92},{"user_id":202,"name":"Professor Piper","steam_id":76561198156041205,"connected_time":1098000000000,"state":"active","ping":63},{"user_id":182,"name":"nichole","steam_id":76561198267961813,"connected_time":2305000000000,"state":"active","ping":85},{"user_id":214,"name":"SepplesTheDuck","steam_id":76561198069174592,"connected_time":81000000000,"state":"active","ping":73},{"user_id":41,"name":"sweppy","steam_id":76561198035457667,"connected_time":10948000000000,"state":"active","ping":59},{"user_id":203,"name":"Motorol¬™","steam_id":76561198358119669,"connected_time":1086000000000,"state":"active","ping":109},{"user_id":211,"name":"Iron Argus","steam_id":76561198181088245,"connected_time":406000000000,"state":"active","ping":84},{"user_id":177,"name":"Zoawsome","steam_id":76561198018758753,"connected_time":3173000000000,"state":"active","ping":70}]},{"server_id":401,"name":"Uncletopia | Atlanta | 4 | No Payload","name_short":"atl-4","host":"atl-1.us.uncletopia.com","port":27045,"enabled":true,"region":"us-east","cc":"us","latitude":33.753746,"longitude":-84.38633,"reserved":0,"last_update":"0001-01-01T00:00:00Z","name_a2s":"","protocol":0,"map":"","folder":"","game":"","app_id":0,"player_count":0,"max_players":0,"Bots":0,"server_type":"","server_os":"","password":false,"vac":false,"version":"","steam_id":0,"keywords":null,"game_id":0,"stv_port":0,"stv_name":"","players":null},{"server_id":2,"name":"Uncletopia | Chicago | 1 | All Maps","name_short":"chi-1","host":"chi-1.us.uncletopia.com","port":27015,"enabled":true,"region":"us-central","cc":"us","latitude":41.881832,"longitude":-87.62318,"reserved":0,"last_update":"0001-01-01T00:00:00Z","name_a2s":"Uncletopia | Chicago | 1 | All Maps","protocol":17,"map":"cp_steel","folder":"tf","game":"Team Fortress","app_id":440,"player_count":24,"max_players":24,"Bots":0,"server_type":"Dedicated","server_os":"Linux","password":true,"vac":true,"version":"7757534","steam_id":85568392924469984,"keywords":["cp","nocrits","nodmgspread","uncletopia"],"game_id":440,"stv_port":27016,"stv_name":"Uncletopia | Chicago | 1 | All Maps | STV","players":[{"user_id":646,"name":"PzVIIIMaus","steam_id":76561198346559365,"connected_time":1129000000000,"state":"active","ping":46},{"user_id":612,"name":"Cousin Corn on the Cob","steam_id":76561198049837377,"connected_time":3805000000000,"state":"active","ping":48},{"user_id":656,"name":"Ta5K","steam_id":76561198939558155,"connected_time":326000000000,"state":"active","ping":45},{"user_id":642,"name":"Sage","steam_id":76561198143101697,"connected_time":1150000000000,"state":"active","ping":96},{"user_id":632,"name":"Hovg9000.TV","steam_id":76561199191556710,"connected_time":1578000000000,"state":"active","ping":90},{"user_id":625,"name":"AttackCommander","steam_id":76561198111522679,"connected_time":2755000000000,"state":"active","ping":84},{"user_id":564,"name":"Cheeeeeeeen","steam_id":76561198986388085,"connected_time":7282000000000,"state":"active","ping":112},{"user_id":641,"name":"moistwalnut1967","steam_id":76561198044489449,"connected_time":1165000000000,"state":"active","ping":53},{"user_id":643,"name":"B)","steam_id":76561198093921290,"connected_time":1149000000000,"state":"active","ping":47},{"user_id":644,"name":"Strangelove","steam_id":76561198353773611,"connected_time":1141000000000,"state":"active","ping":97},{"user_id":649,"name":"Iron","steam_id":76561198247918478,"connected_time":1095000000000,"state":"active","ping":59},{"user_id":652,"name":"neverseemeagain","steam_id":76561198062054335,"connected_time":560000000000,"state":"active","ping":103},{"user_id":607,"name":"kivee","steam_id":76561198838223023,"connected_time":4611000000000,"state":"active","ping":59},{"user_id":542,"name":"Rec","steam_id":76561198022813906,"connected_time":8348000000000,"state":"active","ping":55},{"user_id":617,"name":"Kapitan Bomba","steam_id":76561199102087660,"connected_time":3705000000000,"state":"active","ping":63},{"user_id":654,"name":"i am last tuesday","steam_id":76561199064660270,"connected_time":479000000000,"state":"active","ping":68},{"user_id":650,"name":"engie","steam_id":76561199229629045,"connected_time":1003000000000,"state":"active","ping":110},{"user_id":609,"name":"b√ºddeh","steam_id":76561198070735936,"connected_time":3820000000000,"state":"active","ping":61},{"user_id":640,"name":"Mindset","steam_id":76561198107074449,"connected_time":1173000000000,"state":"active","ping":54},{"user_id":557,"name":"Jak(i)","steam_id":76561198076823144,"connected_time":7678000000000,"state":"active","ping":72},{"user_id":624,"name":"Lucon","steam_id":76561198067147724,"connected_time":2925000000000,"state":"active","ping":55},{"user_id":655,"name":"aversa","steam_id":76561198840460101,"connected_time":387000000000,"state":"active","ping":78},{"user_id":647,"name":"iceman","steam_id":76561198135397441,"connected_time":1126000000000,"state":"active","ping":85},{"user_id":648,"name":"Alkaios","steam_id":76561198246193520,"connected_time":1105000000000,"state":"active","ping":60}]},{"server_id":106,"name":"Uncletopia | Chicago | 2 | All Maps","name_short":"chi-2","host":"chi-1.us.uncletopia.com","port":27025,"enabled":true,"region":"us-central","cc":"us","latitude":41.881832,"longitude":-87.62318,"reserved":0,"last_update":"0001-01-01T00:00:00Z","name_a2s":"Uncletopia | Chicago | 2 | All Maps","protocol":17,"map":"cp_dustbowl","folder":"tf","game":"Team Fortress","app_id":440,"player_count":23,"max_players":24,"Bots":0,"server_type":"Dedicated","server_os":"Linux","password":true,"vac":true,"version":"7757534","steam_id":85568392924469985,"keywords":["cp","nocrits","nodmgspread","uncletopia"],"game_id":440,"stv_port":27026,"stv_name":"Uncletopia | Chicago | 2 | All Maps | STV","players":[{"user_id":724,"name":"PCR","steam_id":76561198048748102,"connected_time":195000000000,"state":"active","ping":47},{"user_id":677,"name":"when","steam_id":76561198443289583,"connected_time":3581000000000,"state":"connecting","ping":54},{"user_id":673,"name":"Lemur Ninja","steam_id":76561198005883167,"connected_time":3724000000000,"state":"active","ping":73},{"user_id":717,"name":"Spacey","steam_id":76561198127335850,"connected_time":1125000000000,"state":"active","ping":80},{"user_id":727,"name":"Jombi","steam_id":76561198427813097,"connected_time":85000000000,"state":"active","ping":71},{"user_id":697,"name":"hehehe ha","steam_id":76561198159823948,"connected_time":2274000000000,"state":"active","ping":54},{"user_id":664,"name":"ËìùÂÖâÁâà‰πîÊ±°Âû¢","steam_id":76561199088154401,"connected_time":4567000000000,"state":"active","ping":68},{"user_id":723,"name":"Fake Uncle","steam_id":76561198880227689,"connected_time":452000000000,"state":"active","ping":67},{"user_id":700,"name":"Tick","steam_id":76561198184161214,"connected_time":2202000000000,"state":"active","ping":40},{"user_id":718,"name":"Jennifer Aniston's Nipples","steam_id":76561198086107548,"connected_time":927000000000,"state":"active","ping":60},{"user_id":733,"name":"BigOrca54","steam_id":76561198181360271,"connected_time":32000000000,"state":"active","ping":56},{"user_id":686,"name":"zogs (she/her)","steam_id":76561198323491654,"connected_time":3283000000000,"state":"active","ping":60},{"user_id":730,"name":"moocow445","steam_id":76561198070923665,"connected_time":58000000000,"state":"active","ping":81},{"user_id":728,"name":"Genius Meme","steam_id":76561198162911254,"connected_time":77000000000,"state":"active","ping":104},{"user_id":731,"name":"Dr Spaceman","steam_id":76561197969755657,"connected_time":50000000000,"state":"active","ping":49},{"user_id":734,"name":"Phillip Jeffries","steam_id":76561198064052174,"connected_time":2000000000,"state":"spawning","ping":64},{"user_id":709,"name":"Rhutebeer","steam_id":76561198018302761,"connected_time":1497000000000,"state":"active","ping":100},{"user_id":711,"name":"herobrian","steam_id":76561199161322235,"connected_time":1253000000000,"state":"active","ping":72},{"user_id":702,"name":"Esteban Delsin","steam_id":76561198433519639,"connected_time":1962000000000,"state":"active","ping":102},{"user_id":726,"name":"Rein","steam_id":76561198300340427,"connected_time":92000000000,"state":"active","ping":64},{"user_id":685,"name":"What The Hell Fried Chicken","steam_id":76561198117434605,"connected_time":3402000000000,"state":"active","ping":84},{"user_id":725,"name":"ÿßŸÜÿ™ÿ≠ÿ± Ÿäÿß ÿßÿ®ŸÜ ÿßŸÑŸÖÿ™","steam_id":76561198326987939,"connected_time":131000000000,"state":"active","ping":75},{"user_id":714,"name":"NGsterson","steam_id":76561198162108154,"connected_time":1176000000000,"state":"active","ping":99}]},{"server_id":402,"name":"Uncletopia | Chicago | 3 | All Maps","name_short":"chi-3","host":"chi-1.us.uncletopia.com","port":27035,"enabled":true,"region":"us-central","cc":"us","latitude":41.881832,"longitude":-87.62318,"reserved":0,"last_update":"0001-01-01T00:00:00Z","name_a2s":"Uncletopia | Chicago | 3 | All Maps","protocol":17,"map":"koth_cascade","folder":"tf","game":"Team Fortress","app_id":440,"player_count":1,"max_players":24,"Bots":0,"server_type":"Dedicated","server_os":"Linux","password":true,"vac":true,"version":"7757534","steam_id":85568392924515191,"keywords":["cp","nocrits","nodmgspread","uncletopia"],"game_id":440,"stv_port":27036,"stv_name":"Uncletopia | Chicago | 3 | All Maps | STV","players":[{"user_id":27,"name":"ryanespino0615","steam_id":76561199250769578,"connected_time":6000000000,"state":"spawning","ping":31}]},{"server_id":403,"name":"Uncletopia | Chicago | 4 | All Maps","name_short":"chi-4","host":"chi-1.us.uncletopia.com","port":27045,"enabled":true,"region":"us-central","cc":"us","latitude":41.881832,"longitude":-87.62318,"reserved":0,"last_update":"0001-01-01T00:00:00Z","name_a2s":"Uncletopia | Chicago | 4 | All Maps","protocol":17,"map":"pl_snowycoast","folder":"tf","game":"Team Fortress","app_id":440,"player_count":24,"max_players":24,"Bots":0,"server_type":"Dedicated","server_os":"Linux","password":true,"vac":true,"version":"7757534","steam_id":85568392924515193,"keywords":["nocrits","nodmgspread","payload","uncletopia"],"game_id":440,"stv_port":27046,"stv_name":"Uncletopia | Chicago | 4 | All Maps | STV","players":[{"user_id":524,"name":"the big sloppy","steam_id":76561198155872356,"connected_time":1158000000000,"state":"active","ping":56},{"user_id":518,"name":"Darathus","steam_id":76561198069120720,"connected_time":1517000000000,"state":"active","ping":103},{"user_id":540,"name":"Lost (15)","steam_id":76561198093713427,"connected_time":167000000000,"state":"active","ping":60},{"user_id":511,"name":"stupid ape","steam_id":76561198350027075,"connected_time":1695000000000,"state":"active","ping":58},{"user_id":471,"name":"svenjamin","steam_id":76561198188722751,"connected_time":4805000000000,"state":"active","ping":91},{"user_id":505,"name":"Nilantive","steam_id":76561198177565082,"connected_time":2487000000000,"state":"active","ping":57},{"user_id":525,"name":"Hairy Pear","steam_id":76561198087397457,"connected_time":1099000000000,"state":"active","ping":84},{"user_id":508,"name":"Omnoman","steam_id":76561198006258213,"connected_time":2042000000000,"state":"active","ping":87},{"user_id":535,"name":"Animal Slices","steam_id":76561198137545511,"connected_time":262000000000,"state":"active","ping":60},{"user_id":536,"name":"ÔΩ°*‚úßBad Temper‚úß*ÔΩ°","steam_id":76561199200969139,"connected_time":244000000000,"state":"active","ping":106},{"user_id":541,"name":"Satan-2","steam_id":76561199231742764,"connected_time":65000000000,"state":"active","ping":69},{"user_id":516,"name":"Torei","steam_id":76561198799229190,"connected_time":1528000000000,"state":"active","ping":56},{"user_id":450,"name":"Rappitor","steam_id":76561198105613110,"connected_time":6095000000000,"state":"active","ping":52},{"user_id":542,"name":"globefrotter","steam_id":76561198185980055,"connected_time":7000000000,"state":"spawning","ping":61},{"user_id":509,"name":"Sprucelass","steam_id":76561197998391724,"connected_time":2027000000000,"state":"active","ping":48},{"user_id":528,"name":"SHI ' THEAD","steam_id":76561198119697137,"connected_time":962000000000,"state":"active","ping":84},{"user_id":521,"name":"Professor Peppermint","steam_id":76561198184017082,"connected_time":1470000000000,"state":"active","ping":54},{"user_id":522,"name":"exotic fishes","steam_id":76561199046490785,"connected_time":1190000000000,"state":"active","ping":67},{"user_id":502,"name":"bergly","steam_id":76561198811650078,"connected_time":2591000000000,"state":"active","ping":94},{"user_id":538,"name":"·ïï( ·êõ )·ïó","steam_id":76561198110033681,"connected_time":238000000000,"state":"active","ping":52},{"user_id":506,"name":"THGAwesome","steam_id":76561198162847218,"connected_time":2431000000000,"state":"active","ping":168},{"user_id":523,"name":"100 goons","steam_id":76561198212272548,"connected_time":1177000000000,"state":"active","ping":60},{"user_id":534,"name":"the Good Guy","steam_id":76561198416759211,"connected_time":292000000000,"state":"active","ping":107},{"user_id":539,"name":"SwagRoxas","steam_id":76561198109759891,"connected_time":237000000000,"state":"active","ping":67}]},{"server_id":36,"name":"Uncletopia | Chicago | 5 | All Maps","name_short":"chi-5","host":"chi-2.us.uncletopia.com","port":27015,"enabled":true,"region":"us-central","cc":"us","latitude":41.881832,"longitude":-87.62318,"reserved":0,"last_update":"0001-01-01T00:00:00Z","name_a2s":"Uncletopia | Chicago | 5 | All Maps","protocol":17,"map":"koth_lakeside_final","folder":"tf","game":"Team Fortress","app_id":440,"player_count":0,"max_players":24,"Bots":0,"server_type":"Dedicated","server_os":"Linux","password":true,"vac":true,"version":"7757534","steam_id":85568392924866362,"keywords":["cp","nocrits","nodmgspread","uncletopia"],"game_id":440,"stv_port":27016,"stv_name":"Uncletopia | Chicago | 5 | All Maps | STV","players":null},{"server_id":37,"name":"Uncletopia | Chicago | 6 | All Maps","name_short":"chi-6","host":"chi-2.us.uncletopia.com","port":27025,"enabled":true,"region":"us-central","cc":"us","latitude":41.881832,"longitude":-87.62318,"reserved":0,"last_update":"0001-01-01T00:00:00Z","name_a2s":"Uncletopia | Chicago | 6 | All Maps","protocol":17,"map":"pl_badwater","folder":"tf","game":"Team Fortress","app_id":440,"player_count":18,"max_players":24,"Bots":0,"server_type":"Dedicated","server_os":"Linux","password":true,"vac":true,"version":"7757534","steam_id":85568392924866363,"keywords":["nocrits","nodmgspread","payload","uncletopia"],"game_id":440,"stv_port":27026,"stv_name":"Uncletopia | Chicago | 6 | All Maps | STV","players":[{"user_id":102,"name":"Dr. Dick","steam_id":76561198138011922,"connected_time":753000000000,"state":"active","ping":77},{"user_id":113,"name":"Tomoscones","steam_id":76561198813586588,"connected_time":29000000000,"state":"active","ping":104},{"user_id":93,"name":"evnobev","steam_id":76561198038966462,"connected_time":1686000000000,"state":"active","ping":45},{"user_id":80,"name":"dP | I'm in a Wookie Suit","steam_id":76561198083307644,"connected_time":2566000000000,"state":"active","ping":99},{"user_id":112,"name":"Toygar","steam_id":76561198023679830,"connected_time":130000000000,"state":"active","ping":47},{"user_id":115,"name":"kametro4","steam_id":76561198835430429,"connected_time":13000000000,"state":"spawning","ping":86},{"user_id":109,"name":"crabapples","steam_id":76561198075818655,"connected_time":248000000000,"state":"active","ping":57},{"user_id":84,"name":"PossumInASock","steam_id":76561198057138795,"connected_time":2251000000000,"state":"active","ping":128},{"user_id":70,"name":"dakota__","steam_id":76561198076596506,"connected_time":3393000000000,"state":"active","ping":60},{"user_id":85,"name":"Rosemaryüåô ÂπΩÈúä [ 1 9 9 8 ","steam_id":76561198807726226,"connected_time":2236000000000,"state":"active","ping":88},{"user_id":77,"name":"Jdpho99","steam_id":76561197968182680,"connected_time":3017000000000,"state":"active","ping":76},{"user_id":103,"name":"‚òº  gamble","steam_id":76561198074180953,"connected_time":732000000000,"state":"active","ping":68},{"user_id":104,"name":"wesker can hit it tbh","steam_id":76561197968351430,"connected_time":716000000000,"state":"active","ping":91},{"user_id":108,"name":"Huggle","steam_id":76561198141491662,"connected_time":465000000000,"state":"active","ping":64},{"user_id":106,"name":"PlagueScript","steam_id":76561198450234626,"connected_time":489000000000,"state":"active","ping":101},{"user_id":107,"name":"W rizz","steam_id":76561198130098823,"connected_time":489000000000,"state":"active","ping":47},{"user_id":90,"name":"Cat","steam_id":76561198121342302,"connected_time":2119000000000,"state":"active","ping":104},{"user_id":101,"name":"ham bone","steam_id":76561198351143785,"connected_time":863000000000,"state":"active","ping":60}]},{"server_id":38,"name":"Uncletopia | Chicago | 7 | Stopwatch Beta","name_short":"chi-7","host":"chi-2.us.uncletopia.com","port":27035,"enabled":true,"region":"us-central","cc":"us","latitude":41.881832,"longitude":-87.62318,"reserved":0,"last_update":"0001-01-01T00:00:00Z","name_a2s":"Uncletopia | Chicago | 7 | Stopwatch Beta","protocol":17,"map":"workshop/koth_bagel_rc6.ugc2514036946","folder":"tf","game":"Team Fortress","app_id":440,"player_count":0,"max_players":24,"Bots":0,"server_type":"Dedicated","server_os":"Linux","password":true,"vac":true,"version":"7757534","steam_id":85568392924866364,"keywords":["cp","nocrits","nodmgspread","uncletopia"],"game_id":440,"stv_port":27036,"stv_name":"Uncletopia | Chicago | 7 | Stopwatch Beta | STV","players":null},{"server_id":39,"name":"Uncletopia | Chicago | 8 | Community","name_short":"chi-8","host":"chi-2.us.uncletopia.com","port":27045,"enabled":true,"region":"us-central","cc":"us","latitude":41.881832,"longitude":-87.62318,"reserved":0,"last_update":"0001-01-01T00:00:00Z","name_a2s":"Uncletopia | Chicago | 8 | Community","protocol":17,"map":"koth_lakeside_final","folder":"tf","game":"Team Fortress","app_id":440,"player_count":0,"max_players":24,"Bots":0,"server_type":"Dedicated","server_os":"Linux","password":true,"vac":true,"version":"7757534","steam_id":85568392924866365,"keywords":["cp","nocrits","nodmgspread","uncletopia"],"game_id":440,"stv_port":27046,"stv_name":"Uncletopia | Chicago | 8 | Community | STV","players":null},{"server_id":8,"name":"Uncletopia | Dallas | 1 | All Maps","name_short":"dal-1","host":"dal-1.us.uncletopia.com","port":27015,"enabled":true,"region":"us-central","cc":"us","latitude":32.779167,"longitude":-96.80889,"reserved":0,"last_update":"0001-01-01T00:00:00Z","name_a2s":"Uncletopia | Dallas | 1 | All Maps","protocol":17,"map":"pl_upward","folder":"tf","game":"Team Fortress","app_id":440,"player_count":24,"max_players":24,"Bots":0,"server_type":"Dedicated","server_os":"Linux","password":true,"vac":true,"version":"7757534","steam_id":85568392924469986,"keywords":["nocrits","nodmgspread","payload","uncletopia"],"game_id":440,"stv_port":27016,"stv_name":"Uncletopia | Dallas | 1 | All Maps | STV","players":[{"user_id":474,"name":"evan_is_sauce","steam_id":76561199086802383,"connected_time":1143000000000,"state":"active","ping":57},{"user_id":472,"name":"Aspiring E-Boy","steam_id":76561198120710871,"connected_time":1243000000000,"state":"active","ping":63},{"user_id":484,"name":"Antonin Scalia","steam_id":76561198080687598,"connected_time":553000000000,"state":"active","ping":75},{"user_id":485,"name":"Jackboi","steam_id":76561198097707558,"connected_time":544000000000,"state":"active","ping":84},{"user_id":462,"name":"SuperFresh","steam_id":76561198200723198,"connected_time":1897000000000,"state":"active","ping":61},{"user_id":440,"name":"picnic blanket","steam_id":76561198308186037,"connected_time":3842000000000,"state":"active","ping":75},{"user_id":476,"name":"hola","steam_id":76561198873043242,"connected_time":1033000000000,"state":"active","ping":132},{"user_id":471,"name":"‚Ö£ Melon","steam_id":76561198041266286,"connected_time":1377000000000,"state":"active","ping":69},{"user_id":453,"name":"Imrgrim","steam_id":76561198135866481,"connected_time":2935000000000,"state":"active","ping":66},{"user_id":438,"name":"Ryo31337","steam_id":76561198063083553,"connected_time":3999000000000,"state":"active","ping":55},{"user_id":469,"name":"Eoka Gaming","steam_id":76561198315596929,"connected_time":1645000000000,"state":"active","ping":85},{"user_id":465,"name":"‚Ä∫‚Ä∫ Phish","steam_id":76561198218719943,"connected_time":1880000000000,"state":"active","ping":63},{"user_id":490,"name":"Greg Boberton 2012","steam_id":76561198983566026,"connected_time":254000000000,"state":"active","ping":86},{"user_id":478,"name":"iphoneibong","steam_id":76561198054647777,"connected_time":923000000000,"state":"active","ping":43},{"user_id":477,"name":"Known","steam_id":76561198069842586,"connected_time":937000000000,"state":"active","ping":69},{"user_id":487,"name":"Slazzer","steam_id":76561198404351844,"connected_time":533000000000,"state":"active","ping":94},{"user_id":479,"name":"scrotal recall","steam_id":76561198135945598,"connected_time":903000000000,"state":"active","ping":73},{"user_id":466,"name":"zaku","steam_id":76561199227854899,"connected_time":1868000000000,"state":"active","ping":123},{"user_id":481,"name":"Goob","steam_id":76561198210148089,"connected_time":775000000000,"state":"active","ping":100},{"user_id":482,"name":"Der Munchkin[2098]","steam_id":76561197998833309,"connected_time":713000000000,"state":"active","ping":78},{"user_id":473,"name":"LuciD","steam_id":76561198242842394,"connected_time":1242000000000,"state":"active","ping":93},{"user_id":488,"name":"Poddlesworth","steam_id":76561198090592535,"connected_time":533000000000,"state":"active","ping":75},{"user_id":489,"name":"‚àÄ…ê","steam_id":76561198139718219,"connected_time":528000000000,"state":"active","ping":94},{"user_id":426,"name":"Moonflower ‚ú¶","steam_id":76561198191782483,"connected_time":4617000000000,"state":"active","ping":53}]},{"server_id":108,"name":"Uncletopia | Dallas | 2 | All Maps","name_short":"dal-2","host":"dal-1.us.uncletopia.com","port":27025,"enabled":true,"region":"us-central","cc":"us","latitude":32.779167,"longitude":-96.80889,"reserved":0,"last_update":"0001-01-01T00:00:00Z","name_a2s":"Uncletopia | Dallas | 2 | All Maps","protocol":17,"map":"cp_dustbowl","folder":"tf","game":"Team Fortress","app_id":440,"player_count":24,"max_players":24,"Bots":0,"server_type":"Dedicated","server_os":"Linux","password":true,"vac":true,"version":"7757534","steam_id":85568392924469988,"keywords":["cp","nocrits","nodmgspread","uncletopia"],"game_id":440,"stv_port":27026,"stv_name":"Uncletopia | Dallas | 2 | All Maps | STV","players":[{"user_id":280,"name":"ItsDifficultttt","steam_id":76561199402730529,"connected_time":2167000000000,"state":"active","ping":80},{"user_id":246,"name":"A Can of Arizona Green Tea","steam_id":76561198062481133,"connected_time":4133000000000,"state":"active","ping":70},{"user_id":297,"name":"WallHitter","steam_id":76561199394273076,"connected_time":1599000000000,"state":"active","ping":102},{"user_id":309,"name":"Xecom","steam_id":76561198067868538,"connected_time":213000000000,"state":"active","ping":93},{"user_id":293,"name":"I-No","steam_id":76561198556615605,"connected_time":1609000000000,"state":"active","ping":55},{"user_id":287,"name":"Ghaeril","steam_id":76561198047880019,"connected_time":1848000000000,"state":"active","ping":59},{"user_id":316,"name":"grass","steam_id":76561199089573133,"connected_time":55000000000,"state":"active","ping":127},{"user_id":279,"name":"super","steam_id":76561198800358844,"connected_time":2182000000000,"state":"active","ping":68},{"user_id":274,"name":"Red Man","steam_id":76561198293333566,"connected_time":2440000000000,"state":"active","ping":46},{"user_id":302,"name":"Joe Biden","steam_id":76561198238699798,"connected_time":1549000000000,"state":"active","ping":85},{"user_id":317,"name":"DerpFamous","steam_id":76561198046167888,"connected_time":15000000000,"state":"active","ping":47},{"user_id":307,"name":"she sucked me in a peculiar way","steam_id":76561198081220016,"connected_time":245000000000,"state":"active","ping":71},{"user_id":305,"name":"[LINUX] Purple Penguin Pybro","steam_id":76561198093538786,"connected_time":1251000000000,"state":"active","ping":45},{"user_id":298,"name":"Zero","steam_id":76561199383267408,"connected_time":1584000000000,"state":"active","ping":55},{"user_id":295,"name":"|WS| Don't_Taze_Me_Bro","steam_id":76561198043289495,"connected_time":1605000000000,"state":"active","ping":78},{"user_id":312,"name":"Brobespierre","steam_id":76561198022225667,"connected_time":178000000000,"state":"active","ping":88},{"user_id":311,"name":"NETTASTINI","steam_id":76561199135904313,"connected_time":204000000000,"state":"active","ping":92},{"user_id":291,"name":"Kaluka","steam_id":76561198036861445,"connected_time":1620000000000,"state":"active","ping":85},{"user_id":289,"name":"Steve Obi Wan Ben Larry Kenobi","steam_id":76561199154188122,"connected_time":1741000000000,"state":"active","ping":72},{"user_id":306,"name":"Smiles","steam_id":76561198107197973,"connected_time":1222000000000,"state":"active","ping":102},{"user_id":300,"name":"Jason Gaming","steam_id":76561198215467601,"connected_time":1569000000000,"state":"active","ping":98},{"user_id":313,"name":"Angry Shoes","steam_id":76561197980385816,"connected_time":162000000000,"state":"active","ping":126},{"user_id":314,"name":"BeerDrinker49000000000","steam_id":76561198846515168,"connected_time":161000000000,"state":"active","ping":95},{"user_id":315,"name":"thundermuffin","steam_id":76561198067770965,"connected_time":153000000000,"state":"active","ping":74}]},{"server_id":5,"name":"Uncletopia | Frankfurt | 1 | All Maps","name_short":"frk-1","host":"frk-1.de.uncletopia.com","port":27015,"enabled":true,"region":"eu","cc":"de","latitude":50.110924,"longitude":8.682127,"reserved":0,"last_update":"0001-01-01T00:00:00Z","name_a2s":"Uncletopia | Frankfurt | 1 | All Maps","protocol":17,"map":"pl_borneo","folder":"tf","game":"Team Fortress","app_id":440,"player_count":0,"max_players":24,"Bots":0,"server_type":"Dedicated","server_os":"Linux","password":true,"vac":true,"version":"7757534","steam_id":85568392924469989,"keywords":["nocrits","nodmgspread","payload","uncletopia"],"game_id":440,"stv_port":27016,"stv_name":"Uncletopia | Frankfurt | 1 | All Maps | STV","players":null},{"server_id":110,"name":"Uncletopia | Frankfurt | 2 | All Maps","name_short":"frk-2","host":"frk-1.de.uncletopia.com","port":27025,"enabled":true,"region":"eu","cc":"de","latitude":50.110924,"longitude":8.682127,"reserved":0,"last_update":"0001-01-01T00:00:00Z","name_a2s":"Uncletopia | Frankfurt | 2 | All Maps","protocol":17,"map":"cp_snakewater_final1","folder":"tf","game":"Team Fortress","app_id":440,"player_count":0,"max_players":24,"Bots":0,"server_type":"Dedicated","server_os":"Linux","password":true,"vac":true,"version":"7757534","steam_id":85568392924469990,"keywords":["cp","nocrits","nodmgspread","uncletopia"],"game_id":440,"stv_port":27026,"stv_name":"Uncletopia | Frankfurt | 2 | All Maps | STV","players":null},{"server_id":308,"name":"Uncletopia | Frankfurt | 3 | All Maps","name_short":"frk-3","host":"frk-1.de.uncletopia.com","port":27035,"enabled":true,"region":"eu","cc":"de","latitude":50.110924,"longitude":8.682127,"reserved":0,"last_update":"0001-01-01T00:00:00Z","name_a2s":"Uncletopia | Frankfurt | 3 | All Maps","protocol":17,"map":"pl_frontier_final","folder":"tf","game":"Team Fortress","app_id":440,"player_count":24,"max_players":24,"Bots":0,"server_type":"Dedicated","server_os":"Linux","password":true,"vac":true,"version":"7757534","steam_id":85568392924504274,"keywords":["nocrits","nodmgspread","payload","uncletopia"],"game_id":440,"stv_port":27036,"stv_name":"Uncletopia | Frankfurt | 3 | All Maps | STV","players":[{"user_id":503,"name":"DanteFromDmc5","steam_id":76561198390314734,"connected_time":1920000000000,"state":"active","ping":58},{"user_id":521,"name":"yamsi","steam_id":76561198297753260,"connected_time":258000000000,"state":"active","ping":74},{"user_id":507,"name":"stepbro","steam_id":76561198119607160,"connected_time":1867000000000,"state":"active","ping":69},{"user_id":500,"name":"askoidufjh","steam_id":76561198198581079,"connected_time":1938000000000,"state":"active","ping":95},{"user_id":483,"name":"Corohan","steam_id":76561198009339510,"connected_time":3273000000000,"state":"active","ping":77},{"user_id":471,"name":"subway vergil","steam_id":76561199110064166,"connected_time":4157000000000,"state":"active","ping":82},{"user_id":516,"name":"R","steam_id":76561199379233899,"connected_time":463000000000,"state":"active","ping":83},{"user_id":515,"name":"gneeda","steam_id":76561198147249160,"connected_time":466000000000,"state":"active","ping":103},{"user_id":497,"name":"hmmmmm","steam_id":76561198024619679,"connected_time":1948000000000,"state":"active","ping":75},{"user_id":452,"name":"KittyKate ‚ù§","steam_id":76561198116340817,"connected_time":4876000000000,"state":"active","ping":63},{"user_id":485,"name":"poshtoo @_@","steam_id":76561198106182078,"connected_time":3266000000000,"state":"active","ping":100},{"user_id":511,"name":"Kawaii Anime Grill","steam_id":76561198108904214,"connected_time":1183000000000,"state":"active","ping":83},{"user_id":498,"name":"r√∏verhul","steam_id":76561198150474100,"connected_time":1948000000000,"state":"active","ping":69},{"user_id":508,"name":"gagalak","steam_id":76561198089979108,"connected_time":1848000000000,"state":"active","ping":89},{"user_id":523,"name":"twitch.tv/inviter","steam_id":76561198100268434,"connected_time":199000000000,"state":"active","ping":74},{"user_id":520,"name":"big hoops","steam_id":76561198004703799,"connected_time":297000000000,"state":"active","ping":52},{"user_id":454,"name":"Cheshireycat","steam_id":76561198067204908,"connected_time":4832000000000,"state":"active","ping":68},{"user_id":501,"name":"BuzzBees ‚ù§","steam_id":76561198101502273,"connected_time":1937000000000,"state":"active","ping":66},{"user_id":506,"name":"Bobo","steam_id":76561198052308399,"connected_time":1887000000000,"state":"active","ping":57},{"user_id":517,"name":"minespweper","steam_id":76561199096919345,"connected_time":451000000000,"state":"active","ping":81},{"user_id":518,"name":"!Trying to have fun!","steam_id":76561198151370212,"connected_time":438000000000,"state":"active","ping":75},{"user_id":480,"name":".erik (real)","steam_id":76561197962112424,"connected_time":3432000000000,"state":"active","ping":65},{"user_id":425,"name":"Purps","steam_id":76561198053886680,"connected_time":6975000000000,"state":"active","ping":46},{"user_id":509,"name":"good to be back","steam_id":76561199391850406,"connected_time":1698000000000,"state":"active","ping":79}]},{"server_id":309,"name":"Uncletopia | Frankfurt | 4 | All Maps","name_short":"frk-4","host":"frk-1.de.uncletopia.com","port":27045,"enabled":true,"region":"eu","cc":"de","latitude":50.110924,"longitude":8.682127,"reserved":0,"last_update":"0001-01-01T00:00:00Z","name_a2s":"Uncletopia | Frankfurt | 4 | All Maps","protocol":17,"map":"koth_cascade","folder":"tf","game":"Team Fortress","app_id":440,"player_count":0,"max_players":24,"Bots":0,"server_type":"Dedicated","server_os":"Linux","password":true,"vac":true,"version":"7757534","steam_id":85568392924504275,"keywords":["cp","nocrits","nodmgspread","uncletopia"],"game_id":440,"stv_port":27046,"stv_name":"Uncletopia | Frankfurt | 4 | All Maps | STV","players":null},{"server_id":310,"name":"Uncletopia | Frankfurt | 5 | All Maps","name_short":"frk-5","host":"frk-1.de.uncletopia.com","port":27055,"enabled":true,"region":"eu","cc":"de","latitude":50.110924,"longitude":8.682127,"reserved":0,"last_update":"0001-01-01T00:00:00Z","name_a2s":"Uncletopia | Frankfurt | 5 | All Maps","protocol":17,"map":"koth_highpass","folder":"tf","game":"Team Fortress","app_id":440,"player_count":0,"max_players":24,"Bots":0,"server_type":"Dedicated","server_os":"Linux","password":true,"vac":true,"version":"7757534","steam_id":85568392924504277,"keywords":["cp","nocrits","nodmgspread","uncletopia"],"game_id":440,"stv_port":27056,"stv_name":"Uncletopia | Frankfurt | 5 | All Maps | STV","players":null},{"server_id":311,"name":"Uncletopia | Frankfurt | 6 | All Maps","name_short":"frk-6","host":"frk-1.de.uncletopia.com","port":27065,"enabled":true,"region":"eu","cc":"de","latitude":50.110924,"longitude":8.682127,"reserved":0,"last_update":"0001-01-01T00:00:00Z","name_a2s":"Uncletopia | Frankfurt | 6 | All Maps","protocol":17,"map":"cp_dustbowl","folder":"tf","game":"Team Fortress","app_id":440,"player_count":0,"max_players":24,"Bots":0,"server_type":"Dedicated","server_os":"Linux","password":true,"vac":true,"version":"7757534","steam_id":85568392924504278,"keywords":["cp","nocrits","nodmgspread","uncletopia"],"game_id":440,"stv_port":27066,"stv_name":"Uncletopia | Frankfurt | 6 | All Maps | STV","players":null},{"server_id":23,"name":"Uncletopia | Frankfurt | 7 | Stopwatch Beta","name_short":"frk-7","host":"frk-1.de.uncletopia.com","port":27075,"enabled":true,"region":"eu","cc":"de","latitude":50.110924,"longitude":8.682127,"reserved":0,"last_update":"0001-01-01T00:00:00Z","name_a2s":"Uncletopia | Frankfurt | 7 | Stopwatch Beta","protocol":17,"map":"pl_swiftwater_final1","folder":"tf","game":"Team Fortress","app_id":440,"player_count":0,"max_players":24,"Bots":0,"server_type":"Dedicated","server_os":"Linux","password":true,"vac":true,"version":"7757534","steam_id":85568392924742827,"keywords":["nocrits","nodmgspread","payload","uncletopia"],"game_id":440,"stv_port":27076,"stv_name":"Uncletopia | Frankfurt | 7 | Stopwatch Beta | STV","players":null},{"server_id":24,"name":"Uncletopia | Frankfurt | 8 | Community","name_short":"frk-8","host":"frk-1.de.uncletopia.com","port":27085,"enabled":true,"region":"eu","cc":"de","latitude":50.110924,"longitude":8.682127,"reserved":0,"last_update":"0001-01-01T00:00:00Z","name_a2s":"Uncletopia | Frankfurt | 8 | Community","protocol":17,"map":"koth_viaduct","folder":"tf","game":"Team Fortress","app_id":440,"player_count":0,"max_players":24,"Bots":0,"server_type":"Dedicated","server_os":"Linux","password":true,"vac":true,"version":"7757534","steam_id":85568392924742828,"keywords":["cp","nocrits","nodmgspread","uncletopia"],"game_id":440,"stv_port":27086,"stv_name":"Uncletopia | Frankfurt | 8 | Community | STV","players":null},{"server_id":202,"name":"Uncletopia | Hong Kong | 1 | All Maps","name_short":"hgk-1","host":"hgk-1.hk.uncletopia.com","port":27015,"enabled":true,"region":"asia","cc":"hk","latitude":22.302711,"longitude":114.177216,"reserved":0,"last_update":"0001-01-01T00:00:00Z","name_a2s":"Uncletopia | Hong Kong | 1 | All Maps","protocol":17,"map":"cp_sunshine","folder":"tf","game":"Team Fortress","app_id":440,"player_count":0,"max_players":24,"Bots":0,"server_type":"Dedicated","server_os":"Linux","password":true,"vac":true,"version":"7757534","steam_id":85568392924494504,"keywords":["cp","nocrits","nodmgspread","uncletopia"],"game_id":440,"stv_port":27016,"stv_name":"Uncletopia | Hong Kong | 1 | All Maps | STV","players":null},{"server_id":1,"name":"Uncletopia | Los Angeles | 1 | All Maps","name_short":"lax-1","host":"lax-1.us.uncletopia.com","port":27015,"enabled":true,"region":"us-west","cc":"us","latitude":33.94279,"longitude":-118.41004,"reserved":0,"last_update":"0001-01-01T00:00:00Z","name_a2s":"Uncletopia | Los Angeles | 1 | All Maps","protocol":17,"map":"pl_snowycoast","folder":"tf","game":"Team Fortress","app_id":440,"player_count":25,"max_players":24,"Bots":0,"server_type":"Dedicated","server_os":"Linux","password":true,"vac":true,"version":"7757534","steam_id":85568392924469991,"keywords":["nocrits","nodmgspread","payload","uncletopia"],"game_id":440,"stv_port":27016,"stv_name":"Uncletopia | Los Angeles | 1 | All Maps | STV","players":[{"user_id":232,"name":"randumguy","steam_id":76561198323321012,"connected_time":631000000000,"state":"active","ping":89},{"user_id":224,"name":"Lucille II","steam_id":76561198138543746,"connected_time":782000000000,"state":"active","ping":132},{"user_id":208,"name":"SilverMango","steam_id":76561198091243252,"connected_time":1648000000000,"state":"active","ping":50},{"user_id":238,"name":"Grimprr","steam_id":76561198275816797,"connected_time":43000000000,"state":"active","ping":130},{"user_id":236,"name":"Wackydavo","steam_id":76561197990094209,"connected_time":242000000000,"state":"active","ping":93},{"user_id":240,"name":"warmdogwater","steam_id":76561198183845683,"connected_time":37000000000,"state":"active","ping":123},{"user_id":235,"name":"sophia!!! (killer)","steam_id":76561198049802690,"connected_time":338000000000,"state":"active","ping":75},{"user_id":198,"name":"TruBluHue","steam_id":76561198294389079,"connected_time":2402000000000,"state":"active","ping":110},{"user_id":219,"name":"SexyBootsHaver","steam_id":76561198202018494,"connected_time":1228000000000,"state":"active","ping":45},{"user_id":227,"name":"financial recession","steam_id":76561198313695660,"connected_time":668000000000,"state":"active","ping":108},{"user_id":196,"name":"Zykron","steam_id":76561199056400800,"connected_time":2679000000000,"state":"active","ping":58},{"user_id":176,"name":"Rumpus Fugly","steam_id":76561198095118127,"connected_time":3605000000000,"state":"active","ping":96},{"user_id":221,"name":"Grizzakk","steam_id":76561198115821923,"connected_time":1012000000000,"state":"active","ping":82},{"user_id":222,"name":"Stumblin' in","steam_id":76561198119826352,"connected_time":976000000000,"state":"active","ping":75},{"user_id":216,"name":"DiscoTraveler","steam_id":76561199240168088,"connected_time":1449000000000,"state":"active","ping":100},{"user_id":234,"name":"trashbro","steam_id":76561199417993197,"connected_time":490000000000,"state":"active","ping":69},{"user_id":195,"name":"bottom pride burger","steam_id":76561198322247602,"connected_time":2750000000000,"state":"active","ping":56},{"user_id":230,"name":"Rue","steam_id":76561198013135993,"connected_time":641000000000,"state":"active","ping":104},{"user_id":207,"name":"Firedust19","steam_id":76561198153238631,"connected_time":1669000000000,"state":"active","ping":67},{"user_id":204,"name":"AcidBat3","steam_id":76561198169389335,"connected_time":2014000000000,"state":"active","ping":41},{"user_id":223,"name":"jawnymac","steam_id":76561198179529599,"connected_time":845000000000,"state":"active","ping":61},{"user_id":217,"name":"\u003c3Elise\u003c3","steam_id":76561198146435005,"connected_time":1447000000000,"state":"active","ping":103},{"user_id":220,"name":"tylre","steam_id":76561198128198748,"connected_time":1220000000000,"state":"active","ping":101},{"user_id":231,"name":"Project Dusk","steam_id":76561198193521149,"connected_time":640000000000,"state":"active","ping":100},{"user_id":241,"name":"Leftshadows","steam_id":76561199089515791,"connected_time":13000000000,"state":"spawning","ping":54}]},{"server_id":112,"name":"Uncletopia | Los Angeles | 2 | All Maps","name_short":"lax-2","host":"lax-1.us.uncletopia.com","port":27025,"enabled":true,"region":"us-west","cc":"us","latitude":33.94279,"longitude":-118.41004,"reserved":0,"last_update":"0001-01-01T00:00:00Z","name_a2s":"Uncletopia | Los Angeles | 2 | All Maps","protocol":17,"map":"pl_snowycoast","folder":"tf","game":"Team Fortress","app_id":440,"player_count":23,"max_players":24,"Bots":0,"server_type":"Dedicated","server_os":"Linux","password":true,"vac":true,"version":"7757534","steam_id":85568392924469992,"keywords":["nocrits","nodmgspread","payload","uncletopia"],"game_id":440,"stv_port":27026,"stv_name":"Uncletopia | Los Angeles | 2 | All Maps | STV","players":[{"user_id":103,"name":"Vergil","steam_id":76561198133905845,"connected_time":2703000000000,"state":"active","ping":65},{"user_id":50,"name":"Joey Wheeler","steam_id":76561198073792437,"connected_time":7212000000000,"state":"active","ping":60},{"user_id":139,"name":"bash","steam_id":76561199161649534,"connected_time":76000000000,"state":"active","ping":66},{"user_id":65,"name":"Simba","steam_id":76561198073845172,"connected_time":6622000000000,"state":"active","ping":63},{"user_id":140,"name":"Pablo.Minecraft.2007","steam_id":76561199041819861,"connected_time":69000000000,"state":"active","ping":39},{"user_id":90,"name":"amia","steam_id":76561198228125224,"connected_time":3617000000000,"state":"active","ping":46},{"user_id":125,"name":"Cinnifox","steam_id":76561198068773971,"connected_time":415000000000,"state":"active","ping":81},{"user_id":115,"name":"wait no stop dont do that","steam_id":76561199117157198,"connected_time":1087000000000,"state":"active","ping":152},{"user_id":141,"name":"Vimjamin","steam_id":76561198021231435,"connected_time":49000000000,"state":"active","ping":57},{"user_id":89,"name":"zaza2k","steam_id":76561198393760567,"connected_time":3654000000000,"state":"active","ping":53},{"user_id":126,"name":"Bada Bingus","steam_id":76561198046743307,"connected_time":407000000000,"state":"active","ping":123},{"user_id":137,"name":"I'm Frost Man","steam_id":76561198393276400,"connected_time":157000000000,"state":"active","ping":94},{"user_id":116,"name":"xs","steam_id":76561198106938500,"connected_time":1086000000000,"state":"active","ping":45},{"user_id":109,"name":"serliph","steam_id":76561198164911364,"connected_time":2239000000000,"state":"active","ping":47},{"user_id":92,"name":"F3RRAL","steam_id":76561198172279275,"connected_time":3604000000000,"state":"active","ping":46},{"user_id":132,"name":"Pootis420","steam_id":76561198390196058,"connected_time":313000000000,"state":"active","ping":61},{"user_id":142,"name":"T√ºCold","steam_id":76561198111278197,"connected_time":28000000000,"state":"spawning","ping":53},{"user_id":133,"name":"Treader","steam_id":76561198096555885,"connected_time":259000000000,"state":"active","ping":103},{"user_id":48,"name":"nella","steam_id":76561198079349621,"connected_time":7270000000000,"state":"active","ping":55},{"user_id":143,"name":"The Admiralty","steam_id":76561198839398708,"connected_time":19000000000,"state":"active","ping":82},{"user_id":111,"name":"bigman1","steam_id":76561198050225055,"connected_time":2238000000000,"state":"active","ping":43},{"user_id":134,"name":"Toxic Medic Main (he/they)","steam_id":76561198009314845,"connected_time":239000000000,"state":"active","ping":75},{"user_id":135,"name":"Tmiracle","steam_id":76561198052375275,"connected_time":237000000000,"state":"active","ping":46}]},{"server_id":324,"name":"Uncletopia | Los Angeles | 3 | All Maps","name_short":"lax-3","host":"lax-1.us.uncletopia.com","port":27035,"enabled":true,"region":"us-west","cc":"us","latitude":33.94279,"longitude":-118.41004,"reserved":0,"last_update":"0001-01-01T00:00:00Z","name_a2s":"Uncletopia | Los Angeles | 3 | All Maps","protocol":17,"map":"koth_viaduct","folder":"tf","game":"Team Fortress","app_id":440,"player_count":0,"max_players":24,"Bots":0,"server_type":"Dedicated","server_os":"Linux","password":true,"vac":true,"version":"7757534","steam_id":85568392924510198,"keywords":["cp","nocrits","nodmgspread","uncletopia"],"game_id":440,"stv_port":27036,"stv_name":"Uncletopia | Los Angeles | 3 | All Maps | STV","players":null},{"server_id":25,"name":"Uncletopia | Los Angeles | 4 | Stopwatch Beta","name_short":"lax-4","host":"lax-1.us.uncletopia.com","port":27045,"enabled":true,"region":"us-west","cc":"us","latitude":33.94279,"longitude":-118.41004,"reserved":0,"last_update":"0001-01-01T00:00:00Z","name_a2s":"Uncletopia | Los Angeles | 4 | Stopwatch Beta","protocol":17,"map":"cp_sunshine","folder":"tf","game":"Team Fortress","app_id":440,"player_count":0,"max_players":24,"Bots":0,"server_type":"Dedicated","server_os":"Linux","password":true,"vac":true,"version":"7757534","steam_id":85568392924510199,"keywords":["cp","nocrits","nodmgspread","uncletopia"],"game_id":440,"stv_port":27046,"stv_name":"Uncletopia | Los Angeles | 4 | Stopwatch Beta | STV","players":null},{"server_id":11,"name":"Uncletopia | London | 1 | All Maps","name_short":"lon-1","host":"lon-1.uk.uncletopia.com","port":27015,"enabled":true,"region":"eu","cc":"gb","latitude":51.509865,"longitude":-0.118092,"reserved":0,"last_update":"0001-01-01T00:00:00Z","name_a2s":"Uncletopia | London | 1 | All Maps","protocol":17,"map":"pl_snowycoast","folder":"tf","game":"Team Fortress","app_id":440,"player_count":24,"max_players":24,"Bots":0,"server_type":"Dedicated","server_os":"Linux","password":true,"vac":true,"version":"7757534","steam_id":85568392924367362,"keywords":["nocrits","nodmgspread","payload","uncletopia"],"game_id":440,"stv_port":27016,"stv_name":"Uncletopia | London | 1 | All Maps | STV","players":[{"user_id":759,"name":"Zippy","steam_id":76561198279229422,"connected_time":850000000000,"state":"active","ping":137},{"user_id":761,"name":"JellyParrot","steam_id":76561199190990163,"connected_time":837000000000,"state":"active","ping":139},{"user_id":760,"name":"Jarl SwagDog","steam_id":76561198097553711,"connected_time":849000000000,"state":"active","ping":121},{"user_id":762,"name":"mid goth creachur","steam_id":76561198118989010,"connected_time":835000000000,"state":"active","ping":53},{"user_id":763,"name":"Drdarlekzzz","steam_id":76561198160141785,"connected_time":819000000000,"state":"active","ping":40},{"user_id":764,"name":"cockwater","steam_id":76561198209101861,"connected_time":813000000000,"state":"active","ping":74},{"user_id":775,"name":"SHADESAVE","steam_id":76561198034881430,"connected_time":294000000000,"state":"active","ping":143},{"user_id":766,"name":"MR.THE TOASTER","steam_id":76561199109565739,"connected_time":806000000000,"state":"active","ping":163},{"user_id":743,"name":"harryhux","steam_id":76561198228052940,"connected_time":2464000000000,"state":"active","ping":35},{"user_id":752,"name":"frosty","steam_id":76561198094560834,"connected_time":1107000000000,"state":"active","ping":47},{"user_id":728,"name":"Kumquat","steam_id":76561198200490386,"connected_time":3330000000000,"state":"active","ping":65},{"user_id":738,"name":"demiham","steam_id":76561198115357723,"connected_time":2841000000000,"state":"active","ping":65},{"user_id":755,"name":"big up liquid richard","steam_id":76561198053764422,"connected_time":1045000000000,"state":"active","ping":49},{"user_id":720,"name":"Sputnik","steam_id":76561198138660241,"connected_time":3804000000000,"state":"active","ping":60},{"user_id":610,"name":"regimiro","steam_id":76561198120457008,"connected_time":11198000000000,"state":"active","ping":48},{"user_id":718,"name":"r0la","steam_id":76561198128315340,"connected_time":3836000000000,"state":"active","ping":78},{"user_id":767,"name":"Back Pain Medication","steam_id":76561198846784757,"connected_time":803000000000,"state":"active","ping":63},{"user_id":753,"name":"Refurbished Boy","steam_id":76561197995834697,"connected_time":1094000000000,"state":"active","ping":99},{"user_id":768,"name":"GARM00","steam_id":76561198081676344,"connected_time":793000000000,"state":"active","ping":162},{"user_id":774,"name":"Thalgorock","steam_id":76561198195315022,"connected_time":553000000000,"state":"active","ping":72},{"user_id":769,"name":"Sm√∂rh√•lan","steam_id":76561198026512755,"connected_time":783000000000,"state":"active","ping":72},{"user_id":770,"name":"etc","steam_id":76561197998394797,"connected_time":779000000000,"state":"active","ping":55},{"user_id":771,"name":"varven","steam_id":76561197965907387,"connected_time":773000000000,"state":"active","ping":55},{"user_id":758,"name":"alison","steam_id":76561197988990794,"connected_time":897000000000,"state":"active","ping":52}]},{"server_id":114,"name":"Uncletopia | London | 2 | All Maps","name_short":"lon-2","host":"lon-1.uk.uncletopia.com","port":27025,"enabled":true,"region":"eu","cc":"gb","latitude":51.509865,"longitude":-0.118092,"reserved":0,"last_update":"0001-01-01T00:00:00Z","name_a2s":"Uncletopia | London | 2 | All Maps","protocol":17,"map":"pl_pier","folder":"tf","game":"Team Fortress","app_id":440,"player_count":0,"max_players":24,"Bots":0,"server_type":"Dedicated","server_os":"Linux","password":true,"vac":true,"version":"7757534","steam_id":85568392924470941,"keywords":["nocrits","nodmgspread","payload","uncletopia"],"game_id":440,"stv_port":27026,"stv_name":"Uncletopia | London | 2 | All Maps | STV","players":null},{"server_id":320,"name":"Uncletopia | London | 3 | All Maps","name_short":"lon-3","host":"lon-1.uk.uncletopia.com","port":27035,"enabled":true,"region":"eu","cc":"gb","latitude":51.509865,"longitude":-0.118092,"reserved":0,"last_update":"0001-01-01T00:00:00Z","name_a2s":"Uncletopia | London | 3 | All Maps","protocol":17,"map":"pl_borneo","folder":"tf","game":"Team Fortress","app_id":440,"player_count":24,"max_players":24,"Bots":0,"server_type":"Dedicated","server_os":"Linux","password":true,"vac":true,"version":"7757534","steam_id":85568392924510192,"keywords":["nocrits","nodmgspread","payload","uncletopia"],"game_id":440,"stv_port":27036,"stv_name":"Uncletopia | London | 3 | All Maps | STV","players":[{"user_id":389,"name":"Kutuzov","steam_id":76561198060988694,"connected_time":1708000000000,"state":"active","ping":110},{"user_id":367,"name":"Femboy with the wrong pronouns","steam_id":76561198072320671,"connected_time":4332000000000,"state":"active","ping":38},{"user_id":399,"name":"hwyad","steam_id":76561199129942647,"connected_time":885000000000,"state":"active","ping":55},{"user_id":396,"name":"CEO of Pen Island","steam_id":76561198037212191,"connected_time":1164000000000,"state":"active","ping":67},{"user_id":332,"name":"grandpa's post-mortem photo","steam_id":76561198130116078,"connected_time":7218000000000,"state":"active","ping":92},{"user_id":395,"name":"Cosmetic brain","steam_id":76561198055936410,"connected_time":1283000000000,"state":"active","ping":83},{"user_id":394,"name":":)","steam_id":76561198043201482,"connected_time":1296000000000,"state":"active","ping":84},{"user_id":383,"name":"Linux Lesbian","steam_id":76561198205464653,"connected_time":2104000000000,"state":"active","ping":58},{"user_id":322,"name":"Julez","steam_id":76561198045505082,"connected_time":7770000000000,"state":"active","ping":77},{"user_id":397,"name":"willo","steam_id":76561198034442999,"connected_time":911000000000,"state":"active","ping":60},{"user_id":385,"name":"AsuX","steam_id":76561197990333289,"connected_time":2055000000000,"state":"active","ping":59},{"user_id":406,"name":"Micha≈Ç","steam_id":76561198320346362,"connected_time":802000000000,"state":"active","ping":72},{"user_id":363,"name":"Christmas Ham","steam_id":76561198119601623,"connected_time":4583000000000,"state":"active","ping":85},{"user_id":409,"name":"Tsuruko","steam_id":76561198063618114,"connected_time":575000000000,"state":"active","ping":72},{"user_id":408,"name":"Melon","steam_id":76561198150893860,"connected_time":595000000000,"state":"active","ping":75},{"user_id":391,"name":"malink√Ω","steam_id":76561198048683488,"connected_time":1558000000000,"state":"active","ping":68},{"user_id":387,"name":"vani","steam_id":76561197991778291,"connected_time":2032000000000,"state":"active","ping":81},{"user_id":338,"name":"dairy","steam_id":76561198117033273,"connected_time":6155000000000,"state":"active","ping":60},{"user_id":393,"name":"duchess abigail","steam_id":76561198166953966,"connected_time":1370000000000,"state":"active","ping":66},{"user_id":388,"name":"steakman10","steam_id":76561198152584691,"connected_time":1946000000000,"state":"active","ping":71},{"user_id":365,"name":"Economic crisis","steam_id":76561198063562843,"connected_time":4512000000000,"state":"active","ping":62},{"user_id":348,"name":"tapeworms!","steam_id":76561198069649097,"connected_time":5832000000000,"state":"active","ping":48},{"user_id":405,"name":"V8","steam_id":76561199233979726,"connected_time":826000000000,"state":"active","ping":87},{"user_id":366,"name":"Rank 1 Gourmand World","steam_id":76561197970114051,"connected_time":4486000000000,"state":"active","ping":45}]},{"server_id":321,"name":"Uncletopia | London | 4 | All Maps","name_short":"lon-4","host":"lon-1.uk.uncletopia.com","port":27045,"enabled":true,"region":"eu","cc":"gb","latitude":51.509865,"longitude":-0.118092,"reserved":0,"last_update":"0001-01-01T00:00:00Z","name_a2s":"Uncletopia | London | 4 | All Maps","protocol":17,"map":"pl_swiftwater_final1","folder":"tf","game":"Team Fortress","app_id":440,"player_count":0,"max_players":24,"Bots":0,"server_type":"Dedicated","server_os":"Linux","password":true,"vac":true,"version":"7757534","steam_id":85568392924510193,"keywords":["nocrits","nodmgspread","payload","uncletopia"],"game_id":440,"stv_port":27046,"stv_name":"Uncletopia | London | 4 | All Maps | STV","players":null},{"server_id":21,"name":"Uncletopia | London | 5 | All Maps","name_short":"lon-5","host":"lon-1.uk.uncletopia.com","port":27055,"enabled":true,"region":"eu","cc":"gb","latitude":51.509865,"longitude":-0.118092,"reserved":0,"last_update":"0001-01-01T00:00:00Z","name_a2s":"Uncletopia | London | 5 | All Maps","protocol":17,"map":"koth_viaduct","folder":"tf","game":"Team Fortress","app_id":440,"player_count":0,"max_players":24,"Bots":0,"server_type":"Dedicated","server_os":"Linux","password":true,"vac":true,"version":"7757534","steam_id":85568392924742829,"keywords":["cp","nocrits","nodmgspread","uncletopia"],"game_id":440,"stv_port":27056,"stv_name":"Uncletopia | London | 5 | All Maps | STV","players":null},{"server_id":22,"name":"Uncletopia | London | 6 | All Maps","name_short":"lon-6","host":"lon-1.uk.uncletopia.com","port":27065,"enabled":true,"region":"eu","cc":"gb","latitude":51.509865,"longitude":-0.118092,"reserved":0,"last_update":"0001-01-01T00:00:00Z","name_a2s":"Uncletopia | London | 6 | All Maps","protocol":17,"map":"koth_lakeside_final","folder":"tf","game":"Team Fortress","app_id":440,"player_count":0,"max_players":24,"Bots":0,"server_type":"Dedicated","server_os":"Linux","password":true,"vac":true,"version":"7757534","steam_id":85568392924742830,"keywords":["cp","nocrits","nodmgspread","uncletopia"],"game_id":440,"stv_port":27066,"stv_name":"Uncletopia | London | 6 | All Maps | STV","players":null},{"server_id":40,"name":"Uncletopia | London | 7 | No Payload","name_short":"lon-7","host":"lon-1.uk.uncletopia.com","port":27075,"enabled":true,"region":"eu","cc":"gb","latitude":51.509865,"longitude":-0.118092,"reserved":0,"last_update":"0001-01-01T00:00:00Z","name_a2s":"Uncletopia | London | 7 | No Payload","protocol":17,"map":"koth_highpass","folder":"tf","game":"Team Fortress","app_id":440,"player_count":0,"max_players":24,"Bots":0,"server_type":"Dedicated","server_os":"Linux","password":true,"vac":true,"version":"7757534","steam_id":85568392924964314,"keywords":["cp","nocrits","nodmgspread","uncletopia"],"game_id":440,"stv_port":27076,"stv_name":"Uncletopia | London | 7 | No Payload | STV","players":null},{"server_id":41,"name":"Uncletopia | London | 8 | Community","name_short":"lon-8","host":"lon-1.uk.uncletopia.com","port":27085,"enabled":true,"region":"eu","cc":"gb","latitude":51.509865,"longitude":-0.118092,"reserved":0,"last_update":"0001-01-01T00:00:00Z","name_a2s":"Uncletopia | London | 8 | Community","protocol":17,"map":"cp_altitude","folder":"tf","game":"Team Fortress","app_id":440,"player_count":0,"max_players":24,"Bots":0,"server_type":"Dedicated","server_os":"Linux","password":true,"vac":true,"version":"7757534","steam_id":85568392924964315,"keywords":["cp","nocrits","nodmgspread","uncletopia"],"game_id":440,"stv_port":27086,"stv_name":"Uncletopia | London | 8 | Community | STV","players":null},{"server_id":300,"name":"Uncletopia | Montr√©al | 1 | All Maps","name_short":"mtl-1","host":"mtl-1.ca.uncletopia.com","port":27015,"enabled":true,"region":"us-east","cc":"ca","latitude":45.50889,"longitude":-73.56167,"reserved":0,"last_update":"0001-01-01T00:00:00Z","name_a2s":"Uncletopia | Montr√©al | 1 | All Maps","protocol":17,"map":"pl_pier","folder":"tf","game":"Team Fortress","app_id":440,"player_count":0,"max_players":24,"Bots":0,"server_type":"Dedicated","server_os":"Linux","password":true,"vac":true,"version":"7757534","steam_id":85568392924500087,"keywords":["nocrits","nodmgspread","payload","uncletopia"],"game_id":440,"stv_port":27016,"stv_name":"Uncletopia | Montr√©al | 1 | All Maps | STV","players":null},{"server_id":301,"name":"Uncletopia | Montr√©al | 2 | All Maps","name_short":"mtl-2","host":"mtl-1.ca.uncletopia.com","port":27025,"enabled":true,"region":"us-east","cc":"ca","latitude":45.50889,"longitude":-73.56167,"reserved":0,"last_update":"0001-01-01T00:00:00Z","name_a2s":"Uncletopia | Montr√©al | 2 | All Maps","protocol":17,"map":"pl_snowycoast","folder":"tf","game":"Team Fortress","app_id":440,"player_count":0,"max_players":24,"Bots":0,"server_type":"Dedicated","server_os":"Linux","password":true,"vac":true,"version":"7757534","steam_id":85568392924500088,"keywords":["nocrits","nodmgspread","payload","uncletopia"],"game_id":440,"stv_port":27026,"stv_name":"Uncletopia | Montr√©al | 2 | All Maps | STV","players":null},{"server_id":302,"name":"Uncletopia | Montr√©al | 3 | All Maps","name_short":"mtl-3","host":"mtl-1.ca.uncletopia.com","port":27035,"enabled":true,"region":"us-east","cc":"ca","latitude":45.50889,"longitude":-73.56167,"reserved":0,"last_update":"0001-01-01T00:00:00Z","name_a2s":"Uncletopia | Montr√©al | 3 | All Maps","protocol":17,"map":"pl_badwater","folder":"tf","game":"Team Fortress","app_id":440,"player_count":1,"max_players":24,"Bots":0,"server_type":"Dedicated","server_os":"Linux","password":true,"vac":true,"version":"7757534","steam_id":85568392924500089,"keywords":["nocrits","nodmgspread","payload","uncletopia"],"game_id":440,"stv_port":27036,"stv_name":"Uncletopia | Montr√©al | 3 | All Maps | STV","players":[{"user_id":22,"name":"smoose","steam_id":76561198134321792,"connected_time":644000000000,"state":"active","ping":46}]},{"server_id":303,"name":"Uncletopia | Montr√©al | 4 | No Payload","name_short":"mtl-4","host":"mtl-1.ca.uncletopia.com","port":27045,"enabled":true,"region":"us-east","cc":"ca","latitude":45.50889,"longitude":-73.56167,"reserved":0,"last_update":"0001-01-01T00:00:00Z","name_a2s":"Uncletopia | Montr√©al | 4 | No Payload","protocol":17,"map":"pl_pier","folder":"tf","game":"Team Fortress","app_id":440,"player_count":0,"max_players":24,"Bots":0,"server_type":"Dedicated","server_os":"Linux","password":true,"vac":true,"version":"7757534","steam_id":85568392924500090,"keywords":["nocrits","nodmgspread","payload","uncletopia"],"game_id":440,"stv_port":27046,"stv_name":"Uncletopia | Montr√©al | 4 | No Payload | STV","players":null},{"server_id":13,"name":"Uncletopia | New York City | 1 | All Maps","name_short":"nyc-1","host":"nyc-1.us.uncletopia.com","port":27015,"enabled":true,"region":"us-east","cc":"us","latitude":40.73061,"longitude":-73.93524,"reserved":0,"last_update":"0001-01-01T00:00:00Z","name_a2s":"Uncletopia | New York City | 1 | All Maps","protocol":17,"map":"ctf_turbine","folder":"tf","game":"Team Fortress","app_id":440,"player_count":24,"max_players":24,"Bots":0,"server_type":"Dedicated","server_os":"Linux","password":true,"vac":true,"version":"7757534","steam_id":85568392924469993,"keywords":["ctf","nocrits","nodmgspread","uncletopia"],"game_id":440,"stv_port":27016,"stv_name":"Uncletopia | New York City | 1 | All Maps | STV","players":[{"user_id":182,"name":"stewfat","steam_id":76561198084066964,"connected_time":6085000000000,"state":"active","ping":76},{"user_id":253,"name":"Crate","steam_id":76561198216807112,"connected_time":1419000000000,"state":"active","ping":45},{"user_id":232,"name":"AdorableMew","steam_id":76561198186706405,"connected_time":2785000000000,"state":"active","ping":93},{"user_id":269,"name":"Burger King Employee","steam_id":76561199159329732,"connected_time":671000000000,"state":"active","ping":50},{"user_id":212,"name":"FLORAL COMPUTING","steam_id":76561199056492130,"connected_time":3483000000000,"state":"active","ping":54},{"user_id":254,"name":"Spex","steam_id":76561198404566859,"connected_time":1417000000000,"state":"active","ping":54},{"user_id":270,"name":"Moot","steam_id":76561198971354161,"connected_time":539000000000,"state":"active","ping":52},{"user_id":272,"name":"Sensitive Shooter","steam_id":76561198041439581,"connected_time":421000000000,"state":"active","ping":56},{"user_id":190,"name":"Ghost","steam_id":76561198110914180,"connected_time":5363000000000,"state":"active","ping":162},{"user_id":238,"name":"Yumyumyaz","steam_id":76561198142866179,"connected_time":2214000000000,"state":"active","ping":84},{"user_id":275,"name":"chicken coup d'√©tat","steam_id":76561198069586736,"connected_time":215000000000,"state":"active","ping":47},{"user_id":217,"name":"neet","steam_id":76561197968115168,"connected_time":3330000000000,"state":"active","ping":46},{"user_id":255,"name":"The Doc K","steam_id":76561198035695029,"connected_time":1406000000000,"state":"active","ping":91},{"user_id":268,"name":"space is nice","steam_id":76561198080653023,"connected_time":811000000000,"state":"active","ping":74},{"user_id":265,"name":"Cidio Irion","steam_id":76561198176885019,"connected_time":1018000000000,"state":"active","ping":173},{"user_id":273,"name":"‚ô°a femboy‚ô°","steam_id":76561199212971864,"connected_time":392000000000,"state":"active","ping":62},{"user_id":234,"name":"epitome","steam_id":76561198834412436,"connected_time":2542000000000,"state":"active","ping":65},{"user_id":264,"name":"Herr M√ºller","steam_id":76561198064876829,"connected_time":1086000000000,"state":"active","ping":98},{"user_id":249,"name":"Heropon","steam_id":76561198105224481,"connected_time":1456000000000,"state":"active","ping":69},{"user_id":226,"name":"Bali","steam_id":76561198038693845,"connected_time":3113000000000,"state":"active","ping":184},{"user_id":277,"name":"yeyoi","steam_id":76561198069821885,"connected_time":132000000000,"state":"active","ping":60},{"user_id":259,"name":"Shmuzy","steam_id":76561198252123826,"connected_time":1360000000000,"state":"active","ping":135},{"user_id":274,"name":"JacripspyVulcano","steam_id":76561198966980576,"connected_time":356000000000,"state":"active","ping":42}]},{"server_id":14,"name":"Uncletopia | New York City | 2 | All Maps","name_short":"nyc-2","host":"nyc-1.us.uncletopia.com","port":27025,"enabled":true,"region":"us-east","cc":"us","latitude":40.73061,"longitude":-73.93524,"reserved":0,"last_update":"0001-01-01T00:00:00Z","name_a2s":"Uncletopia | New York City | 2 | All Maps","protocol":17,"map":"pl_pier","folder":"tf","game":"Team Fortress","app_id":440,"player_count":24,"max_players":24,"Bots":0,"server_type":"Dedicated","server_os":"Linux","password":true,"vac":true,"version":"7757534","steam_id":85568392924469994,"keywords":["nocrits","nodmgspread","payload","uncletopia"],"game_id":440,"stv_port":27026,"stv_name":"Uncletopia | New York City | 2 | All Maps | STV","players":[{"user_id":132,"name":"FASTLIFER","steam_id":76561199389781834,"connected_time":2499000000000,"state":"active","ping":128},{"user_id":116,"name":"Chin","steam_id":76561198247426906,"connected_time":3274000000000,"state":"active","ping":62},{"user_id":153,"name":"Johnny Lawrence #JohnnyMaxxing","steam_id":76561199367141671,"connected_time":568000000000,"state":"active","ping":53},{"user_id":141,"name":"You Don't Nomi.","steam_id":76561197969137836,"connected_time":1264000000000,"state":"active","ping":52},{"user_id":155,"name":"who is gavin?","steam_id":76561198069415057,"connected_time":469000000000,"state":"active","ping":45},{"user_id":148,"name":"jeff","steam_id":76561198059450566,"connected_time":1206000000000,"state":"active","ping":60},{"user_id":115,"name":"xen","steam_id":76561198048568188,"connected_time":3445000000000,"state":"active","ping":46},{"user_id":103,"name":"Voon","steam_id":76561198166843533,"connected_time":4323000000000,"state":"active","ping":56},{"user_id":137,"name":"Moofins","steam_id":76561198050291949,"connected_time":2197000000000,"state":"active","ping":90},{"user_id":139,"name":"Nodspine","steam_id":76561198253579994,"connected_time":1701000000000,"state":"active","ping":130},{"user_id":135,"name":"toastman","steam_id":76561198207073088,"connected_time":2343000000000,"state":"active","ping":97},{"user_id":147,"name":"waster","steam_id":76561198078395002,"connected_time":1223000000000,"state":"active","ping":70},{"user_id":119,"name":"Red","steam_id":76561198082958231,"connected_time":3062000000000,"state":"active","ping":54},{"user_id":152,"name":"mogan","steam_id":76561198071700821,"connected_time":570000000000,"state":"active","ping":56},{"user_id":144,"name":"Mattron1","steam_id":76561198012270524,"connected_time":1244000000000,"state":"active","ping":68},{"user_id":138,"name":"Chirox","steam_id":76561198034516923,"connected_time":1944000000000,"state":"active","ping":65},{"user_id":145,"name":"Smart Cranberry","steam_id":76561198125059468,"connected_time":1244000000000,"state":"active","ping":46},{"user_id":150,"name":"riceeater","steam_id":76561198121400478,"connected_time":883000000000,"state":"active","ping":59},{"user_id":98,"name":"Spoilt Pudding","steam_id":76561198001195423,"connected_time":4417000000000,"state":"active","ping":84},{"user_id":146,"name":"M@verick","steam_id":76561198006363519,"connected_time":1241000000000,"state":"active","ping":69},{"user_id":100,"name":"AuzzieJZ","steam_id":76561198134430439,"connected_time":4404000000000,"state":"active","ping":81},{"user_id":140,"name":"RoSpore","steam_id":76561198141816134,"connected_time":1479000000000,"state":"active","ping":61},{"user_id":136,"name":"The Land Admiral","steam_id":76561198159356609,"connected_time":2241000000000,"state":"active","ping":55},{"user_id":154,"name":"Pan Wizard","steam_id":76561198031939694,"connected_time":568000000000,"state":"active","ping":69}]},{"server_id":15,"name":"Uncletopia | New York City | 3 | Stopwatch Beta","name_short":"nyc-3","host":"nyc-1.us.uncletopia.com","port":27035,"enabled":true,"region":"us-east","cc":"us","latitude":40.73061,"longitude":-73.93524,"reserved":0,"last_update":"0001-01-01T00:00:00Z","name_a2s":"Uncletopia | New York City | 3 | Stopwatch Beta","protocol":17,"map":"workshop/koth_product_final.ugc454272353","folder":"tf","game":"Team Fortress","app_id":440,"player_count":0,"max_players":24,"Bots":0,"server_type":"Dedicated","server_os":"Linux","password":true,"vac":true,"version":"7757534","steam_id":85568392924742820,"keywords":["cp","nocrits","nodmgspread","uncletopia"],"game_id":440,"stv_port":27036,"stv_name":"Uncletopia | New York City | 3 | Stopwatch Beta | STV","players":null},{"server_id":16,"name":"Uncletopia | New York City | 4 | Community","name_short":"nyc-4","host":"nyc-1.us.uncletopia.com","port":27045,"enabled":true,"region":"us-east","cc":"us","latitude":40.73061,"longitude":-73.93524,"reserved":0,"last_update":"0001-01-01T00:00:00Z","name_a2s":"Uncletopia | New York City | 4 | Community","protocol":17,"map":"workshop/pl_cashworks_final1.ugc2904065412","folder":"tf","game":"Team Fortress","app_id":440,"player_count":8,"max_players":24,"Bots":0,"server_type":"Dedicated","server_os":"Linux","password":true,"vac":true,"version":"7757534","steam_id":85568392924742821,"keywords":["nocrits","nodmgspread","payload","uncletopia"],"game_id":440,"stv_port":27046,"stv_name":"Uncletopia | New York City | 4 | Community | STV","players":[{"user_id":6,"name":"ham and soy milk 4 u","steam_id":76561199027981643,"connected_time":3444000000000,"state":"active","ping":64},{"user_id":27,"name":"SLUMBER","steam_id":76561198095013394,"connected_time":70000000000,"state":"active","ping":82},{"user_id":12,"name":"Yayifications","steam_id":76561198066227208,"connected_time":1806000000000,"state":"active","ping":50},{"user_id":22,"name":"miss paulings bitch","steam_id":76561199403298146,"connected_time":258000000000,"state":"active","ping":119},{"user_id":25,"name":"Juri Han","steam_id":76561198041678517,"connected_time":95000000000,"state":"active","ping":139},{"user_id":16,"name":"somewhat silly","steam_id":76561198010269150,"connected_time":726000000000,"state":"active","ping":115},{"user_id":17,"name":"Ginger Jesus","steam_id":76561198052386458,"connected_time":695000000000,"state":"active","ping":45},{"user_id":26,"name":"ayyimyou","steam_id":76561199023391779,"connected_time":93000000000,"state":"active","ping":92}]},{"server_id":142,"name":"Uncletopia | S√£o Paulo | 1 | All Maps","name_short":"sao-1","host":"sao-1.br.uncletopia.com","port":27015,"enabled":true,"region":"sa","cc":"br","latitude":-23.533773,"longitude":-46.62529,"reserved":0,"last_update":"0001-01-01T00:00:00Z","name_a2s":"Uncletopia | S√£o Paulo | 1 | All Maps","protocol":17,"map":"cp_snakewater_final1","folder":"tf","game":"Team Fortress","app_id":440,"player_count":0,"max_players":24,"Bots":0,"server_type":"Dedicated","server_os":"Linux","password":true,"vac":true,"version":"7757534","steam_id":85568392924469996,"keywords":["cp","nocrits","nodmgspread","uncletopia"],"game_id":440,"stv_port":27016,"stv_name":"Uncletopia | S√£o Paulo | 1 | All Maps | STV","players":null},{"server_id":143,"name":"Uncletopia | S√£o Paulo | 2 | All Maps","name_short":"sao-2","host":"sao-2.br.uncletopia.com","port":27015,"enabled":true,"region":"sa","cc":"br","latitude":-23.533773,"longitude":-46.62529,"reserved":0,"last_update":"0001-01-01T00:00:00Z","name_a2s":"Uncletopia | S√£o Paulo | 2 | All Maps","protocol":17,"map":"pl_swiftwater_final1","folder":"tf","game":"Team Fortress","app_id":440,"player_count":0,"max_players":24,"Bots":0,"server_type":"Dedicated","server_os":"Linux","password":true,"vac":true,"version":"7757534","steam_id":85568392924485349,"keywords":["nocrits","nodmgspread","payload","uncletopia"],"game_id":440,"stv_port":27016,"stv_name":"Uncletopia | S√£o Paulo | 2 | All Maps | STV","players":null},{"server_id":7,"name":"Uncletopia | Seattle | 1 | All Maps","name_short":"sea-1","host":"sea-1.us.uncletopia.com","port":27015,"enabled":true,"region":"us-west","cc":"us","latitude":47.608013,"longitude":-122.33517,"reserved":0,"last_update":"0001-01-01T00:00:00Z","name_a2s":"Uncletopia | Seattle | 1 | All Maps","protocol":17,"map":"pl_badwater","folder":"tf","game":"Team Fortress","app_id":440,"player_count":24,"max_players":24,"Bots":0,"server_type":"Dedicated","server_os":"Linux","password":true,"vac":true,"version":"7757534","steam_id":85568392924469997,"keywords":["nocrits","nodmgspread","payload","uncletopia"],"game_id":440,"stv_port":27016,"stv_name":"Uncletopia | Seattle | 1 | All Maps | STV","players":[{"user_id":520,"name":"Fh","steam_id":76561198000903511,"connected_time":2070000000000,"state":"active","ping":74},{"user_id":528,"name":"DoubleX2000","steam_id":76561198164134387,"connected_time":1275000000000,"state":"active","ping":59},{"user_id":535,"name":"Dija‚Ñ¢","steam_id":76561198027393588,"connected_time":882000000000,"state":"active","ping":40},{"user_id":545,"name":"macironi and chesse","steam_id":76561199098060805,"connected_time":449000000000,"state":"active","ping":116},{"user_id":527,"name":"shiadyne","steam_id":76561198271939793,"connected_time":1287000000000,"state":"active","ping":47},{"user_id":509,"name":"Flickerr","steam_id":76561198080190967,"connected_time":2829000000000,"state":"active","ping":52},{"user_id":530,"name":"Nuk3","steam_id":76561198798608026,"connected_time":1258000000000,"state":"active","ping":81},{"user_id":539,"name":"Bastee1021","steam_id":76561199456141163,"connected_time":837000000000,"state":"active","ping":109},{"user_id":547,"name":"dirty30","steam_id":76561198021226566,"connected_time":353000000000,"state":"active","ping":46},{"user_id":533,"name":"Robert E.T.","steam_id":76561197986439371,"connected_time":1035000000000,"state":"active","ping":54},{"user_id":529,"name":"Vespen","steam_id":76561198259984019,"connected_time":1272000000000,"state":"active","ping":74},{"user_id":549,"name":"professional gaymer","steam_id":76561198063949642,"connected_time":146000000000,"state":"active","ping":42},{"user_id":522,"name":"Digitic","steam_id":76561198080295536,"connected_time":1919000000000,"state":"active","ping":114},{"user_id":532,"name":"LProduct","steam_id":76561199442139670,"connected_time":1150000000000,"state":"active","ping":71},{"user_id":502,"name":"Vapeinhand","steam_id":76561198134439943,"connected_time":4002000000000,"state":"active","ping":129},{"user_id":548,"name":"Princess Little Piddles","steam_id":76561198430557120,"connected_time":286000000000,"state":"active","ping":94},{"user_id":518,"name":"Dr.Pepper (real)","steam_id":76561198189173235,"connected_time":2114000000000,"state":"active","ping":76},{"user_id":542,"name":"Tibetan Pop Star","steam_id":76561198844903984,"connected_time":768000000000,"state":"active","ping":117},{"user_id":531,"name":"Gaz01in3","steam_id":76561199106896166,"connected_time":1185000000000,"state":"active","ping":70},{"user_id":525,"name":"Branz","steam_id":76561198076632143,"connected_time":1299000000000,"state":"active","ping":89},{"user_id":459,"name":"WaffleWithNoToppings","steam_id":76561199088280111,"connected_time":8353000000000,"state":"active","ping":56},{"user_id":524,"name":"WACKY JIM","steam_id":76561198961641122,"connected_time":1328000000000,"state":"active","ping":60},{"user_id":541,"name":"‚ô¶Benji‚ô¶","steam_id":76561198313529973,"connected_time":813000000000,"state":"active","ping":42},{"user_id":551,"name":"vareh","steam_id":76561197993190926,"connected_time":58000000000,"state":"active","ping":62}]},{"server_id":119,"name":"Uncletopia | Seattle | 2 | All Maps","name_short":"sea-2","host":"sea-1.us.uncletopia.com","port":27025,"enabled":true,"region":"us-west","cc":"us","latitude":47.608013,"longitude":-122.33517,"reserved":0,"last_update":"0001-01-01T00:00:00Z","name_a2s":"Uncletopia | Seattle | 2 | All Maps","protocol":17,"map":"pl_badwater","folder":"tf","game":"Team Fortress","app_id":440,"player_count":24,"max_players":24,"Bots":0,"server_type":"Dedicated","server_os":"Linux","password":true,"vac":true,"version":"7757534","steam_id":85568392924469998,"keywords":["nocrits","nodmgspread","payload","uncletopia"],"game_id":440,"stv_port":27026,"stv_name":"Uncletopia | Seattle | 2 | All Maps | STV","players":[{"user_id":364,"name":"‚úø PoutyBun ‚úø","steam_id":76561197965762847,"connected_time":158000000000,"state":"active","ping":32},{"user_id":308,"name":"ShiftShock01","steam_id":76561199049488870,"connected_time":3838000000000,"state":"active","ping":46},{"user_id":362,"name":"puppy57","steam_id":76561198384614719,"connected_time":394000000000,"state":"active","ping":120},{"user_id":300,"name":"Dad 2","steam_id":76561198138546187,"connected_time":4503000000000,"state":"active","ping":126},{"user_id":347,"name":"drevott74","steam_id":76561199262592779,"connected_time":1523000000000,"state":"active","ping":117},{"user_id":345,"name":"El pandora","steam_id":76561198075490385,"connected_time":1637000000000,"state":"active","ping":118},{"user_id":357,"name":"god approaches","steam_id":76561198081617990,"connected_time":614000000000,"state":"active","ping":109},{"user_id":359,"name":"Steve","steam_id":76561198352805460,"connected_time":603000000000,"state":"active","ping":70},{"user_id":365,"name":"„Ä£dust„Ä£ -she/it-","steam_id":76561198045218909,"connected_time":106000000000,"state":"active","ping":33},{"user_id":358,"name":"Discourse","steam_id":76561198984286678,"connected_time":609000000000,"state":"active","ping":101},{"user_id":340,"name":"scamper","steam_id":76561199093768105,"connected_time":1851000000000,"state":"active","ping":83},{"user_id":333,"name":"A Duck With Socks","steam_id":76561198018844227,"connected_time":2173000000000,"state":"active","ping":59},{"user_id":354,"name":"Doinnoid","steam_id":76561198262276139,"connected_time":772000000000,"state":"active","ping":73},{"user_id":367,"name":"X0 [IT/ITS]","steam_id":76561198001371063,"connected_time":94000000000,"state":"active","ping":57},{"user_id":342,"name":"Rick Assley","steam_id":76561198365019199,"connected_time":1837000000000,"state":"active","ping":119},{"user_id":329,"name":"twitch.tv/ladyloki_ch","steam_id":76561198280150602,"connected_time":2671000000000,"state":"active","ping":57},{"user_id":331,"name":"Strikerbolt","steam_id":76561199095622897,"connected_time":2589000000000,"state":"active","ping":83},{"user_id":335,"name":"shy guy","steam_id":76561198151246059,"connected_time":2063000000000,"state":"active","ping":61},{"user_id":349,"name":"Diggle the Mean","steam_id":76561198207519644,"connected_time":1340000000000,"state":"active","ping":62},{"user_id":368,"name":"oo","steam_id":76561198119626492,"connected_time":64000000000,"state":"active","ping":91},{"user_id":351,"name":"Comfy Monkey","steam_id":76561197998434936,"connected_time":1185000000000,"state":"active","ping":118},{"user_id":330,"name":"Pine Tree","steam_id":76561198112323877,"connected_time":2670000000000,"state":"active","ping":144},{"user_id":369,"name":"gun spy gaming","steam_id":76561198880739963,"connected_time":64000000000,"state":"active","ping":57},{"user_id":361,"name":"d!eing pigs Wh3n?","steam_id":76561198963410515,"connected_time":570000000000,"state":"active","ping":135}]},{"server_id":406,"name":"Uncletopia | Seattle | 3 | Stopwatch Beta","name_short":"sea-3","host":"sea-1.us.uncletopia.com","port":27035,"enabled":true,"region":"us-west","cc":"us","latitude":47.608013,"longitude":-122.33517,"reserved":0,"last_update":"0001-01-01T00:00:00Z","name_a2s":"Uncletopia | Seattle | 3 | Stopwatch Beta","protocol":17,"map":"pl_borneo","folder":"tf","game":"Team Fortress","app_id":440,"player_count":0,"max_players":24,"Bots":0,"server_type":"Dedicated","server_os":"Linux","password":true,"vac":true,"version":"7757534","steam_id":85568392924515217,"keywords":["nocrits","nodmgspread","payload","uncletopia"],"game_id":440,"stv_port":27036,"stv_name":"Uncletopia | Seattle | 3 | Stopwatch Beta | STV","players":null},{"server_id":17,"name":"Uncletopia | San Francisco | 1 | All Maps","name_short":"sfo-1","host":"sfo-1.us.uncletopia.com","port":27015,"enabled":true,"region":"us-west","cc":"us","latitude":37.77397,"longitude":-122.4313,"reserved":0,"last_update":"0001-01-01T00:00:00Z","name_a2s":"Uncletopia | San Francisco | 1 | All Maps","protocol":17,"map":"koth_highpass","folder":"tf","game":"Team Fortress","app_id":440,"player_count":2,"max_players":24,"Bots":0,"server_type":"Dedicated","server_os":"Linux","password":true,"vac":true,"version":"7757534","steam_id":85568392924469999,"keywords":["cp","nocrits","nodmgspread","uncletopia"],"game_id":440,"stv_port":27016,"stv_name":"Uncletopia | San Francisco | 1 | All Maps | STV","players":[{"user_id":21,"name":"JakeTheSnake","steam_id":76561199143728238,"connected_time":323000000000,"state":"active","ping":80},{"user_id":23,"name":"Dragonmancer","steam_id":76561198926285218,"connected_time":225000000000,"state":"active","ping":54}]},{"server_id":18,"name":"Uncletopia | San Francisco | 2 | All Maps","name_short":"sfo-2","host":"sfo-1.us.uncletopia.com","port":27025,"enabled":true,"region":"us-west","cc":"us","latitude":37.77397,"longitude":-122.4313,"reserved":0,"last_update":"0001-01-01T00:00:00Z","name_a2s":"Uncletopia | San Francisco | 2 | All Maps","protocol":17,"map":"koth_viaduct","folder":"tf","game":"Team Fortress","app_id":440,"player_count":0,"max_players":24,"Bots":0,"server_type":"Dedicated","server_os":"Linux","password":true,"vac":true,"version":"7757534","steam_id":85568392924470000,"keywords":["cp","nocrits","nodmgspread","uncletopia"],"game_id":440,"stv_port":27026,"stv_name":"Uncletopia | San Francisco | 2 | All Maps | STV","players":null},{"server_id":19,"name":"Uncletopia | San Francisco | 3 | Stopwatch Beta","name_short":"sfo-3","host":"sfo-1.us.uncletopia.com","port":27035,"enabled":true,"region":"us-west","cc":"us","latitude":37.77397,"longitude":-122.4313,"reserved":0,"last_update":"0001-01-01T00:00:00Z","name_a2s":"Uncletopia | San Francisco | 3 | Stopwatch Beta","protocol":17,"map":"koth_lakeside_final","folder":"tf","game":"Team Fortress","app_id":440,"player_count":0,"max_players":24,"Bots":0,"server_type":"Dedicated","server_os":"Linux","password":true,"vac":true,"version":"7757534","steam_id":85568392924742824,"keywords":["cp","nocrits","nodmgspread","uncletopia"],"game_id":440,"stv_port":27036,"stv_name":"Uncletopia | San Francisco | 3 | Stopwatch Beta | STV","players":null},{"server_id":20,"name":"Uncletopia | San Francisco | 4 | Community","name_short":"sfo-4","host":"sfo-1.us.uncletopia.com","port":27045,"enabled":true,"region":"us-west","cc":"us","latitude":37.77397,"longitude":-122.4313,"reserved":0,"last_update":"0001-01-01T00:00:00Z","name_a2s":"Uncletopia | San Francisco | 4 | Community","protocol":17,"map":"pl_frontier_final","folder":"tf","game":"Team Fortress","app_id":440,"player_count":0,"max_players":24,"Bots":0,"server_type":"Dedicated","server_os":"Linux","password":true,"vac":true,"version":"7757534","steam_id":85568392924742826,"keywords":["nocrits","nodmgspread","payload","uncletopia"],"game_id":440,"stv_port":27046,"stv_name":"Uncletopia | San Francisco | 4 | Community | STV","players":null},{"server_id":141,"name":"Uncletopia | Sydney | 1 | All Maps","name_short":"syd-1","host":"syd-1.au.uncletopia.com","port":27015,"enabled":true,"region":"au","cc":"au","latitude":-33.865143,"longitude":151.2099,"reserved":0,"last_update":"0001-01-01T00:00:00Z","name_a2s":"Uncletopia | Sydney | 1 | All Maps","protocol":17,"map":"cp_steel","folder":"tf","game":"Team Fortress","app_id":440,"player_count":15,"max_players":24,"Bots":0,"server_type":"Dedicated","server_os":"Linux","password":true,"vac":true,"version":"7757534","steam_id":85568392924470001,"keywords":["cp","nocrits","nodmgspread","uncletopia"],"game_id":440,"stv_port":27016,"stv_name":"Uncletopia | Sydney | 1 | All Maps | STV","players":[{"user_id":79,"name":"the rot doesn't consume","steam_id":76561198866538028,"connected_time":2622000000000,"state":"active","ping":91},{"user_id":94,"name":"MR Martian","steam_id":76561198157854561,"connected_time":1997000000000,"state":"active","ping":90},{"user_id":24,"name":"TheLegend27","steam_id":76561197969619053,"connected_time":6626000000000,"state":"active","ping":68},{"user_id":93,"name":"Your Cat","steam_id":76561198256416570,"connected_time":2139000000000,"state":"active","ping":59},{"user_id":112,"name":"ziah","steam_id":76561198159375596,"connected_time":1194000000000,"state":"active","ping":61},{"user_id":67,"name":"DKC","steam_id":76561198313578155,"connected_time":3225000000000,"state":"active","ping":38},{"user_id":146,"name":"krandlez` (Any/All)","steam_id":76561198044839726,"connected_time":84000000000,"state":"active","ping":31},{"user_id":82,"name":"ttv/ca7x3","steam_id":76561198181194862,"connected_time":2492000000000,"state":"active","ping":74},{"user_id":141,"name":"Bamooxa","steam_id":76561198067160709,"connected_time":232000000000,"state":"active","ping":87},{"user_id":147,"name":"heather","steam_id":76561198145136439,"connected_time":83000000000,"state":"active","ping":57},{"user_id":60,"name":"cedrick highsmith","steam_id":76561198380568764,"connected_time":3738000000000,"state":"active","ping":64},{"user_id":96,"name":"hobo","steam_id":76561199046481213,"connected_time":1889000000000,"state":"active","ping":64},{"user_id":117,"name":"Blazey ‰ºäÈÅî ÊîøÂÆó","steam_id":76561197971082275,"connected_time":966000000000,"state":"active","ping":111},{"user_id":100,"name":"weeyamumbaweh","steam_id":76561198061960926,"connected_time":1758000000000,"state":"active","ping":98},{"user_id":119,"name":"Rumoshiji","steam_id":76561199174449723,"connected_time":952000000000,"state":"active","ping":151}]},{"server_id":123,"name":"Uncletopia | Sydney | 2 | All Maps","name_short":"syd-2","host":"syd-1.au.uncletopia.com","port":27025,"enabled":true,"region":"au","cc":"au","latitude":-33.865143,"longitude":151.2099,"reserved":0,"last_update":"0001-01-01T00:00:00Z","name_a2s":"Uncletopia | Sydney | 2 | All Maps","protocol":17,"map":"pl_upward","folder":"tf","game":"Team Fortress","app_id":440,"player_count":0,"max_players":24,"Bots":0,"server_type":"Dedicated","server_os":"Linux","password":true,"vac":true,"version":"7757534","steam_id":85568392924470002,"keywords":["nocrits","nodmgspread","payload","uncletopia"],"game_id":440,"stv_port":27026,"stv_name":"Uncletopia | Sydney | 2 | All Maps | STV","players":null},{"server_id":395,"name":"Uncletopia | Sydney | 3 | All Maps","name_short":"syd-3","host":"syd-1.au.uncletopia.com","port":27035,"enabled":true,"region":"au","cc":"au","latitude":-33.865143,"longitude":151.2099,"reserved":0,"last_update":"0001-01-01T00:00:00Z","name_a2s":"Uncletopia | Sydney | 3 | All Maps","protocol":17,"map":"pl_borneo","folder":"tf","game":"Team Fortress","app_id":440,"player_count":0,"max_players":24,"Bots":0,"server_type":"Dedicated","server_os":"Linux","password":true,"vac":true,"version":"7757534","steam_id":85568392925194467,"keywords":["nocrits","nodmgspread","payload","uncletopia"],"game_id":440,"stv_port":27036,"stv_name":"Uncletopia | Sydney | 3 | All Maps | STV","players":null},{"server_id":396,"name":"Uncletopia | Sydney | 4 | All Maps","name_short":"syd-4","host":"syd-1.au.uncletopia.com","port":27045,"enabled":true,"region":"au","cc":"au","latitude":-33.865143,"longitude":151.2099,"reserved":0,"last_update":"0001-01-01T00:00:00Z","name_a2s":"Uncletopia | Sydney | 4 | All Maps","protocol":17,"map":"pl_upward","folder":"tf","game":"Team Fortress","app_id":440,"player_count":0,"max_players":24,"Bots":0,"server_type":"Dedicated","server_os":"Linux","password":true,"vac":true,"version":"7757534","steam_id":85568392925397958,"keywords":["nocrits","nodmgspread","payload","uncletopia"],"game_id":440,"stv_port":27046,"stv_name":"Uncletopia | Sydney | 4 | All Maps | STV","players":null},{"server_id":58,"name":"Uncletopia | Sydney | 5 | Stopwatch Beta","name_short":"syd-5","host":"syd-1.au.uncletopia.com","port":27055,"enabled":true,"region":"au","cc":"au","latitude":-33.865143,"longitude":151.2099,"reserved":0,"last_update":"0001-01-01T00:00:00Z","name_a2s":"Uncletopia | Sydney | 5 | Stopwatch Beta","protocol":17,"map":"koth_cascade","folder":"tf","game":"Team Fortress","app_id":440,"player_count":0,"max_players":24,"Bots":0,"server_type":"Dedicated","server_os":"Linux","password":true,"vac":true,"version":"7757534","steam_id":85568392925397959,"keywords":["cp","nocrits","nodmgspread","uncletopia"],"game_id":440,"stv_port":27056,"stv_name":"Uncletopia | Sydney | 5 | Stopwatch Beta | STV","players":null},{"server_id":59,"name":"Uncletopia | Sydney | 6 | Community","name_short":"syd-6","host":"syd-1.au.uncletopia.com","port":27065,"enabled":true,"region":"au","cc":"au","latitude":-33.865143,"longitude":151.2099,"reserved":0,"last_update":"0001-01-01T00:00:00Z","name_a2s":"Uncletopia | Sydney | 6 | Community","protocol":17,"map":"pl_badwater","folder":"tf","game":"Team Fortress","app_id":440,"player_count":0,"max_players":24,"Bots":0,"server_type":"Dedicated","server_os":"Linux","password":true,"vac":true,"version":"7757534","steam_id":85568392925397960,"keywords":["nocrits","nodmgspread","payload","uncletopia"],"game_id":440,"stv_port":27066,"stv_name":"Uncletopia | Sydney | 6 | Community | STV","players":null},{"server_id":49,"name":"Uncletopia | Warsaw | 1 | All Maps","name_short":"waw-1","host":"waw-1.pl.uncletopia.com","port":27015,"enabled":true,"region":"eu","cc":"pl","latitude":52.2297,"longitude":21.017532,"reserved":0,"last_update":"0001-01-01T00:00:00Z","name_a2s":"","protocol":0,"map":"","folder":"","game":"","app_id":0,"player_count":0,"max_players":0,"Bots":0,"server_type":"","server_os":"","password":false,"vac":false,"version":"","steam_id":0,"keywords":null,"game_id":0,"stv_port":0,"stv_name":"","players":null},{"server_id":50,"name":"Uncletopia | Warsaw | 2 | All Maps","name_short":"waw-2","host":"waw-1.pl.uncletopia.com","port":27025,"enabled":true,"region":"eu","cc":"pl","latitude":52.2297,"longitude":21.017532,"reserved":0,"last_update":"0001-01-01T00:00:00Z","name_a2s":"Uncletopia | Warsaw | 2 | All Maps","protocol":17,"map":"koth_highpass","folder":"tf","game":"Team Fortress","app_id":440,"player_count":0,"max_players":24,"Bots":0,"server_type":"Dedicated","server_os":"Linux","password":true,"vac":true,"version":"7757534","steam_id":85568392925397851,"keywords":["cp","nocrits","nodmgspread","uncletopia"],"game_id":440,"stv_port":27026,"stv_name":"Uncletopia | Warsaw | 2 | All Maps | STV","players":null},{"server_id":51,"name":"Uncletopia | Warsaw | 3 | All Maps","name_short":"waw-3","host":"waw-1.pl.uncletopia.com","port":27035,"enabled":true,"region":"eu","cc":"pl","latitude":52.2297,"longitude":21.017532,"reserved":0,"last_update":"0001-01-01T00:00:00Z","name_a2s":"Uncletopia | Warsaw | 3 | All Maps","protocol":17,"map":"pl_pier","folder":"tf","game":"Team Fortress","app_id":440,"player_count":0,"max_players":24,"Bots":0,"server_type":"Dedicated","server_os":"Linux","password":true,"vac":true,"version":"7757534","steam_id":85568392925397852,"keywords":["nocrits","nodmgspread","payload","uncletopia"],"game_id":440,"stv_port":27036,"stv_name":"Uncletopia | Warsaw | 3 | All Maps | STV","players":null},{"server_id":52,"name":"Uncletopia | Warsaw | 4 | All Maps","name_short":"waw-4","host":"waw-1.pl.uncletopia.com","port":27045,"enabled":true,"region":"eu","cc":"pl","latitude":52.2297,"longitude":21.017532,"reserved":0,"last_update":"0001-01-01T00:00:00Z","name_a2s":"Uncletopia | Warsaw | 4 | All Maps","protocol":17,"map":"koth_highpass","folder":"tf","game":"Team Fortress","app_id":440,"player_count":0,"max_players":24,"Bots":0,"server_type":"Dedicated","server_os":"Linux","password":true,"vac":true,"version":"7757534","steam_id":85568392925397853,"keywords":["cp","nocrits","nodmgspread","uncletopia"],"game_id":440,"stv_port":27046,"stv_name":"Uncletopia | Warsaw | 4 | All Maps | STV","players":null},{"server_id":53,"name":"Uncletopia | Warsaw | 5 | Stopwatch Beta","name_short":"waw-5","host":"waw-1.pl.uncletopia.com","port":27055,"enabled":true,"region":"eu","cc":"pl","latitude":52.2297,"longitude":21.017532,"reserved":0,"last_update":"0001-01-01T00:00:00Z","name_a2s":"Uncletopia | Warsaw | 5 | Stopwatch Beta","protocol":17,"map":"pl_pier","folder":"tf","game":"Team Fortress","app_id":440,"player_count":0,"max_players":24,"Bots":0,"server_type":"Dedicated","server_os":"Linux","password":true,"vac":true,"version":"7757534","steam_id":85568392925397854,"keywords":["nocrits","nodmgspread","payload","uncletopia"],"game_id":440,"stv_port":27056,"stv_name":"Uncletopia | Warsaw | 5 | Stopwatch Beta | STV","players":null},{"server_id":54,"name":"Uncletopia | Warsaw | 6 | Community","name_short":"waw-6","host":"waw-1.pl.uncletopia.com","port":27065,"enabled":true,"region":"eu","cc":"pl","latitude":52.2297,"longitude":21.017532,"reserved":0,"last_update":"0001-01-01T00:00:00Z","name_a2s":"Uncletopia | Warsaw | 6 | Community","protocol":17,"map":"koth_highpass","folder":"tf","game":"Team Fortress","app_id":440,"player_count":0,"max_players":24,"Bots":0,"server_type":"Dedicated","server_os":"Linux","password":true,"vac":true,"version":"7757534","steam_id":85568392925397856,"keywords":["cp","nocrits","nodmgspread","uncletopia"],"game_id":440,"stv_port":27066,"stv_name":"Uncletopia | Warsaw | 6 | Community | STV","players":null}]}