{"status":true,"message":"","result":[{"server_id":9,"name":"Uncletopia | Atlanta | 1 | All Maps","name_short":"atl-1","host":"atl-1.us.uncletopia.com","port":27015,"enabled":true,"region":"us-east","cc":"us","latitude":33.753746,"longitude":-84.38633,"reserved":0,"last_update":"0001-01-01T00:00:00Z","name_a2s":"Uncletopia | Atlanta | 1 | All Maps","protocol":17,"map":"pl_badwater","folder":"tf","game":"Team Fortress","app_id":440,"player_count":24,"max_players":24,"Bots":0,"server_type":"Dedicated","server_os":"Linux","password":true,"vac":true,"version":"7757534","steam_id":85568392924469982,"keywords":["nocrits","nodmgspread","payload","uncletopia"],"game_id":440,"stv_port":27016,"stv_name":"Uncletopia | Atlanta | 1 | All Maps | STV","players":[{"user_id":141,"name":"BIG HOG","steam_id":76561198079923652,"connected_time":4784000000000,"state":"active","ping":61},{"user_id":130,"name":"jackary","steam_id":76561198193405221,"connected_time":6075000000000,"state":"active","ping":69},{"user_id":174,"name":"FUNKY TOWN SLAYER","steam_id":76561198119489292,"connected_time":80000000000,"state":"active","ping":81},{"user_id":142,"name":"SanitysEdge","steam_id":76561198130732813,"connected_time":4722000000000,"state":"active","ping":107},{"user_id":163,"name":"xX_HimboSwallower_Xx","steam_id":76561198016029965,"connected_time":1524000000000,"state":"active","ping":64},{"user_id":173,"name":"William Wallace","steam_id":76561199343316814,"connected_time":179000000000,"state":"active","ping":60},{"user_id":107,"name":"Pitbull named precise","steam_id":76561198065345105,"connected_time":7468000000000,"state":"active","ping":150},{"user_id":155,"name":"Tony","steam_id":76561198040602075,"connected_time":3093000000000,"state":"active","ping":95},{"user_id":140,"name":"gamerlegend47","steam_id":76561198122776598,"connected_time":4790000000000,"state":"active","ping":49},{"user_id":150,"name":"Albino Jellyfish","steam_id":76561198208561097,"connected_time":3768000000000,"state":"active","ping":62},{"user_id":165,"name":"Tlaloc","steam_id":76561198375215983,"connected_time":1510000000000,"state":"active","ping":107},{"user_id":171,"name":"lost in spaaaaace","steam_id":76561199085974120,"connected_time":567000000000,"state":"active","ping":68},{"user_id":149,"name":"ror!","steam_id":76561198021227843,"connected_time":4332000000000,"state":"active","ping":71},{"user_id":164,"name":"escape","steam_id":76561198119689085,"connected_time":1522000000000,"state":"active","ping":76},{"user_id":84,"name":"Ashes!","steam_id":76561197998475441,"connected_time":9850000000000,"state":"active","ping":78},{"user_id":121,"name":"VALENCE","steam_id":76561198118492031,"connected_time":6697000000000,"state":"active","ping":99},{"user_id":158,"name":"walrus","steam_id":76561198057853319,"connected_time":2229000000000,"state":"active","ping":64},{"user_id":115,"name":"matt_rolltide","steam_id":76561198796727164,"connected_time":7194000000000,"state":"active","ping":85},{"user_id":135,"name":"poob","steam_id":76561198321877882,"connected_time":5118000000000,"state":"active","ping":62},{"user_id":97,"name":"metal pipe","steam_id":76561198849461209,"connected_time":9376000000000,"state":"active","ping":81},{"user_id":167,"name":"tookalook","steam_id":76561198108046923,"connected_time":1469000000000,"state":"active","ping":66},{"user_id":169,"name":"miffed pocky","steam_id":76561198380244743,"connected_time":1444000000000,"state":"active","ping":47},{"user_id":172,"name":"bkiller","steam_id":76561198029265697,"connected_time":420000000000,"state":"active","ping":59},{"user_id":154,"name":"AlmondMilk","steam_id":76561198151229725,"connected_time":3143000000000,"state":"active","ping":56}]},{"server_id":104,"name":"Uncletopia | Atlanta | 2 | All Maps","name_short":"atl-2","host":"atl-1.us.uncletopia.com","port":27025,"enabled":true,"region":"us-east","cc":"us","latitude":33.753746,"longitude":-84.38633,"reserved":0,"last_update":"0001-01-01T00:00:00Z","name_a2s":"Uncletopia | Atlanta | 2 | All Maps","protocol":17,"map":"koth_highpass","folder":"tf","game":"Team Fortress","app_id":440,"player_count":0,"max_players":24,"Bots":0,"server_type":"Dedicated","server_os":"Linux","password":true,"vac":true,"version":"7757534","steam_id":85568392924469983,"keywords":["cp","nocrits","nodmgspread","uncletopia"],"game_id":440,"stv_port":27026,"stv_name":"Uncletopia | Atlanta | 2 | All Maps | STV","players":null},{"server_id":400,"name":"Uncletopia | Atlanta | 3 | Community","name_short":"atl-3","host":"atl-1.us.uncletopia.com","port":27035,"enabled":true,"region":"us-east","cc":"us","latitude":33.753746,"longitude":-84.38633,"reserved":0,"last_update":"0001-01-01T00:00:00Z","name_a2s":"Uncletopia | Atlanta | 3 | Community","protocol":17,"map":"cp_snakewater_final1","folder":"tf","game":"Team Fortress","app_id":440,"player_count":0,"max_players":24,"Bots":0,"server_type":"Dedicated","server_os":"Linux","password":true,"vac":true,"version":"7757534","steam_id":85568392924515187,"keywords":["cp","nocrits","nodmgspread","uncletopia"],"game_id":440,"stv_port":27036,"stv_name":"Uncletopia | Atlanta | 3 | Community | STV","players":null},{"server_id":401,"name":"Uncletopia | Atlanta | 4 | No Payload","name_short":"atl-4","host":"atl-1.us.uncletopia.com","port":27045,"enabled":true,"region":"us-east","cc":"us","latitude":33.753746,"longitude":-84.38633,"reserved":0,"last_update":"0001-01-01T00:00:00Z","name_a2s":"","protocol":0,"map":"","folder":"","game":"","app_id":0,"player_count":0,"max_players":0,"Bots":0,"server_type":"","server_os":"","password":false,"vac":false,"version":"","steam_id":0,"keywords":null,"game_id":0,"stv_port":0,"stv_name":"","players":null},{"server_id":2,"name":"Uncletopia | Chicago | 1 | All Maps","name_short":"chi-1","host":"chi-1.us.uncletopia.com","port":27015,"enabled":true,"region":"us-central","cc":"us","latitude":41.881832,"longitude":-87.62318,"reserved":0,"last_update":"0001-01-01T00:00:00Z","name_a2s":"Uncletopia | Chicago | 1 | All Maps","protocol":17,"map":"pl_borneo","folder":"tf","game":"Team Fortress","app_id":440,"player_count":24,"max_players":24,"Bots":0,"server_type":"Dedicated","server_os":"Linux","password":true,"vac":true,"version":"7757534","steam_id":85568392924469984,"keywords":["nocrits","nodmgspread","payload","uncletopia"],"game_id":440,"stv_port":27016,"stv_name":"Uncletopia | Chicago | 1 | All Maps | STV","players":[{"user_id":363,"name":"Stupid Monkey =3","steam_id":76561198024580166,"connected_time":1465000000000,"state":"active","ping":97},{"user_id":370,"name":"Kevin Banana II","steam_id":76561198043604922,"connected_time":1347000000000,"state":"active","ping":106},{"user_id":371,"name":"Click","steam_id":76561198281717345,"connected_time":1343000000000,"state":"active","ping":73},{"user_id":361,"name":"Shotgun Faery","steam_id":76561198838248225,"connected_time":1672000000000,"state":"active","ping":59},{"user_id":318,"name":"roman","steam_id":76561198170066797,"connected_time":5101000000000,"state":"active","ping":69},{"user_id":366,"name":"Bitblock","steam_id":76561198359772017,"connected_time":1424000000000,"state":"active","ping":104},{"user_id":364,"name":"GiveSomeSHrimp","steam_id":76561197963154816,"connected_time":1464000000000,"state":"active","ping":74},{"user_id":372,"name":"shit bro","steam_id":76561199178885266,"connected_time":1299000000000,"state":"active","ping":60},{"user_id":307,"name":"kermitcreeper(ZAZA)","steam_id":76561199222829972,"connected_time":5982000000000,"state":"active","ping":55},{"user_id":386,"name":"Z4LTte","steam_id":76561198283258068,"connected_time":203000000000,"state":"active","ping":63},{"user_id":387,"name":"menlover2002","steam_id":76561198392539722,"connected_time":186000000000,"state":"active","ping":80},{"user_id":383,"name":"lucy","steam_id":76561198135559825,"connected_time":364000000000,"state":"active","ping":61},{"user_id":384,"name":"Bᵢg Bₒₛₛ","steam_id":76561198090271815,"connected_time":357000000000,"state":"active","ping":129},{"user_id":368,"name":"Place_Holder Gaming","steam_id":76561198050961867,"connected_time":1402000000000,"state":"active","ping":79},{"user_id":382,"name":"quint","steam_id":76561198046797995,"connected_time":503000000000,"state":"active","ping":61},{"user_id":369,"name":"TheJuiceCrew","steam_id":76561198109073254,"connected_time":1396000000000,"state":"active","ping":72},{"user_id":380,"name":"NUt","steam_id":76561198031007966,"connected_time":912000000000,"state":"active","ping":73},{"user_id":334,"name":"vv","steam_id":76561198134813102,"connected_time":4217000000000,"state":"active","ping":60},{"user_id":308,"name":"PKBEAST_7","steam_id":76561198177136537,"connected_time":5979000000000,"state":"active","ping":90},{"user_id":377,"name":"INFINITE","steam_id":76561197971285557,"connected_time":1000000000000,"state":"active","ping":70},{"user_id":348,"name":"carly rae jepsen","steam_id":76561198336144991,"connected_time":2720000000000,"state":"active","ping":75},{"user_id":350,"name":"schizophrenic Stack stan","steam_id":76561198214370515,"connected_time":2298000000000,"state":"active","ping":71},{"user_id":379,"name":"Noid","steam_id":76561198227804500,"connected_time":916000000000,"state":"active","ping":85},{"user_id":375,"name":"I Cooka Da Pizza","steam_id":76561198084167611,"connected_time":1245000000000,"state":"active","ping":64}]},{"server_id":106,"name":"Uncletopia | Chicago | 2 | All Maps","name_short":"chi-2","host":"chi-1.us.uncletopia.com","port":27025,"enabled":true,"region":"us-central","cc":"us","latitude":41.881832,"longitude":-87.62318,"reserved":0,"last_update":"0001-01-01T00:00:00Z","name_a2s":"Uncletopia | Chicago | 2 | All Maps","protocol":17,"map":"cp_dustbowl","folder":"tf","game":"Team Fortress","app_id":440,"player_count":24,"max_players":24,"Bots":0,"server_type":"Dedicated","server_os":"Linux","password":true,"vac":true,"version":"7757534","steam_id":85568392924469985,"keywords":["cp","nocrits","nodmgspread","uncletopia"],"game_id":440,"stv_port":27026,"stv_name":"Uncletopia | Chicago | 2 | All Maps | STV","players":[{"user_id":89,"name":"Pumpkin Spice","steam_id":76561198058356815,"connected_time":4757000000000,"state":"active","ping":69},{"user_id":138,"name":"Zetta","steam_id":76561198045710113,"connected_time":408000000000,"state":"active","ping":100},{"user_id":129,"name":"the doo doo man","steam_id":76561198057076267,"connected_time":1034000000000,"state":"active","ping":74},{"user_id":123,"name":"Wigl","steam_id":76561198019324464,"connected_time":1148000000000,"state":"active","ping":69},{"user_id":85,"name":"Training Arc","steam_id":76561198038832034,"connected_time":4854000000000,"state":"active","ping":104},{"user_id":119,"name":"I Am Alpharius","steam_id":76561198799197135,"connected_time":1602000000000,"state":"active","ping":57},{"user_id":146,"name":"HATEWORK.","steam_id":76561198286792807,"connected_time":242000000000,"state":"active","ping":69},{"user_id":139,"name":"PEPSI POWERED MAN","steam_id":76561198362668431,"connected_time":392000000000,"state":"active","ping":106},{"user_id":140,"name":"GIGAMODE","steam_id":76561198027140064,"connected_time":389000000000,"state":"active","ping":66},{"user_id":124,"name":"EchoHunter","steam_id":76561199165491231,"connected_time":1139000000000,"state":"active","ping":50},{"user_id":141,"name":"tntexplosion","steam_id":76561199090152308,"connected_time":378000000000,"state":"active","ping":87},{"user_id":142,"name":"JackChuck1","steam_id":76561198380905951,"connected_time":377000000000,"state":"active","ping":80},{"user_id":130,"name":"Bibleboy","steam_id":76561198049289869,"connected_time":1031000000000,"state":"active","ping":62},{"user_id":115,"name":"Trove","steam_id":76561198110970476,"connected_time":1763000000000,"state":"active","ping":45},{"user_id":145,"name":"Henry Ota-Clay","steam_id":76561198053232470,"connected_time":268000000000,"state":"active","ping":57},{"user_id":126,"name":"Guns Blazing","steam_id":76561198379461118,"connected_time":1080000000000,"state":"active","ping":66},{"user_id":120,"name":"Brown_Dream","steam_id":76561198975766145,"connected_time":1516000000000,"state":"active","ping":85},{"user_id":135,"name":"drooskie","steam_id":76561198036083886,"connected_time":576000000000,"state":"active","ping":76},{"user_id":143,"name":"Mecha-lord","steam_id":76561198034811536,"connected_time":361000000000,"state":"active","ping":89},{"user_id":147,"name":"Pot Head Pixie","steam_id":76561198083024504,"connected_time":235000000000,"state":"active","ping":59},{"user_id":111,"name":"Mr.noob","steam_id":76561199200442395,"connected_time":2605000000000,"state":"active","ping":176},{"user_id":137,"name":"Bee","steam_id":76561198074681324,"connected_time":433000000000,"state":"active","ping":59},{"user_id":113,"name":"Ask Nicely For Heals","steam_id":76561198138478907,"connected_time":2485000000000,"state":"active","ping":48},{"user_id":88,"name":"turkeysarefriendsz","steam_id":76561199074521322,"connected_time":4821000000000,"state":"active","ping":115}]},{"server_id":402,"name":"Uncletopia | Chicago | 3 | All Maps","name_short":"chi-3","host":"chi-1.us.uncletopia.com","port":27035,"enabled":true,"region":"us-central","cc":"us","latitude":41.881832,"longitude":-87.62318,"reserved":0,"last_update":"0001-01-01T00:00:00Z","name_a2s":"Uncletopia | Chicago | 3 | All Maps","protocol":17,"map":"cp_altitude","folder":"tf","game":"Team Fortress","app_id":440,"player_count":24,"max_players":24,"Bots":0,"server_type":"Dedicated","server_os":"Linux","password":true,"vac":true,"version":"7757534","steam_id":85568392924515191,"keywords":["cp","nocrits","nodmgspread","uncletopia"],"game_id":440,"stv_port":27036,"stv_name":"Uncletopia | Chicago | 3 | All Maps | STV","players":[{"user_id":242,"name":"obstagoon gaming","steam_id":76561198424507300,"connected_time":181000000000,"state":"active","ping":69},{"user_id":172,"name":"BasicPeaches","steam_id":76561198190890150,"connected_time":2695000000000,"state":"active","ping":79},{"user_id":187,"name":"Tealim","steam_id":76561198330085713,"connected_time":1701000000000,"state":"active","ping":75},{"user_id":243,"name":"CyberZayne","steam_id":76561198002351356,"connected_time":137000000000,"state":"active","ping":107},{"user_id":178,"name":"Derpydude2002","steam_id":76561198811719519,"connected_time":2224000000000,"state":"active","ping":55},{"user_id":244,"name":"Twink Synergy","steam_id":76561198821297512,"connected_time":124000000000,"state":"active","ping":95},{"user_id":210,"name":"Enron Hubbard","steam_id":76561198012951411,"connected_time":1129000000000,"state":"active","ping":59},{"user_id":190,"name":"Lafayette","steam_id":76561198335555638,"connected_time":1687000000000,"state":"active","ping":74},{"user_id":240,"name":"John Coltrane","steam_id":76561198037789297,"connected_time":278000000000,"state":"active","ping":122},{"user_id":245,"name":"unlucky killer","steam_id":76561199039152146,"connected_time":88000000000,"state":"active","ping":82},{"user_id":246,"name":"SKINO","steam_id":76561198880876635,"connected_time":68000000000,"state":"active","ping":90},{"user_id":205,"name":"WatchWill","steam_id":76561198157237945,"connected_time":1378000000000,"state":"active","ping":67},{"user_id":175,"name":"\u003cTFF\u003e Gurn","steam_id":76561198011393367,"connected_time":2378000000000,"state":"active","ping":100},{"user_id":208,"name":"Reagquit321321","steam_id":76561198179595646,"connected_time":1169000000000,"state":"active","ping":113},{"user_id":222,"name":"Post nut clarity","steam_id":76561198060246831,"connected_time":767000000000,"state":"active","ping":79},{"user_id":247,"name":"mkl","steam_id":76561197986401685,"connected_time":37000000000,"state":"active","ping":78},{"user_id":194,"name":"Smiles","steam_id":76561198107197973,"connected_time":1609000000000,"state":"active","ping":58},{"user_id":85,"name":"dnaak","steam_id":76561197960489193,"connected_time":8703000000000,"state":"active","ping":45},{"user_id":235,"name":"fasterbum","steam_id":76561198142577444,"connected_time":538000000000,"state":"active","ping":55},{"user_id":198,"name":"Edder","steam_id":76561198011088393,"connected_time":1554000000000,"state":"active","ping":75},{"user_id":248,"name":"Critscare","steam_id":76561198087712508,"connected_time":31000000000,"state":"active","ping":45},{"user_id":177,"name":"Nassu","steam_id":76561198147367577,"connected_time":2333000000000,"state":"active","ping":66},{"user_id":241,"name":"tb.averted","steam_id":76561198067784310,"connected_time":236000000000,"state":"active","ping":65},{"user_id":220,"name":"_S","steam_id":76561198050136796,"connected_time":810000000000,"state":"active","ping":76}]},{"server_id":403,"name":"Uncletopia | Chicago | 4 | All Maps","name_short":"chi-4","host":"chi-1.us.uncletopia.com","port":27045,"enabled":true,"region":"us-central","cc":"us","latitude":41.881832,"longitude":-87.62318,"reserved":0,"last_update":"0001-01-01T00:00:00Z","name_a2s":"Uncletopia | Chicago | 4 | All Maps","protocol":17,"map":"koth_lakeside_final","folder":"tf","game":"Team Fortress","app_id":440,"player_count":0,"max_players":24,"Bots":0,"server_type":"Dedicated","server_os":"Linux","password":true,"vac":true,"version":"7757534","steam_id":85568392924515193,"keywords":["cp","nocrits","nodmgspread","uncletopia"],"game_id":440,"stv_port":27046,"stv_name":"Uncletopia | Chicago | 4 | All Maps | STV","players":null},{"server_id":36,"name":"Uncletopia | Chicago | 5 | All Maps","name_short":"chi-5","host":"chi-2.us.uncletopia.com","port":27015,"enabled":true,"region":"us-central","cc":"us","latitude":41.881832,"longitude":-87.62318,"reserved":0,"last_update":"0001-01-01T00:00:00Z","name_a2s":"Uncletopia | Chicago | 5 | All Maps","protocol":17,"map":"koth_cascade","folder":"tf","game":"Team Fortress","app_id":440,"player_count":0,"max_players":24,"Bots":0,"server_type":"Dedicated","server_os":"Linux","password":true,"vac":true,"version":"7757534","steam_id":85568392924866362,"keywords":["cp","nocrits","nodmgspread","uncletopia"],"game_id":440,"stv_port":27016,"stv_name":"Uncletopia | Chicago | 5 | All Maps | STV","players":null},{"server_id":37,"name":"Uncletopia | Chicago | 6 | All Maps","name_short":"chi-6","host":"chi-2.us.uncletopia.com","port":27025,"enabled":true,"region":"us-central","cc":"us","latitude":41.881832,"longitude":-87.62318,"reserved":0,"last_update":"0001-01-01T00:00:00Z","name_a2s":"Uncletopia | Chicago | 6 | All Maps","protocol":17,"map":"koth_highpass","folder":"tf","game":"Team Fortress","app_id":440,"player_count":0,"max_players":24,"Bots":0,"server_type":"Dedicated","server_os":"Linux","password":true,"vac":true,"version":"7757534","steam_id":85568392924866363,"keywords":["cp","nocrits","nodmgspread","uncletopia"],"game_id":440,"stv_port":27026,"stv_name":"Uncletopia | Chicago | 6 | All Maps | STV","players":null},{"server_id":38,"name":"Uncletopia | Chicago | 7 | Stopwatch Beta","name_short":"chi-7","host":"chi-2.us.uncletopia.com","port":27035,"enabled":true,"region":"us-central","cc":"us","latitude":41.881832,"longitude":-87.62318,"reserved":0,"last_update":"0001-01-01T00:00:00Z","name_a2s":"Uncletopia | Chicago | 7 | Stopwatch Beta","protocol":17,"map":"pl_barnblitz","folder":"tf","game":"Team Fortress","app_id":440,"player_count":0,"max_players":24,"Bots":0,"server_type":"Dedicated","server_os":"Linux","password":true,"vac":true,"version":"7757534","steam_id":85568392924866364,"keywords":["nocrits","nodmgspread","payload","uncletopia"],"game_id":440,"stv_port":27036,"stv_name":"Uncletopia | Chicago | 7 | Stopwatch Beta | STV","players":null},{"server_id":39,"name":"Uncletopia | Chicago | 8 | Community","name_short":"chi-8","host":"chi-2.us.uncletopia.com","port":27045,"enabled":true,"region":"us-central","cc":"us","latitude":41.881832,"longitude":-87.62318,"reserved":0,"last_update":"0001-01-01T00:00:00Z","name_a2s":"Uncletopia | Chicago | 8 | Community","protocol":17,"map":"koth_cascade","folder":"tf","game":"Team Fortress","app_id":440,"player_count":0,"max_players":24,"Bots":0,"server_type":"Dedicated","server_os":"Linux","password":true,"vac":true,"version":"7757534","steam_id":85568392924866365,"keywords":["cp","nocrits","nodmgspread","uncletopia"],"game_id":440,"stv_port":27046,"stv_name":"Uncletopia | Chicago | 8 | Community | STV","players":null},{"server_id":8,"name":"Uncletopia | Dallas | 1 | All Maps","name_short":"dal-1","host":"dal-1.us.uncletopia.com","port":27015,"enabled":true,"region":"us-central","cc":"us","latitude":32.779167,"longitude":-96.80889,"reserved":0,"last_update":"0001-01-01T00:00:00Z","name_a2s":"Uncletopia | Dallas | 1 | All Maps","protocol":17,"map":"koth_viaduct","folder":"tf","game":"Team Fortress","app_id":440,"player_count":0,"max_players":24,"Bots":0,"server_type":"Dedicated","server_os":"Linux","password":true,"vac":true,"version":"7757534","steam_id":85568392924469986,"keywords":["cp","nocrits","nodmgspread","uncletopia"],"game_id":440,"stv_port":27016,"stv_name":"Uncletopia | Dallas | 1 | All Maps | STV","players":null},{"server_id":108,"name":"Uncletopia | Dallas | 2 | All Maps","name_short":"dal-2","host":"dal-1.us.uncletopia.com","port":27025,"enabled":true,"region":"us-central","cc":"us","latitude":32.779167,"longitude":-96.80889,"reserved":0,"last_update":"0001-01-01T00:00:00Z","name_a2s":"Uncletopia | Dallas | 2 | All Maps","protocol":17,"map":"pl_barnblitz","folder":"tf","game":"Team Fortress","app_id":440,"player_count":3,"max_players":24,"Bots":0,"server_type":"Dedicated","server_os":"Linux","password":true,"vac":true,"version":"7757534","steam_id":85568392924469988,"keywords":["nocrits","nodmgspread","payload","uncletopia"],"game_id":440,"stv_port":27026,"stv_name":"Uncletopia | Dallas | 2 | All Maps | STV","players":[{"user_id":15,"name":"VERY STABLE GENIUS","steam_id":76561198079401635,"connected_time":734000000000,"state":"active","ping":63},{"user_id":20,"name":"LilDreamer","steam_id":76561198804054102,"connected_time":576000000000,"state":"active","ping":69},{"user_id":24,"name":"Bonk","steam_id":76561198090666223,"connected_time":371000000000,"state":"active","ping":34}]},{"server_id":5,"name":"Uncletopia | Frankfurt | 1 | All Maps","name_short":"frk-1","host":"frk-1.de.uncletopia.com","port":27015,"enabled":true,"region":"eu","cc":"de","latitude":50.110924,"longitude":8.682127,"reserved":0,"last_update":"0001-01-01T00:00:00Z","name_a2s":"Uncletopia | Frankfurt | 1 | All Maps","protocol":17,"map":"pl_badwater","folder":"tf","game":"Team Fortress","app_id":440,"player_count":24,"max_players":24,"Bots":0,"server_type":"Dedicated","server_os":"Linux","password":true,"vac":true,"version":"7757534","steam_id":85568392924469989,"keywords":["nocrits","nodmgspread","payload","uncletopia"],"game_id":440,"stv_port":27016,"stv_name":"Uncletopia | Frankfurt | 1 | All Maps | STV","players":[{"user_id":169,"name":"Grub","steam_id":76561198174510235,"connected_time":822000000000,"state":"active","ping":61},{"user_id":184,"name":"Kizzy","steam_id":76561199002675350,"connected_time":609000000000,"state":"active","ping":183},{"user_id":192,"name":"Metalli","steam_id":76561198078735026,"connected_time":176000000000,"state":"active","ping":87},{"user_id":108,"name":"marc","steam_id":76561198018694332,"connected_time":5750000000000,"state":"active","ping":52},{"user_id":170,"name":"Monkey Friend","steam_id":76561198144403074,"connected_time":808000000000,"state":"active","ping":36},{"user_id":188,"name":"dingske","steam_id":76561198342908049,"connected_time":389000000000,"state":"active","ping":70},{"user_id":185,"name":"cazador","steam_id":76561198123096922,"connected_time":549000000000,"state":"active","ping":92},{"user_id":189,"name":"Mr.O #deletesniper","steam_id":76561198039567498,"connected_time":378000000000,"state":"active","ping":63},{"user_id":187,"name":"finbar","steam_id":76561198056812396,"connected_time":419000000000,"state":"active","ping":77},{"user_id":91,"name":"jones","steam_id":76561198044434971,"connected_time":7591000000000,"state":"active","ping":51},{"user_id":174,"name":"Vozembouch","steam_id":76561198352461844,"connected_time":783000000000,"state":"active","ping":53},{"user_id":110,"name":"Carter","steam_id":76561198005243938,"connected_time":5704000000000,"state":"active","ping":72},{"user_id":190,"name":"Rizziologist","steam_id":76561198089003514,"connected_time":375000000000,"state":"active","ping":44},{"user_id":175,"name":"Ecy","steam_id":76561198110756682,"connected_time":773000000000,"state":"active","ping":56},{"user_id":191,"name":"「◆Raku• 」","steam_id":76561198059283183,"connected_time":341000000000,"state":"active","ping":76},{"user_id":163,"name":"Crimea a bridge","steam_id":76561198030898371,"connected_time":1461000000000,"state":"active","ping":77},{"user_id":193,"name":"Rad","steam_id":76561199420615790,"connected_time":171000000000,"state":"active","ping":66},{"user_id":176,"name":"Proxy-mo","steam_id":76561198221741428,"connected_time":771000000000,"state":"active","ping":189},{"user_id":195,"name":"Tegnerud","steam_id":76561198214185612,"connected_time":38000000000,"state":"spawning","ping":66},{"user_id":177,"name":"LoboPaciente","steam_id":76561198088870962,"connected_time":771000000000,"state":"active","ping":69},{"user_id":194,"name":"The Funny Cat-Heaby","steam_id":76561198439978112,"connected_time":148000000000,"state":"active","ping":130},{"user_id":178,"name":"Raven","steam_id":76561198087296188,"connected_time":764000000000,"state":"active","ping":71},{"user_id":180,"name":"M  o  t  h","steam_id":76561198217548516,"connected_time":738000000000,"state":"active","ping":162},{"user_id":105,"name":"Matteo Il Biondo","steam_id":76561198315389475,"connected_time":5869000000000,"state":"active","ping":73}]},{"server_id":110,"name":"Uncletopia | Frankfurt | 2 | All Maps","name_short":"frk-2","host":"frk-1.de.uncletopia.com","port":27025,"enabled":true,"region":"eu","cc":"de","latitude":50.110924,"longitude":8.682127,"reserved":0,"last_update":"0001-01-01T00:00:00Z","name_a2s":"Uncletopia | Frankfurt | 2 | All Maps","protocol":17,"map":"pl_upward","folder":"tf","game":"Team Fortress","app_id":440,"player_count":24,"max_players":24,"Bots":0,"server_type":"Dedicated","server_os":"Linux","password":true,"vac":true,"version":"7757534","steam_id":85568392924469990,"keywords":["nocrits","nodmgspread","payload","uncletopia"],"game_id":440,"stv_port":27026,"stv_name":"Uncletopia | Frankfurt | 2 | All Maps | STV","players":[{"user_id":276,"name":"Totesdrache","steam_id":76561199088861308,"connected_time":188000000000,"state":"active","ping":59},{"user_id":243,"name":"DETERR","steam_id":76561198223088296,"connected_time":2199000000000,"state":"active","ping":64},{"user_id":271,"name":"ricky pee pee","steam_id":76561198152620745,"connected_time":514000000000,"state":"active","ping":73},{"user_id":266,"name":"One Hop Dis Time *BWRAB*","steam_id":76561198146081601,"connected_time":731000000000,"state":"active","ping":40},{"user_id":255,"name":"mmlock","steam_id":76561198069516191,"connected_time":1786000000000,"state":"active","ping":46},{"user_id":275,"name":"悪","steam_id":76561198095879087,"connected_time":405000000000,"state":"active","ping":69},{"user_id":261,"name":"S2||S0","steam_id":76561198131577749,"connected_time":853000000000,"state":"active","ping":85},{"user_id":273,"name":"pootis sentry","steam_id":76561199225363633,"connected_time":458000000000,"state":"active","ping":121},{"user_id":179,"name":"󠀡󠀡","steam_id":76561198140627349,"connected_time":7390000000000,"state":"active","ping":159},{"user_id":259,"name":"Lord of the Cows","steam_id":76561198203140640,"connected_time":1170000000000,"state":"active","ping":66},{"user_id":235,"name":"the catboy","steam_id":76561198236015506,"connected_time":3644000000000,"state":"active","ping":114},{"user_id":269,"name":"Grønkjær","steam_id":76561198041075280,"connected_time":699000000000,"state":"active","ping":85},{"user_id":247,"name":"LasagneMan","steam_id":76561198971904377,"connected_time":1984000000000,"state":"active","ping":67},{"user_id":258,"name":"Kodutah","steam_id":76561198203405574,"connected_time":1483000000000,"state":"active","ping":60},{"user_id":277,"name":"Sir Kiops","steam_id":76561198022769275,"connected_time":55000000000,"state":"active","ping":108},{"user_id":202,"name":"Just_Chilling","steam_id":76561198036712229,"connected_time":5527000000000,"state":"active","ping":59},{"user_id":270,"name":"r06u3","steam_id":76561198254099253,"connected_time":667000000000,"state":"active","ping":178},{"user_id":198,"name":"rex110","steam_id":76561198159631448,"connected_time":6071000000000,"state":"active","ping":78},{"user_id":256,"name":"strohkopf9","steam_id":76561198059349860,"connected_time":1657000000000,"state":"active","ping":73},{"user_id":267,"name":"[BZ]Alpha|\u003cWeibchen\u003e","steam_id":76561198002498199,"connected_time":726000000000,"state":"active","ping":58},{"user_id":252,"name":"randompixel","steam_id":76561198003941207,"connected_time":1866000000000,"state":"active","ping":72},{"user_id":260,"name":"cuboidbird741","steam_id":76561198174823322,"connected_time":1042000000000,"state":"active","ping":65},{"user_id":254,"name":"Talkkari","steam_id":76561198025327723,"connected_time":1854000000000,"state":"active","ping":71},{"user_id":264,"name":"no1","steam_id":76561198067524060,"connected_time":817000000000,"state":"active","ping":101}]},{"server_id":308,"name":"Uncletopia | Frankfurt | 3 | All Maps","name_short":"frk-3","host":"frk-1.de.uncletopia.com","port":27035,"enabled":true,"region":"eu","cc":"de","latitude":50.110924,"longitude":8.682127,"reserved":0,"last_update":"0001-01-01T00:00:00Z","name_a2s":"Uncletopia | Frankfurt | 3 | All Maps","protocol":17,"map":"cp_process_final","folder":"tf","game":"Team Fortress","app_id":440,"player_count":0,"max_players":24,"Bots":0,"server_type":"Dedicated","server_os":"Linux","password":true,"vac":true,"version":"7757534","steam_id":85568392924504274,"keywords":["cp","nocrits","nodmgspread","uncletopia"],"game_id":440,"stv_port":27036,"stv_name":"Uncletopia | Frankfurt | 3 | All Maps | STV","players":null},{"server_id":309,"name":"Uncletopia | Frankfurt | 4 | All Maps","name_short":"frk-4","host":"frk-1.de.uncletopia.com","port":27045,"enabled":true,"region":"eu","cc":"de","latitude":50.110924,"longitude":8.682127,"reserved":0,"last_update":"0001-01-01T00:00:00Z","name_a2s":"Uncletopia | Frankfurt | 4 | All Maps","protocol":17,"map":"pl_snowycoast","folder":"tf","game":"Team Fortress","app_id":440,"player_count":24,"max_players":24,"Bots":0,"server_type":"Dedicated","server_os":"Linux","password":true,"vac":true,"version":"7757534","steam_id":85568392924504275,"keywords":["nocrits","nodmgspread","payload","uncletopia"],"game_id":440,"stv_port":27046,"stv_name":"Uncletopia | Frankfurt | 4 | All Maps | STV","players":[{"user_id":209,"name":"I am piss man","steam_id":76561198039209685,"connected_time":499000000000,"state":"active","ping":57},{"user_id":181,"name":"static","steam_id":76561198836825741,"connected_time":2079000000000,"state":"active","ping":59},{"user_id":198,"name":"wolffy","steam_id":76561198083145076,"connected_time":949000000000,"state":"active","ping":45},{"user_id":130,"name":"giclure :;","steam_id":76561197986362828,"connected_time":5125000000000,"state":"active","ping":55},{"user_id":167,"name":"X-tis","steam_id":76561198043837480,"connected_time":2779000000000,"state":"active","ping":71},{"user_id":203,"name":"Pingus","steam_id":76561198164880756,"connected_time":853000000000,"state":"active","ping":70},{"user_id":208,"name":"Homicidal Tendencies","steam_id":76561198828681043,"connected_time":573000000000,"state":"active","ping":54},{"user_id":200,"name":"☞LaZe☜","steam_id":76561198202191400,"connected_time":929000000000,"state":"active","ping":60},{"user_id":144,"name":"Tea","steam_id":76561198799243030,"connected_time":4586000000000,"state":"active","ping":69},{"user_id":210,"name":"FoxyTheFish","steam_id":76561199074190919,"connected_time":160000000000,"state":"active","ping":61},{"user_id":201,"name":"The one who knocks","steam_id":76561198089341471,"connected_time":899000000000,"state":"active","ping":80},{"user_id":211,"name":"Creative","steam_id":76561198835034247,"connected_time":137000000000,"state":"active","ping":85},{"user_id":202,"name":"Subterranean","steam_id":76561198106684566,"connected_time":889000000000,"state":"active","ping":74},{"user_id":169,"name":"Fat Pigeon","steam_id":76561198817940142,"connected_time":2640000000000,"state":"active","ping":51},{"user_id":166,"name":"wouris","steam_id":76561198876188003,"connected_time":3120000000000,"state":"active","ping":60},{"user_id":195,"name":"deflox","steam_id":76561198087450635,"connected_time":1099000000000,"state":"active","ping":34},{"user_id":204,"name":"Walle","steam_id":76561197995148937,"connected_time":817000000000,"state":"active","ping":64},{"user_id":150,"name":"Udinese Dion","steam_id":76561198067931573,"connected_time":4343000000000,"state":"active","ping":52},{"user_id":175,"name":"The Sex Defender","steam_id":76561198165732391,"connected_time":2538000000000,"state":"active","ping":101},{"user_id":205,"name":"After8","steam_id":76561198090750865,"connected_time":815000000000,"state":"active","ping":66},{"user_id":180,"name":"(wm) Das Fleisch","steam_id":76561198001250715,"connected_time":2201000000000,"state":"active","ping":57},{"user_id":212,"name":"klimanso","steam_id":76561199151084760,"connected_time":12000000000,"state":"active","ping":98},{"user_id":177,"name":"Rezzarezz","steam_id":76561198092020043,"connected_time":2353000000000,"state":"active","ping":60},{"user_id":176,"name":"Lyell","steam_id":76561198350329389,"connected_time":2538000000000,"state":"active","ping":88}]},{"server_id":310,"name":"Uncletopia | Frankfurt | 5 | All Maps","name_short":"frk-5","host":"frk-1.de.uncletopia.com","port":27055,"enabled":true,"region":"eu","cc":"de","latitude":50.110924,"longitude":8.682127,"reserved":0,"last_update":"0001-01-01T00:00:00Z","name_a2s":"Uncletopia | Frankfurt | 5 | All Maps","protocol":17,"map":"pl_upward","folder":"tf","game":"Team Fortress","app_id":440,"player_count":24,"max_players":24,"Bots":0,"server_type":"Dedicated","server_os":"Linux","password":true,"vac":true,"version":"7757534","steam_id":85568392924504277,"keywords":["nocrits","nodmgspread","payload","uncletopia"],"game_id":440,"stv_port":27056,"stv_name":"Uncletopia | Frankfurt | 5 | All Maps | STV","players":[{"user_id":120,"name":"Jeerven","steam_id":76561198259189841,"connected_time":974000000000,"state":"active","ping":60},{"user_id":118,"name":"H...","steam_id":76561197984299377,"connected_time":987000000000,"state":"active","ping":54},{"user_id":134,"name":"Bill_nye","steam_id":76561199216249214,"connected_time":70000000000,"state":"active","ping":128},{"user_id":95,"name":"$nØw","steam_id":76561198238781028,"connected_time":2062000000000,"state":"active","ping":98},{"user_id":115,"name":"Luxiite","steam_id":76561198111759526,"connected_time":1030000000000,"state":"active","ping":50},{"user_id":119,"name":"Curlew","steam_id":76561198075884540,"connected_time":983000000000,"state":"active","ping":78},{"user_id":111,"name":"fortnite pro","steam_id":76561199242248831,"connected_time":1426000000000,"state":"active","ping":71},{"user_id":129,"name":"mom, grab the shotty","steam_id":76561198815271970,"connected_time":822000000000,"state":"active","ping":66},{"user_id":80,"name":"Labia in Fishnets","steam_id":76561198061382104,"connected_time":2852000000000,"state":"active","ping":72},{"user_id":101,"name":"Ricky Dicky Grimes","steam_id":76561198065506317,"connected_time":1757000000000,"state":"active","ping":63},{"user_id":96,"name":"Rat head","steam_id":76561198184360615,"connected_time":2009000000000,"state":"active","ping":90},{"user_id":97,"name":"Shardarzan","steam_id":76561199158307332,"connected_time":2008000000000,"state":"active","ping":59},{"user_id":73,"name":"Kolmannen","steam_id":76561198288826376,"connected_time":3634000000000,"state":"active","ping":61},{"user_id":132,"name":"gort","steam_id":76561198060339391,"connected_time":367000000000,"state":"active","ping":44},{"user_id":103,"name":"twitch.tv/ofikoMazush1","steam_id":76561198149515082,"connected_time":1745000000000,"state":"active","ping":70},{"user_id":112,"name":"Quartermistress","steam_id":76561198140199123,"connected_time":1401000000000,"state":"active","ping":52},{"user_id":130,"name":"Krabs","steam_id":76561198161679477,"connected_time":451000000000,"state":"active","ping":60},{"user_id":123,"name":"78","steam_id":76561198208328357,"connected_time":947000000000,"state":"active","ping":77},{"user_id":135,"name":"Sirzen","steam_id":76561198170155434,"connected_time":40000000000,"state":"active","ping":56},{"user_id":124,"name":"Tails8521","steam_id":76561198051747164,"connected_time":945000000000,"state":"active","ping":60},{"user_id":109,"name":"Dwight Schrute","steam_id":76561198026272202,"connected_time":1517000000000,"state":"active","ping":85},{"user_id":110,"name":"Miton","steam_id":76561197970323209,"connected_time":1463000000000,"state":"active","ping":85},{"user_id":113,"name":"WAl","steam_id":76561198141457378,"connected_time":1365000000000,"state":"active","ping":81},{"user_id":125,"name":"Irgend so n Trottel","steam_id":76561197997126444,"connected_time":942000000000,"state":"active","ping":64}]},{"server_id":311,"name":"Uncletopia | Frankfurt | 6 | All Maps","name_short":"frk-6","host":"frk-1.de.uncletopia.com","port":27065,"enabled":true,"region":"eu","cc":"de","latitude":50.110924,"longitude":8.682127,"reserved":0,"last_update":"0001-01-01T00:00:00Z","name_a2s":"Uncletopia | Frankfurt | 6 | All Maps","protocol":17,"map":"cp_sunshine","folder":"tf","game":"Team Fortress","app_id":440,"player_count":19,"max_players":24,"Bots":0,"server_type":"Dedicated","server_os":"Linux","password":true,"vac":true,"version":"7757534","steam_id":85568392924504278,"keywords":["cp","nocrits","nodmgspread","uncletopia"],"game_id":440,"stv_port":27066,"stv_name":"Uncletopia | Frankfurt | 6 | All Maps | STV","players":[{"user_id":198,"name":"Vanilla","steam_id":76561198073933435,"connected_time":1365000000000,"state":"active","ping":56},{"user_id":222,"name":"MrBanana","steam_id":76561198116021623,"connected_time":102000000000,"state":"active","ping":46},{"user_id":214,"name":"Gordon","steam_id":76561198303652059,"connected_time":724000000000,"state":"active","ping":68},{"user_id":224,"name":"H2n9","steam_id":76561198055811259,"connected_time":11000000000,"state":"spawning","ping":58},{"user_id":225,"name":"Frank","steam_id":76561198086672774,"connected_time":8000000000,"state":"spawning","ping":48},{"user_id":211,"name":"Kjat","steam_id":76561198839433592,"connected_time":756000000000,"state":"active","ping":51},{"user_id":189,"name":"taima","steam_id":76561198281053248,"connected_time":1570000000000,"state":"active","ping":69},{"user_id":220,"name":"Radegast the Brown","steam_id":76561198075489505,"connected_time":516000000000,"state":"active","ping":55},{"user_id":226,"name":"Jimmy","steam_id":76561198133680783,"connected_time":6000000000,"state":"spawning","ping":55},{"user_id":156,"name":"HelwiiHill","steam_id":76561198066730552,"connected_time":3701000000000,"state":"active","ping":84},{"user_id":157,"name":"Clitorina","steam_id":76561198077570815,"connected_time":3498000000000,"state":"active","ping":59},{"user_id":215,"name":"dotdotdot","steam_id":76561198057628751,"connected_time":704000000000,"state":"active","ping":63},{"user_id":218,"name":"sun tzu","steam_id":76561198041844615,"connected_time":642000000000,"state":"active","ping":89},{"user_id":217,"name":"Oxy:*","steam_id":76561198275120049,"connected_time":645000000000,"state":"active","ping":77},{"user_id":153,"name":"cursedbygod♡","steam_id":76561198318291047,"connected_time":4652000000000,"state":"active","ping":114},{"user_id":205,"name":"Spinyapickle","steam_id":76561198086653667,"connected_time":1248000000000,"state":"active","ping":71},{"user_id":219,"name":"Dope","steam_id":76561198318858892,"connected_time":567000000000,"state":"active","ping":63},{"user_id":196,"name":"увынск","steam_id":76561198172046813,"connected_time":1405000000000,"state":"active","ping":75},{"user_id":207,"name":"rmz.ssj","steam_id":76561198329613930,"connected_time":1112000000000,"state":"active","ping":62}]},{"server_id":23,"name":"Uncletopia | Frankfurt | 7 | Stopwatch Beta","name_short":"frk-7","host":"frk-1.de.uncletopia.com","port":27075,"enabled":true,"region":"eu","cc":"de","latitude":50.110924,"longitude":8.682127,"reserved":0,"last_update":"0001-01-01T00:00:00Z","name_a2s":"Uncletopia | Frankfurt | 7 | Stopwatch Beta","protocol":17,"map":"pl_swiftwater_final1","folder":"tf","game":"Team Fortress","app_id":440,"player_count":0,"max_players":24,"Bots":0,"server_type":"Dedicated","server_os":"Linux","password":true,"vac":true,"version":"7757534","steam_id":85568392924742827,"keywords":["nocrits","nodmgspread","payload","uncletopia"],"game_id":440,"stv_port":27076,"stv_name":"Uncletopia | Frankfurt | 7 | Stopwatch Beta | STV","players":null},{"server_id":24,"name":"Uncletopia | Frankfurt | 8 | Community","name_short":"frk-8","host":"frk-1.de.uncletopia.com","port":27085,"enabled":true,"region":"eu","cc":"de","latitude":50.110924,"longitude":8.682127,"reserved":0,"last_update":"0001-01-01T00:00:00Z","name_a2s":"Uncletopia | Frankfurt | 8 | Community","protocol":17,"map":"koth_lakeside_final","folder":"tf","game":"Team Fortress","app_id":440,"player_count":0,"max_players":24,"Bots":0,"server_type":"Dedicated","server_os":"Linux","password":true,"vac":true,"version":"7757534","steam_id":85568392924742828,"keywords":["cp","nocrits","nodmgspread","uncletopia"],"game_id":440,"stv_port":27086,"stv_name":"Uncletopia | Frankfurt | 8 | Community | STV","players":null},{"server_id":202,"name":"Uncletopia | Hong Kong | 1 | All Maps","name_short":"hgk-1","host":"hgk-1.hk.uncletopia.com","port":27015,"enabled":true,"region":"asia","cc":"hk","latitude":22.302711,"longitude":114.177216,"reserved":0,"last_update":"0001-01-01T00:00:00Z","name_a2s":"Uncletopia | Hong Kong | 1 | All Maps","protocol":17,"map":"ctf_landfall","folder":"tf","game":"Team Fortress","app_id":440,"player_count":0,"max_players":24,"Bots":0,"server_type":"Dedicated","server_os":"Linux","password":true,"vac":true,"version":"7757534","steam_id":85568392924494504,"keywords":["ctf","nocrits","nodmgspread","uncletopia"],"game_id":440,"stv_port":27016,"stv_name":"Uncletopia | Hong Kong | 1 | All Maps | STV","players":null},{"server_id":1,"name":"Uncletopia | Los Angeles | 1 | All Maps","name_short":"lax-1","host":"lax-1.us.uncletopia.com","port":27015,"enabled":true,"region":"us-west","cc":"us","latitude":33.94279,"longitude":-118.41004,"reserved":0,"last_update":"0001-01-01T00:00:00Z","name_a2s":"Uncletopia | Los Angeles | 1 | All Maps","protocol":17,"map":"koth_lakeside_final","folder":"tf","game":"Team Fortress","app_id":440,"player_count":0,"max_players":24,"Bots":0,"server_type":"Dedicated","server_os":"Linux","password":true,"vac":true,"version":"7757534","steam_id":85568392924469991,"keywords":["cp","nocrits","nodmgspread","uncletopia"],"game_id":440,"stv_port":27016,"stv_name":"Uncletopia | Los Angeles | 1 | All Maps | STV","players":null},{"server_id":112,"name":"Uncletopia | Los Angeles | 2 | All Maps","name_short":"lax-2","host":"lax-1.us.uncletopia.com","port":27025,"enabled":true,"region":"us-west","cc":"us","latitude":33.94279,"longitude":-118.41004,"reserved":0,"last_update":"0001-01-01T00:00:00Z","name_a2s":"Uncletopia | Los Angeles | 2 | All Maps","protocol":17,"map":"pl_snowycoast","folder":"tf","game":"Team Fortress","app_id":440,"player_count":0,"max_players":24,"Bots":0,"server_type":"Dedicated","server_os":"Linux","password":true,"vac":true,"version":"7757534","steam_id":85568392924469992,"keywords":["nocrits","nodmgspread","payload","uncletopia"],"game_id":440,"stv_port":27026,"stv_name":"Uncletopia | Los Angeles | 2 | All Maps | STV","players":null},{"server_id":324,"name":"Uncletopia | Los Angeles | 3 | All Maps","name_short":"lax-3","host":"lax-1.us.uncletopia.com","port":27035,"enabled":true,"region":"us-west","cc":"us","latitude":33.94279,"longitude":-118.41004,"reserved":0,"last_update":"0001-01-01T00:00:00Z","name_a2s":"Uncletopia | Los Angeles | 3 | All Maps","protocol":17,"map":"cp_mountainlab","folder":"tf","game":"Team Fortress","app_id":440,"player_count":0,"max_players":24,"Bots":0,"server_type":"Dedicated","server_os":"Linux","password":true,"vac":true,"version":"7757534","steam_id":85568392924510198,"keywords":["cp","nocrits","nodmgspread","uncletopia"],"game_id":440,"stv_port":27036,"stv_name":"Uncletopia | Los Angeles | 3 | All Maps | STV","players":null},{"server_id":25,"name":"Uncletopia | Los Angeles | 4 | Stopwatch Beta","name_short":"lax-4","host":"lax-1.us.uncletopia.com","port":27045,"enabled":true,"region":"us-west","cc":"us","latitude":33.94279,"longitude":-118.41004,"reserved":0,"last_update":"0001-01-01T00:00:00Z","name_a2s":"Uncletopia | Los Angeles | 4 | Stopwatch Beta","protocol":17,"map":"pl_swiftwater_final1","folder":"tf","game":"Team Fortress","app_id":440,"player_count":0,"max_players":24,"Bots":0,"server_type":"Dedicated","server_os":"Linux","password":true,"vac":true,"version":"7757534","steam_id":85568392924510199,"keywords":["nocrits","nodmgspread","payload","uncletopia"],"game_id":440,"stv_port":27046,"stv_name":"Uncletopia | Los Angeles | 4 | Stopwatch Beta | STV","players":null},{"server_id":11,"name":"Uncletopia | London | 1 | All Maps","name_short":"lon-1","host":"lon-1.uk.uncletopia.com","port":27015,"enabled":true,"region":"eu","cc":"gb","latitude":51.509865,"longitude":-0.118092,"reserved":0,"last_update":"0001-01-01T00:00:00Z","name_a2s":"Uncletopia | London | 1 | All Maps","protocol":17,"map":"pl_pier","folder":"tf","game":"Team Fortress","app_id":440,"player_count":24,"max_players":24,"Bots":0,"server_type":"Dedicated","server_os":"Linux","password":true,"vac":true,"version":"7757534","steam_id":85568392924367362,"keywords":["nocrits","nodmgspread","payload","uncletopia"],"game_id":440,"stv_port":27016,"stv_name":"Uncletopia | London | 1 | All Maps | STV","players":[{"user_id":667,"name":"Hive","steam_id":76561199480966681,"connected_time":413000000000,"state":"active","ping":68},{"user_id":666,"name":"Makłowicz","steam_id":76561198281831506,"connected_time":420000000000,"state":"active","ping":95},{"user_id":643,"name":"SharK","steam_id":76561198059193009,"connected_time":2785000000000,"state":"active","ping":52},{"user_id":617,"name":"Sandshee","steam_id":76561198088574666,"connected_time":5105000000000,"state":"active","ping":43},{"user_id":615,"name":"fieldbox","steam_id":76561198101893112,"connected_time":5359000000000,"state":"active","ping":48},{"user_id":616,"name":"Jinx my beloved","steam_id":76561198819986745,"connected_time":5316000000000,"state":"active","ping":97},{"user_id":673,"name":"Mike","steam_id":76561198228455736,"connected_time":159000000000,"state":"active","ping":52},{"user_id":645,"name":"Makumba","steam_id":76561198057014708,"connected_time":2738000000000,"state":"active","ping":71},{"user_id":653,"name":"fear","steam_id":76561198043836847,"connected_time":1249000000000,"state":"active","ping":72},{"user_id":495,"name":"Rappin' Sebastian","steam_id":76561198453928256,"connected_time":15296000000000,"state":"active","ping":77},{"user_id":655,"name":"Kretur","steam_id":76561198161086266,"connected_time":544000000000,"state":"active","ping":100},{"user_id":674,"name":"Gorogaz","steam_id":76561198207157679,"connected_time":57000000000,"state":"active","ping":70},{"user_id":637,"name":"twitch.tv/vision515","steam_id":76561198065293729,"connected_time":2909000000000,"state":"active","ping":163},{"user_id":602,"name":"♥ aura ♥","steam_id":76561198066258544,"connected_time":6965000000000,"state":"active","ping":63},{"user_id":670,"name":"THE ENGIE MAIN#SAVETF2","steam_id":76561198872904989,"connected_time":265000000000,"state":"active","ping":35},{"user_id":668,"name":"commei","steam_id":76561198431919819,"connected_time":406000000000,"state":"active","ping":45},{"user_id":652,"name":"Tortes","steam_id":76561199049185884,"connected_time":1574000000000,"state":"active","ping":105},{"user_id":654,"name":"JOHN GAMING (#1 gunspy)","steam_id":76561199085822219,"connected_time":777000000000,"state":"active","ping":82},{"user_id":650,"name":"Mr. Frog","steam_id":76561198016568920,"connected_time":2353000000000,"state":"active","ping":47},{"user_id":671,"name":"Honest Tom's Discount Beef","steam_id":76561198029971392,"connected_time":261000000000,"state":"active","ping":60},{"user_id":675,"name":"Economic crisis","steam_id":76561198063562843,"connected_time":34000000000,"state":"active","ping":64},{"user_id":623,"name":"mercurial","steam_id":76561198046227550,"connected_time":4361000000000,"state":"active","ping":44},{"user_id":672,"name":"Tom Wadinger","steam_id":76561198292003338,"connected_time":238000000000,"state":"active","ping":64},{"user_id":580,"name":"Penis Contortionist","steam_id":76561198073663784,"connected_time":9198000000000,"state":"active","ping":43}]},{"server_id":114,"name":"Uncletopia | London | 2 | All Maps","name_short":"lon-2","host":"lon-1.uk.uncletopia.com","port":27025,"enabled":true,"region":"eu","cc":"gb","latitude":51.509865,"longitude":-0.118092,"reserved":0,"last_update":"0001-01-01T00:00:00Z","name_a2s":"Uncletopia | London | 2 | All Maps","protocol":17,"map":"pl_borneo","folder":"tf","game":"Team Fortress","app_id":440,"player_count":24,"max_players":24,"Bots":0,"server_type":"Dedicated","server_os":"Linux","password":true,"vac":true,"version":"7757534","steam_id":85568392924470941,"keywords":["nocrits","nodmgspread","payload","uncletopia"],"game_id":440,"stv_port":27026,"stv_name":"Uncletopia | London | 2 | All Maps | STV","players":[{"user_id":502,"name":"AXAL","steam_id":76561198178250598,"connected_time":30000000000,"state":"active","ping":86},{"user_id":489,"name":"Locke","steam_id":76561198339408300,"connected_time":647000000000,"state":"active","ping":60},{"user_id":498,"name":"Washburne","steam_id":76561198032810579,"connected_time":424000000000,"state":"active","ping":47},{"user_id":414,"name":"Zerfesh","steam_id":76561198117534358,"connected_time":4508000000000,"state":"active","ping":93},{"user_id":432,"name":"Breizbuc","steam_id":76561198118220633,"connected_time":3826000000000,"state":"active","ping":61},{"user_id":490,"name":"Rex Z'Beq","steam_id":76561199300590000,"connected_time":645000000000,"state":"active","ping":100},{"user_id":497,"name":"Lasauttaja","steam_id":76561198009823148,"connected_time":444000000000,"state":"active","ping":68},{"user_id":477,"name":"Kamikrazy","steam_id":76561198044254918,"connected_time":1572000000000,"state":"active","ping":60},{"user_id":388,"name":"Gnarville","steam_id":76561198006373329,"connected_time":6255000000000,"state":"active","ping":46},{"user_id":475,"name":"Truegear","steam_id":76561198059511386,"connected_time":1595000000000,"state":"active","ping":71},{"user_id":499,"name":"Bred Sheeran (real)","steam_id":76561198045692016,"connected_time":419000000000,"state":"active","ping":61},{"user_id":484,"name":"gandalf zaza","steam_id":76561198059787688,"connected_time":816000000000,"state":"active","ping":145},{"user_id":483,"name":"Jesus Enjoyer","steam_id":76561198840259819,"connected_time":841000000000,"state":"active","ping":57},{"user_id":501,"name":"Knoxx","steam_id":76561198260692541,"connected_time":57000000000,"state":"active","ping":45},{"user_id":500,"name":"shakunetsu","steam_id":76561198057859386,"connected_time":235000000000,"state":"active","ping":77},{"user_id":493,"name":"limbicsystem","steam_id":76561198025612680,"connected_time":610000000000,"state":"active","ping":57},{"user_id":464,"name":"Seron-Lowell","steam_id":76561198070291347,"connected_time":2308000000000,"state":"active","ping":62},{"user_id":470,"name":"Thors","steam_id":76561197968739075,"connected_time":1834000000000,"state":"active","ping":42},{"user_id":480,"name":"porngamer","steam_id":76561198204620491,"connected_time":1501000000000,"state":"active","ping":32},{"user_id":496,"name":"❤G a n K","steam_id":76561199125995565,"connected_time":531000000000,"state":"active","ping":67},{"user_id":495,"name":"snorrbrod","steam_id":76561198142389396,"connected_time":604000000000,"state":"active","ping":78},{"user_id":469,"name":"MaRo","steam_id":76561198992286676,"connected_time":2190000000000,"state":"active","ping":59},{"user_id":431,"name":"LemonLeCitron","steam_id":76561198215545267,"connected_time":3896000000000,"state":"active","ping":65},{"user_id":486,"name":"tube","steam_id":76561198188642265,"connected_time":781000000000,"state":"active","ping":64}]},{"server_id":320,"name":"Uncletopia | London | 3 | All Maps","name_short":"lon-3","host":"lon-1.uk.uncletopia.com","port":27035,"enabled":true,"region":"eu","cc":"gb","latitude":51.509865,"longitude":-0.118092,"reserved":0,"last_update":"0001-01-01T00:00:00Z","name_a2s":"Uncletopia | London | 3 | All Maps","protocol":17,"map":"cp_sunshine","folder":"tf","game":"Team Fortress","app_id":440,"player_count":0,"max_players":24,"Bots":0,"server_type":"Dedicated","server_os":"Linux","password":true,"vac":true,"version":"7757534","steam_id":85568392924510192,"keywords":["cp","nocrits","nodmgspread","uncletopia"],"game_id":440,"stv_port":27036,"stv_name":"Uncletopia | London | 3 | All Maps | STV","players":null},{"server_id":321,"name":"Uncletopia | London | 4 | All Maps","name_short":"lon-4","host":"lon-1.uk.uncletopia.com","port":27045,"enabled":true,"region":"eu","cc":"gb","latitude":51.509865,"longitude":-0.118092,"reserved":0,"last_update":"0001-01-01T00:00:00Z","name_a2s":"Uncletopia | London | 4 | All Maps","protocol":17,"map":"koth_harvest_final","folder":"tf","game":"Team Fortress","app_id":440,"player_count":24,"max_players":24,"Bots":0,"server_type":"Dedicated","server_os":"Linux","password":true,"vac":true,"version":"7757534","steam_id":85568392924510193,"keywords":["cp","nocrits","nodmgspread","uncletopia"],"game_id":440,"stv_port":27046,"stv_name":"Uncletopia | London | 4 | All Maps | STV","players":[{"user_id":12,"name":"B∞p | ❤Fasto❤","steam_id":76561198118298527,"connected_time":2764000000000,"state":"active","ping":50},{"user_id":14,"name":"Wire  Bash","steam_id":76561198033268371,"connected_time":2756000000000,"state":"active","ping":46},{"user_id":59,"name":"ayecodex","steam_id":76561199477598858,"connected_time":433000000000,"state":"active","ping":118},{"user_id":16,"name":"Tankedup_","steam_id":76561198168659251,"connected_time":2751000000000,"state":"active","ping":43},{"user_id":60,"name":"Eosson","steam_id":76561198108642113,"connected_time":421000000000,"state":"active","ping":148},{"user_id":21,"name":"Rocket.Blade","steam_id":76561198063104145,"connected_time":2682000000000,"state":"active","ping":53},{"user_id":58,"name":"monke","steam_id":76561199098819786,"connected_time":472000000000,"state":"active","ping":51},{"user_id":23,"name":"Goro Majima","steam_id":76561198003040222,"connected_time":2596000000000,"state":"active","ping":44},{"user_id":35,"name":"Spectre","steam_id":76561198163819482,"connected_time":1243000000000,"state":"active","ping":70},{"user_id":61,"name":"SoupER","steam_id":76561198063056668,"connected_time":392000000000,"state":"active","ping":48},{"user_id":37,"name":"Chocofrolik","steam_id":76561198454779847,"connected_time":1237000000000,"state":"active","ping":61},{"user_id":28,"name":"Cirilla.gif","steam_id":76561198090586031,"connected_time":2057000000000,"state":"active","ping":209},{"user_id":46,"name":"tomasbar","steam_id":76561198119397814,"connected_time":1132000000000,"state":"active","ping":73},{"user_id":30,"name":"esoteric thug hunter","steam_id":76561198367337443,"connected_time":1829000000000,"state":"active","ping":96},{"user_id":31,"name":"F","steam_id":76561199149462792,"connected_time":1652000000000,"state":"active","ping":70},{"user_id":32,"name":"OSwaldd","steam_id":76561199078712899,"connected_time":1595000000000,"state":"active","ping":60},{"user_id":47,"name":"Dakeyras","steam_id":76561198057069564,"connected_time":1131000000000,"state":"active","ping":100},{"user_id":41,"name":"justpixels","steam_id":76561198143717568,"connected_time":1202000000000,"state":"active","ping":117},{"user_id":42,"name":"Banatical Bean","steam_id":76561198122356617,"connected_time":1199000000000,"state":"active","ping":64},{"user_id":63,"name":"SpilledMilk","steam_id":76561198174123971,"connected_time":291000000000,"state":"active","ping":66},{"user_id":44,"name":"true","steam_id":76561198031145243,"connected_time":1177000000000,"state":"active","ping":79},{"user_id":45,"name":"sisto majesto","steam_id":76561198073532776,"connected_time":1159000000000,"state":"active","ping":96},{"user_id":50,"name":"quickfast","steam_id":76561199438900919,"connected_time":1042000000000,"state":"active","ping":45},{"user_id":64,"name":"Providence","steam_id":76561198003920270,"connected_time":263000000000,"state":"active","ping":70}]},{"server_id":21,"name":"Uncletopia | London | 5 | All Maps","name_short":"lon-5","host":"lon-1.uk.uncletopia.com","port":27055,"enabled":true,"region":"eu","cc":"gb","latitude":51.509865,"longitude":-0.118092,"reserved":0,"last_update":"0001-01-01T00:00:00Z","name_a2s":"Uncletopia | London | 5 | All Maps","protocol":17,"map":"pl_swiftwater_final1","folder":"tf","game":"Team Fortress","app_id":440,"player_count":13,"max_players":24,"Bots":0,"server_type":"Dedicated","server_os":"Linux","password":true,"vac":true,"version":"7757534","steam_id":85568392924742829,"keywords":["nocrits","nodmgspread","payload","uncletopia"],"game_id":440,"stv_port":27056,"stv_name":"Uncletopia | London | 5 | All Maps | STV","players":[{"user_id":431,"name":"Snoucher","steam_id":76561198955323108,"connected_time":5053000000000,"state":"active","ping":82},{"user_id":537,"name":"Azurh","steam_id":76561199330143102,"connected_time":30000000000,"state":"active","ping":69},{"user_id":534,"name":"\u003c3","steam_id":76561198865170684,"connected_time":273000000000,"state":"active","ping":62},{"user_id":527,"name":"thefatcontroller","steam_id":76561199332965146,"connected_time":826000000000,"state":"active","ping":102},{"user_id":536,"name":"XSCod","steam_id":76561198124586634,"connected_time":86000000000,"state":"active","ping":70},{"user_id":538,"name":"katten","steam_id":76561198163615254,"connected_time":13000000000,"state":"spawning","ping":61},{"user_id":535,"name":"stay positive","steam_id":76561198198581079,"connected_time":201000000000,"state":"active","ping":82},{"user_id":498,"name":"Big Smoke","steam_id":76561199242777363,"connected_time":2221000000000,"state":"active","ping":54},{"user_id":528,"name":"Prim","steam_id":76561198043191342,"connected_time":778000000000,"state":"active","ping":69},{"user_id":523,"name":"Beta Probopass","steam_id":76561198140806694,"connected_time":954000000000,"state":"active","ping":89},{"user_id":530,"name":"SirSangoor","steam_id":76561198044462559,"connected_time":601000000000,"state":"active","ping":119},{"user_id":403,"name":"Morutomo","steam_id":76561198100640441,"connected_time":6868000000000,"state":"active","ping":117},{"user_id":529,"name":"NuGs","steam_id":76561198305550934,"connected_time":639000000000,"state":"active","ping":36}]},{"server_id":22,"name":"Uncletopia | London | 6 | All Maps","name_short":"lon-6","host":"lon-1.uk.uncletopia.com","port":27065,"enabled":true,"region":"eu","cc":"gb","latitude":51.509865,"longitude":-0.118092,"reserved":0,"last_update":"0001-01-01T00:00:00Z","name_a2s":"Uncletopia | London | 6 | All Maps","protocol":17,"map":"cp_sunshine","folder":"tf","game":"Team Fortress","app_id":440,"player_count":0,"max_players":24,"Bots":0,"server_type":"Dedicated","server_os":"Linux","password":true,"vac":true,"version":"7757534","steam_id":85568392924742830,"keywords":["cp","nocrits","nodmgspread","uncletopia"],"game_id":440,"stv_port":27066,"stv_name":"Uncletopia | London | 6 | All Maps | STV","players":null},{"server_id":40,"name":"Uncletopia | London | 7 | No Payload","name_short":"lon-7","host":"lon-1.uk.uncletopia.com","port":27075,"enabled":true,"region":"eu","cc":"gb","latitude":51.509865,"longitude":-0.118092,"reserved":0,"last_update":"0001-01-01T00:00:00Z","name_a2s":"Uncletopia | London | 7 | No Payload","protocol":17,"map":"cp_powerhouse","folder":"tf","game":"Team Fortress","app_id":440,"player_count":7,"max_players":24,"Bots":0,"server_type":"Dedicated","server_os":"Linux","password":true,"vac":true,"version":"7757534","steam_id":85568392924964314,"keywords":["cp","nocrits","nodmgspread","uncletopia"],"game_id":440,"stv_port":27076,"stv_name":"Uncletopia | London | 7 | No Payload | STV","players":[{"user_id":109,"name":"ran is running","steam_id":76561199443185667,"connected_time":3746000000000,"state":"active","ping":147},{"user_id":118,"name":"Concorde","steam_id":76561199141714627,"connected_time":784000000000,"state":"active","ping":59},{"user_id":119,"name":"Mind Fuzz","steam_id":76561199443547191,"connected_time":728000000000,"state":"active","ping":55},{"user_id":120,"name":"OlScout","steam_id":76561199101084711,"connected_time":606000000000,"state":"active","ping":260},{"user_id":121,"name":"IrnestAgriz","steam_id":76561199004667293,"connected_time":483000000000,"state":"active","ping":86},{"user_id":114,"name":"Dor_atar","steam_id":76561198973980542,"connected_time":2497000000000,"state":"active","ping":70}]},{"server_id":41,"name":"Uncletopia | London | 8 | Community","name_short":"lon-8","host":"lon-1.uk.uncletopia.com","port":27085,"enabled":true,"region":"eu","cc":"gb","latitude":51.509865,"longitude":-0.118092,"reserved":0,"last_update":"0001-01-01T00:00:00Z","name_a2s":"Uncletopia | London | 8 | Community","protocol":17,"map":"pl_barnblitz","folder":"tf","game":"Team Fortress","app_id":440,"player_count":0,"max_players":24,"Bots":0,"server_type":"Dedicated","server_os":"Linux","password":true,"vac":true,"version":"7757534","steam_id":85568392924964315,"keywords":["nocrits","nodmgspread","payload","uncletopia"],"game_id":440,"stv_port":27086,"stv_name":"Uncletopia | London | 8 | Community | STV","players":null},{"server_id":300,"name":"Uncletopia | Montréal | 1 | All Maps","name_short":"mtl-1","host":"mtl-1.ca.uncletopia.com","port":27015,"enabled":true,"region":"us-east","cc":"ca","latitude":45.50889,"longitude":-73.56167,"reserved":0,"last_update":"0001-01-01T00:00:00Z","name_a2s":"Uncletopia | Montréal | 1 | All Maps","protocol":17,"map":"pl_upward","folder":"tf","game":"Team Fortress","app_id":440,"player_count":0,"max_players":24,"Bots":0,"server_type":"Dedicated","server_os":"Linux","password":true,"vac":true,"version":"7757534","steam_id":85568392924500087,"keywords":["nocrits","nodmgspread","payload","uncletopia"],"game_id":440,"stv_port":27016,"stv_name":"Uncletopia | Montréal | 1 | All Maps | STV","players":null},{"server_id":301,"name":"Uncletopia | Montréal | 2 | All Maps","name_short":"mtl-2","host":"mtl-1.ca.uncletopia.com","port":27025,"enabled":true,"region":"us-east","cc":"ca","latitude":45.50889,"longitude":-73.56167,"reserved":0,"last_update":"0001-01-01T00:00:00Z","name_a2s":"Uncletopia | Montréal | 2 | All Maps","protocol":17,"map":"pl_snowycoast","folder":"tf","game":"Team Fortress","app_id":440,"player_count":0,"max_players":24,"Bots":0,"server_type":"Dedicated","server_os":"Linux","password":true,"vac":true,"version":"7757534","steam_id":85568392924500088,"keywords":["nocrits","nodmgspread","payload","uncletopia"],"game_id":440,"stv_port":27026,"stv_name":"Uncletopia | Montréal | 2 | All Maps | STV","players":null},{"server_id":302,"name":"Uncletopia | Montréal | 3 | All Maps","name_short":"mtl-3","host":"mtl-1.ca.uncletopia.com","port":27035,"enabled":true,"region":"us-east","cc":"ca","latitude":45.50889,"longitude":-73.56167,"reserved":0,"last_update":"0001-01-01T00:00:00Z","name_a2s":"Uncletopia | Montréal | 3 | All Maps","protocol":17,"map":"pl_swiftwater_final1","folder":"tf","game":"Team Fortress","app_id":440,"player_count":0,"max_players":24,"Bots":0,"server_type":"Dedicated","server_os":"Linux","password":true,"vac":true,"version":"7757534","steam_id":85568392924500089,"keywords":["nocrits","nodmgspread","payload","uncletopia"],"game_id":440,"stv_port":27036,"stv_name":"Uncletopia | Montréal | 3 | All Maps | STV","players":null},{"server_id":303,"name":"Uncletopia | Montréal | 4 | No Payload","name_short":"mtl-4","host":"mtl-1.ca.uncletopia.com","port":27045,"enabled":true,"region":"us-east","cc":"ca","latitude":45.50889,"longitude":-73.56167,"reserved":0,"last_update":"0001-01-01T00:00:00Z","name_a2s":"Uncletopia | Montréal | 4 | No Payload","protocol":17,"map":"pl_pier","folder":"tf","game":"Team Fortress","app_id":440,"player_count":0,"max_players":24,"Bots":0,"server_type":"Dedicated","server_os":"Linux","password":true,"vac":true,"version":"7757534","steam_id":85568392924500090,"keywords":["nocrits","nodmgspread","payload","uncletopia"],"game_id":440,"stv_port":27046,"stv_name":"Uncletopia | Montréal | 4 | No Payload | STV","players":null},{"server_id":13,"name":"Uncletopia | New York City | 1 | All Maps","name_short":"nyc-1","host":"nyc-1.us.uncletopia.com","port":27015,"enabled":true,"region":"us-east","cc":"us","latitude":40.73061,"longitude":-73.93524,"reserved":0,"last_update":"0001-01-01T00:00:00Z","name_a2s":"Uncletopia | New York City | 1 | All Maps","protocol":17,"map":"pl_borneo","folder":"tf","game":"Team Fortress","app_id":440,"player_count":24,"max_players":24,"Bots":0,"server_type":"Dedicated","server_os":"Linux","password":true,"vac":true,"version":"7757534","steam_id":85568392924469993,"keywords":["nocrits","nodmgspread","payload","uncletopia"],"game_id":440,"stv_port":27016,"stv_name":"Uncletopia | New York City | 1 | All Maps | STV","players":[{"user_id":8,"name":"Gobbo Nikki","steam_id":76561198164401669,"connected_time":3543000000000,"state":"active","ping":81},{"user_id":4,"name":"emilee (evil)","steam_id":76561198061455664,"connected_time":4462000000000,"state":"active","ping":44},{"user_id":61,"name":"DJ Spit","steam_id":76561198186637025,"connected_time":66000000000,"state":"active","ping":91},{"user_id":51,"name":"Uwasatchi","steam_id":76561198011501261,"connected_time":918000000000,"state":"active","ping":45},{"user_id":41,"name":"werterioso","steam_id":76561198339254386,"connected_time":1719000000000,"state":"active","ping":133},{"user_id":29,"name":"jody","steam_id":76561198065103382,"connected_time":2284000000000,"state":"active","ping":80},{"user_id":42,"name":"A Puppy","steam_id":76561198828184456,"connected_time":1680000000000,"state":"active","ping":45},{"user_id":31,"name":"Shunsninja13","steam_id":76561198021389366,"connected_time":2180000000000,"state":"active","ping":136},{"user_id":56,"name":"Egpta","steam_id":76561198237840238,"connected_time":97000000000,"state":"active","ping":56},{"user_id":48,"name":"Esayian0628","steam_id":76561199214894926,"connected_time":1374000000000,"state":"active","ping":75},{"user_id":50,"name":"ZD","steam_id":76561198437273389,"connected_time":1283000000000,"state":"active","ping":47},{"user_id":58,"name":"Mutt","steam_id":76561198113640643,"connected_time":76000000000,"state":"active","ping":128},{"user_id":32,"name":"TheMadNut","steam_id":76561198123161148,"connected_time":2059000000000,"state":"active","ping":112},{"user_id":55,"name":"Dillon Planter","steam_id":76561198118903188,"connected_time":431000000000,"state":"active","ping":86},{"user_id":44,"name":"abed","steam_id":76561198072856511,"connected_time":1646000000000,"state":"active","ping":65},{"user_id":36,"name":"Shaggy","steam_id":76561198441184082,"connected_time":1894000000000,"state":"active","ping":43},{"user_id":52,"name":"Saint","steam_id":76561199122494395,"connected_time":765000000000,"state":"active","ping":64},{"user_id":57,"name":"sex","steam_id":76561198198787713,"connected_time":96000000000,"state":"active","ping":53},{"user_id":59,"name":"Broadway Rose","steam_id":76561198046083342,"connected_time":74000000000,"state":"active","ping":36},{"user_id":60,"name":"retinz","steam_id":76561198135563495,"connected_time":69000000000,"state":"active","ping":49},{"user_id":45,"name":"Local Talent","steam_id":76561199053290637,"connected_time":1560000000000,"state":"active","ping":92},{"user_id":62,"name":"Uncle Dane Wannabe","steam_id":76561199315167502,"connected_time":42000000000,"state":"active","ping":60},{"user_id":49,"name":"chaffy","steam_id":76561198021754567,"connected_time":1372000000000,"state":"active","ping":60},{"user_id":54,"name":"Copter_Boy","steam_id":76561198322921312,"connected_time":653000000000,"state":"active","ping":50}]},{"server_id":14,"name":"Uncletopia | New York City | 2 | All Maps","name_short":"nyc-2","host":"nyc-1.us.uncletopia.com","port":27025,"enabled":true,"region":"us-east","cc":"us","latitude":40.73061,"longitude":-73.93524,"reserved":0,"last_update":"0001-01-01T00:00:00Z","name_a2s":"Uncletopia | New York City | 2 | All Maps","protocol":17,"map":"koth_viaduct","folder":"tf","game":"Team Fortress","app_id":440,"player_count":0,"max_players":24,"Bots":0,"server_type":"Dedicated","server_os":"Linux","password":true,"vac":true,"version":"7757534","steam_id":85568392924469994,"keywords":["cp","nocrits","nodmgspread","uncletopia"],"game_id":440,"stv_port":27026,"stv_name":"Uncletopia | New York City | 2 | All Maps | STV","players":null},{"server_id":15,"name":"Uncletopia | New York City | 3 | Stopwatch Beta","name_short":"nyc-3","host":"nyc-1.us.uncletopia.com","port":27035,"enabled":true,"region":"us-east","cc":"us","latitude":40.73061,"longitude":-73.93524,"reserved":0,"last_update":"0001-01-01T00:00:00Z","name_a2s":"Uncletopia | New York City | 3 | Stopwatch Beta","protocol":17,"map":"pl_upward","folder":"tf","game":"Team Fortress","app_id":440,"player_count":0,"max_players":24,"Bots":0,"server_type":"Dedicated","server_os":"Linux","password":true,"vac":true,"version":"7757534","steam_id":85568392924742820,"keywords":["nocrits","nodmgspread","payload","uncletopia"],"game_id":440,"stv_port":27036,"stv_name":"Uncletopia | New York City | 3 | Stopwatch Beta | STV","players":null},{"server_id":16,"name":"Uncletopia | New York City | 4 | Community","name_short":"nyc-4","host":"nyc-1.us.uncletopia.com","port":27045,"enabled":true,"region":"us-east","cc":"us","latitude":40.73061,"longitude":-73.93524,"reserved":0,"last_update":"0001-01-01T00:00:00Z","name_a2s":"Uncletopia | New York City | 4 | Community","protocol":17,"map":"workshop/koth_product_final.ugc454272353","folder":"tf","game":"Team Fortress","app_id":440,"player_count":0,"max_players":24,"Bots":0,"server_type":"Dedicated","server_os":"Linux","password":true,"vac":true,"version":"7757534","steam_id":85568392924742821,"keywords":["cp","nocrits","nodmgspread","uncletopia"],"game_id":440,"stv_port":27046,"stv_name":"Uncletopia | New York City | 4 | Community | STV","players":null},{"server_id":142,"name":"Uncletopia | São Paulo | 1 | All Maps","name_short":"sao-1","host":"sao-1.br.uncletopia.com","port":27015,"enabled":true,"region":"sa","cc":"br","latitude":-23.533773,"longitude":-46.62529,"reserved":0,"last_update":"0001-01-01T00:00:00Z","name_a2s":"Uncletopia | São Paulo | 1 | All Maps","protocol":17,"map":"koth_lakeside_final","folder":"tf","game":"Team Fortress","app_id":440,"player_count":0,"max_players":24,"Bots":0,"server_type":"Dedicated","server_os":"Linux","password":true,"vac":true,"version":"7757534","steam_id":85568392924469996,"keywords":["cp","nocrits","nodmgspread","uncletopia"],"game_id":440,"stv_port":27016,"stv_name":"Uncletopia | São Paulo | 1 | All Maps | STV","players":null},{"server_id":143,"name":"Uncletopia | São Paulo | 2 | All Maps","name_short":"sao-2","host":"sao-2.br.uncletopia.com","port":27015,"enabled":true,"region":"sa","cc":"br","latitude":-23.533773,"longitude":-46.62529,"reserved":0,"last_update":"0001-01-01T00:00:00Z","name_a2s":"Uncletopia | São Paulo | 2 | All Maps","protocol":17,"map":"pl_snowycoast","folder":"tf","game":"Team Fortress","app_id":440,"player_count":0,"max_players":24,"Bots":0,"server_type":"Dedicated","server_os":"Linux","password":true,"vac":true,"version":"7757534","steam_id":85568392924485349,"keywords":["nocrits","nodmgspread","payload","uncletopia"],"game_id":440,"stv_port":27016,"stv_name":"Uncletopia | São Paulo | 2 | All Maps | STV","players":null},{"server_id":7,"name":"Uncletopia | Seattle | 1 | All Maps","name_short":"sea-1","host":"sea-1.us.uncletopia.com","port":27015,"enabled":true,"region":"us-west","cc":"us","latitude":47.608013,"longitude":-122.33517,"reserved":0,"last_update":"0001-01-01T00:00:00Z","name_a2s":"Uncletopia | Seattle | 1 | All Maps","protocol":17,"map":"koth_viaduct","folder":"tf","game":"Team Fortress","app_id":440,"player_count":24,"max_players":24,"Bots":0,"server_type":"Dedicated","server_os":"Linux","password":true,"vac":true,"version":"7757534","steam_id":85568392924469997,"keywords":["cp","nocrits","nodmgspread","uncletopia"],"game_id":440,"stv_port":27016,"stv_name":"Uncletopia | Seattle | 1 | All Maps | STV","players":[{"user_id":224,"name":"Baltimore CA-68","steam_id":76561198313517179,"connected_time":552000000000,"state":"active","ping":88},{"user_id":205,"name":"DualiTea","steam_id":76561198081733870,"connected_time":2430000000000,"state":"active","ping":105},{"user_id":182,"name":"Ocvember","steam_id":76561198206308152,"connected_time":4070000000000,"state":"active","ping":66},{"user_id":177,"name":"Mr8bittripper","steam_id":76561198133894229,"connected_time":5064000000000,"state":"active","ping":39},{"user_id":223,"name":"Keamy","steam_id":76561199471434875,"connected_time":856000000000,"state":"active","ping":38},{"user_id":233,"name":"soda","steam_id":76561198105924953,"connected_time":96000000000,"state":"active","ping":72},{"user_id":181,"name":"nori_420","steam_id":76561199117134203,"connected_time":4140000000000,"state":"active","ping":85},{"user_id":219,"name":"SeaBass","steam_id":76561197982949108,"connected_time":1573000000000,"state":"active","ping":123},{"user_id":184,"name":"muddy","steam_id":76561198035015260,"connected_time":4059000000000,"state":"active","ping":81},{"user_id":221,"name":"jacix3 [gay wolfgirl]{she/it}","steam_id":76561198205004165,"connected_time":905000000000,"state":"active","ping":63},{"user_id":178,"name":"Matt","steam_id":76561199122703238,"connected_time":4724000000000,"state":"active","ping":90},{"user_id":211,"name":"KellyKapoor","steam_id":76561198040828123,"connected_time":1960000000000,"state":"active","ping":50},{"user_id":217,"name":"indec","steam_id":76561198978404397,"connected_time":1658000000000,"state":"active","ping":71},{"user_id":202,"name":"lavener","steam_id":76561199069518286,"connected_time":2663000000000,"state":"active","ping":69},{"user_id":220,"name":"Y2K","steam_id":76561199191855486,"connected_time":1380000000000,"state":"active","ping":48},{"user_id":232,"name":"Sludge eater","steam_id":76561198424248616,"connected_time":130000000000,"state":"active","ping":73},{"user_id":227,"name":"The BIG Show","steam_id":76561199127423378,"connected_time":532000000000,"state":"active","ping":86},{"user_id":228,"name":"🌸Princess Nova🌸","steam_id":76561198320711089,"connected_time":529000000000,"state":"active","ping":31},{"user_id":229,"name":"Transfem with a gun","steam_id":76561199064861814,"connected_time":520000000000,"state":"active","ping":42},{"user_id":190,"name":"Mignyanne :3","steam_id":76561198048754056,"connected_time":3978000000000,"state":"active","ping":67},{"user_id":230,"name":"SibilantSerpent","steam_id":76561198154488754,"connected_time":466000000000,"state":"active","ping":59},{"user_id":210,"name":"Goose","steam_id":76561198036774894,"connected_time":2024000000000,"state":"active","ping":50},{"user_id":197,"name":"blizz","steam_id":76561199139715539,"connected_time":3210000000000,"state":"active","ping":71},{"user_id":225,"name":"Super Perfect Cell","steam_id":76561198271939793,"connected_time":552000000000,"state":"active","ping":51}]},{"server_id":119,"name":"Uncletopia | Seattle | 2 | All Maps","name_short":"sea-2","host":"sea-1.us.uncletopia.com","port":27025,"enabled":true,"region":"us-west","cc":"us","latitude":47.608013,"longitude":-122.33517,"reserved":0,"last_update":"0001-01-01T00:00:00Z","name_a2s":"Uncletopia | Seattle | 2 | All Maps","protocol":17,"map":"koth_highpass","folder":"tf","game":"Team Fortress","app_id":440,"player_count":14,"max_players":24,"Bots":0,"server_type":"Dedicated","server_os":"Linux","password":true,"vac":true,"version":"7757534","steam_id":85568392924469998,"keywords":["cp","nocrits","nodmgspread","uncletopia"],"game_id":440,"stv_port":27026,"stv_name":"Uncletopia | Seattle | 2 | All Maps | STV","players":[{"user_id":279,"name":"STENDO_CLIP","steam_id":76561198059570167,"connected_time":91000000000,"state":"spawning","ping":363},{"user_id":271,"name":"KingKata","steam_id":76561198289610011,"connected_time":853000000000,"state":"active","ping":61},{"user_id":253,"name":"Pinkman","steam_id":76561199467334502,"connected_time":2361000000000,"state":"active","ping":60},{"user_id":265,"name":"RagingBagon","steam_id":76561198255453127,"connected_time":1329000000000,"state":"active","ping":69},{"user_id":156,"name":"fox news goblin","steam_id":76561198167648580,"connected_time":9656000000000,"state":"active","ping":70},{"user_id":276,"name":"GgDionne","steam_id":76561198079684772,"connected_time":299000000000,"state":"active","ping":50},{"user_id":181,"name":"Spooky","steam_id":76561198030817605,"connected_time":8052000000000,"state":"active","ping":30},{"user_id":196,"name":"Dob Bole","steam_id":76561198056367220,"connected_time":7283000000000,"state":"active","ping":59},{"user_id":273,"name":"kommando1911","steam_id":76561198121455141,"connected_time":517000000000,"state":"active","ping":77},{"user_id":257,"name":"Shark Sandwich","steam_id":76561198025007938,"connected_time":2166000000000,"state":"active","ping":57},{"user_id":247,"name":"serious jester","steam_id":76561198079609974,"connected_time":3049000000000,"state":"active","ping":76},{"user_id":263,"name":"wizorb","steam_id":76561198002172674,"connected_time":1825000000000,"state":"active","ping":80},{"user_id":277,"name":"Aiki#6969","steam_id":76561198174279950,"connected_time":213000000000,"state":"active","ping":196},{"user_id":240,"name":"DVD Copy of Men in Black II","steam_id":76561198080067715,"connected_time":3444000000000,"state":"active","ping":107}]},{"server_id":406,"name":"Uncletopia | Seattle | 3 | Stopwatch Beta","name_short":"sea-3","host":"sea-1.us.uncletopia.com","port":27035,"enabled":true,"region":"us-west","cc":"us","latitude":47.608013,"longitude":-122.33517,"reserved":0,"last_update":"0001-01-01T00:00:00Z","name_a2s":"Uncletopia | Seattle | 3 | Stopwatch Beta","protocol":17,"map":"workshop/koth_product_final.ugc454272353","folder":"tf","game":"Team Fortress","app_id":440,"player_count":0,"max_players":24,"Bots":0,"server_type":"Dedicated","server_os":"Linux","password":true,"vac":true,"version":"7757534","steam_id":85568392924515217,"keywords":["cp","nocrits","nodmgspread","uncletopia"],"game_id":440,"stv_port":27036,"stv_name":"Uncletopia | Seattle | 3 | Stopwatch Beta | STV","players":null},{"server_id":17,"name":"Uncletopia | San Francisco | 1 | All Maps","name_short":"sfo-1","host":"sfo-1.us.uncletopia.com","port":27015,"enabled":true,"region":"us-west","cc":"us","latitude":37.77397,"longitude":-122.4313,"reserved":0,"last_update":"0001-01-01T00:00:00Z","name_a2s":"Uncletopia | San Francisco | 1 | All Maps","protocol":17,"map":"pl_pier","folder":"tf","game":"Team Fortress","app_id":440,"player_count":24,"max_players":24,"Bots":0,"server_type":"Dedicated","server_os":"Linux","password":true,"vac":true,"version":"7757534","steam_id":85568392924469999,"keywords":["nocrits","nodmgspread","payload","uncletopia"],"game_id":440,"stv_port":27016,"stv_name":"Uncletopia | San Francisco | 1 | All Maps | STV","players":[{"user_id":96,"name":"Defeat","steam_id":76561198065203818,"connected_time":233000000000,"state":"active","ping":59},{"user_id":75,"name":"Ethan","steam_id":76561198073208185,"connected_time":1676000000000,"state":"active","ping":68},{"user_id":97,"name":"BrehCat","steam_id":76561198157735917,"connected_time":189000000000,"state":"active","ping":61},{"user_id":93,"name":"Natalie (she/her)","steam_id":76561198048848289,"connected_time":453000000000,"state":"active","ping":65},{"user_id":91,"name":"Void","steam_id":76561198308290211,"connected_time":487000000000,"state":"active","ping":69},{"user_id":73,"name":"Ancient Appetizer","steam_id":76561198064067305,"connected_time":1972000000000,"state":"active","ping":115},{"user_id":74,"name":"men","steam_id":76561199194759161,"connected_time":1930000000000,"state":"active","ping":60},{"user_id":94,"name":"goongremlin","steam_id":76561198278196215,"connected_time":421000000000,"state":"active","ping":53},{"user_id":78,"name":"walterhwhite","steam_id":76561199433675789,"connected_time":1561000000000,"state":"active","ping":92},{"user_id":20,"name":"owl","steam_id":76561198105374054,"connected_time":4505000000000,"state":"active","ping":73},{"user_id":41,"name":"dweamy","steam_id":76561198119181880,"connected_time":3848000000000,"state":"active","ping":72},{"user_id":84,"name":"SalsaDaddy","steam_id":76561198358869108,"connected_time":1226000000000,"state":"active","ping":114},{"user_id":88,"name":"Pepe Silvia","steam_id":76561198071775268,"connected_time":949000000000,"state":"active","ping":110},{"user_id":90,"name":"Fallen","steam_id":76561198206490352,"connected_time":686000000000,"state":"active","ping":56},{"user_id":98,"name":"Leaderofthe00fkins","steam_id":76561198281999872,"connected_time":116000000000,"state":"active","ping":60},{"user_id":99,"name":"Cheese Miller","steam_id":76561199451933673,"connected_time":101000000000,"state":"active","ping":66},{"user_id":100,"name":"AshMan","steam_id":76561198095022150,"connected_time":31000000000,"state":"active","ping":89},{"user_id":72,"name":"SQU1RRELLY","steam_id":76561197961279983,"connected_time":1980000000000,"state":"active","ping":66},{"user_id":101,"name":"Duolingo Gaming","steam_id":76561199134046839,"connected_time":21000000000,"state":"spawning","ping":186},{"user_id":85,"name":"Genius Meme","steam_id":76561198162911254,"connected_time":1203000000000,"state":"active","ping":80},{"user_id":102,"name":"Yakts","steam_id":76561198115044159,"connected_time":6000000000,"state":"spawning","ping":59},{"user_id":103,"name":"artgi7","steam_id":76561199004779058,"connected_time":5000000000,"state":"spawning","ping":174},{"user_id":69,"name":"Positive0","steam_id":76561198035780181,"connected_time":2215000000000,"state":"active","ping":96},{"user_id":87,"name":"Rick","steam_id":76561198082608196,"connected_time":972000000000,"state":"active","ping":80}]},{"server_id":18,"name":"Uncletopia | San Francisco | 2 | All Maps","name_short":"sfo-2","host":"sfo-1.us.uncletopia.com","port":27025,"enabled":true,"region":"us-west","cc":"us","latitude":37.77397,"longitude":-122.4313,"reserved":0,"last_update":"0001-01-01T00:00:00Z","name_a2s":"Uncletopia | San Francisco | 2 | All Maps","protocol":17,"map":"koth_highpass","folder":"tf","game":"Team Fortress","app_id":440,"player_count":0,"max_players":24,"Bots":0,"server_type":"Dedicated","server_os":"Linux","password":true,"vac":true,"version":"7757534","steam_id":85568392924470000,"keywords":["cp","nocrits","nodmgspread","uncletopia"],"game_id":440,"stv_port":27026,"stv_name":"Uncletopia | San Francisco | 2 | All Maps | STV","players":null},{"server_id":19,"name":"Uncletopia | San Francisco | 3 | Stopwatch Beta","name_short":"sfo-3","host":"sfo-1.us.uncletopia.com","port":27035,"enabled":true,"region":"us-west","cc":"us","latitude":37.77397,"longitude":-122.4313,"reserved":0,"last_update":"0001-01-01T00:00:00Z","name_a2s":"Uncletopia | San Francisco | 3 | Stopwatch Beta","protocol":17,"map":"koth_lakeside_final","folder":"tf","game":"Team Fortress","app_id":440,"player_count":1,"max_players":24,"Bots":0,"server_type":"Dedicated","server_os":"Linux","password":true,"vac":true,"version":"7757534","steam_id":85568392924742824,"keywords":["cp","nocrits","nodmgspread","uncletopia"],"game_id":440,"stv_port":27036,"stv_name":"Uncletopia | San Francisco | 3 | Stopwatch Beta | STV","players":[{"user_id":3,"name":"Wounded","steam_id":76561199440954924,"connected_time":171000000000,"state":"active","ping":112}]},{"server_id":20,"name":"Uncletopia | San Francisco | 4 | Community","name_short":"sfo-4","host":"sfo-1.us.uncletopia.com","port":27045,"enabled":true,"region":"us-west","cc":"us","latitude":37.77397,"longitude":-122.4313,"reserved":0,"last_update":"0001-01-01T00:00:00Z","name_a2s":"Uncletopia | San Francisco | 4 | Community","protocol":17,"map":"workshop/cp_kalinka_rc6a.ugc1272700588","folder":"tf","game":"Team Fortress","app_id":440,"player_count":0,"max_players":24,"Bots":0,"server_type":"Dedicated","server_os":"Linux","password":true,"vac":true,"version":"7757534","steam_id":85568392924742826,"keywords":["cp","nocrits","nodmgspread","uncletopia"],"game_id":440,"stv_port":27046,"stv_name":"Uncletopia | San Francisco | 4 | Community | STV","players":null},{"server_id":141,"name":"Uncletopia | Sydney | 1 | All Maps","name_short":"syd-1","host":"syd-1.au.uncletopia.com","port":27015,"enabled":true,"region":"au","cc":"au","latitude":-33.865143,"longitude":151.2099,"reserved":0,"last_update":"0001-01-01T00:00:00Z","name_a2s":"Uncletopia | Sydney | 1 | All Maps","protocol":17,"map":"koth_viaduct","folder":"tf","game":"Team Fortress","app_id":440,"player_count":0,"max_players":24,"Bots":0,"server_type":"Dedicated","server_os":"Linux","password":true,"vac":true,"version":"7757534","steam_id":85568392924470001,"keywords":["cp","nocrits","nodmgspread","uncletopia"],"game_id":440,"stv_port":27016,"stv_name":"Uncletopia | Sydney | 1 | All Maps | STV","players":null},{"server_id":123,"name":"Uncletopia | Sydney | 2 | All Maps","name_short":"syd-2","host":"syd-1.au.uncletopia.com","port":27025,"enabled":true,"region":"au","cc":"au","latitude":-33.865143,"longitude":151.2099,"reserved":0,"last_update":"0001-01-01T00:00:00Z","name_a2s":"Uncletopia | Sydney | 2 | All Maps","protocol":17,"map":"cp_process_final","folder":"tf","game":"Team Fortress","app_id":440,"player_count":0,"max_players":24,"Bots":0,"server_type":"Dedicated","server_os":"Linux","password":true,"vac":true,"version":"7757534","steam_id":85568392924470002,"keywords":["cp","nocrits","nodmgspread","uncletopia"],"game_id":440,"stv_port":27026,"stv_name":"Uncletopia | Sydney | 2 | All Maps | STV","players":null},{"server_id":395,"name":"Uncletopia | Sydney | 3 | All Maps","name_short":"syd-3","host":"syd-1.au.uncletopia.com","port":27035,"enabled":true,"region":"au","cc":"au","latitude":-33.865143,"longitude":151.2099,"reserved":0,"last_update":"0001-01-01T00:00:00Z","name_a2s":"Uncletopia | Sydney | 3 | All Maps","protocol":17,"map":"pl_swiftwater_final1","folder":"tf","game":"Team Fortress","app_id":440,"player_count":0,"max_players":24,"Bots":0,"server_type":"Dedicated","server_os":"Linux","password":true,"vac":true,"version":"7757534","steam_id":85568392925194467,"keywords":["nocrits","nodmgspread","payload","uncletopia"],"game_id":440,"stv_port":27036,"stv_name":"Uncletopia | Sydney | 3 | All Maps | STV","players":null},{"server_id":396,"name":"Uncletopia | Sydney | 4 | All Maps","name_short":"syd-4","host":"syd-1.au.uncletopia.com","port":27045,"enabled":true,"region":"au","cc":"au","latitude":-33.865143,"longitude":151.2099,"reserved":0,"last_update":"0001-01-01T00:00:00Z","name_a2s":"Uncletopia | Sydney | 4 | All Maps","protocol":17,"map":"koth_highpass","folder":"tf","game":"Team Fortress","app_id":440,"player_count":0,"max_players":24,"Bots":0,"server_type":"Dedicated","server_os":"Linux","password":true,"vac":true,"version":"7757534","steam_id":85568392925397958,"keywords":["cp","nocrits","nodmgspread","uncletopia"],"game_id":440,"stv_port":27046,"stv_name":"Uncletopia | Sydney | 4 | All Maps | STV","players":null},{"server_id":58,"name":"Uncletopia | Sydney | 5 | Stopwatch Beta","name_short":"syd-5","host":"syd-1.au.uncletopia.com","port":27055,"enabled":true,"region":"au","cc":"au","latitude":-33.865143,"longitude":151.2099,"reserved":0,"last_update":"0001-01-01T00:00:00Z","name_a2s":"Uncletopia | Sydney | 5 | Stopwatch Beta","protocol":17,"map":"koth_cascade","folder":"tf","game":"Team Fortress","app_id":440,"player_count":0,"max_players":24,"Bots":0,"server_type":"Dedicated","server_os":"Linux","password":true,"vac":true,"version":"7757534","steam_id":85568392925397959,"keywords":["cp","nocrits","nodmgspread","uncletopia"],"game_id":440,"stv_port":27056,"stv_name":"Uncletopia | Sydney | 5 | Stopwatch Beta | STV","players":null},{"server_id":59,"name":"Uncletopia | Sydney | 6 | Community","name_short":"syd-6","host":"syd-1.au.uncletopia.com","port":27065,"enabled":true,"region":"au","cc":"au","latitude":-33.865143,"longitude":151.2099,"reserved":0,"last_update":"0001-01-01T00:00:00Z","name_a2s":"Uncletopia | Sydney | 6 | Community","protocol":17,"map":"cp_snakewater_final1","folder":"tf","game":"Team Fortress","app_id":440,"player_count":0,"max_players":24,"Bots":0,"server_type":"Dedicated","server_os":"Linux","password":true,"vac":true,"version":"7757534","steam_id":85568392925397960,"keywords":["cp","nocrits","nodmgspread","uncletopia"],"game_id":440,"stv_port":27066,"stv_name":"Uncletopia | Sydney | 6 | Community | STV","players":null},{"server_id":49,"name":"Uncletopia | Warsaw | 1 | All Maps","name_short":"waw-1","host":"waw-1.pl.uncletopia.com","port":27015,"enabled":true,"region":"eu","cc":"pl","latitude":52.2297,"longitude":21.017532,"reserved":0,"last_update":"0001-01-01T00:00:00Z","name_a2s":"","protocol":0,"map":"","folder":"","game":"","app_id":0,"player_count":0,"max_players":0,"Bots":0,"server_type":"","server_os":"","password":false,"vac":false,"version":"","steam_id":0,"keywords":null,"game_id":0,"stv_port":0,"stv_name":"","players":null},{"server_id":50,"name":"Uncletopia | Warsaw | 2 | All Maps","name_short":"waw-2","host":"waw-1.pl.uncletopia.com","port":27025,"enabled":true,"region":"eu","cc":"pl","latitude":52.2297,"longitude":21.017532,"reserved":0,"last_update":"0001-01-01T00:00:00Z","name_a2s":"Uncletopia | Warsaw | 2 | All Maps","protocol":17,"map":"koth_viaduct","folder":"tf","game":"Team Fortress","app_id":440,"player_count":0,"max_players":24,"Bots":0,"server_type":"Dedicated","server_os":"Linux","password":true,"vac":true,"version":"7757534","steam_id":85568392925397851,"keywords":["cp","nocrits","nodmgspread","uncletopia"],"game_id":440,"stv_port":27026,"stv_name":"Uncletopia | Warsaw | 2 | All Maps | STV","players":null},{"server_id":51,"name":"Uncletopia | Warsaw | 3 | All Maps","name_short":"waw-3","host":"waw-1.pl.uncletopia.com","port":27035,"enabled":true,"region":"eu","cc":"pl","latitude":52.2297,"longitude":21.017532,"reserved":0,"last_update":"0001-01-01T00:00:00Z","name_a2s":"Uncletopia | Warsaw | 3 | All Maps","protocol":17,"map":"pl_badwater","folder":"tf","game":"Team Fortress","app_id":440,"player_count":0,"max_players":24,"Bots":0,"server_type":"Dedicated","server_os":"Linux","password":true,"vac":true,"version":"7757534","steam_id":85568392925397852,"keywords":["nocrits","nodmgspread","payload","uncletopia"],"game_id":440,"stv_port":27036,"stv_name":"Uncletopia | Warsaw | 3 | All Maps | STV","players":null},{"server_id":52,"name":"Uncletopia | Warsaw | 4 | All Maps","name_short":"waw-4","host":"waw-1.pl.uncletopia.com","port":27045,"enabled":true,"region":"eu","cc":"pl","latitude":52.2297,"longitude":21.017532,"reserved":0,"last_update":"0001-01-01T00:00:00Z","name_a2s":"Uncletopia | Warsaw | 4 | All Maps","protocol":17,"map":"koth_lakeside_final","folder":"tf","game":"Team Fortress","app_id":440,"player_count":0,"max_players":24,"Bots":0,"server_type":"Dedicated","server_os":"Linux","password":true,"vac":true,"version":"7757534","steam_id":85568392925397853,"keywords":["cp","nocrits","nodmgspread","uncletopia"],"game_id":440,"stv_port":27046,"stv_name":"Uncletopia | Warsaw | 4 | All Maps | STV","players":null},{"server_id":53,"name":"Uncletopia | Warsaw | 5 | Stopwatch Beta","name_short":"waw-5","host":"waw-1.pl.uncletopia.com","port":27055,"enabled":true,"region":"eu","cc":"pl","latitude":52.2297,"longitude":21.017532,"reserved":0,"last_update":"0001-01-01T00:00:00Z","name_a2s":"Uncletopia | Warsaw | 5 | Stopwatch Beta","protocol":17,"map":"pl_borneo","folder":"tf","game":"Team Fortress","app_id":440,"player_count":0,"max_players":24,"Bots":0,"server_type":"Dedicated","server_os":"Linux","password":true,"vac":true,"version":"7757534","steam_id":85568392925397854,"keywords":["nocrits","nodmgspread","payload","uncletopia"],"game_id":440,"stv_port":27056,"stv_name":"Uncletopia | Warsaw | 5 | Stopwatch Beta | STV","players":null},{"server_id":54,"name":"Uncletopia | Warsaw | 6 | Community","name_short":"waw-6","host":"waw-1.pl.uncletopia.com","port":27065,"enabled":true,"region":"eu","cc":"pl","latitude":52.2297,"longitude":21.017532,"reserved":0,"last_update":"0001-01-01T00:00:00Z","name_a2s":"Uncletopia | Warsaw | 6 | Community","protocol":17,"map":"koth_lakeside_final","folder":"tf","game":"Team Fortress","app_id":440,"player_count":0,"max_players":24,"Bots":0,"server_type":"Dedicated","server_os":"Linux","password":true,"vac":true,"version":"7757534","steam_id":85568392925397856,"keywords":["cp","nocrits","nodmgspread","uncletopia"],"game_id":440,"stv_port":27066,"stv_name":"Uncletopia | Warsaw | 6 | Community | STV","players":null}]}