{"status":true,"message":"","result":[{"server_id":9,"name":"Uncletopia | Atlanta | 1 | All Maps","name_short":"atl-1","host":"atl-1.us.uncletopia.com","port":27015,"enabled":true,"region":"us-east","cc":"us","latitude":33.753746,"longitude":-84.38633,"reserved":0,"last_update":"0001-01-01T00:00:00Z","name_a2s":"Uncletopia | Atlanta | 1 | All Maps","protocol":17,"map":"pl_upward","folder":"tf","game":"Team Fortress","app_id":440,"player_count":24,"max_players":24,"Bots":0,"server_type":"Dedicated","server_os":"Linux","password":true,"vac":true,"version":"7961495","steam_id":85568392924469982,"keywords":["nocrits","nodmgspread","payload","uncletopia"],"game_id":440,"stv_port":27016,"stv_name":"Uncletopia | Atlanta | 1 | All Maps | STV","players":null},{"server_id":104,"name":"Uncletopia | Atlanta | 2 | All Maps","name_short":"atl-2","host":"atl-1.us.uncletopia.com","port":27025,"enabled":true,"region":"us-east","cc":"us","latitude":33.753746,"longitude":-84.38633,"reserved":0,"last_update":"0001-01-01T00:00:00Z","name_a2s":"Uncletopia | Atlanta | 2 | All Maps","protocol":17,"map":"koth_cascade","folder":"tf","game":"Team Fortress","app_id":440,"player_count":0,"max_players":24,"Bots":0,"server_type":"Dedicated","server_os":"Linux","password":true,"vac":true,"version":"7961495","steam_id":85568392924469983,"keywords":["cp","nocrits","nodmgspread","uncletopia"],"game_id":440,"stv_port":27026,"stv_name":"Uncletopia | Atlanta | 2 | All Maps | STV","players":null},{"server_id":400,"name":"Uncletopia | Atlanta | 3 | Stopwatch","name_short":"atl-3","host":"atl-1.us.uncletopia.com","port":27035,"enabled":true,"region":"us-east","cc":"us","latitude":33.753746,"longitude":-84.38633,"reserved":0,"last_update":"0001-01-01T00:00:00Z","name_a2s":"Uncletopia | Atlanta | 3 | Stopwatch","protocol":17,"map":"koth_clearcut_b15","folder":"tf","game":"Team Fortress","app_id":440,"player_count":0,"max_players":24,"Bots":0,"server_type":"Dedicated","server_os":"Linux","password":true,"vac":true,"version":"7961495","steam_id":85568392924515187,"keywords":["cp","nocrits","nodmgspread","uncletopia"],"game_id":440,"stv_port":27036,"stv_name":"Uncletopia | Atlanta | 3 | Stopwatch | STV","players":null},{"server_id":401,"name":"Uncletopia | Atlanta | 4 | Community","name_short":"atl-4","host":"atl-1.us.uncletopia.com","port":27045,"enabled":true,"region":"us-east","cc":"us","latitude":33.753746,"longitude":-84.38633,"reserved":0,"last_update":"0001-01-01T00:00:00Z","name_a2s":"Uncletopia | Atlanta | 4 | Community","protocol":17,"map":"koth_trenchfoot_b1a","folder":"tf","game":"Team Fortress","app_id":440,"player_count":0,"max_players":24,"Bots":0,"server_type":"Dedicated","server_os":"Linux","password":true,"vac":true,"version":"7961495","steam_id":85568392924515188,"keywords":["cp","nocrits","nodmgspread","uncletopia"],"game_id":440,"stv_port":27046,"stv_name":"Uncletopia | Atlanta | 4 | Community | STV","players":null},{"server_id":2,"name":"Uncletopia | Chicago | 1 | All Maps","name_short":"chi-1","host":"chi-1.us.uncletopia.com","port":27015,"enabled":true,"region":"us-central","cc":"us","latitude":41.881832,"longitude":-87.62318,"reserved":0,"last_update":"0001-01-01T00:00:00Z","name_a2s":"Uncletopia | Chicago | 1 | All Maps","protocol":17,"map":"pl_snowycoast","folder":"tf","game":"Team Fortress","app_id":440,"player_count":23,"max_players":24,"Bots":0,"server_type":"Dedicated","server_os":"Linux","password":true,"vac":true,"version":"7961495","steam_id":85568392924469984,"keywords":["nocrits","nodmgspread","payload","uncletopia"],"game_id":440,"stv_port":27016,"stv_name":"Uncletopia | Chicago | 1 | All Maps | STV","players":[{"user_id":13,"name":"Forehead","steam_id":76561198124151399,"connected_time":6231000000000,"state":"active","ping":70},{"user_id":102,"name":"gIBBY","steam_id":76561198080099598,"connected_time":482000000000,"state":"active","ping":50},{"user_id":104,"name":"kermitcreeper(ZAZA)","steam_id":76561199222829972,"connected_time":139000000000,"state":"active","ping":56},{"user_id":74,"name":"Raz","steam_id":76561198879521002,"connected_time":1807000000000,"state":"active","ping":64},{"user_id":70,"name":"debin","steam_id":76561198070711217,"connected_time":1841000000000,"state":"active","ping":50},{"user_id":80,"name":"Fluffeline","steam_id":76561198352909489,"connected_time":1724000000000,"state":"active","ping":146},{"user_id":107,"name":"Octto","steam_id":76561198070124921,"connected_time":71000000000,"state":"active","ping":62},{"user_id":76,"name":"uweh","steam_id":76561198113707813,"connected_time":1799000000000,"state":"active","ping":78},{"user_id":101,"name":"KATSURB","steam_id":76561199172118456,"connected_time":584000000000,"state":"active","ping":57},{"user_id":68,"name":"cool swag","steam_id":76561198312058142,"connected_time":2836000000000,"state":"active","ping":75},{"user_id":90,"name":"Ⱨï₥","steam_id":76561198056871257,"connected_time":988000000000,"state":"active","ping":60},{"user_id":106,"name":"mistib7","steam_id":76561198219911404,"connected_time":87000000000,"state":"active","ping":75},{"user_id":95,"name":"krueger","steam_id":76561198268654031,"connected_time":674000000000,"state":"active","ping":55},{"user_id":93,"name":"Orange Triangle","steam_id":76561198320498182,"connected_time":782000000000,"state":"active","ping":55},{"user_id":88,"name":"Ceige LFT","steam_id":76561198068538473,"connected_time":1041000000000,"state":"active","ping":76},{"user_id":100,"name":"6t26j","steam_id":76561198278282836,"connected_time":598000000000,"state":"active","ping":50},{"user_id":67,"name":"I came (up)","steam_id":76561198057745131,"connected_time":2910000000000,"state":"active","ping":50},{"user_id":103,"name":"bruiseraaron","steam_id":76561198020092380,"connected_time":183000000000,"state":"active","ping":50},{"user_id":92,"name":"Orange Joe","steam_id":76561198082208637,"connected_time":878000000000,"state":"active","ping":85},{"user_id":98,"name":"dipp","steam_id":76561198395577807,"connected_time":616000000000,"state":"active","ping":71},{"user_id":60,"name":"Mango","steam_id":76561198156746320,"connected_time":3203000000000,"state":"active","ping":47},{"user_id":39,"name":"IanTheAwsm","steam_id":76561198093031738,"connected_time":4934000000000,"state":"active","ping":49},{"user_id":72,"name":"Goose","steam_id":76561198328998533,"connected_time":1837000000000,"state":"active","ping":50}]},{"server_id":106,"name":"Uncletopia | Chicago | 2 | All Maps","name_short":"chi-2","host":"chi-1.us.uncletopia.com","port":27025,"enabled":true,"region":"us-central","cc":"us","latitude":41.881832,"longitude":-87.62318,"reserved":0,"last_update":"0001-01-01T00:00:00Z","name_a2s":"Uncletopia | Chicago | 2 | All Maps","protocol":17,"map":"pl_snowycoast","folder":"tf","game":"Team Fortress","app_id":440,"player_count":24,"max_players":24,"Bots":0,"server_type":"Dedicated","server_os":"Linux","password":true,"vac":true,"version":"7961495","steam_id":85568392924469985,"keywords":["nocrits","nodmgspread","payload","uncletopia"],"game_id":440,"stv_port":27026,"stv_name":"Uncletopia | Chicago | 2 | All Maps | STV","players":[{"user_id":285,"name":"Þú lýsir upp allan geiminn","steam_id":76561197999657118,"connected_time":3329000000000,"state":"active","ping":84},{"user_id":311,"name":"otcu","steam_id":76561198339644583,"connected_time":1535000000000,"state":"active","ping":55},{"user_id":341,"name":"shnowshner","steam_id":76561198066450438,"connected_time":145000000000,"state":"active","ping":75},{"user_id":299,"name":"Doctor_Redstone","steam_id":76561198061947161,"connected_time":1817000000000,"state":"active","ping":67},{"user_id":300,"name":"Visual Depression","steam_id":76561198825918366,"connected_time":1804000000000,"state":"active","ping":100},{"user_id":244,"name":"[ミラージュ] Mirage","steam_id":76561198205500300,"connected_time":7597000000000,"state":"active","ping":65},{"user_id":321,"name":"William Wallace","steam_id":76561199343316814,"connected_time":732000000000,"state":"active","ping":73},{"user_id":325,"name":"Ghoulenoir","steam_id":76561198074314573,"connected_time":687000000000,"state":"active","ping":47},{"user_id":343,"name":"thecal","steam_id":76561198307893384,"connected_time":105000000000,"state":"active","ping":49},{"user_id":337,"name":"Walmart Employee","steam_id":76561198840373909,"connected_time":208000000000,"state":"active","ping":100},{"user_id":318,"name":"Gaiduk","steam_id":76561198112323877,"connected_time":1016000000000,"state":"active","ping":74},{"user_id":319,"name":"SPIRE_FAN","steam_id":76561198001486573,"connected_time":855000000000,"state":"active","ping":71},{"user_id":324,"name":"the spy from team fortress 2","steam_id":76561198047797306,"connected_time":693000000000,"state":"active","ping":59},{"user_id":342,"name":"King","steam_id":76561198039763676,"connected_time":125000000000,"state":"active","ping":60},{"user_id":313,"name":"MR SKELTAL","steam_id":76561198031089598,"connected_time":1527000000000,"state":"active","ping":71},{"user_id":335,"name":"DivineBanana","steam_id":76561198026529731,"connected_time":310000000000,"state":"active","ping":91},{"user_id":340,"name":"div?","steam_id":76561198413930183,"connected_time":174000000000,"state":"active","ping":62},{"user_id":312,"name":"Pendrive","steam_id":76561199427354854,"connected_time":1535000000000,"state":"active","ping":167},{"user_id":327,"name":"GammaTheDynamo","steam_id":76561198855140905,"connected_time":636000000000,"state":"active","ping":77},{"user_id":328,"name":"Foolish Samurai","steam_id":76561198080887661,"connected_time":618000000000,"state":"active","ping":72},{"user_id":333,"name":"clover_pirate","steam_id":76561199165896684,"connected_time":471000000000,"state":"active","ping":79},{"user_id":331,"name":"Lucille_Bluth","steam_id":76561198206133916,"connected_time":515000000000,"state":"active","ping":76},{"user_id":332,"name":"Starziner","steam_id":76561198175936873,"connected_time":510000000000,"state":"active","ping":149},{"user_id":334,"name":"jrocBABY","steam_id":76561198094800773,"connected_time":392000000000,"state":"active","ping":85}]},{"server_id":402,"name":"Uncletopia | Chicago | 3 | All Maps","name_short":"chi-3","host":"chi-1.us.uncletopia.com","port":27035,"enabled":true,"region":"us-central","cc":"us","latitude":41.881832,"longitude":-87.62318,"reserved":0,"last_update":"0001-01-01T00:00:00Z","name_a2s":"Uncletopia | Chicago | 3 | All Maps","protocol":17,"map":"pl_frontier_final","folder":"tf","game":"Team Fortress","app_id":440,"player_count":0,"max_players":24,"Bots":0,"server_type":"Dedicated","server_os":"Linux","password":true,"vac":true,"version":"7961495","steam_id":85568392924515191,"keywords":["nocrits","nodmgspread","payload","uncletopia"],"game_id":440,"stv_port":27036,"stv_name":"Uncletopia | Chicago | 3 | All Maps | STV","players":null},{"server_id":403,"name":"Uncletopia | Chicago | 4 | All Maps","name_short":"chi-4","host":"chi-1.us.uncletopia.com","port":27045,"enabled":true,"region":"us-central","cc":"us","latitude":41.881832,"longitude":-87.62318,"reserved":0,"last_update":"0001-01-01T00:00:00Z","name_a2s":"Uncletopia | Chicago | 4 | All Maps","protocol":17,"map":"koth_cascade","folder":"tf","game":"Team Fortress","app_id":440,"player_count":0,"max_players":24,"Bots":0,"server_type":"Dedicated","server_os":"Linux","password":true,"vac":true,"version":"7961495","steam_id":85568392924515193,"keywords":["cp","nocrits","nodmgspread","uncletopia"],"game_id":440,"stv_port":27046,"stv_name":"Uncletopia | Chicago | 4 | All Maps | STV","players":null},{"server_id":36,"name":"Uncletopia | Chicago | 5 | All Maps","name_short":"chi-5","host":"chi-2.us.uncletopia.com","port":27015,"enabled":true,"region":"us-central","cc":"us","latitude":41.881832,"longitude":-87.62318,"reserved":0,"last_update":"0001-01-01T00:00:00Z","name_a2s":"Uncletopia | Chicago | 5 | All Maps","protocol":17,"map":"koth_viaduct","folder":"tf","game":"Team Fortress","app_id":440,"player_count":0,"max_players":24,"Bots":0,"server_type":"Dedicated","server_os":"Linux","password":true,"vac":true,"version":"7961495","steam_id":85568392924866362,"keywords":["cp","nocrits","nodmgspread","uncletopia"],"game_id":440,"stv_port":27016,"stv_name":"Uncletopia | Chicago | 5 | All Maps | STV","players":null},{"server_id":37,"name":"Uncletopia | Chicago | 6 | All Maps","name_short":"chi-6","host":"chi-2.us.uncletopia.com","port":27025,"enabled":true,"region":"us-central","cc":"us","latitude":41.881832,"longitude":-87.62318,"reserved":0,"last_update":"0001-01-01T00:00:00Z","name_a2s":"Uncletopia | Chicago | 6 | All Maps","protocol":17,"map":"cp_snakewater_final1","folder":"tf","game":"Team Fortress","app_id":440,"player_count":0,"max_players":24,"Bots":0,"server_type":"Dedicated","server_os":"Linux","password":true,"vac":true,"version":"7961495","steam_id":85568392924866363,"keywords":["cp","nocrits","nodmgspread","uncletopia"],"game_id":440,"stv_port":27026,"stv_name":"Uncletopia | Chicago | 6 | All Maps | STV","players":null},{"server_id":38,"name":"Uncletopia | Chicago | 7 | Stopwatch","name_short":"chi-7","host":"chi-2.us.uncletopia.com","port":27035,"enabled":true,"region":"us-central","cc":"us","latitude":41.881832,"longitude":-87.62318,"reserved":0,"last_update":"0001-01-01T00:00:00Z","name_a2s":"Uncletopia | Chicago | 7 | Stopwatch","protocol":17,"map":"pl_badwater","folder":"tf","game":"Team Fortress","app_id":440,"player_count":0,"max_players":24,"Bots":0,"server_type":"Dedicated","server_os":"Linux","password":true,"vac":true,"version":"7961495","steam_id":85568392924866364,"keywords":["nocrits","nodmgspread","payload","uncletopia"],"game_id":440,"stv_port":27036,"stv_name":"Uncletopia | Chicago | 7 | Stopwatch | STV","players":null},{"server_id":39,"name":"Uncletopia | Chicago | 8 | Community","name_short":"chi-8","host":"chi-2.us.uncletopia.com","port":27045,"enabled":true,"region":"us-central","cc":"us","latitude":41.881832,"longitude":-87.62318,"reserved":0,"last_update":"0001-01-01T00:00:00Z","name_a2s":"Uncletopia | Chicago | 8 | Community","protocol":17,"map":"pl_pier","folder":"tf","game":"Team Fortress","app_id":440,"player_count":0,"max_players":24,"Bots":0,"server_type":"Dedicated","server_os":"Linux","password":true,"vac":true,"version":"7961495","steam_id":85568392924866365,"keywords":["nocrits","nodmgspread","payload","uncletopia"],"game_id":440,"stv_port":27046,"stv_name":"Uncletopia | Chicago | 8 | Community | STV","players":null},{"server_id":8,"name":"Uncletopia | Dallas | 1 | All Maps","name_short":"dal-1","host":"dal-1.us.uncletopia.com","port":27015,"enabled":true,"region":"us-central","cc":"us","latitude":32.779167,"longitude":-96.80889,"reserved":0,"last_update":"0001-01-01T00:00:00Z","name_a2s":"Uncletopia | Dallas | 1 | All Maps","protocol":17,"map":"pl_snowycoast","folder":"tf","game":"Team Fortress","app_id":440,"player_count":24,"max_players":24,"Bots":0,"server_type":"Dedicated","server_os":"Linux","password":true,"vac":true,"version":"7961495","steam_id":85568392924469986,"keywords":["nocrits","nodmgspread","payload","uncletopia"],"game_id":440,"stv_port":27016,"stv_name":"Uncletopia | Dallas | 1 | All Maps | STV","players":[{"user_id":144,"name":"Serenue","steam_id":76561199040361250,"connected_time":590000000000,"state":"active","ping":104},{"user_id":145,"name":"Bobby","steam_id":76561198037803087,"connected_time":557000000000,"state":"active","ping":71},{"user_id":115,"name":"HeroOfTime","steam_id":76561199096218001,"connected_time":4547000000000,"state":"active","ping":82},{"user_id":133,"name":"Bostonstapler","steam_id":76561197996334971,"connected_time":2512000000000,"state":"active","ping":60},{"user_id":132,"name":"Borgir","steam_id":76561198325390265,"connected_time":2638000000000,"state":"active","ping":58},{"user_id":66,"name":"Gelliterate","steam_id":76561198107233070,"connected_time":7508000000000,"state":"active","ping":54},{"user_id":153,"name":"tydogzilla","steam_id":76561198054254518,"connected_time":331000000000,"state":"active","ping":107},{"user_id":86,"name":"Exetior","steam_id":76561198978688451,"connected_time":6425000000000,"state":"active","ping":73},{"user_id":146,"name":"TechnoBear2099","steam_id":76561198238863596,"connected_time":494000000000,"state":"active","ping":46},{"user_id":147,"name":"TheFunnySauce","steam_id":76561198174336057,"connected_time":454000000000,"state":"active","ping":104},{"user_id":148,"name":"Holp","steam_id":76561199019186848,"connected_time":430000000000,"state":"active","ping":91},{"user_id":19,"name":"Bippums","steam_id":76561198366406729,"connected_time":10142000000000,"state":"active","ping":88},{"user_id":143,"name":"mkl","steam_id":76561197986401685,"connected_time":663000000000,"state":"active","ping":60},{"user_id":21,"name":"woke moralist","steam_id":76561198301021031,"connected_time":10115000000000,"state":"active","ping":87},{"user_id":22,"name":"Doctor Bear ʕ •ᴥ•ʔ","steam_id":76561197968103161,"connected_time":10106000000000,"state":"active","ping":82},{"user_id":149,"name":"Artincendies","steam_id":76561198242373456,"connected_time":413000000000,"state":"active","ping":87},{"user_id":138,"name":"Major Woody","steam_id":76561198835541533,"connected_time":2014000000000,"state":"active","ping":59},{"user_id":109,"name":"Lock'd","steam_id":76561198170108230,"connected_time":5087000000000,"state":"active","ping":60},{"user_id":93,"name":"Gen-E","steam_id":76561199497800989,"connected_time":5870000000000,"state":"active","ping":95},{"user_id":154,"name":"Withered Bonnie (Real)","steam_id":76561198423310113,"connected_time":157000000000,"state":"active","ping":55},{"user_id":151,"name":"znunney","steam_id":76561199438501613,"connected_time":369000000000,"state":"active","ping":176},{"user_id":62,"name":"Zeek","steam_id":76561197987204351,"connected_time":8234000000000,"state":"active","ping":75},{"user_id":152,"name":"the keebler","steam_id":76561199486326945,"connected_time":362000000000,"state":"active","ping":82},{"user_id":142,"name":"Shalom","steam_id":76561198410005222,"connected_time":916000000000,"state":"active","ping":64}]},{"server_id":108,"name":"Uncletopia | Dallas | 2 | All Maps","name_short":"dal-2","host":"dal-1.us.uncletopia.com","port":27025,"enabled":true,"region":"us-central","cc":"us","latitude":32.779167,"longitude":-96.80889,"reserved":0,"last_update":"0001-01-01T00:00:00Z","name_a2s":"Uncletopia | Dallas | 2 | All Maps","protocol":17,"map":"cp_snakewater_final1","folder":"tf","game":"Team Fortress","app_id":440,"player_count":24,"max_players":24,"Bots":0,"server_type":"Dedicated","server_os":"Linux","password":true,"vac":true,"version":"7961495","steam_id":85568392924469988,"keywords":["cp","nocrits","nodmgspread","uncletopia"],"game_id":440,"stv_port":27026,"stv_name":"Uncletopia | Dallas | 2 | All Maps | STV","players":[{"user_id":312,"name":"xelph","steam_id":76561198443008847,"connected_time":4356000000000,"state":"active","ping":66},{"user_id":354,"name":"SanitysEdge","steam_id":76561198130732813,"connected_time":1309000000000,"state":"active","ping":74},{"user_id":350,"name":"Nylus","steam_id":76561198026623489,"connected_time":1820000000000,"state":"active","ping":175},{"user_id":324,"name":"BatMatt","steam_id":76561198045910433,"connected_time":3364000000000,"state":"active","ping":54},{"user_id":318,"name":"Aerobro","steam_id":76561198033530996,"connected_time":3650000000000,"state":"active","ping":67},{"user_id":333,"name":"Jubtice","steam_id":76561198995538396,"connected_time":3057000000000,"state":"active","ping":89},{"user_id":338,"name":"Neptune˖⁺｡˚⋆˙♥","steam_id":76561199054203198,"connected_time":2784000000000,"state":"active","ping":81},{"user_id":293,"name":"denzell05","steam_id":76561198086987061,"connected_time":5143000000000,"state":"active","ping":81},{"user_id":299,"name":"cyborgjo2147","steam_id":76561199184761439,"connected_time":4903000000000,"state":"active","ping":74},{"user_id":314,"name":"Elizabeth2021","steam_id":76561198075708489,"connected_time":4158000000000,"state":"active","ping":176},{"user_id":364,"name":"HeartsBoxcar","steam_id":76561197989851953,"connected_time":724000000000,"state":"active","ping":96},{"user_id":201,"name":"DragonJimmy","steam_id":76561198272966565,"connected_time":12970000000000,"state":"active","ping":75},{"user_id":360,"name":"NamelessBear™","steam_id":76561198014564006,"connected_time":999000000000,"state":"active","ping":97},{"user_id":340,"name":"basilberry","steam_id":76561198145275937,"connected_time":2642000000000,"state":"active","ping":67},{"user_id":327,"name":"JoanitoBananas","steam_id":76561198942953101,"connected_time":3296000000000,"state":"active","ping":85},{"user_id":366,"name":"Klip","steam_id":76561198316254429,"connected_time":670000000000,"state":"active","ping":61},{"user_id":351,"name":"HooHay","steam_id":76561199350870177,"connected_time":1772000000000,"state":"active","ping":81},{"user_id":362,"name":"Tots","steam_id":76561198027485007,"connected_time":909000000000,"state":"active","ping":60},{"user_id":263,"name":"Rob","steam_id":76561199187786660,"connected_time":7931000000000,"state":"active","ping":53},{"user_id":265,"name":"Unusual Scout","steam_id":76561198379574232,"connected_time":7865000000000,"state":"active","ping":60},{"user_id":348,"name":"ThatGamingKiwi","steam_id":76561199170522237,"connected_time":1991000000000,"state":"active","ping":110},{"user_id":363,"name":"GX thedittoguy","steam_id":76561199013129784,"connected_time":802000000000,"state":"active","ping":57},{"user_id":365,"name":"MrQuack","steam_id":76561198873049714,"connected_time":705000000000,"state":"active","ping":81},{"user_id":349,"name":"Ðιяту BɄβblє","steam_id":76561198382555244,"connected_time":1939000000000,"state":"active","ping":50}]},{"server_id":404,"name":"Uncletopia | Dallas | 3 | All Maps","name_short":"dal-3","host":"dal-1.us.uncletopia.com","port":27035,"enabled":true,"region":"us-central","cc":"us","latitude":32.779167,"longitude":-96.80889,"reserved":0,"last_update":"0001-01-01T00:00:00Z","name_a2s":"Uncletopia | Dallas | 3 | All Maps","protocol":17,"map":"cp_snakewater_final1","folder":"tf","game":"Team Fortress","app_id":440,"player_count":0,"max_players":24,"Bots":0,"server_type":"Dedicated","server_os":"Linux","password":true,"vac":true,"version":"7961495","steam_id":85568392924515219,"keywords":["cp","nocrits","nodmgspread","uncletopia"],"game_id":440,"stv_port":27036,"stv_name":"Uncletopia | Dallas | 3 | All Maps | STV","players":null},{"server_id":405,"name":"Uncletopia | Dallas | 4 | Community","name_short":"dal-4","host":"dal-1.us.uncletopia.com","port":27045,"enabled":true,"region":"us-central","cc":"us","latitude":32.779167,"longitude":-96.80889,"reserved":0,"last_update":"0001-01-01T00:00:00Z","name_a2s":"Uncletopia | Dallas | 4 | Community","protocol":17,"map":"pl_pier","folder":"tf","game":"Team Fortress","app_id":440,"player_count":0,"max_players":24,"Bots":0,"server_type":"Dedicated","server_os":"Linux","password":true,"vac":true,"version":"7961495","steam_id":85568392924515220,"keywords":["nocrits","nodmgspread","payload","uncletopia"],"game_id":440,"stv_port":27046,"stv_name":"Uncletopia | Dallas | 4 | Community | STV","players":null},{"server_id":5,"name":"Uncletopia | Frankfurt | 1 | All Maps","name_short":"frk-1","host":"frk-1.de.uncletopia.com","port":27015,"enabled":true,"region":"eu","cc":"de","latitude":50.110924,"longitude":8.682127,"reserved":0,"last_update":"0001-01-01T00:00:00Z","name_a2s":"Uncletopia | Frankfurt | 1 | All Maps","protocol":17,"map":"pl_frontier_final","folder":"tf","game":"Team Fortress","app_id":440,"player_count":24,"max_players":24,"Bots":0,"server_type":"Dedicated","server_os":"Linux","password":true,"vac":true,"version":"7961495","steam_id":85568392924469989,"keywords":["nocrits","nodmgspread","payload","uncletopia"],"game_id":440,"stv_port":27016,"stv_name":"Uncletopia | Frankfurt | 1 | All Maps | STV","players":[{"user_id":464,"name":"L.Ron Hoyabembe","steam_id":76561198009887251,"connected_time":14000000000,"state":"active","ping":73},{"user_id":428,"name":"♠Anti_BOI♠","steam_id":76561198274593231,"connected_time":2236000000000,"state":"active","ping":66},{"user_id":458,"name":"Brisket \u003c3","steam_id":76561198047291354,"connected_time":709000000000,"state":"active","ping":134},{"user_id":426,"name":"=OKB= P4NTH3R","steam_id":76561197999204603,"connected_time":2350000000000,"state":"active","ping":56},{"user_id":432,"name":"Wertix","steam_id":76561198284475045,"connected_time":2220000000000,"state":"active","ping":66},{"user_id":451,"name":"Safe Joint","steam_id":76561198017799687,"connected_time":1111000000000,"state":"active","ping":116},{"user_id":433,"name":"KESO","steam_id":76561198000391945,"connected_time":2183000000000,"state":"active","ping":59},{"user_id":449,"name":"Kleptofilen","steam_id":76561198003405040,"connected_time":1466000000000,"state":"active","ping":79},{"user_id":434,"name":"I am dating your grandmother","steam_id":76561198268159433,"connected_time":2165000000000,"state":"active","ping":100},{"user_id":412,"name":"Aven","steam_id":76561198974343597,"connected_time":3470000000000,"state":"active","ping":87},{"user_id":453,"name":"sloppy transgirl toppy","steam_id":76561198057092208,"connected_time":792000000000,"state":"active","ping":57},{"user_id":448,"name":"Sibola","steam_id":76561198065337688,"connected_time":1673000000000,"state":"active","ping":60},{"user_id":456,"name":"Drunk cunt","steam_id":76561198398438169,"connected_time":731000000000,"state":"active","ping":80},{"user_id":437,"name":"lyudmilakh","steam_id":76561198362779878,"connected_time":2091000000000,"state":"active","ping":84},{"user_id":438,"name":"Carry Krypl","steam_id":76561198136938121,"connected_time":2086000000000,"state":"active","ping":56},{"user_id":402,"name":"LeGerooo","steam_id":76561199110422160,"connected_time":4490000000000,"state":"active","ping":84},{"user_id":460,"name":"TheShadowScribe","steam_id":76561199037525945,"connected_time":408000000000,"state":"active","ping":97},{"user_id":445,"name":"Pffff imetrash","steam_id":76561198091017416,"connected_time":2029000000000,"state":"active","ping":77},{"user_id":440,"name":"padillacampos","steam_id":76561198161923970,"connected_time":2062000000000,"state":"active","ping":87},{"user_id":425,"name":"Unreliable, funny and dangerous","steam_id":76561198050709790,"connected_time":2430000000000,"state":"active","ping":103},{"user_id":462,"name":"The Green Uncle","steam_id":76561198257163156,"connected_time":181000000000,"state":"active","ping":61},{"user_id":463,"name":"the menace","steam_id":76561198129828715,"connected_time":40000000000,"state":"active","ping":57},{"user_id":443,"name":"zazuza","steam_id":76561198049820905,"connected_time":2033000000000,"state":"active","ping":62},{"user_id":444,"name":"Vonacht","steam_id":76561198016033944,"connected_time":2032000000000,"state":"active","ping":60}]},{"server_id":110,"name":"Uncletopia | Frankfurt | 2 | All Maps","name_short":"frk-2","host":"frk-1.de.uncletopia.com","port":27025,"enabled":true,"region":"eu","cc":"de","latitude":50.110924,"longitude":8.682127,"reserved":0,"last_update":"0001-01-01T00:00:00Z","name_a2s":"Uncletopia | Frankfurt | 2 | All Maps","protocol":17,"map":"pl_enclosure_final","folder":"tf","game":"Team Fortress","app_id":440,"player_count":24,"max_players":24,"Bots":0,"server_type":"Dedicated","server_os":"Linux","password":true,"vac":true,"version":"7961495","steam_id":85568392924469990,"keywords":["nocrits","nodmgspread","payload","uncletopia"],"game_id":440,"stv_port":27026,"stv_name":"Uncletopia | Frankfurt | 2 | All Maps | STV","players":[{"user_id":518,"name":"sareena","steam_id":76561198810194062,"connected_time":334000000000,"state":"active","ping":74},{"user_id":346,"name":"Ketich","steam_id":76561198021772703,"connected_time":10002000000000,"state":"active","ping":71},{"user_id":523,"name":"Maks","steam_id":76561198315278876,"connected_time":10000000000,"state":"spawning","ping":49},{"user_id":417,"name":"Lyncurion","steam_id":76561199260022725,"connected_time":5798000000000,"state":"active","ping":70},{"user_id":520,"name":"JC","steam_id":76561198029213352,"connected_time":134000000000,"state":"active","ping":57},{"user_id":489,"name":"tensh1","steam_id":76561198282471866,"connected_time":1997000000000,"state":"active","ping":104},{"user_id":507,"name":"Eid Spell","steam_id":76561198279952779,"connected_time":1391000000000,"state":"active","ping":159},{"user_id":490,"name":"hasky","steam_id":76561197986052798,"connected_time":1973000000000,"state":"active","ping":70},{"user_id":491,"name":"the_Qcumber","steam_id":76561199152515819,"connected_time":1962000000000,"state":"active","ping":72},{"user_id":501,"name":"benjaminmarkMLP","steam_id":76561198920361202,"connected_time":1840000000000,"state":"active","ping":144},{"user_id":482,"name":"else1","steam_id":76561197996558319,"connected_time":2445000000000,"state":"active","ping":75},{"user_id":519,"name":"EEEEEH","steam_id":76561198126717413,"connected_time":217000000000,"state":"active","ping":76},{"user_id":504,"name":"Jewix","steam_id":76561198063457899,"connected_time":1748000000000,"state":"active","ping":64},{"user_id":517,"name":"Mussolini","steam_id":76561198218384865,"connected_time":396000000000,"state":"active","ping":92},{"user_id":414,"name":"Solymr ibn Wali Barad","steam_id":76561198044008976,"connected_time":5868000000000,"state":"active","ping":70},{"user_id":460,"name":"Aspartus","steam_id":76561198101385763,"connected_time":3465000000000,"state":"active","ping":48},{"user_id":500,"name":"GlueTasty {she/her}","steam_id":76561199086480891,"connected_time":1901000000000,"state":"active","ping":72},{"user_id":492,"name":"Cosmic Gamer","steam_id":76561198027357981,"connected_time":1957000000000,"state":"active","ping":93},{"user_id":451,"name":"ABC555ABC666ABC555","steam_id":76561197995676953,"connected_time":3668000000000,"state":"active","ping":48},{"user_id":521,"name":"Will - no sound","steam_id":76561198173329977,"connected_time":133000000000,"state":"active","ping":66},{"user_id":513,"name":"SMOKIN HOT BABE POV","steam_id":76561198104896547,"connected_time":627000000000,"state":"active","ping":73},{"user_id":496,"name":"cuddle","steam_id":76561198805181599,"connected_time":1922000000000,"state":"active","ping":70},{"user_id":474,"name":"Aleknat","steam_id":76561198055379857,"connected_time":2691000000000,"state":"active","ping":67},{"user_id":522,"name":"void","steam_id":76561198035831433,"connected_time":92000000000,"state":"active","ping":73}]},{"server_id":308,"name":"Uncletopia | Frankfurt | 3 | All Maps","name_short":"frk-3","host":"frk-1.de.uncletopia.com","port":27035,"enabled":true,"region":"eu","cc":"de","latitude":50.110924,"longitude":8.682127,"reserved":0,"last_update":"0001-01-01T00:00:00Z","name_a2s":"Uncletopia | Frankfurt | 3 | All Maps","protocol":17,"map":"cp_mountainlab","folder":"tf","game":"Team Fortress","app_id":440,"player_count":24,"max_players":24,"Bots":0,"server_type":"Dedicated","server_os":"Linux","password":true,"vac":true,"version":"7961495","steam_id":85568392924504274,"keywords":["cp","nocrits","nodmgspread","uncletopia"],"game_id":440,"stv_port":27036,"stv_name":"Uncletopia | Frankfurt | 3 | All Maps | STV","players":[{"user_id":207,"name":"MISTER SUIIII","steam_id":76561198018330092,"connected_time":1835000000000,"state":"active","ping":70},{"user_id":186,"name":"beardeath","steam_id":76561199064688448,"connected_time":2554000000000,"state":"active","ping":87},{"user_id":214,"name":"Pudlich","steam_id":76561198300089671,"connected_time":1568000000000,"state":"active","ping":75},{"user_id":239,"name":"Fairchild Republic A-10 Thndrbl","steam_id":76561199038043360,"connected_time":84000000000,"state":"active","ping":153},{"user_id":234,"name":"ToniGAM3S","steam_id":76561198128605351,"connected_time":503000000000,"state":"active","ping":62},{"user_id":166,"name":"Mirra","steam_id":76561198076597292,"connected_time":3731000000000,"state":"active","ping":69},{"user_id":227,"name":"sevius","steam_id":76561199275250303,"connected_time":1223000000000,"state":"active","ping":71},{"user_id":187,"name":"ElTamagoshi","steam_id":76561198419143622,"connected_time":2553000000000,"state":"active","ping":90},{"user_id":230,"name":"hhhhhh","steam_id":76561198031982574,"connected_time":1078000000000,"state":"active","ping":50},{"user_id":228,"name":"Accwith12chr","steam_id":76561198311593297,"connected_time":1211000000000,"state":"active","ping":84},{"user_id":217,"name":"MEIXO","steam_id":76561199401401551,"connected_time":1477000000000,"state":"active","ping":72},{"user_id":218,"name":"Archie","steam_id":76561198073498063,"connected_time":1465000000000,"state":"active","ping":55},{"user_id":219,"name":"mr.Man","steam_id":76561199069774176,"connected_time":1461000000000,"state":"active","ping":59},{"user_id":225,"name":"Archive","steam_id":76561198071255385,"connected_time":1373000000000,"state":"active","ping":94},{"user_id":233,"name":"Fiurius","steam_id":76561198151910950,"connected_time":987000000000,"state":"active","ping":64},{"user_id":232,"name":"Favi","steam_id":76561198013236935,"connected_time":1009000000000,"state":"active","ping":62},{"user_id":199,"name":"corralled","steam_id":76561198028648627,"connected_time":2240000000000,"state":"active","ping":69},{"user_id":195,"name":"GMsU | Rebikas","steam_id":76561198077053764,"connected_time":2358000000000,"state":"active","ping":44},{"user_id":235,"name":"TF2 Pro","steam_id":76561198042225094,"connected_time":500000000000,"state":"active","ping":348},{"user_id":197,"name":"Jägermann","steam_id":76561198048506715,"connected_time":2327000000000,"state":"active","ping":81},{"user_id":226,"name":"Gamlader","steam_id":76561198306177608,"connected_time":1275000000000,"state":"active","ping":75},{"user_id":238,"name":"Average Chinese Man","steam_id":76561199076883472,"connected_time":181000000000,"state":"active","ping":91},{"user_id":237,"name":"Sorry","steam_id":76561198040722720,"connected_time":414000000000,"state":"active","ping":144},{"user_id":231,"name":"Lucan","steam_id":76561198219195135,"connected_time":1025000000000,"state":"active","ping":51}]},{"server_id":309,"name":"Uncletopia | Frankfurt | 4 | All Maps","name_short":"frk-4","host":"frk-1.de.uncletopia.com","port":27045,"enabled":true,"region":"eu","cc":"de","latitude":50.110924,"longitude":8.682127,"reserved":0,"last_update":"0001-01-01T00:00:00Z","name_a2s":"Uncletopia | Frankfurt | 4 | All Maps","protocol":17,"map":"pl_badwater","folder":"tf","game":"Team Fortress","app_id":440,"player_count":24,"max_players":24,"Bots":0,"server_type":"Dedicated","server_os":"Linux","password":true,"vac":true,"version":"7961495","steam_id":85568392924504275,"keywords":["nocrits","nodmgspread","payload","uncletopia"],"game_id":440,"stv_port":27046,"stv_name":"Uncletopia | Frankfurt | 4 | All Maps | STV","players":[{"user_id":276,"name":"Crasher0711","steam_id":76561198272180359,"connected_time":788000000000,"state":"active","ping":45},{"user_id":278,"name":"Kamikrazy","steam_id":76561198044254918,"connected_time":526000000000,"state":"active","ping":70},{"user_id":269,"name":"Storm's Foreshadow","steam_id":76561198098462526,"connected_time":1076000000000,"state":"active","ping":62},{"user_id":248,"name":"Grimm","steam_id":76561198044684227,"connected_time":2992000000000,"state":"active","ping":68},{"user_id":221,"name":"Tohtori gerhard (official)","steam_id":76561198835081622,"connected_time":3878000000000,"state":"active","ping":105},{"user_id":264,"name":"Kol Engigfikod","steam_id":76561199115261187,"connected_time":1243000000000,"state":"active","ping":89},{"user_id":256,"name":"☭King☭","steam_id":76561199214677088,"connected_time":2060000000000,"state":"active","ping":73},{"user_id":227,"name":"I-Wolf","steam_id":76561199100512277,"connected_time":3602000000000,"state":"active","ping":61},{"user_id":271,"name":"ouchie wouchies","steam_id":76561198105443986,"connected_time":1038000000000,"state":"active","ping":80},{"user_id":266,"name":"Akisян","steam_id":76561198078706435,"connected_time":1138000000000,"state":"active","ping":66},{"user_id":267,"name":"Dapper Chap","steam_id":76561198083892511,"connected_time":1099000000000,"state":"active","ping":88},{"user_id":176,"name":"MakSok","steam_id":76561198050889367,"connected_time":6726000000000,"state":"active","ping":132},{"user_id":209,"name":"DwarfInYou","steam_id":76561198966341795,"connected_time":4543000000000,"state":"active","ping":53},{"user_id":273,"name":"GigaСhad Pyro","steam_id":76561198140742485,"connected_time":1008000000000,"state":"active","ping":104},{"user_id":274,"name":"Birch","steam_id":76561197998712822,"connected_time":996000000000,"state":"active","ping":45},{"user_id":259,"name":"Der Herr Doktor","steam_id":76561198119476089,"connected_time":1887000000000,"state":"active","ping":58},{"user_id":284,"name":"MrClyde","steam_id":76561198132627420,"connected_time":305000000000,"state":"active","ping":62},{"user_id":286,"name":"Bajas","steam_id":76561198179339326,"connected_time":204000000000,"state":"active","ping":89},{"user_id":243,"name":"sokige","steam_id":76561198167112371,"connected_time":3117000000000,"state":"active","ping":90},{"user_id":282,"name":"Solid","steam_id":76561198357049292,"connected_time":338000000000,"state":"active","ping":81},{"user_id":252,"name":"Arperen","steam_id":76561198205024167,"connected_time":2280000000000,"state":"active","ping":53},{"user_id":254,"name":"2spooky4me","steam_id":76561198043211244,"connected_time":2271000000000,"state":"active","ping":60},{"user_id":263,"name":"PROFILE NAME","steam_id":76561198180056982,"connected_time":1663000000000,"state":"active","ping":71},{"user_id":280,"name":"Mülleimer","steam_id":76561198971922538,"connected_time":520000000000,"state":"active","ping":70}]},{"server_id":310,"name":"Uncletopia | Frankfurt | 5 | All Maps","name_short":"frk-5","host":"frk-1.de.uncletopia.com","port":27055,"enabled":true,"region":"eu","cc":"de","latitude":50.110924,"longitude":8.682127,"reserved":0,"last_update":"0001-01-01T00:00:00Z","name_a2s":"Uncletopia | Frankfurt | 5 | All Maps","protocol":17,"map":"pl_snowycoast","folder":"tf","game":"Team Fortress","app_id":440,"player_count":4,"max_players":24,"Bots":0,"server_type":"Dedicated","server_os":"Linux","password":true,"vac":true,"version":"7961495","steam_id":85568392924504277,"keywords":["nocrits","nodmgspread","payload","uncletopia"],"game_id":440,"stv_port":27056,"stv_name":"Uncletopia | Frankfurt | 5 | All Maps | STV","players":[{"user_id":20,"name":"Concorde","steam_id":76561199141714627,"connected_time":662000000000,"state":"active","ping":77},{"user_id":21,"name":"GREEP","steam_id":76561199443547191,"connected_time":565000000000,"state":"active","ping":91},{"user_id":23,"name":"Ben Dover","steam_id":76561199213629970,"connected_time":160000000000,"state":"active","ping":93},{"user_id":24,"name":"SaSSolino","steam_id":76561198011308018,"connected_time":134000000000,"state":"active","ping":45}]},{"server_id":311,"name":"Uncletopia | Frankfurt | 6 | All Maps","name_short":"frk-6","host":"frk-1.de.uncletopia.com","port":27065,"enabled":true,"region":"eu","cc":"de","latitude":50.110924,"longitude":8.682127,"reserved":0,"last_update":"0001-01-01T00:00:00Z","name_a2s":"Uncletopia | Frankfurt | 6 | All Maps","protocol":17,"map":"cp_altitude","folder":"tf","game":"Team Fortress","app_id":440,"player_count":24,"max_players":24,"Bots":0,"server_type":"Dedicated","server_os":"Linux","password":true,"vac":true,"version":"7961495","steam_id":85568392924504278,"keywords":["cp","nocrits","nodmgspread","uncletopia"],"game_id":440,"stv_port":27066,"stv_name":"Uncletopia | Frankfurt | 6 | All Maps | STV","players":[{"user_id":224,"name":"Danger_665","steam_id":76561199075064273,"connected_time":1492000000000,"state":"active","ping":116},{"user_id":213,"name":"SUU#7344","steam_id":76561198343018975,"connected_time":2142000000000,"state":"active","ping":83},{"user_id":230,"name":"shr1mple","steam_id":76561198173537027,"connected_time":954000000000,"state":"active","ping":44},{"user_id":196,"name":"dash.","steam_id":76561198084796149,"connected_time":3349000000000,"state":"active","ping":50},{"user_id":197,"name":"jcb.f.smith","steam_id":76561199491964000,"connected_time":3332000000000,"state":"active","ping":66},{"user_id":209,"name":"Ḷ̴̂ǫ̸̰̒̿s̴̩̫̉͝t\ufffd","steam_id":76561198102415153,"connected_time":2397000000000,"state":"active","ping":141},{"user_id":185,"name":"Lynx","steam_id":76561199274008207,"connected_time":4147000000000,"state":"active","ping":72},{"user_id":233,"name":"Gibb0ne-Bri0s0","steam_id":76561199289898291,"connected_time":522000000000,"state":"active","ping":50},{"user_id":234,"name":"Polesn","steam_id":76561198209583116,"connected_time":473000000000,"state":"active","ping":63},{"user_id":214,"name":"Spetse","steam_id":76561197990649972,"connected_time":2125000000000,"state":"active","ping":91},{"user_id":212,"name":"Deckard","steam_id":76561198004704647,"connected_time":2244000000000,"state":"active","ping":75},{"user_id":225,"name":"owo","steam_id":76561198158209651,"connected_time":1425000000000,"state":"active","ping":77},{"user_id":226,"name":"Musicano","steam_id":76561198114541088,"connected_time":1327000000000,"state":"active","ping":86},{"user_id":191,"name":"JaneDoe","steam_id":76561198067081506,"connected_time":3583000000000,"state":"active","ping":96},{"user_id":192,"name":"chair 2.0","steam_id":76561199233470150,"connected_time":3577000000000,"state":"active","ping":41},{"user_id":203,"name":"Yobopan","steam_id":76561198088064860,"connected_time":3280000000000,"state":"active","ping":67},{"user_id":227,"name":"Kirby2Rosy","steam_id":76561198013115723,"connected_time":1191000000000,"state":"active","ping":72},{"user_id":150,"name":"SuntanPikachu","steam_id":76561198121242476,"connected_time":6683000000000,"state":"active","ping":69},{"user_id":200,"name":"Daan77","steam_id":76561198129940468,"connected_time":3310000000000,"state":"active","ping":74},{"user_id":201,"name":"Der ewige Boomer","steam_id":76561198254812703,"connected_time":3309000000000,"state":"active","ping":67},{"user_id":231,"name":"JepCabestany","steam_id":76561198123812578,"connected_time":927000000000,"state":"active","ping":96},{"user_id":228,"name":"Qwerty","steam_id":76561198023525894,"connected_time":1181000000000,"state":"active","ping":84},{"user_id":236,"name":"The man","steam_id":76561198342065102,"connected_time":344000000000,"state":"active","ping":60},{"user_id":163,"name":"Irbynx","steam_id":76561197980421195,"connected_time":5565000000000,"state":"active","ping":75}]},{"server_id":23,"name":"Uncletopia | Frankfurt | 7 | Stopwatch","name_short":"frk-7","host":"frk-1.de.uncletopia.com","port":27075,"enabled":true,"region":"eu","cc":"de","latitude":50.110924,"longitude":8.682127,"reserved":0,"last_update":"0001-01-01T00:00:00Z","name_a2s":"Uncletopia | Frankfurt | 7 | Stopwatch","protocol":17,"map":"workshop/pl_barnblitz_pro7.ugc582280235","folder":"tf","game":"Team Fortress","app_id":440,"player_count":0,"max_players":24,"Bots":0,"server_type":"Dedicated","server_os":"Linux","password":true,"vac":true,"version":"7961495","steam_id":85568392924742827,"keywords":["nocrits","nodmgspread","payload","uncletopia"],"game_id":440,"stv_port":27076,"stv_name":"Uncletopia | Frankfurt | 7 | Stopwatch | STV","players":null},{"server_id":24,"name":"Uncletopia | Frankfurt | 8 | Community","name_short":"frk-8","host":"frk-1.de.uncletopia.com","port":27085,"enabled":true,"region":"eu","cc":"de","latitude":50.110924,"longitude":8.682127,"reserved":0,"last_update":"0001-01-01T00:00:00Z","name_a2s":"Uncletopia | Frankfurt | 8 | Community","protocol":17,"map":"workshop/koth_ramjam_rc1.ugc459778887","folder":"tf","game":"Team Fortress","app_id":440,"player_count":0,"max_players":24,"Bots":0,"server_type":"Dedicated","server_os":"Linux","password":true,"vac":true,"version":"7961495","steam_id":85568392924742828,"keywords":["cp","nocrits","nodmgspread","uncletopia"],"game_id":440,"stv_port":27086,"stv_name":"Uncletopia | Frankfurt | 8 | Community | STV","players":null},{"server_id":202,"name":"Uncletopia | Hong Kong | 1 | All Maps","name_short":"hgk-1","host":"hgk-1.hk.uncletopia.com","port":27015,"enabled":true,"region":"asia","cc":"hk","latitude":22.302711,"longitude":114.177216,"reserved":0,"last_update":"0001-01-01T00:00:00Z","name_a2s":"Uncletopia | Hong Kong | 1 | All Maps","protocol":17,"map":"pl_frontier_final","folder":"tf","game":"Team Fortress","app_id":440,"player_count":24,"max_players":24,"Bots":0,"server_type":"Dedicated","server_os":"Linux","password":true,"vac":true,"version":"7961495","steam_id":85568392924494504,"keywords":["nocrits","nodmgspread","payload","uncletopia"],"game_id":440,"stv_port":27016,"stv_name":"Uncletopia | Hong Kong | 1 | All Maps | STV","players":[{"user_id":503,"name":"mother of all omeletes:D","steam_id":76561198996979171,"connected_time":3669000000000,"state":"active","ping":108},{"user_id":543,"name":"Chocolate Jesus","steam_id":76561198081210151,"connected_time":744000000000,"state":"active","ping":92},{"user_id":519,"name":"KFJ_TH","steam_id":76561198326047274,"connected_time":2304000000000,"state":"active","ping":114},{"user_id":544,"name":"Banana khan (F2P)","steam_id":76561198992414056,"connected_time":727000000000,"state":"active","ping":174},{"user_id":508,"name":"kuy yai gaming","steam_id":76561198040204743,"connected_time":2889000000000,"state":"active","ping":78},{"user_id":515,"name":"Z-DiZ","steam_id":76561198056537641,"connected_time":2382000000000,"state":"active","ping":96},{"user_id":494,"name":"(TW)9367hours","steam_id":76561198162424362,"connected_time":4664000000000,"state":"active","ping":72},{"user_id":534,"name":"timothylmao38","steam_id":76561199348861599,"connected_time":1370000000000,"state":"active","ping":105},{"user_id":521,"name":"Akira.","steam_id":76561198434637272,"connected_time":2161000000000,"state":"active","ping":91},{"user_id":511,"name":"cokie","steam_id":76561198156148323,"connected_time":2561000000000,"state":"active","ping":122},{"user_id":539,"name":"Banana Milk","steam_id":76561198005156257,"connected_time":1139000000000,"state":"active","ping":134},{"user_id":548,"name":"Scarllyy.","steam_id":76561198156852158,"connected_time":75000000000,"state":"active","ping":122},{"user_id":546,"name":"twitch.tv/vision515","steam_id":76561198065293729,"connected_time":520000000000,"state":"active","ping":152},{"user_id":513,"name":"nox","steam_id":76561198365460548,"connected_time":2486000000000,"state":"active","ping":148},{"user_id":532,"name":"are you lost baby girl?","steam_id":76561198340560338,"connected_time":1614000000000,"state":"active","ping":154},{"user_id":549,"name":"sandvich","steam_id":76561198109439110,"connected_time":25000000000,"state":"active","ping":81},{"user_id":520,"name":"Yuribanzai","steam_id":76561198867967853,"connected_time":2242000000000,"state":"active","ping":116},{"user_id":547,"name":"s.","steam_id":76561198179112841,"connected_time":510000000000,"state":"active","ping":55},{"user_id":525,"name":"Saber","steam_id":76561198140953055,"connected_time":1908000000000,"state":"active","ping":133},{"user_id":535,"name":"builderman","steam_id":76561198211578967,"connected_time":1357000000000,"state":"active","ping":89},{"user_id":527,"name":"moomin","steam_id":76561197994194946,"connected_time":1838000000000,"state":"active","ping":104},{"user_id":530,"name":"senseless","steam_id":76561198074413124,"connected_time":1825000000000,"state":"active","ping":98},{"user_id":529,"name":"ultimatederpface28","steam_id":76561198850021147,"connected_time":1829000000000,"state":"active","ping":86},{"user_id":531,"name":"kitty eater","steam_id":76561198045489976,"connected_time":1786000000000,"state":"active","ping":171}]},{"server_id":1,"name":"Uncletopia | Los Angeles | 1 | All Maps","name_short":"lax-1","host":"lax-1.us.uncletopia.com","port":27015,"enabled":true,"region":"us-west","cc":"us","latitude":33.94279,"longitude":-118.41004,"reserved":0,"last_update":"0001-01-01T00:00:00Z","name_a2s":"Uncletopia | Los Angeles | 1 | All Maps","protocol":17,"map":"koth_cascade","folder":"tf","game":"Team Fortress","app_id":440,"player_count":0,"max_players":24,"Bots":0,"server_type":"Dedicated","server_os":"Linux","password":true,"vac":true,"version":"7961495","steam_id":85568392924469991,"keywords":["cp","nocrits","nodmgspread","uncletopia"],"game_id":440,"stv_port":27016,"stv_name":"Uncletopia | Los Angeles | 1 | All Maps | STV","players":null},{"server_id":112,"name":"Uncletopia | Los Angeles | 2 | All Maps","name_short":"lax-2","host":"lax-1.us.uncletopia.com","port":27025,"enabled":true,"region":"us-west","cc":"us","latitude":33.94279,"longitude":-118.41004,"reserved":0,"last_update":"0001-01-01T00:00:00Z","name_a2s":"Uncletopia | Los Angeles | 2 | All Maps","protocol":17,"map":"koth_lakeside_final","folder":"tf","game":"Team Fortress","app_id":440,"player_count":0,"max_players":24,"Bots":0,"server_type":"Dedicated","server_os":"Linux","password":true,"vac":true,"version":"7961495","steam_id":85568392924469992,"keywords":["cp","nocrits","nodmgspread","uncletopia"],"game_id":440,"stv_port":27026,"stv_name":"Uncletopia | Los Angeles | 2 | All Maps | STV","players":null},{"server_id":324,"name":"Uncletopia | Los Angeles | 3 | All Maps","name_short":"lax-3","host":"lax-1.us.uncletopia.com","port":27035,"enabled":true,"region":"us-west","cc":"us","latitude":33.94279,"longitude":-118.41004,"reserved":0,"last_update":"0001-01-01T00:00:00Z","name_a2s":"Uncletopia | Los Angeles | 3 | All Maps","protocol":17,"map":"pl_barnblitz","folder":"tf","game":"Team Fortress","app_id":440,"player_count":0,"max_players":24,"Bots":0,"server_type":"Dedicated","server_os":"Linux","password":true,"vac":true,"version":"7961495","steam_id":85568392924510198,"keywords":["nocrits","nodmgspread","payload","uncletopia"],"game_id":440,"stv_port":27036,"stv_name":"Uncletopia | Los Angeles | 3 | All Maps | STV","players":null},{"server_id":25,"name":"Uncletopia | Los Angeles | 4 | Stopwatch","name_short":"lax-4","host":"lax-1.us.uncletopia.com","port":27045,"enabled":true,"region":"us-west","cc":"us","latitude":33.94279,"longitude":-118.41004,"reserved":0,"last_update":"0001-01-01T00:00:00Z","name_a2s":"Uncletopia | Los Angeles | 4 | Stopwatch","protocol":17,"map":"pl_barnblitz","folder":"tf","game":"Team Fortress","app_id":440,"player_count":0,"max_players":24,"Bots":0,"server_type":"Dedicated","server_os":"Linux","password":true,"vac":true,"version":"7961495","steam_id":85568392924510199,"keywords":["nocrits","nodmgspread","payload","uncletopia"],"game_id":440,"stv_port":27046,"stv_name":"Uncletopia | Los Angeles | 4 | Stopwatch | STV","players":null},{"server_id":11,"name":"Uncletopia | London | 1 | All Maps","name_short":"lon-1","host":"lon-1.uk.uncletopia.com","port":27015,"enabled":true,"region":"eu","cc":"gb","latitude":51.509865,"longitude":-0.118092,"reserved":0,"last_update":"0001-01-01T00:00:00Z","name_a2s":"Uncletopia | London | 1 | All Maps","protocol":17,"map":"cp_gravelpit","folder":"tf","game":"Team Fortress","app_id":440,"player_count":24,"max_players":24,"Bots":0,"server_type":"Dedicated","server_os":"Linux","password":true,"vac":true,"version":"7961495","steam_id":85568392924367362,"keywords":["cp","nocrits","nodmgspread","uncletopia"],"game_id":440,"stv_port":27016,"stv_name":"Uncletopia | London | 1 | All Maps | STV","players":[{"user_id":556,"name":"kisutyty :3","steam_id":76561198723244199,"connected_time":98000000000,"state":"active","ping":76},{"user_id":544,"name":"On The Rise","steam_id":76561199171488677,"connected_time":1807000000000,"state":"active","ping":30},{"user_id":561,"name":"Dox","steam_id":76561198120368589,"connected_time":10000000000,"state":"active","ping":177},{"user_id":558,"name":"trite","steam_id":76561197983765323,"connected_time":84000000000,"state":"active","ping":45},{"user_id":550,"name":"jermany","steam_id":76561198126599355,"connected_time":947000000000,"state":"active","ping":63},{"user_id":522,"name":"⸸aura⸸","steam_id":76561198066258544,"connected_time":4646000000000,"state":"active","ping":58},{"user_id":534,"name":"Doctor Mobius","steam_id":76561197971281806,"connected_time":2991000000000,"state":"active","ping":71},{"user_id":557,"name":"James","steam_id":76561198138558005,"connected_time":86000000000,"state":"active","ping":47},{"user_id":553,"name":"SpacePig","steam_id":76561198044662873,"connected_time":101000000000,"state":"active","ping":99},{"user_id":514,"name":"snert","steam_id":76561198451550309,"connected_time":5081000000000,"state":"active","ping":55},{"user_id":512,"name":"Flint Atheno","steam_id":76561198000565196,"connected_time":5204000000000,"state":"active","ping":56},{"user_id":547,"name":"Palex","steam_id":76561198093219465,"connected_time":1378000000000,"state":"active","ping":43},{"user_id":559,"name":"nappo","steam_id":76561198060105180,"connected_time":83000000000,"state":"active","ping":76},{"user_id":554,"name":"breakfast burrito","steam_id":76561198148606969,"connected_time":99000000000,"state":"active","ping":76},{"user_id":499,"name":"shooer!","steam_id":76561198110531281,"connected_time":5721000000000,"state":"active","ping":71},{"user_id":545,"name":"hbivnm#freeforsen","steam_id":76561197996468677,"connected_time":1679000000000,"state":"active","ping":61},{"user_id":546,"name":"PossumSpaghetti","steam_id":76561198407385321,"connected_time":1464000000000,"state":"active","ping":45},{"user_id":555,"name":"✪ Danny","steam_id":76561198104483241,"connected_time":98000000000,"state":"active","ping":53},{"user_id":560,"name":"Boxtrot","steam_id":76561198026321441,"connected_time":60000000000,"state":"active","ping":73},{"user_id":526,"name":"Slifer the BIG SHOT","steam_id":76561198062255803,"connected_time":3892000000000,"state":"active","ping":115},{"user_id":552,"name":"Mircoxi","steam_id":76561199407632710,"connected_time":358000000000,"state":"active","ping":55},{"user_id":543,"name":"INDIEFRAME","steam_id":76561199086092220,"connected_time":1995000000000,"state":"active","ping":77},{"user_id":439,"name":"UltimateSlayer","steam_id":76561198384109309,"connected_time":9735000000000,"state":"active","ping":60},{"user_id":484,"name":"most sane mentalist","steam_id":76561198310095220,"connected_time":6466000000000,"state":"active","ping":30}]},{"server_id":114,"name":"Uncletopia | London | 2 | All Maps","name_short":"lon-2","host":"lon-1.uk.uncletopia.com","port":27025,"enabled":true,"region":"eu","cc":"gb","latitude":51.509865,"longitude":-0.118092,"reserved":0,"last_update":"0001-01-01T00:00:00Z","name_a2s":"Uncletopia | London | 2 | All Maps","protocol":17,"map":"pl_frontier_final","folder":"tf","game":"Team Fortress","app_id":440,"player_count":24,"max_players":24,"Bots":0,"server_type":"Dedicated","server_os":"Linux","password":true,"vac":true,"version":"7961495","steam_id":85568392924470941,"keywords":["nocrits","nodmgspread","payload","uncletopia"],"game_id":440,"stv_port":27026,"stv_name":"Uncletopia | London | 2 | All Maps | STV","players":[{"user_id":471,"name":"2023 de bi bok olmıycak","steam_id":76561199182780784,"connected_time":377000000000,"state":"active","ping":126},{"user_id":377,"name":"saywoo","steam_id":76561198904469197,"connected_time":7795000000000,"state":"active","ping":63},{"user_id":460,"name":"adamslavkov0107","steam_id":76561199498393023,"connected_time":1204000000000,"state":"active","ping":73},{"user_id":391,"name":"Raulca25","steam_id":76561199068256964,"connected_time":5680000000000,"state":"active","ping":81},{"user_id":457,"name":"randompixel","steam_id":76561198003941207,"connected_time":1260000000000,"state":"active","ping":59},{"user_id":454,"name":"Ynss","steam_id":76561198021472798,"connected_time":1432000000000,"state":"active","ping":58},{"user_id":458,"name":"JoJo1105","steam_id":76561198926013207,"connected_time":1256000000000,"state":"active","ping":65},{"user_id":447,"name":"Homosapien","steam_id":76561197972035953,"connected_time":2008000000000,"state":"active","ping":75},{"user_id":470,"name":"Tri-","steam_id":76561198133524794,"connected_time":548000000000,"state":"active","ping":44},{"user_id":461,"name":"PAN Dan","steam_id":76561198259233354,"connected_time":1203000000000,"state":"active","ping":67},{"user_id":456,"name":"burgz","steam_id":76561198109955787,"connected_time":1311000000000,"state":"active","ping":60},{"user_id":473,"name":"StaigerDuck","steam_id":76561199190706582,"connected_time":106000000000,"state":"active","ping":135},{"user_id":389,"name":"Taez","steam_id":76561198261820803,"connected_time":5740000000000,"state":"active","ping":60},{"user_id":446,"name":"Pfuck","steam_id":76561198146081601,"connected_time":2033000000000,"state":"active","ping":52},{"user_id":435,"name":"Vee","steam_id":76561198173065294,"connected_time":2477000000000,"state":"active","ping":56},{"user_id":407,"name":"Tuosan","steam_id":76561198062611429,"connected_time":4792000000000,"state":"active","ping":83},{"user_id":283,"name":"David","steam_id":76561198017852330,"connected_time":13827000000000,"state":"active","ping":83},{"user_id":467,"name":"A.D.H.|Artem","steam_id":76561198041801369,"connected_time":1031000000000,"state":"active","ping":87},{"user_id":469,"name":"_Starlight_","steam_id":76561197993885738,"connected_time":866000000000,"state":"active","ping":88},{"user_id":463,"name":"hooty","steam_id":76561199043415746,"connected_time":1201000000000,"state":"active","ping":73},{"user_id":472,"name":"Flying skyhigh","steam_id":76561198372971096,"connected_time":169000000000,"state":"active","ping":79},{"user_id":449,"name":"throne","steam_id":76561198059723960,"connected_time":1839000000000,"state":"active","ping":56},{"user_id":453,"name":"c1v","steam_id":76561199085624224,"connected_time":1660000000000,"state":"active","ping":73},{"user_id":441,"name":"Ascended Noob","steam_id":76561198079411460,"connected_time":2066000000000,"state":"active","ping":55}]},{"server_id":320,"name":"Uncletopia | London | 3 | All Maps","name_short":"lon-3","host":"lon-1.uk.uncletopia.com","port":27035,"enabled":true,"region":"eu","cc":"gb","latitude":51.509865,"longitude":-0.118092,"reserved":0,"last_update":"0001-01-01T00:00:00Z","name_a2s":"Uncletopia | London | 3 | All Maps","protocol":17,"map":"pl_swiftwater_final1","folder":"tf","game":"Team Fortress","app_id":440,"player_count":23,"max_players":24,"Bots":0,"server_type":"Dedicated","server_os":"Linux","password":true,"vac":true,"version":"7961495","steam_id":85568392924510192,"keywords":["nocrits","nodmgspread","payload","uncletopia"],"game_id":440,"stv_port":27036,"stv_name":"Uncletopia | London | 3 | All Maps | STV","players":[{"user_id":375,"name":"Gugu gaga","steam_id":76561198161822358,"connected_time":1196000000000,"state":"active","ping":74},{"user_id":387,"name":"Kernel Panic","steam_id":76561198215811047,"connected_time":564000000000,"state":"active","ping":35},{"user_id":392,"name":"N . E . ㊉ . N","steam_id":76561198074131777,"connected_time":534000000000,"state":"active","ping":61},{"user_id":391,"name":"123","steam_id":76561198084517952,"connected_time":541000000000,"state":"active","ping":68},{"user_id":322,"name":"howabe","steam_id":76561197996486818,"connected_time":2877000000000,"state":"active","ping":58},{"user_id":368,"name":"loser","steam_id":76561199042470246,"connected_time":1655000000000,"state":"active","ping":58},{"user_id":336,"name":"wheelchair emperor","steam_id":76561198076084824,"connected_time":2347000000000,"state":"active","ping":62},{"user_id":373,"name":"Cuthbert","steam_id":76561198204649481,"connected_time":1296000000000,"state":"active","ping":96},{"user_id":386,"name":"Pomperipossa","steam_id":76561198011456806,"connected_time":601000000000,"state":"active","ping":43},{"user_id":388,"name":"peeka","steam_id":76561198221122068,"connected_time":562000000000,"state":"active","ping":58},{"user_id":394,"name":"Bob_Tostas","steam_id":76561198249006560,"connected_time":343000000000,"state":"active","ping":82},{"user_id":395,"name":"-gunripp0r^be / Obelix^","steam_id":76561197999306879,"connected_time":95000000000,"state":"active","ping":77},{"user_id":324,"name":"Pipp Petals2014","steam_id":76561198147668373,"connected_time":2824000000000,"state":"active","ping":70},{"user_id":333,"name":"magnificent darkness","steam_id":76561199059524050,"connected_time":2614000000000,"state":"active","ping":83},{"user_id":319,"name":":3","steam_id":76561198169471853,"connected_time":3027000000000,"state":"active","ping":38},{"user_id":325,"name":"Chicoboi","steam_id":76561198109855177,"connected_time":2821000000000,"state":"active","ping":82},{"user_id":197,"name":"hubert","steam_id":76561198057722639,"connected_time":10675000000000,"state":"active","ping":71},{"user_id":370,"name":"MrMoopne","steam_id":76561198207282400,"connected_time":1435000000000,"state":"active","ping":47},{"user_id":244,"name":"FlameTheGame","steam_id":76561198841108519,"connected_time":8068000000000,"state":"active","ping":105},{"user_id":286,"name":"jill sandwich","steam_id":76561198075068529,"connected_time":6129000000000,"state":"active","ping":60},{"user_id":379,"name":"Aeinzalot","steam_id":76561198195288449,"connected_time":1117000000000,"state":"active","ping":43},{"user_id":381,"name":"Eltonius","steam_id":76561198157560715,"connected_time":1083000000000,"state":"active","ping":85},{"user_id":390,"name":"Bun","steam_id":76561197989239999,"connected_time":559000000000,"state":"active","ping":47}]},{"server_id":321,"name":"Uncletopia | London | 4 | All Maps","name_short":"lon-4","host":"lon-1.uk.uncletopia.com","port":27045,"enabled":true,"region":"eu","cc":"gb","latitude":51.509865,"longitude":-0.118092,"reserved":0,"last_update":"0001-01-01T00:00:00Z","name_a2s":"Uncletopia | London | 4 | All Maps","protocol":17,"map":"pl_badwater","folder":"tf","game":"Team Fortress","app_id":440,"player_count":22,"max_players":24,"Bots":0,"server_type":"Dedicated","server_os":"Linux","password":true,"vac":true,"version":"7961495","steam_id":85568392924510193,"keywords":["nocrits","nodmgspread","payload","uncletopia"],"game_id":440,"stv_port":27046,"stv_name":"Uncletopia | London | 4 | All Maps | STV","players":[{"user_id":88,"name":"Hexagon","steam_id":76561198151205758,"connected_time":4338000000000,"state":"active","ping":53},{"user_id":119,"name":"Welder","steam_id":76561198355300561,"connected_time":1028000000000,"state":"active","ping":67},{"user_id":120,"name":"Luuk","steam_id":76561198088266026,"connected_time":1016000000000,"state":"active","ping":37},{"user_id":23,"name":"Caruzon - Obismal","steam_id":76561198036211170,"connected_time":8677000000000,"state":"active","ping":88},{"user_id":24,"name":"Macci - Obismal","steam_id":76561198050485404,"connected_time":8671000000000,"state":"active","ping":78},{"user_id":122,"name":"1st Time Player","steam_id":76561198382509396,"connected_time":392000000000,"state":"active","ping":54},{"user_id":108,"name":"ha,burger","steam_id":76561199093584225,"connected_time":1870000000000,"state":"active","ping":63},{"user_id":109,"name":"baby's first domination","steam_id":76561198325898181,"connected_time":1860000000000,"state":"active","ping":68},{"user_id":124,"name":"NothingMan","steam_id":76561198051284446,"connected_time":0,"state":"connecting","ping":0},{"user_id":55,"name":"Mr. Mundy","steam_id":76561198132008918,"connected_time":7512000000000,"state":"active","ping":87},{"user_id":99,"name":"d u k k i","steam_id":76561198071807437,"connected_time":3170000000000,"state":"active","ping":89},{"user_id":105,"name":"What If We Kissed In Cockpit","steam_id":76561197988085026,"connected_time":2732000000000,"state":"active","ping":66},{"user_id":93,"name":"Nugget","steam_id":76561198338916407,"connected_time":3583000000000,"state":"active","ping":71},{"user_id":117,"name":"Dictatorial Karelian","steam_id":76561198196736457,"connected_time":1200000000000,"state":"active","ping":75},{"user_id":118,"name":"tired","steam_id":76561198046838168,"connected_time":1122000000000,"state":"active","ping":56},{"user_id":111,"name":"Locke","steam_id":76561198339408300,"connected_time":1834000000000,"state":"active","ping":60},{"user_id":123,"name":"ShawnDawn2","steam_id":76561198165013522,"connected_time":391000000000,"state":"active","ping":30},{"user_id":101,"name":"R8N - Obismal","steam_id":76561198007482714,"connected_time":3083000000000,"state":"active","ping":79},{"user_id":114,"name":"St. Pablo","steam_id":76561199009805208,"connected_time":1546000000000,"state":"active","ping":120},{"user_id":84,"name":"Nick","steam_id":76561198036109469,"connected_time":5197000000000,"state":"active","ping":101},{"user_id":107,"name":"Angry the lime","steam_id":76561199012566222,"connected_time":2190000000000,"state":"active","ping":66},{"user_id":116,"name":"VEH-DEH-VEH","steam_id":76561198010978989,"connected_time":1211000000000,"state":"active","ping":75}]},{"server_id":21,"name":"Uncletopia | London | 5 | All Maps","name_short":"lon-5","host":"lon-1.uk.uncletopia.com","port":27055,"enabled":true,"region":"eu","cc":"gb","latitude":51.509865,"longitude":-0.118092,"reserved":0,"last_update":"0001-01-01T00:00:00Z","name_a2s":"Uncletopia | London | 5 | All Maps","protocol":17,"map":"pl_barnblitz","folder":"tf","game":"Team Fortress","app_id":440,"player_count":24,"max_players":24,"Bots":0,"server_type":"Dedicated","server_os":"Linux","password":true,"vac":true,"version":"7961495","steam_id":85568392924742829,"keywords":["nocrits","nodmgspread","payload","uncletopia"],"game_id":440,"stv_port":27056,"stv_name":"Uncletopia | London | 5 | All Maps | STV","players":[{"user_id":58,"name":"najed","steam_id":76561198107767664,"connected_time":139000000000,"state":"active","ping":55},{"user_id":19,"name":"Gentlemann Co.","steam_id":76561197997142921,"connected_time":1794000000000,"state":"active","ping":60},{"user_id":20,"name":"Zuuzul","steam_id":76561198272671267,"connected_time":1741000000000,"state":"active","ping":132},{"user_id":22,"name":"DeterminedXD[HUN]","steam_id":76561199469006453,"connected_time":1497000000000,"state":"active","ping":93},{"user_id":23,"name":"Weegad Wobus","steam_id":76561199429562693,"connected_time":1235000000000,"state":"active","ping":72},{"user_id":36,"name":"pepper","steam_id":76561198852650589,"connected_time":600000000000,"state":"active","ping":74},{"user_id":25,"name":"Kenny_killer_69","steam_id":76561199465207725,"connected_time":1172000000000,"state":"active","ping":75},{"user_id":33,"name":"L4gman","steam_id":76561198048227040,"connected_time":769000000000,"state":"active","ping":67},{"user_id":30,"name":"LasagneMan","steam_id":76561198971904377,"connected_time":853000000000,"state":"active","ping":50},{"user_id":28,"name":"Mobster Tortoise","steam_id":76561199036837091,"connected_time":919000000000,"state":"active","ping":102},{"user_id":31,"name":"prinz eeugen \u003c3","steam_id":76561198981017406,"connected_time":832000000000,"state":"active","ping":88},{"user_id":51,"name":"race car driver jerry","steam_id":76561198054047446,"connected_time":205000000000,"state":"active","ping":70},{"user_id":49,"name":"Tá prátaí go maith","steam_id":76561198372536459,"connected_time":264000000000,"state":"active","ping":51},{"user_id":38,"name":"plep","steam_id":76561198041463901,"connected_time":574000000000,"state":"active","ping":33},{"user_id":55,"name":"Jezal dan Luthar","steam_id":76561198989449047,"connected_time":168000000000,"state":"active","ping":141},{"user_id":67,"name":"fence_","steam_id":76561198150386379,"connected_time":41000000000,"state":"active","ping":47},{"user_id":56,"name":"Oriuke","steam_id":76561197992166123,"connected_time":145000000000,"state":"active","ping":52},{"user_id":68,"name":"TheQuietKid","steam_id":76561198964124943,"connected_time":40000000000,"state":"active","ping":201},{"user_id":48,"name":"Tyber","steam_id":76561198125886061,"connected_time":268000000000,"state":"active","ping":82},{"user_id":52,"name":"Icelord","steam_id":76561198047827052,"connected_time":199000000000,"state":"active","ping":59},{"user_id":59,"name":"thorn648","steam_id":76561198012565777,"connected_time":138000000000,"state":"active","ping":174},{"user_id":61,"name":"install gentoo","steam_id":76561198185257982,"connected_time":98000000000,"state":"active","ping":80},{"user_id":63,"name":"Suspicious Viktor","steam_id":76561198136496249,"connected_time":75000000000,"state":"active","ping":62},{"user_id":66,"name":"ODanial","steam_id":76561198034854402,"connected_time":62000000000,"state":"active","ping":70}]},{"server_id":22,"name":"Uncletopia | London | 6 | All Maps","name_short":"lon-6","host":"lon-1.uk.uncletopia.com","port":27065,"enabled":true,"region":"eu","cc":"gb","latitude":51.509865,"longitude":-0.118092,"reserved":0,"last_update":"0001-01-01T00:00:00Z","name_a2s":"Uncletopia | London | 6 | All Maps","protocol":17,"map":"koth_harvest_final","folder":"tf","game":"Team Fortress","app_id":440,"player_count":24,"max_players":24,"Bots":0,"server_type":"Dedicated","server_os":"Linux","password":true,"vac":true,"version":"7961495","steam_id":85568392924742830,"keywords":["cp","nocrits","nodmgspread","uncletopia"],"game_id":440,"stv_port":27066,"stv_name":"Uncletopia | London | 6 | All Maps | STV","players":[{"user_id":306,"name":"sand","steam_id":76561199166176718,"connected_time":4131000000000,"state":"active","ping":76},{"user_id":346,"name":"Chill Spirit","steam_id":76561198845001725,"connected_time":1496000000000,"state":"active","ping":59},{"user_id":327,"name":"Zerfesh","steam_id":76561198117534358,"connected_time":2745000000000,"state":"active","ping":100},{"user_id":281,"name":"_DEI_","steam_id":76561199140785144,"connected_time":6297000000000,"state":"active","ping":86},{"user_id":363,"name":"MaypulSoyrup","steam_id":76561199213966821,"connected_time":432000000000,"state":"active","ping":68},{"user_id":239,"name":"oskaroku00","steam_id":76561199025360128,"connected_time":10017000000000,"state":"active","ping":74},{"user_id":210,"name":"bitkomet","steam_id":76561198058232147,"connected_time":12393000000000,"state":"active","ping":77},{"user_id":297,"name":"Zazou","steam_id":76561198028076362,"connected_time":4941000000000,"state":"active","ping":53},{"user_id":335,"name":"soap lore 22","steam_id":76561198058879767,"connected_time":2521000000000,"state":"active","ping":43},{"user_id":360,"name":"jin.88","steam_id":76561198045099492,"connected_time":644000000000,"state":"active","ping":115},{"user_id":361,"name":"midlpsyzl47","steam_id":76561199475972637,"connected_time":554000000000,"state":"active","ping":70},{"user_id":345,"name":"GGlut","steam_id":76561198034281473,"connected_time":1651000000000,"state":"active","ping":46},{"user_id":354,"name":"Hamedius","steam_id":76561199152512027,"connected_time":893000000000,"state":"active","ping":70},{"user_id":353,"name":"PhotonicMike","steam_id":76561199022534414,"connected_time":913000000000,"state":"active","ping":57},{"user_id":355,"name":"OMG IS THAT SPY FROM TF2?","steam_id":76561199291684647,"connected_time":889000000000,"state":"active","ping":64},{"user_id":364,"name":"based gorou pfp","steam_id":76561198122814249,"connected_time":239000000000,"state":"active","ping":44},{"user_id":359,"name":"lugge","steam_id":76561197963937453,"connected_time":697000000000,"state":"active","ping":67},{"user_id":319,"name":"Futatsuiwa Mamizou","steam_id":76561198799303596,"connected_time":3575000000000,"state":"active","ping":110},{"user_id":312,"name":"medic gaming","steam_id":76561198866194704,"connected_time":3980000000000,"state":"active","ping":76},{"user_id":334,"name":"David \"Crash\" Murphy","steam_id":76561198292845505,"connected_time":2582000000000,"state":"active","ping":95},{"user_id":314,"name":"MyAnacondaDontWantNone","steam_id":76561199044028826,"connected_time":3958000000000,"state":"active","ping":43},{"user_id":341,"name":"MpJens","steam_id":76561198000347669,"connected_time":1877000000000,"state":"active","ping":48},{"user_id":348,"name":"The CEO of Sex Inc.","steam_id":76561198385989487,"connected_time":1379000000000,"state":"active","ping":99},{"user_id":315,"name":"Real (Real)","steam_id":76561198323425034,"connected_time":3921000000000,"state":"active","ping":77}]},{"server_id":40,"name":"Uncletopia | London | 7 | Stopwatch","name_short":"lon-7","host":"lon-1.uk.uncletopia.com","port":27075,"enabled":true,"region":"eu","cc":"gb","latitude":51.509865,"longitude":-0.118092,"reserved":0,"last_update":"0001-01-01T00:00:00Z","name_a2s":"Uncletopia | London | 7 | Stopwatch","protocol":17,"map":"workshop/koth_ashville_final.ugc2130459942","folder":"tf","game":"Team Fortress","app_id":440,"player_count":0,"max_players":24,"Bots":0,"server_type":"Dedicated","server_os":"Linux","password":true,"vac":true,"version":"7961495","steam_id":85568392924964314,"keywords":["cp","nocrits","nodmgspread","uncletopia"],"game_id":440,"stv_port":27076,"stv_name":"Uncletopia | London | 7 | Stopwatch | STV","players":null},{"server_id":41,"name":"Uncletopia | London | 8 | Community","name_short":"lon-8","host":"lon-1.uk.uncletopia.com","port":27085,"enabled":true,"region":"eu","cc":"gb","latitude":51.509865,"longitude":-0.118092,"reserved":0,"last_update":"0001-01-01T00:00:00Z","name_a2s":"Uncletopia | London | 8 | Community","protocol":17,"map":"workshop/cp_glassworks_rc6a.ugc454118349","folder":"tf","game":"Team Fortress","app_id":440,"player_count":0,"max_players":24,"Bots":0,"server_type":"Dedicated","server_os":"Linux","password":true,"vac":true,"version":"7961495","steam_id":85568392924964315,"keywords":["cp","nocrits","nodmgspread","uncletopia"],"game_id":440,"stv_port":27086,"stv_name":"Uncletopia | London | 8 | Community | STV","players":null},{"server_id":300,"name":"Uncletopia | Montréal | 1 | One Thousand Uncles","name_short":"mtl-1","host":"mtl-1.ca.uncletopia.com","port":27015,"enabled":true,"region":"us-east","cc":"ca","latitude":45.50889,"longitude":-73.56167,"reserved":0,"last_update":"0001-01-01T00:00:00Z","name_a2s":"","protocol":0,"map":"","folder":"","game":"","app_id":0,"player_count":6,"max_players":0,"Bots":0,"server_type":"","server_os":"","password":false,"vac":false,"version":"","steam_id":0,"keywords":null,"game_id":0,"stv_port":0,"stv_name":"","players":[{"user_id":53,"name":"Congcrab","steam_id":76561198078687685,"connected_time":4220000000000,"state":"active","ping":90},{"user_id":81,"name":"t.tv/FamilyGuyFunnyMoments277","steam_id":76561198416047580,"connected_time":600000000000,"state":"active","ping":55},{"user_id":71,"name":"ThatGirlWithaK","steam_id":76561198317602350,"connected_time":3139000000000,"state":"active","ping":95},{"user_id":73,"name":"็Periculosum PhD in Funny","steam_id":76561198123370914,"connected_time":2698000000000,"state":"active","ping":72},{"user_id":80,"name":"Vitzenhauzer","steam_id":76561198116449787,"connected_time":734000000000,"state":"active","ping":45},{"user_id":78,"name":"Wafflehead","steam_id":76561198053539741,"connected_time":1200000000000,"state":"active","ping":43}]},{"server_id":301,"name":"Uncletopia | Montréal | 2 | One Thousand Uncles","name_short":"mtl-2","host":"mtl-1.ca.uncletopia.com","port":27025,"enabled":true,"region":"us-east","cc":"ca","latitude":45.50889,"longitude":-73.56167,"reserved":0,"last_update":"0001-01-01T00:00:00Z","name_a2s":"","protocol":0,"map":"","folder":"","game":"","app_id":0,"player_count":0,"max_players":0,"Bots":0,"server_type":"","server_os":"","password":false,"vac":false,"version":"","steam_id":0,"keywords":null,"game_id":0,"stv_port":0,"stv_name":"","players":null},{"server_id":302,"name":"Uncletopia | Montréal | 3 | One Thousand Uncles","name_short":"mtl-3","host":"mtl-1.ca.uncletopia.com","port":27035,"enabled":true,"region":"us-east","cc":"ca","latitude":45.50889,"longitude":-73.56167,"reserved":0,"last_update":"0001-01-01T00:00:00Z","name_a2s":"","protocol":0,"map":"","folder":"","game":"","app_id":0,"player_count":0,"max_players":0,"Bots":0,"server_type":"","server_os":"","password":false,"vac":false,"version":"","steam_id":0,"keywords":null,"game_id":0,"stv_port":0,"stv_name":"","players":null},{"server_id":13,"name":"Uncletopia | New York City | 1 | All Maps","name_short":"nyc-1","host":"nyc-1.us.uncletopia.com","port":27015,"enabled":true,"region":"us-east","cc":"us","latitude":40.73061,"longitude":-73.93524,"reserved":0,"last_update":"0001-01-01T00:00:00Z","name_a2s":"Uncletopia | New York City | 1 | All Maps","protocol":17,"map":"pl_frontier_final","folder":"tf","game":"Team Fortress","app_id":440,"player_count":24,"max_players":24,"Bots":0,"server_type":"Dedicated","server_os":"Linux","password":true,"vac":true,"version":"7961495","steam_id":85568392924469993,"keywords":["nocrits","nodmgspread","payload","uncletopia"],"game_id":440,"stv_port":27016,"stv_name":"Uncletopia | New York City | 1 | All Maps | STV","players":[{"user_id":98,"name":"Hazeyboi","steam_id":76561198130687838,"connected_time":4476000000000,"state":"active","ping":84},{"user_id":110,"name":"xXBongRipper420Xx","steam_id":76561198199344313,"connected_time":2412000000000,"state":"active","ping":129},{"user_id":112,"name":"DiscoTraveler","steam_id":76561199240168088,"connected_time":2357000000000,"state":"active","ping":50},{"user_id":126,"name":"GummybearKillr","steam_id":76561198031235750,"connected_time":1157000000000,"state":"active","ping":61},{"user_id":127,"name":"zabloinkus","steam_id":76561198069967245,"connected_time":989000000000,"state":"active","ping":72},{"user_id":133,"name":"Christian Kirby","steam_id":76561199215047783,"connected_time":540000000000,"state":"active","ping":84},{"user_id":107,"name":"taigaxx","steam_id":76561198202669250,"connected_time":4016000000000,"state":"active","ping":72},{"user_id":130,"name":"Sodemo","steam_id":76561198074987146,"connected_time":572000000000,"state":"active","ping":66},{"user_id":85,"name":"DerpyNate","steam_id":76561198100249037,"connected_time":5996000000000,"state":"active","ping":55},{"user_id":139,"name":"smugmirk","steam_id":76561198880748680,"connected_time":270000000000,"state":"active","ping":68},{"user_id":135,"name":"Techne","steam_id":76561198090486583,"connected_time":437000000000,"state":"active","ping":86},{"user_id":78,"name":"soty","steam_id":76561198829285363,"connected_time":7083000000000,"state":"active","ping":129},{"user_id":132,"name":"Jesus Christ","steam_id":76561198124789046,"connected_time":559000000000,"state":"active","ping":82},{"user_id":73,"name":"The Big","steam_id":76561198078572184,"connected_time":7507000000000,"state":"active","ping":82},{"user_id":87,"name":"fLock","steam_id":76561198091578187,"connected_time":5956000000000,"state":"active","ping":53},{"user_id":136,"name":"Obama","steam_id":76561199229026993,"connected_time":423000000000,"state":"active","ping":69},{"user_id":118,"name":"Swedish Crowbar","steam_id":76561199105488936,"connected_time":2036000000000,"state":"active","ping":138},{"user_id":54,"name":"Rornir","steam_id":76561198081829615,"connected_time":10063000000000,"state":"active","ping":56},{"user_id":137,"name":"Mom","steam_id":76561198356812251,"connected_time":423000000000,"state":"active","ping":95},{"user_id":97,"name":"Ziath","steam_id":76561198094009164,"connected_time":5000000000000,"state":"active","ping":45},{"user_id":138,"name":"Froyo Ding Dong","steam_id":76561198379421700,"connected_time":420000000000,"state":"active","ping":52},{"user_id":119,"name":"Try Gardening","steam_id":76561198120311340,"connected_time":2029000000000,"state":"active","ping":64},{"user_id":123,"name":"DankMemes4EV3R","steam_id":76561199012294783,"connected_time":1522000000000,"state":"active","ping":74},{"user_id":141,"name":"Il Piantissimo","steam_id":76561198107899101,"connected_time":68000000000,"state":"active","ping":60}]},{"server_id":14,"name":"Uncletopia | New York City | 2 | All Maps","name_short":"nyc-2","host":"nyc-1.us.uncletopia.com","port":27025,"enabled":true,"region":"us-east","cc":"us","latitude":40.73061,"longitude":-73.93524,"reserved":0,"last_update":"0001-01-01T00:00:00Z","name_a2s":"Uncletopia | New York City | 2 | All Maps","protocol":17,"map":"pl_badwater","folder":"tf","game":"Team Fortress","app_id":440,"player_count":24,"max_players":24,"Bots":0,"server_type":"Dedicated","server_os":"Linux","password":true,"vac":true,"version":"7961495","steam_id":85568392924469994,"keywords":["nocrits","nodmgspread","payload","uncletopia"],"game_id":440,"stv_port":27026,"stv_name":"Uncletopia | New York City | 2 | All Maps | STV","players":[{"user_id":59,"name":"Jared","steam_id":76561198020432651,"connected_time":4792000000000,"state":"active","ping":59},{"user_id":56,"name":"John Fortnite","steam_id":76561198076608253,"connected_time":4849000000000,"state":"active","ping":59},{"user_id":88,"name":"bumrusherz","steam_id":76561198440658195,"connected_time":3210000000000,"state":"active","ping":75},{"user_id":123,"name":"TheSecretNewbie","steam_id":76561198194671218,"connected_time":1248000000000,"state":"active","ping":52},{"user_id":129,"name":"Primal","steam_id":76561197983118203,"connected_time":612000000000,"state":"active","ping":56},{"user_id":125,"name":"beast from the east","steam_id":76561198267624034,"connected_time":1126000000000,"state":"active","ping":59},{"user_id":104,"name":"V. G. Sunderland","steam_id":76561198161839980,"connected_time":2466000000000,"state":"active","ping":45},{"user_id":76,"name":"Butthole Bandit","steam_id":76561198397257870,"connected_time":4058000000000,"state":"active","ping":73},{"user_id":114,"name":"photonbinding","steam_id":76561198250996330,"connected_time":2023000000000,"state":"active","ping":96},{"user_id":119,"name":"PaD_Ding","steam_id":76561198831202965,"connected_time":1602000000000,"state":"active","ping":148},{"user_id":137,"name":"think about it","steam_id":76561198241948526,"connected_time":197000000000,"state":"active","ping":73},{"user_id":127,"name":"Oopsie Daisy ❋","steam_id":76561198042144492,"connected_time":1090000000000,"state":"active","ping":70},{"user_id":132,"name":"Der Krieger105","steam_id":76561197978384609,"connected_time":567000000000,"state":"active","ping":56},{"user_id":82,"name":"ADRIEN BRODY","steam_id":76561198009299473,"connected_time":3436000000000,"state":"active","ping":58},{"user_id":52,"name":"Fresh0c0","steam_id":76561198271933283,"connected_time":5800000000000,"state":"active","ping":76},{"user_id":133,"name":"im just better","steam_id":76561198350747953,"connected_time":565000000000,"state":"active","ping":54},{"user_id":134,"name":"new person","steam_id":76561198210767823,"connected_time":561000000000,"state":"active","ping":51},{"user_id":103,"name":"chiswola","steam_id":76561198046920142,"connected_time":2608000000000,"state":"active","ping":86},{"user_id":109,"name":"Random","steam_id":76561199116602799,"connected_time":2408000000000,"state":"active","ping":117},{"user_id":124,"name":"Nash","steam_id":76561198044192734,"connected_time":1189000000000,"state":"active","ping":60},{"user_id":136,"name":"rice white","steam_id":76561198320732910,"connected_time":473000000000,"state":"active","ping":66},{"user_id":112,"name":"SuperSkrull","steam_id":76561198035695823,"connected_time":2360000000000,"state":"active","ping":136},{"user_id":111,"name":"az","steam_id":76561198090531755,"connected_time":2381000000000,"state":"active","ping":90},{"user_id":122,"name":"YourFriendJessie","steam_id":76561198176883097,"connected_time":1446000000000,"state":"active","ping":55}]},{"server_id":15,"name":"Uncletopia | New York City | 3 | Stopwatch","name_short":"nyc-3","host":"nyc-1.us.uncletopia.com","port":27035,"enabled":true,"region":"us-east","cc":"us","latitude":40.73061,"longitude":-73.93524,"reserved":0,"last_update":"0001-01-01T00:00:00Z","name_a2s":"Uncletopia | New York City | 3 | Stopwatch","protocol":17,"map":"workshop/koth_ramjam_rc1.ugc459778887","folder":"tf","game":"Team Fortress","app_id":440,"player_count":0,"max_players":24,"Bots":0,"server_type":"Dedicated","server_os":"Linux","password":true,"vac":true,"version":"7961495","steam_id":85568392924742820,"keywords":["cp","nocrits","nodmgspread","uncletopia"],"game_id":440,"stv_port":27036,"stv_name":"Uncletopia | New York City | 3 | Stopwatch | STV","players":null},{"server_id":16,"name":"Uncletopia | New York City | 4 | Community","name_short":"nyc-4","host":"nyc-1.us.uncletopia.com","port":27045,"enabled":true,"region":"us-east","cc":"us","latitude":40.73061,"longitude":-73.93524,"reserved":0,"last_update":"0001-01-01T00:00:00Z","name_a2s":"Uncletopia | New York City | 4 | Community","protocol":17,"map":"cp_altitude","folder":"tf","game":"Team Fortress","app_id":440,"player_count":0,"max_players":24,"Bots":0,"server_type":"Dedicated","server_os":"Linux","password":true,"vac":true,"version":"7961495","steam_id":85568392924742821,"keywords":["cp","nocrits","nodmgspread","uncletopia"],"game_id":440,"stv_port":27046,"stv_name":"Uncletopia | New York City | 4 | Community | STV","players":null},{"server_id":142,"name":"Uncletopia | São Paulo | 1 | All Maps","name_short":"sao-1","host":"sao-1.br.uncletopia.com","port":27015,"enabled":true,"region":"sa","cc":"br","latitude":-23.533773,"longitude":-46.62529,"reserved":0,"last_update":"0001-01-01T00:00:00Z","name_a2s":"Uncletopia | São Paulo | 1 | All Maps","protocol":17,"map":"pl_snowycoast","folder":"tf","game":"Team Fortress","app_id":440,"player_count":0,"max_players":24,"Bots":0,"server_type":"Dedicated","server_os":"Linux","password":true,"vac":true,"version":"7961495","steam_id":85568392924469996,"keywords":["nocrits","nodmgspread","payload","uncletopia"],"game_id":440,"stv_port":27016,"stv_name":"Uncletopia | São Paulo | 1 | All Maps | STV","players":null},{"server_id":143,"name":"Uncletopia | São Paulo | 2 | Community","name_short":"sao-2","host":"sao-2.br.uncletopia.com","port":27015,"enabled":true,"region":"sa","cc":"br","latitude":-23.533773,"longitude":-46.62529,"reserved":0,"last_update":"0001-01-01T00:00:00Z","name_a2s":"Uncletopia | São Paulo | 2 | Community","protocol":17,"map":"workshop/pl_badwater_pro_v12.ugc2142942074","folder":"tf","game":"Team Fortress","app_id":440,"player_count":0,"max_players":24,"Bots":0,"server_type":"Dedicated","server_os":"Linux","password":true,"vac":true,"version":"7961495","steam_id":85568392924485349,"keywords":["nocrits","nodmgspread","payload","uncletopia"],"game_id":440,"stv_port":27016,"stv_name":"Uncletopia | São Paulo | 2 | Community | STV","players":null},{"server_id":7,"name":"Uncletopia | Seattle | 1 | All Maps","name_short":"sea-1","host":"sea-1.us.uncletopia.com","port":27015,"enabled":true,"region":"us-west","cc":"us","latitude":47.608013,"longitude":-122.33517,"reserved":0,"last_update":"0001-01-01T00:00:00Z","name_a2s":"Uncletopia | Seattle | 1 | All Maps","protocol":17,"map":"koth_cascade","folder":"tf","game":"Team Fortress","app_id":440,"player_count":24,"max_players":24,"Bots":0,"server_type":"Dedicated","server_os":"Linux","password":true,"vac":true,"version":"7961495","steam_id":85568392924469997,"keywords":["cp","nocrits","nodmgspread","uncletopia"],"game_id":440,"stv_port":27016,"stv_name":"Uncletopia | Seattle | 1 | All Maps | STV","players":[{"user_id":178,"name":"MxProf","steam_id":76561198044519572,"connected_time":887000000000,"state":"active","ping":57},{"user_id":173,"name":"The Child","steam_id":76561198173557213,"connected_time":1133000000000,"state":"active","ping":60},{"user_id":181,"name":"darkelaine227","steam_id":76561198097330521,"connected_time":311000000000,"state":"active","ping":107},{"user_id":171,"name":"nfseskimo","steam_id":76561198078745666,"connected_time":1185000000000,"state":"active","ping":43},{"user_id":163,"name":"Winter the Witchie","steam_id":76561198151971178,"connected_time":1987000000000,"state":"active","ping":111},{"user_id":191,"name":"zinnk","steam_id":76561198092081825,"connected_time":0,"state":"spawning","ping":14},{"user_id":183,"name":"K2f","steam_id":76561198049600563,"connected_time":171000000000,"state":"active","ping":67},{"user_id":137,"name":"Waltuh White","steam_id":76561198964210411,"connected_time":4460000000000,"state":"active","ping":74},{"user_id":153,"name":"Little Linguine","steam_id":76561198816986370,"connected_time":2895000000000,"state":"active","ping":45},{"user_id":179,"name":"SoCal Kaizer","steam_id":76561198334361081,"connected_time":796000000000,"state":"active","ping":81},{"user_id":174,"name":"Jazz Hands","steam_id":76561199225708271,"connected_time":1034000000000,"state":"active","ping":59},{"user_id":109,"name":"rad killl raccoon","steam_id":76561198980975595,"connected_time":8430000000000,"state":"active","ping":51},{"user_id":184,"name":"Mx. Mourning","steam_id":76561199010673891,"connected_time":169000000000,"state":"active","ping":138},{"user_id":168,"name":"Pneumo.","steam_id":76561197987911883,"connected_time":1517000000000,"state":"active","ping":60},{"user_id":130,"name":"DubiousDodo","steam_id":76561198828172686,"connected_time":5779000000000,"state":"active","ping":76},{"user_id":91,"name":"sonicboom14","steam_id":76561198866558393,"connected_time":10307000000000,"state":"active","ping":82},{"user_id":160,"name":"Arkus","steam_id":76561199092478198,"connected_time":2388000000000,"state":"active","ping":48},{"user_id":161,"name":"Dr. Peelz","steam_id":76561198156452499,"connected_time":2099000000000,"state":"active","ping":73},{"user_id":185,"name":"Mr. Fluffy Penguins","steam_id":76561198172538149,"connected_time":152000000000,"state":"active","ping":133},{"user_id":190,"name":"Strikerbolt","steam_id":76561199095622897,"connected_time":96000000000,"state":"active","ping":83},{"user_id":180,"name":"aisu","steam_id":76561198043768507,"connected_time":740000000000,"state":"active","ping":90},{"user_id":187,"name":"SLEEPY-Class NHP","steam_id":76561198064583865,"connected_time":127000000000,"state":"active","ping":104},{"user_id":188,"name":"fitin","steam_id":76561198053426996,"connected_time":127000000000,"state":"active","ping":112},{"user_id":189,"name":"FizzleWizard","steam_id":76561198045990868,"connected_time":125000000000,"state":"active","ping":120}]},{"server_id":119,"name":"Uncletopia | Seattle | 2 | All Maps","name_short":"sea-2","host":"sea-1.us.uncletopia.com","port":27025,"enabled":true,"region":"us-west","cc":"us","latitude":47.608013,"longitude":-122.33517,"reserved":0,"last_update":"0001-01-01T00:00:00Z","name_a2s":"Uncletopia | Seattle | 2 | All Maps","protocol":17,"map":"cp_dustbowl","folder":"tf","game":"Team Fortress","app_id":440,"player_count":24,"max_players":24,"Bots":0,"server_type":"Dedicated","server_os":"Linux","password":true,"vac":true,"version":"7961495","steam_id":85568392924469998,"keywords":["cp","nocrits","nodmgspread","uncletopia"],"game_id":440,"stv_port":27026,"stv_name":"Uncletopia | Seattle | 2 | All Maps | STV","players":[{"user_id":146,"name":"federal agent","steam_id":76561198136278172,"connected_time":1330000000000,"state":"active","ping":119},{"user_id":147,"name":"keffers","steam_id":76561198202338796,"connected_time":1323000000000,"state":"active","ping":106},{"user_id":98,"name":"Eevee (She/Her)","steam_id":76561198271393589,"connected_time":4103000000000,"state":"active","ping":70},{"user_id":162,"name":"--_Cook_--","steam_id":76561198080855748,"connected_time":179000000000,"state":"active","ping":105},{"user_id":126,"name":"Shark Sandwich","steam_id":76561198025007938,"connected_time":3013000000000,"state":"active","ping":40},{"user_id":141,"name":"YOU WHAT?!","steam_id":76561198418679471,"connected_time":1558000000000,"state":"active","ping":106},{"user_id":148,"name":"breathing meat donut","steam_id":76561198123566649,"connected_time":1317000000000,"state":"active","ping":103},{"user_id":156,"name":"Schmupp","steam_id":76561198150928115,"connected_time":1023000000000,"state":"active","ping":76},{"user_id":131,"name":"JDM","steam_id":76561199497603020,"connected_time":2448000000000,"state":"active","ping":84},{"user_id":151,"name":"jerma but crying and lesbian","steam_id":76561198110661425,"connected_time":1224000000000,"state":"active","ping":88},{"user_id":159,"name":"captain red","steam_id":76561198191587983,"connected_time":478000000000,"state":"active","ping":76},{"user_id":137,"name":"Rally Racer","steam_id":76561198044613715,"connected_time":1849000000000,"state":"active","ping":59},{"user_id":117,"name":"ShadowSoul","steam_id":76561198259225072,"connected_time":3300000000000,"state":"active","ping":101},{"user_id":142,"name":"Sugary","steam_id":76561198088267265,"connected_time":1451000000000,"state":"active","ping":92},{"user_id":109,"name":"soldier","steam_id":76561199498571584,"connected_time":3659000000000,"state":"active","ping":57},{"user_id":140,"name":"Colonel Crazy","steam_id":76561198262296550,"connected_time":1651000000000,"state":"active","ping":140},{"user_id":111,"name":"krill your shelfd","steam_id":76561198293556549,"connected_time":3625000000000,"state":"active","ping":54},{"user_id":113,"name":"Immortal8Reaper","steam_id":76561198297661559,"connected_time":3608000000000,"state":"active","ping":77},{"user_id":143,"name":"lvl 99 bastard","steam_id":76561198044761617,"connected_time":1449000000000,"state":"active","ping":135},{"user_id":157,"name":"Chemzo","steam_id":76561199092858118,"connected_time":929000000000,"state":"active","ping":119},{"user_id":149,"name":"NASA PEEPO","steam_id":76561198024982267,"connected_time":1311000000000,"state":"active","ping":61},{"user_id":150,"name":"catrinaisahuman","steam_id":76561198281355729,"connected_time":1252000000000,"state":"active","ping":77},{"user_id":164,"name":"Papi","steam_id":76561198027779564,"connected_time":106000000000,"state":"active","ping":110},{"user_id":158,"name":"nescoceo","steam_id":76561198040801160,"connected_time":690000000000,"state":"active","ping":77}]},{"server_id":406,"name":"Uncletopia | Seattle | 3 | Stopwatch","name_short":"sea-3","host":"sea-1.us.uncletopia.com","port":27035,"enabled":true,"region":"us-west","cc":"us","latitude":47.608013,"longitude":-122.33517,"reserved":0,"last_update":"0001-01-01T00:00:00Z","name_a2s":"Uncletopia | Seattle | 3 | Stopwatch","protocol":17,"map":"cp_granary","folder":"tf","game":"Team Fortress","app_id":440,"player_count":0,"max_players":24,"Bots":0,"server_type":"Dedicated","server_os":"Linux","password":true,"vac":true,"version":"7961495","steam_id":85568392924515217,"keywords":["cp","nocrits","nodmgspread","uncletopia"],"game_id":440,"stv_port":27036,"stv_name":"Uncletopia | Seattle | 3 | Stopwatch | STV","players":null},{"server_id":17,"name":"Uncletopia | San Francisco | 1 | All Maps","name_short":"sfo-1","host":"sfo-1.us.uncletopia.com","port":27015,"enabled":true,"region":"us-west","cc":"us","latitude":37.77397,"longitude":-122.4313,"reserved":0,"last_update":"0001-01-01T00:00:00Z","name_a2s":"Uncletopia | San Francisco | 1 | All Maps","protocol":17,"map":"koth_cascade","folder":"tf","game":"Team Fortress","app_id":440,"player_count":0,"max_players":24,"Bots":0,"server_type":"Dedicated","server_os":"Linux","password":true,"vac":true,"version":"7961495","steam_id":85568392924469999,"keywords":["cp","nocrits","nodmgspread","uncletopia"],"game_id":440,"stv_port":27016,"stv_name":"Uncletopia | San Francisco | 1 | All Maps | STV","players":null},{"server_id":18,"name":"Uncletopia | San Francisco | 2 | All Maps","name_short":"sfo-2","host":"sfo-1.us.uncletopia.com","port":27025,"enabled":true,"region":"us-west","cc":"us","latitude":37.77397,"longitude":-122.4313,"reserved":0,"last_update":"0001-01-01T00:00:00Z","name_a2s":"Uncletopia | San Francisco | 2 | All Maps","protocol":17,"map":"pl_frontier_final","folder":"tf","game":"Team Fortress","app_id":440,"player_count":0,"max_players":24,"Bots":0,"server_type":"Dedicated","server_os":"Linux","password":true,"vac":true,"version":"7961495","steam_id":85568392924470000,"keywords":["nocrits","nodmgspread","payload","uncletopia"],"game_id":440,"stv_port":27026,"stv_name":"Uncletopia | San Francisco | 2 | All Maps | STV","players":null},{"server_id":19,"name":"Uncletopia | San Francisco | 3 | Stopwatch","name_short":"sfo-3","host":"sfo-1.us.uncletopia.com","port":27035,"enabled":true,"region":"us-west","cc":"us","latitude":37.77397,"longitude":-122.4313,"reserved":0,"last_update":"0001-01-01T00:00:00Z","name_a2s":"Uncletopia | San Francisco | 3 | Stopwatch","protocol":17,"map":"pl_pier","folder":"tf","game":"Team Fortress","app_id":440,"player_count":0,"max_players":24,"Bots":0,"server_type":"Dedicated","server_os":"Linux","password":true,"vac":true,"version":"7961495","steam_id":85568392924742824,"keywords":["nocrits","nodmgspread","payload","uncletopia"],"game_id":440,"stv_port":27036,"stv_name":"Uncletopia | San Francisco | 3 | Stopwatch | STV","players":null},{"server_id":20,"name":"Uncletopia | San Francisco | 4 | Community","name_short":"sfo-4","host":"sfo-1.us.uncletopia.com","port":27045,"enabled":true,"region":"us-west","cc":"us","latitude":37.77397,"longitude":-122.4313,"reserved":0,"last_update":"0001-01-01T00:00:00Z","name_a2s":"Uncletopia | San Francisco | 4 | Community","protocol":17,"map":"pl_pier","folder":"tf","game":"Team Fortress","app_id":440,"player_count":0,"max_players":24,"Bots":0,"server_type":"Dedicated","server_os":"Linux","password":true,"vac":true,"version":"7961495","steam_id":85568392924742826,"keywords":["nocrits","nodmgspread","payload","uncletopia"],"game_id":440,"stv_port":27046,"stv_name":"Uncletopia | San Francisco | 4 | Community | STV","players":null},{"server_id":141,"name":"Uncletopia | Sydney | 1 | All Maps","name_short":"syd-1","host":"syd-1.au.uncletopia.com","port":27015,"enabled":true,"region":"au","cc":"au","latitude":-33.865143,"longitude":151.2099,"reserved":0,"last_update":"0001-01-01T00:00:00Z","name_a2s":"Uncletopia | Sydney | 1 | All Maps","protocol":17,"map":"cp_altitude","folder":"tf","game":"Team Fortress","app_id":440,"player_count":0,"max_players":24,"Bots":0,"server_type":"Dedicated","server_os":"Linux","password":true,"vac":true,"version":"7961495","steam_id":85568392924470001,"keywords":["cp","nocrits","nodmgspread","uncletopia"],"game_id":440,"stv_port":27016,"stv_name":"Uncletopia | Sydney | 1 | All Maps | STV","players":null},{"server_id":123,"name":"Uncletopia | Sydney | 2 | All Maps","name_short":"syd-2","host":"syd-1.au.uncletopia.com","port":27025,"enabled":true,"region":"au","cc":"au","latitude":-33.865143,"longitude":151.2099,"reserved":0,"last_update":"0001-01-01T00:00:00Z","name_a2s":"Uncletopia | Sydney | 2 | All Maps","protocol":17,"map":"koth_viaduct","folder":"tf","game":"Team Fortress","app_id":440,"player_count":0,"max_players":24,"Bots":0,"server_type":"Dedicated","server_os":"Linux","password":true,"vac":true,"version":"7961495","steam_id":85568392924470002,"keywords":["cp","nocrits","nodmgspread","uncletopia"],"game_id":440,"stv_port":27026,"stv_name":"Uncletopia | Sydney | 2 | All Maps | STV","players":null},{"server_id":395,"name":"Uncletopia | Sydney | 3 | All Maps","name_short":"syd-3","host":"syd-1.au.uncletopia.com","port":27035,"enabled":true,"region":"au","cc":"au","latitude":-33.865143,"longitude":151.2099,"reserved":0,"last_update":"0001-01-01T00:00:00Z","name_a2s":"Uncletopia | Sydney | 3 | All Maps","protocol":17,"map":"pl_snowycoast","folder":"tf","game":"Team Fortress","app_id":440,"player_count":0,"max_players":24,"Bots":0,"server_type":"Dedicated","server_os":"Linux","password":true,"vac":true,"version":"7961495","steam_id":85568392925194467,"keywords":["nocrits","nodmgspread","payload","uncletopia"],"game_id":440,"stv_port":27036,"stv_name":"Uncletopia | Sydney | 3 | All Maps | STV","players":null},{"server_id":396,"name":"Uncletopia | Sydney | 4 | All Maps","name_short":"syd-4","host":"syd-1.au.uncletopia.com","port":27045,"enabled":true,"region":"au","cc":"au","latitude":-33.865143,"longitude":151.2099,"reserved":0,"last_update":"0001-01-01T00:00:00Z","name_a2s":"Uncletopia | Sydney | 4 | All Maps","protocol":17,"map":"koth_cascade","folder":"tf","game":"Team Fortress","app_id":440,"player_count":0,"max_players":24,"Bots":0,"server_type":"Dedicated","server_os":"Linux","password":true,"vac":true,"version":"7961495","steam_id":85568392925397958,"keywords":["cp","nocrits","nodmgspread","uncletopia"],"game_id":440,"stv_port":27046,"stv_name":"Uncletopia | Sydney | 4 | All Maps | STV","players":null},{"server_id":58,"name":"Uncletopia | Sydney | 5 | Stopwatch","name_short":"syd-5","host":"syd-1.au.uncletopia.com","port":27055,"enabled":true,"region":"au","cc":"au","latitude":-33.865143,"longitude":151.2099,"reserved":0,"last_update":"0001-01-01T00:00:00Z","name_a2s":"Uncletopia | Sydney | 5 | Stopwatch","protocol":17,"map":"workshop/pl_summercoast_rc8e.ugc1761528829","folder":"tf","game":"Team Fortress","app_id":440,"player_count":0,"max_players":24,"Bots":0,"server_type":"Dedicated","server_os":"Linux","password":true,"vac":true,"version":"7961495","steam_id":85568392925397959,"keywords":["nocrits","nodmgspread","payload","uncletopia"],"game_id":440,"stv_port":27056,"stv_name":"Uncletopia | Sydney | 5 | Stopwatch | STV","players":null},{"server_id":59,"name":"Uncletopia | Sydney | 6 | Community","name_short":"syd-6","host":"syd-1.au.uncletopia.com","port":27065,"enabled":true,"region":"au","cc":"au","latitude":-33.865143,"longitude":151.2099,"reserved":0,"last_update":"0001-01-01T00:00:00Z","name_a2s":"Uncletopia | Sydney | 6 | Community","protocol":17,"map":"workshop/koth_trenchfoot_b1a.ugc731436616","folder":"tf","game":"Team Fortress","app_id":440,"player_count":0,"max_players":24,"Bots":0,"server_type":"Dedicated","server_os":"Linux","password":true,"vac":true,"version":"7961495","steam_id":85568392925397960,"keywords":["cp","nocrits","nodmgspread","uncletopia"],"game_id":440,"stv_port":27066,"stv_name":"Uncletopia | Sydney | 6 | Community | STV","players":null},{"server_id":49,"name":"Uncletopia | Warsaw | 1 | One Thousand Uncles","name_short":"waw-1","host":"waw-1.pl.uncletopia.com","port":27015,"enabled":true,"region":"eu","cc":"pl","latitude":52.2297,"longitude":21.017532,"reserved":0,"last_update":"0001-01-01T00:00:00Z","name_a2s":"Uncletopia | Warsaw | 1 | One Thousand Uncles","protocol":17,"map":"cp_mercenarypark","folder":"tf","game":"Team Fortress","app_id":440,"player_count":0,"max_players":32,"Bots":0,"server_type":"Dedicated","server_os":"Linux","password":true,"vac":true,"version":"7961495","steam_id":85568392925397850,"keywords":["alltalk","cp","danepve","increased_maxplayers","nocrits","norespawntime","uncletopia"],"game_id":440,"stv_port":0,"stv_name":"","players":null},{"server_id":50,"name":"Uncletopia | Warsaw | 2 | One Thousand Uncles","name_short":"waw-2","host":"waw-1.pl.uncletopia.com","port":27025,"enabled":true,"region":"eu","cc":"pl","latitude":52.2297,"longitude":21.017532,"reserved":0,"last_update":"0001-01-01T00:00:00Z","name_a2s":"Uncletopia | Warsaw | 2 | One Thousand Uncles","protocol":17,"map":"cp_mercenarypark","folder":"tf","game":"Team Fortress","app_id":440,"player_count":28,"max_players":32,"Bots":16,"server_type":"Dedicated","server_os":"Linux","password":true,"vac":true,"version":"7961495","steam_id":85568392925397851,"keywords":["alltalk","bots","cp","danepve","increased_maxplayers","nocrits","norespawntime","uncletopia"],"game_id":440,"stv_port":0,"stv_name":"","players":[{"user_id":491,"name":"dank pank","steam_id":76561198995052713,"connected_time":3123000000000,"state":"active","ping":67},{"user_id":536,"name":"S.N.C","steam_id":76561198061760484,"connected_time":50000000000,"state":"active","ping":112},{"user_id":533,"name":"SneaK","steam_id":76561198280344773,"connected_time":489000000000,"state":"active","ping":124},{"user_id":534,"name":"I am [XXL]FrEnZy","steam_id":76561198321318862,"connected_time":400000000000,"state":"active","ping":97},{"user_id":530,"name":"AftiksPL","steam_id":76561198875182686,"connected_time":631000000000,"state":"active","ping":63},{"user_id":449,"name":"BUCKET:\\soldier\\Desktop\\","steam_id":76561199047240319,"connected_time":5480000000000,"state":"active","ping":100},{"user_id":523,"name":"Samuel L. Jackson","steam_id":76561198130427881,"connected_time":1288000000000,"state":"active","ping":175},{"user_id":450,"name":"the bee shield","steam_id":76561198315405589,"connected_time":5466000000000,"state":"active","ping":43},{"user_id":537,"name":"Kornel","steam_id":76561199000320652,"connected_time":26000000000,"state":"active","ping":77},{"user_id":522,"name":"ZhuKiss_","steam_id":76561198088147628,"connected_time":1350000000000,"state":"active","ping":47},{"user_id":529,"name":"sphere","steam_id":76561197971059842,"connected_time":677000000000,"state":"active","ping":74},{"user_id":526,"name":"tirr0j","steam_id":76561198061949211,"connected_time":779000000000,"state":"active","ping":69}]},{"server_id":51,"name":"Uncletopia | Warsaw | 3 | All Maps","name_short":"waw-3","host":"waw-1.pl.uncletopia.com","port":27035,"enabled":true,"region":"eu","cc":"pl","latitude":52.2297,"longitude":21.017532,"reserved":0,"last_update":"0001-01-01T00:00:00Z","name_a2s":"Uncletopia | Warsaw | 3 | All Maps","protocol":17,"map":"pl_pier","folder":"tf","game":"Team Fortress","app_id":440,"player_count":24,"max_players":24,"Bots":0,"server_type":"Dedicated","server_os":"Linux","password":true,"vac":true,"version":"7961495","steam_id":85568392925397852,"keywords":["nocrits","nodmgspread","payload","uncletopia"],"game_id":440,"stv_port":27036,"stv_name":"Uncletopia | Warsaw | 3 | All Maps | STV","players":[{"user_id":76,"name":"Saul Badsex","steam_id":76561198173218318,"connected_time":365000000000,"state":"active","ping":60},{"user_id":69,"name":"meta1","steam_id":76561198087824752,"connected_time":832000000000,"state":"active","ping":60},{"user_id":52,"name":"7evaa","steam_id":76561198046754534,"connected_time":1613000000000,"state":"active","ping":91},{"user_id":53,"name":"Vexeus","steam_id":76561198190475806,"connected_time":1602000000000,"state":"active","ping":105},{"user_id":18,"name":"blissful overdose","steam_id":76561199092286532,"connected_time":3776000000000,"state":"active","ping":58},{"user_id":74,"name":"MajorKlebstoff","steam_id":76561198035489363,"connected_time":545000000000,"state":"active","ping":45},{"user_id":39,"name":"HTML","steam_id":76561199435629385,"connected_time":2007000000000,"state":"active","ping":104},{"user_id":75,"name":"Citler","steam_id":76561199115241703,"connected_time":431000000000,"state":"active","ping":81},{"user_id":54,"name":"Master Of Noob","steam_id":76561198217926783,"connected_time":1585000000000,"state":"active","ping":79},{"user_id":85,"name":"Mischail","steam_id":76561198016127010,"connected_time":216000000000,"state":"active","ping":89},{"user_id":86,"name":"I saw Jesus enlist in Vietnam","steam_id":76561198082466790,"connected_time":151000000000,"state":"active","ping":67},{"user_id":68,"name":"Keke","steam_id":76561198042032908,"connected_time":938000000000,"state":"active","ping":105},{"user_id":81,"name":"JohnTraveltime","steam_id":76561199244281754,"connected_time":264000000000,"state":"active","ping":74},{"user_id":30,"name":"Sex Monster","steam_id":76561199426920744,"connected_time":2625000000000,"state":"active","ping":81},{"user_id":82,"name":"UltraCaustic","steam_id":76561198843328797,"connected_time":235000000000,"state":"active","ping":59},{"user_id":87,"name":"Bodolaz","steam_id":76561198031327763,"connected_time":58000000000,"state":"active","ping":74},{"user_id":48,"name":"Ye","steam_id":76561198354719262,"connected_time":1762000000000,"state":"active","ping":71},{"user_id":80,"name":"I Don't Know","steam_id":76561198841011430,"connected_time":276000000000,"state":"active","ping":74},{"user_id":60,"name":"GGabe","steam_id":76561198117199068,"connected_time":1366000000000,"state":"active","ping":84},{"user_id":37,"name":"Klaus","steam_id":76561198150394201,"connected_time":2163000000000,"state":"active","ping":59},{"user_id":61,"name":"Dirk.van.den.Broek 2008","steam_id":76561198124226614,"connected_time":1365000000000,"state":"active","ping":60},{"user_id":62,"name":"JVLIVS","steam_id":76561198366167099,"connected_time":1347000000000,"state":"active","ping":75},{"user_id":83,"name":"brediest bread","steam_id":76561199079720355,"connected_time":228000000000,"state":"active","ping":79},{"user_id":84,"name":"vurtun","steam_id":76561198857395274,"connected_time":228000000000,"state":"active","ping":57}]},{"server_id":52,"name":"Uncletopia | Warsaw | 4 | All Maps","name_short":"waw-4","host":"waw-1.pl.uncletopia.com","port":27045,"enabled":true,"region":"eu","cc":"pl","latitude":52.2297,"longitude":21.017532,"reserved":0,"last_update":"0001-01-01T00:00:00Z","name_a2s":"Uncletopia | Warsaw | 4 | All Maps","protocol":17,"map":"pl_frontier_final","folder":"tf","game":"Team Fortress","app_id":440,"player_count":2,"max_players":24,"Bots":0,"server_type":"Dedicated","server_os":"Linux","password":true,"vac":true,"version":"7961495","steam_id":85568392925397853,"keywords":["nocrits","nodmgspread","payload","uncletopia"],"game_id":440,"stv_port":27046,"stv_name":"Uncletopia | Warsaw | 4 | All Maps | STV","players":[{"user_id":37,"name":"realguy","steam_id":76561198821743257,"connected_time":1474000000000,"state":"active","ping":93},{"user_id":35,"name":"jjkun786","steam_id":76561199438517484,"connected_time":1578000000000,"state":"active","ping":71}]},{"server_id":53,"name":"Uncletopia | Warsaw | 5 | Stopwatch","name_short":"waw-5","host":"waw-1.pl.uncletopia.com","port":27055,"enabled":true,"region":"eu","cc":"pl","latitude":52.2297,"longitude":21.017532,"reserved":0,"last_update":"0001-01-01T00:00:00Z","name_a2s":"Uncletopia | Warsaw | 5 | Stopwatch","protocol":17,"map":"pl_swiftwater_final1","folder":"tf","game":"Team Fortress","app_id":440,"player_count":0,"max_players":24,"Bots":0,"server_type":"Dedicated","server_os":"Linux","password":true,"vac":true,"version":"7961495","steam_id":85568392925397854,"keywords":["nocrits","nodmgspread","payload","uncletopia"],"game_id":440,"stv_port":27056,"stv_name":"Uncletopia | Warsaw | 5 | Stopwatch | STV","players":null},{"server_id":54,"name":"Uncletopia | Warsaw | 6 | Community","name_short":"waw-6","host":"waw-1.pl.uncletopia.com","port":27065,"enabled":true,"region":"eu","cc":"pl","latitude":52.2297,"longitude":21.017532,"reserved":0,"last_update":"0001-01-01T00:00:00Z","name_a2s":"Uncletopia | Warsaw | 6 | Community","protocol":17,"map":"workshop/pl_badwater_pro_v12.ugc2142942074","folder":"tf","game":"Team Fortress","app_id":440,"player_count":0,"max_players":24,"Bots":0,"server_type":"Dedicated","server_os":"Linux","password":true,"vac":true,"version":"7961495","steam_id":85568392925397856,"keywords":["nocrits","nodmgspread","payload","uncletopia"],"game_id":440,"stv_port":27066,"stv_name":"Uncletopia | Warsaw | 6 | Community | STV","players":null}]}