{"status":true,"message":"","result":[{"server_id":9,"name":"Uncletopia | Atlanta | 1 | All Maps","name_short":"atl-1","host":"atl-1.us.uncletopia.com","port":27015,"enabled":true,"region":"us-east","cc":"us","latitude":33.753746,"longitude":-84.38633,"reserved":0,"last_update":"0001-01-01T00:00:00Z","name_a2s":"Uncletopia | Atlanta | 1 | All Maps","protocol":17,"map":"koth_lakeside_final","folder":"tf","game":"Team Fortress","app_id":440,"player_count":23,"max_players":24,"Bots":0,"server_type":"Dedicated","server_os":"Linux","password":true,"vac":true,"version":"7882260","steam_id":85568392924469982,"keywords":["cp","nocrits","nodmgspread","uncletopia"],"game_id":440,"stv_port":27016,"stv_name":"Uncletopia | Atlanta | 1 | All Maps | STV","players":[{"user_id":131,"name":"chubbbo","steam_id":76561198943598378,"connected_time":2851000000000,"state":"active","ping":35},{"user_id":160,"name":"Portal2Player","steam_id":76561198062870114,"connected_time":698000000000,"state":"active","ping":84},{"user_id":132,"name":"ATL1 | on my hunting trip","steam_id":76561198315341646,"connected_time":2850000000000,"state":"active","ping":71},{"user_id":126,"name":"emily","steam_id":76561198148132163,"connected_time":4032000000000,"state":"active","ping":83},{"user_id":145,"name":"scio","steam_id":76561199001930207,"connected_time":2188000000000,"state":"active","ping":68},{"user_id":159,"name":"Bumble Bea","steam_id":76561198061287895,"connected_time":827000000000,"state":"active","ping":99},{"user_id":54,"name":"Jesse","steam_id":76561198157305426,"connected_time":9467000000000,"state":"active","ping":41},{"user_id":155,"name":"African Despot","steam_id":76561198169966346,"connected_time":1482000000000,"state":"active","ping":76},{"user_id":144,"name":"goo goo gaga","steam_id":76561198036884600,"connected_time":2266000000000,"state":"active","ping":66},{"user_id":166,"name":"Idiot Princess","steam_id":76561198048205270,"connected_time":606000000000,"state":"active","ping":101},{"user_id":153,"name":"ringer","steam_id":76561198073103529,"connected_time":1578000000000,"state":"active","ping":61},{"user_id":119,"name":"Le4n!!!","steam_id":76561198045522596,"connected_time":4673000000000,"state":"active","ping":60},{"user_id":168,"name":"sex","steam_id":76561198198787713,"connected_time":67000000000,"state":"active","ping":72},{"user_id":162,"name":"SeaBass","steam_id":76561197982949108,"connected_time":663000000000,"state":"active","ping":49},{"user_id":152,"name":"Apricot","steam_id":76561198355699935,"connected_time":1678000000000,"state":"active","ping":83},{"user_id":139,"name":"Sophie","steam_id":76561198170408057,"connected_time":2580000000000,"state":"active","ping":45},{"user_id":41,"name":"AlcoholicDad454","steam_id":76561198157414556,"connected_time":10092000000000,"state":"active","ping":69},{"user_id":142,"name":"denzy_","steam_id":76561198873788683,"connected_time":2422000000000,"state":"active","ping":54},{"user_id":134,"name":"Inkmix(donkey kong enjoyer)","steam_id":76561198854070384,"connected_time":2831000000000,"state":"active","ping":102},{"user_id":167,"name":"that's showbiz, baybee","steam_id":76561197998258233,"connected_time":172000000000,"state":"active","ping":59},{"user_id":43,"name":"That70sDog","steam_id":76561198119396142,"connected_time":10068000000000,"state":"active","ping":76},{"user_id":164,"name":"Rango","steam_id":76561198067275912,"connected_time":637000000000,"state":"active","ping":126},{"user_id":165,"name":"Hope","steam_id":76561199201900779,"connected_time":620000000000,"state":"active","ping":73}]},{"server_id":104,"name":"Uncletopia | Atlanta | 2 | All Maps","name_short":"atl-2","host":"atl-1.us.uncletopia.com","port":27025,"enabled":true,"region":"us-east","cc":"us","latitude":33.753746,"longitude":-84.38633,"reserved":0,"last_update":"0001-01-01T00:00:00Z","name_a2s":"Uncletopia | Atlanta | 2 | All Maps","protocol":17,"map":"koth_highpass","folder":"tf","game":"Team Fortress","app_id":440,"player_count":0,"max_players":24,"Bots":0,"server_type":"Dedicated","server_os":"Linux","password":true,"vac":true,"version":"7882260","steam_id":85568392924469983,"keywords":["cp","nocrits","nodmgspread","uncletopia"],"game_id":440,"stv_port":27026,"stv_name":"Uncletopia | Atlanta | 2 | All Maps | STV","players":null},{"server_id":400,"name":"Uncletopia | Atlanta | 3 | Community","name_short":"atl-3","host":"atl-1.us.uncletopia.com","port":27035,"enabled":true,"region":"us-east","cc":"us","latitude":33.753746,"longitude":-84.38633,"reserved":0,"last_update":"0001-01-01T00:00:00Z","name_a2s":"Uncletopia | Atlanta | 3 | Community","protocol":17,"map":"workshop/koth_kemptown_rc1.ugc767410655","folder":"tf","game":"Team Fortress","app_id":440,"player_count":24,"max_players":24,"Bots":0,"server_type":"Dedicated","server_os":"Linux","password":true,"vac":true,"version":"7882260","steam_id":85568392924515187,"keywords":["cp","nocrits","nodmgspread","uncletopia"],"game_id":440,"stv_port":27036,"stv_name":"Uncletopia | Atlanta | 3 | Community | STV","players":[{"user_id":329,"name":"Corzap","steam_id":76561198086030373,"connected_time":962000000000,"state":"active","ping":113},{"user_id":322,"name":"TI-83 Plus","steam_id":76561198316134443,"connected_time":1349000000000,"state":"active","ping":54},{"user_id":321,"name":"Mablinlok","steam_id":76561197992718242,"connected_time":1366000000000,"state":"active","ping":69},{"user_id":308,"name":"asbestos","steam_id":76561198079178866,"connected_time":1854000000000,"state":"active","ping":73},{"user_id":332,"name":"dirty dank","steam_id":76561198360904432,"connected_time":879000000000,"state":"active","ping":59},{"user_id":339,"name":"TruGoo","steam_id":76561198147154669,"connected_time":370000000000,"state":"active","ping":57},{"user_id":340,"name":"E4Estrogen","steam_id":76561198085813708,"connected_time":324000000000,"state":"active","ping":56},{"user_id":337,"name":"IPlayGamez","steam_id":76561198041387508,"connected_time":535000000000,"state":"active","ping":59},{"user_id":331,"name":"gojoel","steam_id":76561198251181946,"connected_time":946000000000,"state":"active","ping":130},{"user_id":314,"name":"J.G. Klaus","steam_id":76561198001111196,"connected_time":1656000000000,"state":"active","ping":73},{"user_id":343,"name":"Huggernaut","steam_id":76561198043998084,"connected_time":72000000000,"state":"active","ping":87},{"user_id":318,"name":"Serenue","steam_id":76561199040361250,"connected_time":1594000000000,"state":"active","ping":85},{"user_id":316,"name":"potatotomato","steam_id":76561199092769902,"connected_time":1648000000000,"state":"active","ping":68},{"user_id":335,"name":"kazoo2","steam_id":76561198260473504,"connected_time":780000000000,"state":"active","ping":79},{"user_id":342,"name":"Qwonk","steam_id":76561198041975003,"connected_time":318000000000,"state":"active","ping":60},{"user_id":274,"name":"Viennetta","steam_id":76561198044088335,"connected_time":4823000000000,"state":"active","ping":87},{"user_id":302,"name":"Sexual Butt","steam_id":76561198102241399,"connected_time":2518000000000,"state":"active","ping":82},{"user_id":328,"name":"Antifa Supersoldier","steam_id":76561198141816516,"connected_time":1051000000000,"state":"active","ping":80},{"user_id":276,"name":"Mister Rattlebones","steam_id":76561198065560157,"connected_time":4802000000000,"state":"active","ping":50},{"user_id":344,"name":"Maverick","steam_id":76561198322829814,"connected_time":22000000000,"state":"active","ping":77},{"user_id":327,"name":"Verily","steam_id":76561198200558318,"connected_time":1214000000000,"state":"active","ping":67},{"user_id":277,"name":"LegendaryMister151","steam_id":76561198064890524,"connected_time":4774000000000,"state":"active","ping":90},{"user_id":288,"name":"Loaf E¬≤r","steam_id":76561198174967027,"connected_time":3143000000000,"state":"active","ping":46},{"user_id":291,"name":"Daz","steam_id":76561198041431938,"connected_time":2941000000000,"state":"active","ping":107}]},{"server_id":401,"name":"Uncletopia | Atlanta | 4 | No Payload","name_short":"atl-4","host":"atl-1.us.uncletopia.com","port":27045,"enabled":true,"region":"us-east","cc":"us","latitude":33.753746,"longitude":-84.38633,"reserved":0,"last_update":"0001-01-01T00:00:00Z","name_a2s":"","protocol":0,"map":"","folder":"","game":"","app_id":0,"player_count":0,"max_players":0,"Bots":0,"server_type":"","server_os":"","password":false,"vac":false,"version":"","steam_id":0,"keywords":null,"game_id":0,"stv_port":0,"stv_name":"","players":null},{"server_id":2,"name":"Uncletopia | Chicago | 1 | All Maps","name_short":"chi-1","host":"chi-1.us.uncletopia.com","port":27015,"enabled":true,"region":"us-central","cc":"us","latitude":41.881832,"longitude":-87.62318,"reserved":0,"last_update":"0001-01-01T00:00:00Z","name_a2s":"Uncletopia | Chicago | 1 | All Maps","protocol":17,"map":"pl_pier","folder":"tf","game":"Team Fortress","app_id":440,"player_count":23,"max_players":24,"Bots":0,"server_type":"Dedicated","server_os":"Linux","password":true,"vac":true,"version":"7882260","steam_id":85568392924469984,"keywords":["nocrits","nodmgspread","payload","uncletopia"],"game_id":440,"stv_port":27016,"stv_name":"Uncletopia | Chicago | 1 | All Maps | STV","players":[{"user_id":357,"name":"Takyon","steam_id":76561198172075186,"connected_time":2178000000000,"state":"active","ping":168},{"user_id":390,"name":"LeTonzy","steam_id":76561198005806699,"connected_time":518000000000,"state":"active","ping":117},{"user_id":391,"name":"Milk","steam_id":76561198175903221,"connected_time":474000000000,"state":"active","ping":74},{"user_id":335,"name":"Alpharious","steam_id":76561197970289529,"connected_time":5017000000000,"state":"active","ping":71},{"user_id":388,"name":"SanitysEdge","steam_id":76561198130732813,"connected_time":548000000000,"state":"active","ping":94},{"user_id":382,"name":"Rya‚ò∫","steam_id":76561198370128860,"connected_time":821000000000,"state":"active","ping":70},{"user_id":392,"name":"ECCO","steam_id":76561198002821513,"connected_time":462000000000,"state":"active","ping":55},{"user_id":394,"name":"Tok Hakaay","steam_id":76561199311828303,"connected_time":450000000000,"state":"active","ping":83},{"user_id":398,"name":"Blade","steam_id":76561198153163098,"connected_time":128000000000,"state":"active","ping":83},{"user_id":387,"name":"josh R\u0026M.TF","steam_id":76561198111565081,"connected_time":569000000000,"state":"active","ping":106},{"user_id":385,"name":"-W3E- grim10465","steam_id":76561198045698581,"connected_time":721000000000,"state":"active","ping":45},{"user_id":362,"name":"goliath birdeater","steam_id":76561198089852954,"connected_time":2165000000000,"state":"active","ping":75},{"user_id":372,"name":"üé≠","steam_id":76561199486702999,"connected_time":1193000000000,"state":"active","ping":67},{"user_id":399,"name":"Metaman","steam_id":76561198149543644,"connected_time":66000000000,"state":"active","ping":66},{"user_id":364,"name":"Iceman10a","steam_id":76561198171922098,"connected_time":2124000000000,"state":"active","ping":114},{"user_id":377,"name":"LARGE JOSEPH SPANK ALMONDS","steam_id":76561198043297335,"connected_time":1082000000000,"state":"active","ping":54},{"user_id":367,"name":"alfredodan #RunThatBack","steam_id":76561198025011044,"connected_time":1927000000000,"state":"active","ping":75},{"user_id":374,"name":"Nolan","steam_id":76561198169648081,"connected_time":1121000000000,"state":"active","ping":84},{"user_id":393,"name":"logg","steam_id":76561198179595013,"connected_time":459000000000,"state":"active","ping":73},{"user_id":397,"name":"maS","steam_id":76561198033846407,"connected_time":230000000000,"state":"active","ping":51},{"user_id":380,"name":"Frontier Psychiatrist","steam_id":76561198038689088,"connected_time":976000000000,"state":"active","ping":86},{"user_id":358,"name":"daddyshreklover69suckafart","steam_id":76561198041643833,"connected_time":2177000000000,"state":"active","ping":79},{"user_id":401,"name":"Whilthis","steam_id":76561198079227153,"connected_time":32000000000,"state":"active","ping":136}]},{"server_id":106,"name":"Uncletopia | Chicago | 2 | All Maps","name_short":"chi-2","host":"chi-1.us.uncletopia.com","port":27025,"enabled":true,"region":"us-central","cc":"us","latitude":41.881832,"longitude":-87.62318,"reserved":0,"last_update":"0001-01-01T00:00:00Z","name_a2s":"Uncletopia | Chicago | 2 | All Maps","protocol":17,"map":"koth_harvest_final","folder":"tf","game":"Team Fortress","app_id":440,"player_count":23,"max_players":24,"Bots":0,"server_type":"Dedicated","server_os":"Linux","password":true,"vac":true,"version":"7882260","steam_id":85568392924469985,"keywords":["cp","nocrits","nodmgspread","uncletopia"],"game_id":440,"stv_port":27026,"stv_name":"Uncletopia | Chicago | 2 | All Maps | STV","players":[{"user_id":8,"name":"Triples_","steam_id":76561198094249561,"connected_time":10846000000000,"state":"active","ping":55},{"user_id":126,"name":"jawn bong jovi","steam_id":76561197988234127,"connected_time":1209000000000,"state":"active","ping":68},{"user_id":129,"name":"DesertFroggo","steam_id":76561198015607829,"connected_time":259000000000,"state":"active","ping":117},{"user_id":130,"name":"pHsHy","steam_id":76561198013195018,"connected_time":234000000000,"state":"active","ping":73},{"user_id":131,"name":"Drew P. Sack","steam_id":76561198036201738,"connected_time":212000000000,"state":"active","ping":50},{"user_id":132,"name":"FusedDragon","steam_id":76561199454171403,"connected_time":208000000000,"state":"active","ping":73},{"user_id":93,"name":"Yam Jazzy Jim","steam_id":76561198000788950,"connected_time":4581000000000,"state":"active","ping":60},{"user_id":133,"name":"Magik","steam_id":76561198115443354,"connected_time":130000000000,"state":"active","ping":51},{"user_id":125,"name":"ray (the based god)","steam_id":76561198311984941,"connected_time":1303000000000,"state":"active","ping":64},{"user_id":134,"name":"Spyro the wagon","steam_id":76561198059485070,"connected_time":125000000000,"state":"active","ping":109},{"user_id":135,"name":"ExtraChromosome 47","steam_id":76561198287822675,"connected_time":121000000000,"state":"active","ping":79},{"user_id":95,"name":"Maybe","steam_id":76561198268304564,"connected_time":4561000000000,"state":"active","ping":75},{"user_id":136,"name":"spud stealer 2000","steam_id":76561199264293695,"connected_time":119000000000,"state":"active","ping":66},{"user_id":137,"name":"Elevator","steam_id":76561198974286387,"connected_time":100000000000,"state":"active","ping":71},{"user_id":138,"name":"PackedGorgon","steam_id":76561198042686806,"connected_time":98000000000,"state":"active","ping":83},{"user_id":139,"name":"Sergeant Joker #savetf2","steam_id":76561198854616604,"connected_time":81000000000,"state":"active","ping":65},{"user_id":117,"name":"A Puppy","steam_id":76561198828184456,"connected_time":2704000000000,"state":"active","ping":57},{"user_id":105,"name":"Pheonix","steam_id":76561199470538309,"connected_time":4254000000000,"state":"active","ping":60},{"user_id":140,"name":"captain red","steam_id":76561198191587983,"connected_time":81000000000,"state":"active","ping":85},{"user_id":141,"name":"joemoe84g","steam_id":76561199141651280,"connected_time":56000000000,"state":"active","ping":88},{"user_id":123,"name":"Marlboro Man","steam_id":76561198117279677,"connected_time":2082000000000,"state":"active","ping":91},{"user_id":142,"name":"bisonist","steam_id":76561198376231372,"connected_time":55000000000,"state":"active","ping":61},{"user_id":143,"name":"Hog Rider","steam_id":76561198270106555,"connected_time":38000000000,"state":"active","ping":117}]},{"server_id":402,"name":"Uncletopia | Chicago | 3 | All Maps","name_short":"chi-3","host":"chi-1.us.uncletopia.com","port":27035,"enabled":true,"region":"us-central","cc":"us","latitude":41.881832,"longitude":-87.62318,"reserved":0,"last_update":"0001-01-01T00:00:00Z","name_a2s":"Uncletopia | Chicago | 3 | All Maps","protocol":17,"map":"pl_pier","folder":"tf","game":"Team Fortress","app_id":440,"player_count":24,"max_players":24,"Bots":0,"server_type":"Dedicated","server_os":"Linux","password":true,"vac":true,"version":"7882260","steam_id":85568392924515191,"keywords":["nocrits","nodmgspread","payload","uncletopia"],"game_id":440,"stv_port":27036,"stv_name":"Uncletopia | Chicago | 3 | All Maps | STV","players":[{"user_id":16,"name":"Jawboner","steam_id":76561198141398273,"connected_time":5319000000000,"state":"active","ping":63},{"user_id":82,"name":"SyNing","steam_id":76561198213435803,"connected_time":939000000000,"state":"active","ping":46},{"user_id":95,"name":"Sturdy","steam_id":76561198138131840,"connected_time":22000000000,"state":"active","ping":85},{"user_id":93,"name":"milo","steam_id":76561199061380038,"connected_time":85000000000,"state":"active","ping":65},{"user_id":66,"name":"Noble","steam_id":76561199013705323,"connected_time":2034000000000,"state":"active","ping":64},{"user_id":27,"name":"INVEST IN SKYNET::œÑRU œÑAO","steam_id":76561198144436132,"connected_time":4434000000000,"state":"active","ping":80},{"user_id":83,"name":"richarven","steam_id":76561198189429665,"connected_time":761000000000,"state":"active","ping":63},{"user_id":86,"name":"AstroVulpes","steam_id":76561198384277161,"connected_time":450000000000,"state":"active","ping":154},{"user_id":80,"name":"Pocket Snipers","steam_id":76561198207987376,"connected_time":1641000000000,"state":"active","ping":60},{"user_id":87,"name":"Fobby #Savetf2","steam_id":76561198047681469,"connected_time":425000000000,"state":"active","ping":77},{"user_id":92,"name":"yomo","steam_id":76561198063175935,"connected_time":349000000000,"state":"active","ping":74},{"user_id":56,"name":"fred","steam_id":76561199065834574,"connected_time":3188000000000,"state":"active","ping":90},{"user_id":89,"name":"„ÄåMage„Äç","steam_id":76561198150620467,"connected_time":406000000000,"state":"active","ping":46},{"user_id":38,"name":"Double Donk","steam_id":76561198209881263,"connected_time":4178000000000,"state":"active","ping":100},{"user_id":85,"name":"bape","steam_id":76561198253731826,"connected_time":594000000000,"state":"active","ping":53},{"user_id":90,"name":"Bonk Co.","steam_id":76561198009355408,"connected_time":390000000000,"state":"active","ping":103},{"user_id":53,"name":"Gaskranx","steam_id":76561198020269547,"connected_time":3453000000000,"state":"active","ping":70},{"user_id":72,"name":"hopeless","steam_id":76561198305056374,"connected_time":1970000000000,"state":"active","ping":69},{"user_id":50,"name":"meth ape","steam_id":76561199110579692,"connected_time":3894000000000,"state":"active","ping":80},{"user_id":81,"name":"Horsecat","steam_id":76561198061653283,"connected_time":1543000000000,"state":"active","ping":130},{"user_id":91,"name":"EddyQTooReal","steam_id":76561198088480679,"connected_time":377000000000,"state":"active","ping":60},{"user_id":74,"name":"sunny","steam_id":76561198069380992,"connected_time":1914000000000,"state":"active","ping":76},{"user_id":84,"name":"anonion","steam_id":76561198056477584,"connected_time":686000000000,"state":"active","ping":80},{"user_id":61,"name":"souljaboytellem.com","steam_id":76561198111975583,"connected_time":3140000000000,"state":"active","ping":72}]},{"server_id":403,"name":"Uncletopia | Chicago | 4 | All Maps","name_short":"chi-4","host":"chi-1.us.uncletopia.com","port":27045,"enabled":true,"region":"us-central","cc":"us","latitude":41.881832,"longitude":-87.62318,"reserved":0,"last_update":"0001-01-01T00:00:00Z","name_a2s":"Uncletopia | Chicago | 4 | All Maps","protocol":17,"map":"pl_upward","folder":"tf","game":"Team Fortress","app_id":440,"player_count":1,"max_players":24,"Bots":0,"server_type":"Dedicated","server_os":"Linux","password":true,"vac":true,"version":"7882260","steam_id":85568392924515193,"keywords":["nocrits","nodmgspread","payload","uncletopia"],"game_id":440,"stv_port":27046,"stv_name":"Uncletopia | Chicago | 4 | All Maps | STV","players":[{"user_id":22,"name":"super dookie 69","steam_id":76561198300660227,"connected_time":5000000000,"state":"spawning","ping":44}]},{"server_id":36,"name":"Uncletopia | Chicago | 5 | All Maps","name_short":"chi-5","host":"chi-2.us.uncletopia.com","port":27015,"enabled":true,"region":"us-central","cc":"us","latitude":41.881832,"longitude":-87.62318,"reserved":0,"last_update":"0001-01-01T00:00:00Z","name_a2s":"Uncletopia | Chicago | 5 | All Maps","protocol":17,"map":"koth_viaduct","folder":"tf","game":"Team Fortress","app_id":440,"player_count":0,"max_players":24,"Bots":0,"server_type":"Dedicated","server_os":"Linux","password":true,"vac":true,"version":"7882260","steam_id":85568392924866362,"keywords":["cp","nocrits","nodmgspread","uncletopia"],"game_id":440,"stv_port":27016,"stv_name":"Uncletopia | Chicago | 5 | All Maps | STV","players":null},{"server_id":37,"name":"Uncletopia | Chicago | 6 | All Maps","name_short":"chi-6","host":"chi-2.us.uncletopia.com","port":27025,"enabled":true,"region":"us-central","cc":"us","latitude":41.881832,"longitude":-87.62318,"reserved":0,"last_update":"0001-01-01T00:00:00Z","name_a2s":"Uncletopia | Chicago | 6 | All Maps","protocol":17,"map":"cp_altitude","folder":"tf","game":"Team Fortress","app_id":440,"player_count":0,"max_players":24,"Bots":0,"server_type":"Dedicated","server_os":"Linux","password":true,"vac":true,"version":"7882260","steam_id":85568392924866363,"keywords":["cp","nocrits","nodmgspread","uncletopia"],"game_id":440,"stv_port":27026,"stv_name":"Uncletopia | Chicago | 6 | All Maps | STV","players":null},{"server_id":38,"name":"Uncletopia | Chicago | 7 | Stopwatch Beta","name_short":"chi-7","host":"chi-2.us.uncletopia.com","port":27035,"enabled":true,"region":"us-central","cc":"us","latitude":41.881832,"longitude":-87.62318,"reserved":0,"last_update":"0001-01-01T00:00:00Z","name_a2s":"Uncletopia | Chicago | 7 | Stopwatch Beta","protocol":17,"map":"pl_upward","folder":"tf","game":"Team Fortress","app_id":440,"player_count":0,"max_players":24,"Bots":0,"server_type":"Dedicated","server_os":"Linux","password":true,"vac":true,"version":"7882260","steam_id":85568392924866364,"keywords":["nocrits","nodmgspread","payload","uncletopia"],"game_id":440,"stv_port":27036,"stv_name":"Uncletopia | Chicago | 7 | Stopwatch Beta | STV","players":null},{"server_id":39,"name":"Uncletopia | Chicago | 8 | Community","name_short":"chi-8","host":"chi-2.us.uncletopia.com","port":27045,"enabled":true,"region":"us-central","cc":"us","latitude":41.881832,"longitude":-87.62318,"reserved":0,"last_update":"0001-01-01T00:00:00Z","name_a2s":"Uncletopia | Chicago | 8 | Community","protocol":17,"map":"pl_badwater","folder":"tf","game":"Team Fortress","app_id":440,"player_count":0,"max_players":24,"Bots":0,"server_type":"Dedicated","server_os":"Linux","password":true,"vac":true,"version":"7882260","steam_id":85568392924866365,"keywords":["nocrits","nodmgspread","payload","uncletopia"],"game_id":440,"stv_port":27046,"stv_name":"Uncletopia | Chicago | 8 | Community | STV","players":null},{"server_id":8,"name":"Uncletopia | Dallas | 1 | All Maps","name_short":"dal-1","host":"dal-1.us.uncletopia.com","port":27015,"enabled":true,"region":"us-central","cc":"us","latitude":32.779167,"longitude":-96.80889,"reserved":0,"last_update":"0001-01-01T00:00:00Z","name_a2s":"Uncletopia | Dallas | 1 | All Maps","protocol":17,"map":"cp_dustbowl","folder":"tf","game":"Team Fortress","app_id":440,"player_count":24,"max_players":24,"Bots":0,"server_type":"Dedicated","server_os":"Linux","password":true,"vac":true,"version":"7882260","steam_id":85568392924469986,"keywords":["cp","nocrits","nodmgspread","uncletopia"],"game_id":440,"stv_port":27016,"stv_name":"Uncletopia | Dallas | 1 | All Maps | STV","players":[{"user_id":58,"name":"toastylotus","steam_id":76561198060043969,"connected_time":2941000000000,"state":"active","ping":82},{"user_id":87,"name":"denzell05","steam_id":76561198086987061,"connected_time":1380000000000,"state":"active","ping":91},{"user_id":60,"name":"Chunk Stuffer","steam_id":76561198856508573,"connected_time":2936000000000,"state":"active","ping":32},{"user_id":61,"name":"Box","steam_id":76561198973425038,"connected_time":2840000000000,"state":"active","ping":89},{"user_id":105,"name":"foolie","steam_id":76561198256261426,"connected_time":322000000000,"state":"active","ping":87},{"user_id":106,"name":"(real)","steam_id":76561198072651849,"connected_time":308000000000,"state":"active","ping":63},{"user_id":65,"name":"LooneyMonkey","steam_id":76561198414675183,"connected_time":2537000000000,"state":"active","ping":57},{"user_id":93,"name":"Chief Diggery K.","steam_id":76561198066629137,"connected_time":1016000000000,"state":"active","ping":85},{"user_id":102,"name":"RagingBagon","steam_id":76561198255453127,"connected_time":558000000000,"state":"active","ping":71},{"user_id":94,"name":"Mando","steam_id":76561198139662905,"connected_time":991000000000,"state":"active","ping":63},{"user_id":69,"name":"SlurpyTheDog","steam_id":76561198799733154,"connected_time":2170000000000,"state":"active","ping":75},{"user_id":92,"name":"doglover39","steam_id":76561198869058885,"connected_time":1061000000000,"state":"active","ping":72},{"user_id":78,"name":"LAMMY FROM UM JAMMER LAMMY","steam_id":76561199013140117,"connected_time":1885000000000,"state":"active","ping":112},{"user_id":72,"name":"CadenLCheese","steam_id":76561199105517435,"connected_time":2052000000000,"state":"active","ping":111},{"user_id":73,"name":"good soup guy","steam_id":76561199210237835,"connected_time":2034000000000,"state":"active","ping":102},{"user_id":100,"name":"Ace_Steele23","steam_id":76561198086867678,"connected_time":752000000000,"state":"active","ping":67},{"user_id":96,"name":"hatchetax","steam_id":76561199013337543,"connected_time":927000000000,"state":"active","ping":71},{"user_id":76,"name":"El Bondin","steam_id":76561198820792434,"connected_time":2008000000000,"state":"active","ping":99},{"user_id":91,"name":"Discourse","steam_id":76561198984286678,"connected_time":1306000000000,"state":"active","ping":79},{"user_id":107,"name":"MED","steam_id":76561198389670774,"connected_time":292000000000,"state":"active","ping":169},{"user_id":83,"name":"alont9","steam_id":76561199476584025,"connected_time":1717000000000,"state":"active","ping":99},{"user_id":84,"name":"‚§£RASCAL","steam_id":76561198269038647,"connected_time":1713000000000,"state":"active","ping":92},{"user_id":99,"name":"Blazing Hyena","steam_id":76561199121852680,"connected_time":848000000000,"state":"active","ping":90},{"user_id":90,"name":"MINILEGOLAS","steam_id":76561198859362058,"connected_time":1335000000000,"state":"active","ping":80}]},{"server_id":108,"name":"Uncletopia | Dallas | 2 | All Maps","name_short":"dal-2","host":"dal-1.us.uncletopia.com","port":27025,"enabled":true,"region":"us-central","cc":"us","latitude":32.779167,"longitude":-96.80889,"reserved":0,"last_update":"0001-01-01T00:00:00Z","name_a2s":"Uncletopia | Dallas | 2 | All Maps","protocol":17,"map":"pl_barnblitz","folder":"tf","game":"Team Fortress","app_id":440,"player_count":7,"max_players":24,"Bots":0,"server_type":"Dedicated","server_os":"Linux","password":true,"vac":true,"version":"7882260","steam_id":85568392924469988,"keywords":["nocrits","nodmgspread","payload","uncletopia"],"game_id":440,"stv_port":27026,"stv_name":"Uncletopia | Dallas | 2 | All Maps | STV","players":[{"user_id":7,"name":"Goomba","steam_id":76561198211815183,"connected_time":3056000000000,"state":"active","ping":72},{"user_id":8,"name":"McSmitten","steam_id":76561198022358379,"connected_time":2143000000000,"state":"active","ping":64},{"user_id":10,"name":"Aisforlike","steam_id":76561199482110668,"connected_time":1700000000000,"state":"active","ping":33},{"user_id":11,"name":"Panda Loser","steam_id":76561198828745176,"connected_time":1596000000000,"state":"active","ping":84},{"user_id":12,"name":"CreativeCoffeeCake","steam_id":76561198323542875,"connected_time":1142000000000,"state":"active","ping":61},{"user_id":19,"name":"Holp","steam_id":76561199019186848,"connected_time":16000000000,"state":"spawning","ping":70},{"user_id":18,"name":"TofuCat","steam_id":76561198416746118,"connected_time":575000000000,"state":"active","ping":39}]},{"server_id":5,"name":"Uncletopia | Frankfurt | 1 | All Maps","name_short":"frk-1","host":"frk-1.de.uncletopia.com","port":27015,"enabled":true,"region":"eu","cc":"de","latitude":50.110924,"longitude":8.682127,"reserved":0,"last_update":"0001-01-01T00:00:00Z","name_a2s":"Uncletopia | Frankfurt | 1 | All Maps","protocol":17,"map":"cp_dustbowl","folder":"tf","game":"Team Fortress","app_id":440,"player_count":23,"max_players":24,"Bots":0,"server_type":"Dedicated","server_os":"Linux","password":true,"vac":true,"version":"7882260","steam_id":85568392924469989,"keywords":["cp","nocrits","nodmgspread","uncletopia"],"game_id":440,"stv_port":27016,"stv_name":"Uncletopia | Frankfurt | 1 | All Maps | STV","players":[{"user_id":444,"name":"damn, that bussy can squirt","steam_id":76561198050214002,"connected_time":301000000000,"state":"active","ping":57},{"user_id":445,"name":"Norbert Hallelujah","steam_id":76561198137876982,"connected_time":300000000000,"state":"active","ping":61},{"user_id":412,"name":"MaximusTheFish","steam_id":76561199025652089,"connected_time":2342000000000,"state":"active","ping":66},{"user_id":428,"name":"Ozzie","steam_id":76561197992915315,"connected_time":999000000000,"state":"active","ping":75},{"user_id":418,"name":"OPUR \u003e:(","steam_id":76561197993123284,"connected_time":1487000000000,"state":"active","ping":72},{"user_id":426,"name":"Dope","steam_id":76561198318858892,"connected_time":1162000000000,"state":"active","ping":65},{"user_id":393,"name":"One-Face","steam_id":76561197999384826,"connected_time":3652000000000,"state":"active","ping":47},{"user_id":385,"name":"Warpig","steam_id":76561199095184327,"connected_time":4446000000000,"state":"active","ping":65},{"user_id":416,"name":"–ë–∞—Ä—Ö–∞—Ç–Ω—ã–µ —Ç—è–≥–∏, –ö","steam_id":76561198214926087,"connected_time":1657000000000,"state":"active","ping":94},{"user_id":425,"name":"randompixel","steam_id":76561198003941207,"connected_time":1174000000000,"state":"active","ping":68},{"user_id":447,"name":"lord-carlos","steam_id":76561198025150761,"connected_time":10000000000,"state":"spawning","ping":47},{"user_id":420,"name":"Mental","steam_id":76561198057117092,"connected_time":1425000000000,"state":"active","ping":48},{"user_id":410,"name":"Luc3ky","steam_id":76561198301031826,"connected_time":2423000000000,"state":"active","ping":65},{"user_id":404,"name":"kektuse","steam_id":76561198088426580,"connected_time":2859000000000,"state":"active","ping":55},{"user_id":421,"name":"BoBunny McGlitter","steam_id":76561198057403817,"connected_time":1419000000000,"state":"active","ping":65},{"user_id":372,"name":"Watermelon","steam_id":76561198078349914,"connected_time":5452000000000,"state":"active","ping":63},{"user_id":435,"name":"Beni ü¶ßüçå","steam_id":76561198011340227,"connected_time":767000000000,"state":"active","ping":65},{"user_id":407,"name":"Katealyst","steam_id":76561198331215039,"connected_time":2810000000000,"state":"active","ping":65},{"user_id":392,"name":"Dope70000000000","steam_id":76561199123161420,"connected_time":3928000000000,"state":"active","ping":53},{"user_id":391,"name":"szmen","steam_id":76561198072569764,"connected_time":4144000000000,"state":"active","ping":82},{"user_id":422,"name":"Borloxos","steam_id":76561198123110073,"connected_time":1407000000000,"state":"active","ping":61},{"user_id":437,"name":"Soupster","steam_id":76561198073376693,"connected_time":735000000000,"state":"active","ping":75},{"user_id":441,"name":"bart","steam_id":76561198317737261,"connected_time":689000000000,"state":"active","ping":62}]},{"server_id":110,"name":"Uncletopia | Frankfurt | 2 | All Maps","name_short":"frk-2","host":"frk-1.de.uncletopia.com","port":27025,"enabled":true,"region":"eu","cc":"de","latitude":50.110924,"longitude":8.682127,"reserved":0,"last_update":"0001-01-01T00:00:00Z","name_a2s":"Uncletopia | Frankfurt | 2 | All Maps","protocol":17,"map":"pl_pier","folder":"tf","game":"Team Fortress","app_id":440,"player_count":0,"max_players":24,"Bots":0,"server_type":"Dedicated","server_os":"Linux","password":true,"vac":true,"version":"7882260","steam_id":85568392924469990,"keywords":["nocrits","nodmgspread","payload","uncletopia"],"game_id":440,"stv_port":27026,"stv_name":"Uncletopia | Frankfurt | 2 | All Maps | STV","players":null},{"server_id":308,"name":"Uncletopia | Frankfurt | 3 | All Maps","name_short":"frk-3","host":"frk-1.de.uncletopia.com","port":27035,"enabled":true,"region":"eu","cc":"de","latitude":50.110924,"longitude":8.682127,"reserved":0,"last_update":"0001-01-01T00:00:00Z","name_a2s":"Uncletopia | Frankfurt | 3 | All Maps","protocol":17,"map":"koth_lakeside_final","folder":"tf","game":"Team Fortress","app_id":440,"player_count":24,"max_players":24,"Bots":0,"server_type":"Dedicated","server_os":"Linux","password":true,"vac":true,"version":"7882260","steam_id":85568392924504274,"keywords":["cp","nocrits","nodmgspread","uncletopia"],"game_id":440,"stv_port":27036,"stv_name":"Uncletopia | Frankfurt | 3 | All Maps | STV","players":[{"user_id":217,"name":"Technic","steam_id":76561198128096130,"connected_time":2678000000000,"state":"active","ping":46},{"user_id":228,"name":"GMsU | Smiley","steam_id":76561198121494414,"connected_time":1541000000000,"state":"active","ping":96},{"user_id":183,"name":"DelT","steam_id":76561198204007537,"connected_time":4778000000000,"state":"active","ping":45},{"user_id":237,"name":"Endi","steam_id":76561198914938199,"connected_time":619000000000,"state":"active","ping":87},{"user_id":232,"name":"SkillFullNinja","steam_id":76561198376246441,"connected_time":1200000000000,"state":"active","ping":126},{"user_id":240,"name":"Schiever","steam_id":76561198052136026,"connected_time":402000000000,"state":"active","ping":55},{"user_id":241,"name":"Stigurna","steam_id":76561198063906822,"connected_time":377000000000,"state":"active","ping":93},{"user_id":172,"name":"into Ches (for science)","steam_id":76561198097507847,"connected_time":5255000000000,"state":"active","ping":72},{"user_id":173,"name":"Willing to be science","steam_id":76561198067204908,"connected_time":5255000000000,"state":"active","ping":67},{"user_id":238,"name":"ScaryTree","steam_id":76561199384362833,"connected_time":460000000000,"state":"active","ping":62},{"user_id":234,"name":"skill","steam_id":76561198106012909,"connected_time":1026000000000,"state":"active","ping":66},{"user_id":218,"name":"GMsU | Acoul","steam_id":76561198229222992,"connected_time":2479000000000,"state":"active","ping":44},{"user_id":221,"name":"GMsU | AuxiliusM","steam_id":76561198071903356,"connected_time":2190000000000,"state":"active","ping":40},{"user_id":186,"name":"GMsU | DaLuigi","steam_id":76561198054486188,"connected_time":4679000000000,"state":"active","ping":45},{"user_id":242,"name":"finbar","steam_id":76561198056812396,"connected_time":277000000000,"state":"active","ping":92},{"user_id":239,"name":"wieto","steam_id":76561198050626427,"connected_time":458000000000,"state":"active","ping":60},{"user_id":189,"name":"√Ñ√§rik ‚ô£","steam_id":76561198131871737,"connected_time":4653000000000,"state":"active","ping":48},{"user_id":243,"name":"paguro","steam_id":76561198119560871,"connected_time":257000000000,"state":"active","ping":66},{"user_id":235,"name":"Favi","steam_id":76561198013236935,"connected_time":990000000000,"state":"active","ping":64},{"user_id":226,"name":"Kleiner Engel","steam_id":76561198009922500,"connected_time":1837000000000,"state":"active","ping":65},{"user_id":244,"name":"Przemek","steam_id":76561198033083997,"connected_time":246000000000,"state":"active","ping":70},{"user_id":220,"name":"mmlock","steam_id":76561198069516191,"connected_time":2272000000000,"state":"active","ping":45},{"user_id":248,"name":"Zedespook","steam_id":76561198265479349,"connected_time":44000000000,"state":"active","ping":58},{"user_id":246,"name":"Carrot (woman)","steam_id":76561198139404261,"connected_time":178000000000,"state":"active","ping":56}]},{"server_id":309,"name":"Uncletopia | Frankfurt | 4 | All Maps","name_short":"frk-4","host":"frk-1.de.uncletopia.com","port":27045,"enabled":true,"region":"eu","cc":"de","latitude":50.110924,"longitude":8.682127,"reserved":0,"last_update":"0001-01-01T00:00:00Z","name_a2s":"Uncletopia | Frankfurt | 4 | All Maps","protocol":17,"map":"cp_foundry","folder":"tf","game":"Team Fortress","app_id":440,"player_count":23,"max_players":24,"Bots":0,"server_type":"Dedicated","server_os":"Linux","password":true,"vac":true,"version":"7882260","steam_id":85568392924504275,"keywords":["cp","nocrits","nodmgspread","uncletopia"],"game_id":440,"stv_port":27046,"stv_name":"Uncletopia | Frankfurt | 4 | All Maps | STV","players":[{"user_id":404,"name":"ksg","steam_id":76561198042894236,"connected_time":54000000000,"state":"active","ping":60},{"user_id":348,"name":"wasps","steam_id":76561198049485054,"connected_time":3825000000000,"state":"active","ping":75},{"user_id":391,"name":"Seron-Lowell","steam_id":76561198070291347,"connected_time":1431000000000,"state":"active","ping":45},{"user_id":405,"name":"Nexyus Omnipuss","steam_id":76561198023056955,"connected_time":43000000000,"state":"spawning","ping":83},{"user_id":395,"name":"krim4t2","steam_id":76561198118395254,"connected_time":907000000000,"state":"active","ping":94},{"user_id":327,"name":"robbie","steam_id":76561198798195287,"connected_time":5044000000000,"state":"active","ping":60},{"user_id":389,"name":"Skymne","steam_id":76561198013743168,"connected_time":1456000000000,"state":"active","ping":97},{"user_id":337,"name":"the least schizo med main","steam_id":76561198048530109,"connected_time":4471000000000,"state":"active","ping":75},{"user_id":346,"name":"Myrmodion","steam_id":76561198054746247,"connected_time":4118000000000,"state":"active","ping":59},{"user_id":356,"name":"Jackriz","steam_id":76561198024882111,"connected_time":3379000000000,"state":"active","ping":70},{"user_id":387,"name":"willus212","steam_id":76561199182615246,"connected_time":1820000000000,"state":"active","ping":77},{"user_id":369,"name":"sunshine (he/him)","steam_id":76561198084597975,"connected_time":2500000000000,"state":"active","ping":65},{"user_id":396,"name":"Tom Foolery","steam_id":76561198358895809,"connected_time":903000000000,"state":"active","ping":61},{"user_id":406,"name":"JAN","steam_id":76561198367404568,"connected_time":13000000000,"state":"active","ping":100},{"user_id":403,"name":"Tegnerud","steam_id":76561198214185612,"connected_time":255000000000,"state":"active","ping":71},{"user_id":377,"name":"ztrs6","steam_id":76561198314853803,"connected_time":2154000000000,"state":"active","ping":88},{"user_id":381,"name":"PP_master69420","steam_id":76561199019913910,"connected_time":2054000000000,"state":"active","ping":79},{"user_id":382,"name":"[UB]Destiny","steam_id":76561198023243402,"connected_time":2045000000000,"state":"active","ping":71},{"user_id":392,"name":"Zerfesh","steam_id":76561198117534358,"connected_time":1428000000000,"state":"active","ping":94},{"user_id":397,"name":"StingyLettuce","steam_id":76561199010337406,"connected_time":715000000000,"state":"active","ping":114},{"user_id":407,"name":"Vavrys","steam_id":76561198275852025,"connected_time":2000000000,"state":"spawning","ping":53},{"user_id":380,"name":"elyas","steam_id":76561198964639269,"connected_time":2111000000000,"state":"active","ping":174},{"user_id":398,"name":"hunte","steam_id":76561198063483484,"connected_time":671000000000,"state":"active","ping":68}]},{"server_id":310,"name":"Uncletopia | Frankfurt | 5 | All Maps","name_short":"frk-5","host":"frk-1.de.uncletopia.com","port":27055,"enabled":true,"region":"eu","cc":"de","latitude":50.110924,"longitude":8.682127,"reserved":0,"last_update":"0001-01-01T00:00:00Z","name_a2s":"Uncletopia | Frankfurt | 5 | All Maps","protocol":17,"map":"cp_steel","folder":"tf","game":"Team Fortress","app_id":440,"player_count":24,"max_players":24,"Bots":0,"server_type":"Dedicated","server_os":"Linux","password":true,"vac":true,"version":"7882260","steam_id":85568392924504277,"keywords":["cp","nocrits","nodmgspread","uncletopia"],"game_id":440,"stv_port":27056,"stv_name":"Uncletopia | Frankfurt | 5 | All Maps | STV","players":[{"user_id":338,"name":"cl","steam_id":76561199436640904,"connected_time":485000000000,"state":"active","ping":76},{"user_id":337,"name":"Vegad the Glimmybun","steam_id":76561198012805694,"connected_time":548000000000,"state":"active","ping":92},{"user_id":343,"name":"c0mpaz","steam_id":76561198165292894,"connected_time":419000000000,"state":"active","ping":83},{"user_id":237,"name":"Egor Pomidor","steam_id":76561199175688390,"connected_time":5707000000000,"state":"active","ping":75},{"user_id":349,"name":"-gunripp0r^be / Obelix^","steam_id":76561197999306879,"connected_time":124000000000,"state":"active","ping":70},{"user_id":339,"name":"mona","steam_id":76561197994492154,"connected_time":462000000000,"state":"active","ping":60},{"user_id":318,"name":"Dog ?","steam_id":76561198347020945,"connected_time":1769000000000,"state":"active","ping":81},{"user_id":348,"name":"–ö–æ–Ω–Ω–æ—Ä","steam_id":76561198020304242,"connected_time":243000000000,"state":"active","ping":69},{"user_id":340,"name":"Star in a pond","steam_id":76561198205501279,"connected_time":457000000000,"state":"active","ping":89},{"user_id":322,"name":"SONIC THE GOD","steam_id":76561199185147093,"connected_time":1198000000000,"state":"active","ping":84},{"user_id":341,"name":"Samuel L. Jackson","steam_id":76561198130427881,"connected_time":452000000000,"state":"active","ping":167},{"user_id":264,"name":"Caliban","steam_id":76561197999696839,"connected_time":4523000000000,"state":"active","ping":111},{"user_id":326,"name":"Timpanojnoj","steam_id":76561197970334448,"connected_time":1066000000000,"state":"active","ping":65},{"user_id":342,"name":"[SWMG]","steam_id":76561198872013525,"connected_time":433000000000,"state":"active","ping":148},{"user_id":344,"name":"hungry burger","steam_id":76561198064342804,"connected_time":410000000000,"state":"active","ping":69},{"user_id":345,"name":"medic main","steam_id":76561199474391695,"connected_time":378000000000,"state":"active","ping":66},{"user_id":323,"name":"Dolcelatte","steam_id":76561198038501770,"connected_time":1175000000000,"state":"active","ping":51},{"user_id":346,"name":"Dave The Sloth","steam_id":76561199135831355,"connected_time":372000000000,"state":"active","ping":68},{"user_id":306,"name":"Adib al-asfar","steam_id":76561198095691592,"connected_time":2342000000000,"state":"active","ping":65},{"user_id":301,"name":"Ghibley","steam_id":76561199037099624,"connected_time":2592000000000,"state":"active","ping":62},{"user_id":347,"name":"TheBigBear","steam_id":76561198138301785,"connected_time":356000000000,"state":"active","ping":74},{"user_id":315,"name":"Very Bad at this :(","steam_id":76561198362116755,"connected_time":1986000000000,"state":"active","ping":160},{"user_id":350,"name":"Steve_b4lls","steam_id":76561199212273303,"connected_time":122000000000,"state":"active","ping":69},{"user_id":351,"name":"murmeldjur","steam_id":76561198166065637,"connected_time":85000000000,"state":"active","ping":92}]},{"server_id":311,"name":"Uncletopia | Frankfurt | 6 | All Maps","name_short":"frk-6","host":"frk-1.de.uncletopia.com","port":27065,"enabled":true,"region":"eu","cc":"de","latitude":50.110924,"longitude":8.682127,"reserved":0,"last_update":"0001-01-01T00:00:00Z","name_a2s":"Uncletopia | Frankfurt | 6 | All Maps","protocol":17,"map":"pl_badwater","folder":"tf","game":"Team Fortress","app_id":440,"player_count":24,"max_players":24,"Bots":0,"server_type":"Dedicated","server_os":"Linux","password":true,"vac":true,"version":"7882260","steam_id":85568392924504278,"keywords":["nocrits","nodmgspread","payload","uncletopia"],"game_id":440,"stv_port":27066,"stv_name":"Uncletopia | Frankfurt | 6 | All Maps | STV","players":[{"user_id":98,"name":"tWx","steam_id":76561198123145824,"connected_time":2890000000000,"state":"active","ping":72},{"user_id":138,"name":"hananamanna","steam_id":76561198006570285,"connected_time":425000000000,"state":"active","ping":111},{"user_id":134,"name":"CEO ENDIC","steam_id":76561199072075611,"connected_time":993000000000,"state":"active","ping":68},{"user_id":119,"name":"nhtson","steam_id":76561199113295118,"connected_time":1506000000000,"state":"active","ping":64},{"user_id":120,"name":"vadr","steam_id":76561198334528186,"connected_time":1494000000000,"state":"active","ping":62},{"user_id":131,"name":"David \"Crash\" Murphy","steam_id":76561198292845505,"connected_time":1087000000000,"state":"active","ping":89},{"user_id":117,"name":"Merc","steam_id":76561199012274799,"connected_time":1555000000000,"state":"active","ping":58},{"user_id":111,"name":"Cosmetic brain","steam_id":76561198055936410,"connected_time":1938000000000,"state":"active","ping":90},{"user_id":139,"name":"dakkafex","steam_id":76561198020254869,"connected_time":288000000000,"state":"active","ping":48},{"user_id":99,"name":"cortex","steam_id":76561198839790230,"connected_time":2876000000000,"state":"active","ping":75},{"user_id":135,"name":"Adopted?","steam_id":76561198118667043,"connected_time":953000000000,"state":"active","ping":59},{"user_id":140,"name":"Foreskin Gamer","steam_id":76561198283106341,"connected_time":258000000000,"state":"active","ping":59},{"user_id":141,"name":"SlickBack Mcgillicutty","steam_id":76561198036032168,"connected_time":245000000000,"state":"active","ping":139},{"user_id":142,"name":"ThatTFguy","steam_id":76561198056794321,"connected_time":172000000000,"state":"active","ping":70},{"user_id":143,"name":"IONYCH","steam_id":76561198378350040,"connected_time":170000000000,"state":"active","ping":82},{"user_id":127,"name":"Spotmonkey","steam_id":76561198003994092,"connected_time":1393000000000,"state":"active","ping":83},{"user_id":87,"name":"Jimmy","steam_id":76561198133680783,"connected_time":3892000000000,"state":"active","ping":61},{"user_id":115,"name":"Meki","steam_id":76561198108279631,"connected_time":1657000000000,"state":"active","ping":101},{"user_id":146,"name":"Hey, I¬¥m Andy!","steam_id":76561198060337777,"connected_time":130000000000,"state":"active","ping":71},{"user_id":137,"name":"xiiski","steam_id":76561198152387747,"connected_time":907000000000,"state":"active","ping":102},{"user_id":71,"name":"Freddy Fazbear Gaming","steam_id":76561198299179114,"connected_time":4843000000000,"state":"active","ping":80},{"user_id":144,"name":"dunduu","steam_id":76561198875240717,"connected_time":143000000000,"state":"active","ping":62},{"user_id":109,"name":"Lyncurion","steam_id":76561199260022725,"connected_time":2023000000000,"state":"active","ping":70},{"user_id":145,"name":"PixelStachee","steam_id":76561198110453607,"connected_time":141000000000,"state":"active","ping":62}]},{"server_id":23,"name":"Uncletopia | Frankfurt | 7 | Stopwatch Beta","name_short":"frk-7","host":"frk-1.de.uncletopia.com","port":27075,"enabled":true,"region":"eu","cc":"de","latitude":50.110924,"longitude":8.682127,"reserved":0,"last_update":"0001-01-01T00:00:00Z","name_a2s":"Uncletopia | Frankfurt | 7 | Stopwatch Beta","protocol":17,"map":"koth_lakeside_final","folder":"tf","game":"Team Fortress","app_id":440,"player_count":0,"max_players":24,"Bots":0,"server_type":"Dedicated","server_os":"Linux","password":true,"vac":true,"version":"7882260","steam_id":85568392924742827,"keywords":["cp","nocrits","nodmgspread","uncletopia"],"game_id":440,"stv_port":27076,"stv_name":"Uncletopia | Frankfurt | 7 | Stopwatch Beta | STV","players":null},{"server_id":24,"name":"Uncletopia | Frankfurt | 8 | Community","name_short":"frk-8","host":"frk-1.de.uncletopia.com","port":27085,"enabled":true,"region":"eu","cc":"de","latitude":50.110924,"longitude":8.682127,"reserved":0,"last_update":"0001-01-01T00:00:00Z","name_a2s":"Uncletopia | Frankfurt | 8 | Community","protocol":17,"map":"workshop/koth_product_final.ugc454272353","folder":"tf","game":"Team Fortress","app_id":440,"player_count":0,"max_players":24,"Bots":0,"server_type":"Dedicated","server_os":"Linux","password":true,"vac":true,"version":"7882260","steam_id":85568392924742828,"keywords":["cp","nocrits","nodmgspread","uncletopia"],"game_id":440,"stv_port":27086,"stv_name":"Uncletopia | Frankfurt | 8 | Community | STV","players":null},{"server_id":202,"name":"Uncletopia | Hong Kong | 1 | All Maps","name_short":"hgk-1","host":"hgk-1.hk.uncletopia.com","port":27015,"enabled":true,"region":"asia","cc":"hk","latitude":22.302711,"longitude":114.177216,"reserved":0,"last_update":"0001-01-01T00:00:00Z","name_a2s":"Uncletopia | Hong Kong | 1 | All Maps","protocol":17,"map":"koth_cascade","folder":"tf","game":"Team Fortress","app_id":440,"player_count":0,"max_players":24,"Bots":0,"server_type":"Dedicated","server_os":"Linux","password":true,"vac":true,"version":"7882260","steam_id":85568392924494504,"keywords":["cp","nocrits","nodmgspread","uncletopia"],"game_id":440,"stv_port":27016,"stv_name":"Uncletopia | Hong Kong | 1 | All Maps | STV","players":null},{"server_id":1,"name":"Uncletopia | Los Angeles | 1 | All Maps","name_short":"lax-1","host":"lax-1.us.uncletopia.com","port":27015,"enabled":true,"region":"us-west","cc":"us","latitude":33.94279,"longitude":-118.41004,"reserved":0,"last_update":"0001-01-01T00:00:00Z","name_a2s":"Uncletopia | Los Angeles | 1 | All Maps","protocol":17,"map":"pl_upward","folder":"tf","game":"Team Fortress","app_id":440,"player_count":0,"max_players":24,"Bots":0,"server_type":"Dedicated","server_os":"Linux","password":true,"vac":true,"version":"7882260","steam_id":85568392924469991,"keywords":["nocrits","nodmgspread","payload","uncletopia"],"game_id":440,"stv_port":27016,"stv_name":"Uncletopia | Los Angeles | 1 | All Maps | STV","players":null},{"server_id":112,"name":"Uncletopia | Los Angeles | 2 | All Maps","name_short":"lax-2","host":"lax-1.us.uncletopia.com","port":27025,"enabled":true,"region":"us-west","cc":"us","latitude":33.94279,"longitude":-118.41004,"reserved":0,"last_update":"0001-01-01T00:00:00Z","name_a2s":"Uncletopia | Los Angeles | 2 | All Maps","protocol":17,"map":"cp_sunshine","folder":"tf","game":"Team Fortress","app_id":440,"player_count":0,"max_players":24,"Bots":0,"server_type":"Dedicated","server_os":"Linux","password":true,"vac":true,"version":"7882260","steam_id":85568392924469992,"keywords":["cp","nocrits","nodmgspread","uncletopia"],"game_id":440,"stv_port":27026,"stv_name":"Uncletopia | Los Angeles | 2 | All Maps | STV","players":null},{"server_id":324,"name":"Uncletopia | Los Angeles | 3 | All Maps","name_short":"lax-3","host":"lax-1.us.uncletopia.com","port":27035,"enabled":true,"region":"us-west","cc":"us","latitude":33.94279,"longitude":-118.41004,"reserved":0,"last_update":"0001-01-01T00:00:00Z","name_a2s":"Uncletopia | Los Angeles | 3 | All Maps","protocol":17,"map":"cp_altitude","folder":"tf","game":"Team Fortress","app_id":440,"player_count":0,"max_players":24,"Bots":0,"server_type":"Dedicated","server_os":"Linux","password":true,"vac":true,"version":"7882260","steam_id":85568392924510198,"keywords":["cp","nocrits","nodmgspread","uncletopia"],"game_id":440,"stv_port":27036,"stv_name":"Uncletopia | Los Angeles | 3 | All Maps | STV","players":null},{"server_id":25,"name":"Uncletopia | Los Angeles | 4 | Stopwatch Beta","name_short":"lax-4","host":"lax-1.us.uncletopia.com","port":27045,"enabled":true,"region":"us-west","cc":"us","latitude":33.94279,"longitude":-118.41004,"reserved":0,"last_update":"0001-01-01T00:00:00Z","name_a2s":"Uncletopia | Los Angeles | 4 | Stopwatch Beta","protocol":17,"map":"koth_viaduct","folder":"tf","game":"Team Fortress","app_id":440,"player_count":0,"max_players":24,"Bots":0,"server_type":"Dedicated","server_os":"Linux","password":true,"vac":true,"version":"7882260","steam_id":85568392924510199,"keywords":["cp","nocrits","nodmgspread","uncletopia"],"game_id":440,"stv_port":27046,"stv_name":"Uncletopia | Los Angeles | 4 | Stopwatch Beta | STV","players":null},{"server_id":11,"name":"Uncletopia | London | 1 | All Maps","name_short":"lon-1","host":"lon-1.uk.uncletopia.com","port":27015,"enabled":true,"region":"eu","cc":"gb","latitude":51.509865,"longitude":-0.118092,"reserved":0,"last_update":"0001-01-01T00:00:00Z","name_a2s":"Uncletopia | London | 1 | All Maps","protocol":17,"map":"koth_cascade","folder":"tf","game":"Team Fortress","app_id":440,"player_count":24,"max_players":24,"Bots":0,"server_type":"Dedicated","server_os":"Linux","password":true,"vac":true,"version":"7882260","steam_id":85568392924367362,"keywords":["cp","nocrits","nodmgspread","uncletopia"],"game_id":440,"stv_port":27016,"stv_name":"Uncletopia | London | 1 | All Maps | STV","players":[{"user_id":1263,"name":"Psyche","steam_id":76561198091662001,"connected_time":1154000000000,"state":"active","ping":62},{"user_id":1225,"name":"Mika","steam_id":76561199183780280,"connected_time":4008000000000,"state":"active","ping":73},{"user_id":1261,"name":"dools18","steam_id":76561198880768062,"connected_time":1444000000000,"state":"active","ping":58},{"user_id":1160,"name":"e9","steam_id":76561198890193313,"connected_time":8636000000000,"state":"active","ping":59},{"user_id":1228,"name":"Mr. Heavy LFT Premiership","steam_id":76561198080912087,"connected_time":3862000000000,"state":"active","ping":74},{"user_id":1267,"name":"idc","steam_id":76561198208349835,"connected_time":1038000000000,"state":"active","ping":73},{"user_id":1219,"name":"oh my science","steam_id":76561198190583242,"connected_time":4723000000000,"state":"active","ping":98},{"user_id":1222,"name":"Lyra","steam_id":76561198043601838,"connected_time":4551000000000,"state":"active","ping":74},{"user_id":1264,"name":"Dragon","steam_id":76561198163255365,"connected_time":1147000000000,"state":"active","ping":111},{"user_id":1274,"name":"UltimateAura","steam_id":76561198338361324,"connected_time":304000000000,"state":"active","ping":40},{"user_id":1273,"name":"Chilly Snipples","steam_id":76561198203326293,"connected_time":331000000000,"state":"active","ping":71},{"user_id":1269,"name":"PenQuill","steam_id":76561198077915071,"connected_time":1010000000000,"state":"active","ping":73},{"user_id":1220,"name":"chugger beef","steam_id":76561198372130358,"connected_time":4692000000000,"state":"active","ping":49},{"user_id":1271,"name":"denimchicken","steam_id":76561197989061982,"connected_time":559000000000,"state":"active","ping":101},{"user_id":1258,"name":"BumiiBum","steam_id":76561198210682456,"connected_time":1798000000000,"state":"active","ping":56},{"user_id":1265,"name":"slifer the executive producer","steam_id":76561198322087870,"connected_time":1145000000000,"state":"active","ping":119},{"user_id":1235,"name":"THE Grosser","steam_id":76561197995530666,"connected_time":3797000000000,"state":"active","ping":64},{"user_id":1256,"name":"Healix","steam_id":76561198130270161,"connected_time":2080000000000,"state":"active","ping":61},{"user_id":1250,"name":"Zlyron","steam_id":76561198951447833,"connected_time":2251000000000,"state":"active","ping":100},{"user_id":1195,"name":"Tomate Cerise","steam_id":76561198242665582,"connected_time":6667000000000,"state":"active","ping":60},{"user_id":1255,"name":"eva.","steam_id":76561198054474684,"connected_time":2183000000000,"state":"active","ping":82},{"user_id":1237,"name":"Plep","steam_id":76561198840259819,"connected_time":3264000000000,"state":"active","ping":59},{"user_id":1189,"name":"ksndr","steam_id":76561198051084840,"connected_time":6888000000000,"state":"active","ping":53},{"user_id":1252,"name":"Wuffington","steam_id":76561198033762881,"connected_time":2236000000000,"state":"active","ping":53}]},{"server_id":114,"name":"Uncletopia | London | 2 | All Maps","name_short":"lon-2","host":"lon-1.uk.uncletopia.com","port":27025,"enabled":true,"region":"eu","cc":"gb","latitude":51.509865,"longitude":-0.118092,"reserved":0,"last_update":"0001-01-01T00:00:00Z","name_a2s":"Uncletopia | London | 2 | All Maps","protocol":17,"map":"koth_highpass","folder":"tf","game":"Team Fortress","app_id":440,"player_count":24,"max_players":24,"Bots":0,"server_type":"Dedicated","server_os":"Linux","password":true,"vac":true,"version":"7882260","steam_id":85568392924470941,"keywords":["cp","nocrits","nodmgspread","uncletopia"],"game_id":440,"stv_port":27026,"stv_name":"Uncletopia | London | 2 | All Maps | STV","players":[{"user_id":505,"name":"Average meme enjoyer","steam_id":76561199087566663,"connected_time":1127000000000,"state":"active","ping":94},{"user_id":506,"name":"engineer drip","steam_id":76561198991032570,"connected_time":1115000000000,"state":"active","ping":92},{"user_id":529,"name":"Big Sauce","steam_id":76561198046654750,"connected_time":69000000000,"state":"active","ping":116},{"user_id":501,"name":"ODanial","steam_id":76561198034854402,"connected_time":1825000000000,"state":"active","ping":71},{"user_id":530,"name":"beurgeur","steam_id":76561198872426314,"connected_time":51000000000,"state":"active","ping":31},{"user_id":497,"name":"i'm a movement player lois","steam_id":76561198112681438,"connected_time":2096000000000,"state":"active","ping":89},{"user_id":513,"name":"≈†tƒõp√°n","steam_id":76561198275742101,"connected_time":930000000000,"state":"active","ping":67},{"user_id":521,"name":"Engineering since 1941","steam_id":76561198851157897,"connected_time":811000000000,"state":"active","ping":62},{"user_id":524,"name":"TeaAndPancakes","steam_id":76561199039103507,"connected_time":464000000000,"state":"active","ping":76},{"user_id":503,"name":"XFACTOR | {Moshik Roth}","steam_id":76561198352842114,"connected_time":1609000000000,"state":"active","ping":112},{"user_id":528,"name":"Circular","steam_id":76561198001536710,"connected_time":136000000000,"state":"active","ping":48},{"user_id":523,"name":"Snowmotion","steam_id":76561198075022454,"connected_time":621000000000,"state":"active","ping":69},{"user_id":488,"name":"Sixie","steam_id":76561198251675360,"connected_time":2761000000000,"state":"active","ping":48},{"user_id":532,"name":"Mr.B","steam_id":76561199204478925,"connected_time":24000000000,"state":"spawning","ping":103},{"user_id":490,"name":"qiulongtao","steam_id":76561198977558717,"connected_time":2729000000000,"state":"active","ping":153},{"user_id":515,"name":"XiaBit","steam_id":76561199204102465,"connected_time":858000000000,"state":"active","ping":73},{"user_id":516,"name":"Wail","steam_id":76561199083647054,"connected_time":852000000000,"state":"active","ping":64},{"user_id":415,"name":"mi cara cuando","steam_id":76561199387584010,"connected_time":8960000000000,"state":"active","ping":102},{"user_id":482,"name":"Spurt","steam_id":76561198078523852,"connected_time":3053000000000,"state":"active","ping":46},{"user_id":517,"name":"AwterSix","steam_id":76561198042561678,"connected_time":847000000000,"state":"active","ping":55},{"user_id":526,"name":"Mr. Oak","steam_id":76561198331315713,"connected_time":407000000000,"state":"active","ping":73},{"user_id":519,"name":"Birds Aren't Real","steam_id":76561199380849468,"connected_time":832000000000,"state":"active","ping":64},{"user_id":491,"name":"Repa24","steam_id":76561198033016390,"connected_time":2719000000000,"state":"active","ping":89},{"user_id":533,"name":"zebulon","steam_id":76561198384683504,"connected_time":11000000000,"state":"spawning","ping":61}]},{"server_id":320,"name":"Uncletopia | London | 3 | All Maps","name_short":"lon-3","host":"lon-1.uk.uncletopia.com","port":27035,"enabled":true,"region":"eu","cc":"gb","latitude":51.509865,"longitude":-0.118092,"reserved":0,"last_update":"0001-01-01T00:00:00Z","name_a2s":"Uncletopia | London | 3 | All Maps","protocol":17,"map":"pl_swiftwater_final1","folder":"tf","game":"Team Fortress","app_id":440,"player_count":24,"max_players":24,"Bots":0,"server_type":"Dedicated","server_os":"Linux","password":true,"vac":true,"version":"7882260","steam_id":85568392924510192,"keywords":["nocrits","nodmgspread","payload","uncletopia"],"game_id":440,"stv_port":27036,"stv_name":"Uncletopia | London | 3 | All Maps | STV","players":[{"user_id":614,"name":"CarrierPigeon","steam_id":76561198143126135,"connected_time":244000000000,"state":"active","ping":51},{"user_id":609,"name":"RIFT","steam_id":76561198991622379,"connected_time":538000000000,"state":"active","ping":38},{"user_id":611,"name":"Pepegi","steam_id":76561198001230113,"connected_time":516000000000,"state":"active","ping":93},{"user_id":607,"name":"Arcader","steam_id":76561198109860110,"connected_time":735000000000,"state":"active","ping":69},{"user_id":575,"name":"Rizziologist","steam_id":76561198089003514,"connected_time":2842000000000,"state":"active","ping":54},{"user_id":599,"name":"Nugget","steam_id":76561198338916407,"connected_time":1323000000000,"state":"active","ping":74},{"user_id":588,"name":"C√©l√©rio","steam_id":76561198088253576,"connected_time":2293000000000,"state":"active","ping":45},{"user_id":604,"name":"marco / s /","steam_id":76561198300120382,"connected_time":1033000000000,"state":"active","ping":62},{"user_id":561,"name":"TheGrayGamer","steam_id":76561198862727465,"connected_time":2977000000000,"state":"active","ping":55},{"user_id":610,"name":"NotChloe","steam_id":76561198080658092,"connected_time":528000000000,"state":"active","ping":55},{"user_id":606,"name":"[Sigilmare] SheepyMcBum","steam_id":76561198027187109,"connected_time":825000000000,"state":"active","ping":55},{"user_id":565,"name":"Naga","steam_id":76561198133196222,"connected_time":2963000000000,"state":"active","ping":51},{"user_id":584,"name":"Yonas","steam_id":76561199441196540,"connected_time":2421000000000,"state":"active","ping":66},{"user_id":593,"name":"Dr. Funkenstein","steam_id":76561197977816210,"connected_time":1521000000000,"state":"active","ping":47},{"user_id":612,"name":"generic alias","steam_id":76561198271607226,"connected_time":306000000000,"state":"active","ping":97},{"user_id":568,"name":"Chibookies","steam_id":76561198001658815,"connected_time":2945000000000,"state":"active","ping":97},{"user_id":595,"name":"Skrankly","steam_id":76561199001837576,"connected_time":1487000000000,"state":"active","ping":46},{"user_id":586,"name":"Ixsus\u003c3","steam_id":76561198094756869,"connected_time":2411000000000,"state":"active","ping":60},{"user_id":608,"name":"Cinek","steam_id":76561198146494944,"connected_time":565000000000,"state":"active","ping":121},{"user_id":576,"name":"muZ","steam_id":76561198060145190,"connected_time":2755000000000,"state":"active","ping":65},{"user_id":552,"name":"dirty rascal","steam_id":76561198000871038,"connected_time":4078000000000,"state":"active","ping":45},{"user_id":587,"name":"Falconetti","steam_id":76561198029930580,"connected_time":2389000000000,"state":"active","ping":71},{"user_id":572,"name":"Soaya","steam_id":76561199101510855,"connected_time":2885000000000,"state":"active","ping":45},{"user_id":602,"name":"hwyad","steam_id":76561199129942647,"connected_time":1190000000000,"state":"active","ping":61}]},{"server_id":321,"name":"Uncletopia | London | 4 | All Maps","name_short":"lon-4","host":"lon-1.uk.uncletopia.com","port":27045,"enabled":true,"region":"eu","cc":"gb","latitude":51.509865,"longitude":-0.118092,"reserved":0,"last_update":"0001-01-01T00:00:00Z","name_a2s":"Uncletopia | London | 4 | All Maps","protocol":17,"map":"ctf_2fort","folder":"tf","game":"Team Fortress","app_id":440,"player_count":20,"max_players":24,"Bots":0,"server_type":"Dedicated","server_os":"Linux","password":true,"vac":true,"version":"7882260","steam_id":85568392924510193,"keywords":["ctf","nocrits","nodmgspread","uncletopia"],"game_id":440,"stv_port":27046,"stv_name":"Uncletopia | London | 4 | All Maps | STV","players":[{"user_id":252,"name":"SKFBoge","steam_id":76561198269038278,"connected_time":90000000000,"state":"active","ping":82},{"user_id":220,"name":"Neco-arc Astolfo","steam_id":76561198989682540,"connected_time":1869000000000,"state":"active","ping":53},{"user_id":221,"name":"Xydran","steam_id":76561198042397402,"connected_time":1707000000000,"state":"active","ping":74},{"user_id":222,"name":"Fluffy","steam_id":76561198084447725,"connected_time":1699000000000,"state":"active","ping":45},{"user_id":162,"name":"ImaFiren'MahLazah","steam_id":76561198112048036,"connected_time":5148000000000,"state":"active","ping":57},{"user_id":237,"name":"Bayoyo","steam_id":76561199069591774,"connected_time":1006000000000,"state":"active","ping":77},{"user_id":250,"name":"Themadnessman","steam_id":76561198079732032,"connected_time":139000000000,"state":"active","ping":82},{"user_id":242,"name":"ROX","steam_id":76561198272289320,"connected_time":725000000000,"state":"active","ping":67},{"user_id":251,"name":"Tactical Kerbal","steam_id":76561198212970205,"connected_time":137000000000,"state":"active","ping":81},{"user_id":241,"name":"Jugg","steam_id":76561198384417257,"connected_time":759000000000,"state":"active","ping":55},{"user_id":184,"name":"gothmoth","steam_id":76561198386910896,"connected_time":4226000000000,"state":"active","ping":111},{"user_id":253,"name":"prolog","steam_id":76561198356421550,"connected_time":73000000000,"state":"active","ping":103},{"user_id":244,"name":"NuGs","steam_id":76561198305550934,"connected_time":686000000000,"state":"active","ping":45},{"user_id":150,"name":"Pinkamena","steam_id":76561198063344079,"connected_time":5876000000000,"state":"active","ping":141},{"user_id":185,"name":"DeterminedXD[HUN]","steam_id":76561199469006453,"connected_time":4165000000000,"state":"active","ping":98},{"user_id":236,"name":"CAMON ENGELAND","steam_id":76561198054301125,"connected_time":1041000000000,"state":"active","ping":86},{"user_id":214,"name":"BLACKBIRD CLOSE [she/her]","steam_id":76561198262910410,"connected_time":2706000000000,"state":"active","ping":111},{"user_id":247,"name":"Michael","steam_id":76561198003146906,"connected_time":577000000000,"state":"active","ping":45},{"user_id":249,"name":"üóªüé¥Hadrian Maloneüé¥üóª","steam_id":76561198036151103,"connected_time":210000000000,"state":"active","ping":51},{"user_id":171,"name":"Pomson 6000","steam_id":76561198344588858,"connected_time":4843000000000,"state":"active","ping":52}]},{"server_id":21,"name":"Uncletopia | London | 5 | All Maps","name_short":"lon-5","host":"lon-1.uk.uncletopia.com","port":27055,"enabled":true,"region":"eu","cc":"gb","latitude":51.509865,"longitude":-0.118092,"reserved":0,"last_update":"0001-01-01T00:00:00Z","name_a2s":"Uncletopia | London | 5 | All Maps","protocol":17,"map":"plr_bananabay","folder":"tf","game":"Team Fortress","app_id":440,"player_count":24,"max_players":24,"Bots":0,"server_type":"Dedicated","server_os":"Linux","password":true,"vac":true,"version":"7882260","steam_id":85568392924742829,"keywords":["nocrits","nodmgspread","payload","uncletopia"],"game_id":440,"stv_port":27056,"stv_name":"Uncletopia | London | 5 | All Maps | STV","players":[{"user_id":238,"name":"Menny","steam_id":76561197992054834,"connected_time":1077000000000,"state":"active","ping":60},{"user_id":243,"name":"Spich","steam_id":76561199017245962,"connected_time":521000000000,"state":"active","ping":101},{"user_id":232,"name":"Eidolon","steam_id":76561198043919565,"connected_time":1821000000000,"state":"active","ping":64},{"user_id":244,"name":"cherry‚ù§","steam_id":76561198346851670,"connected_time":504000000000,"state":"active","ping":73},{"user_id":227,"name":"xulera","steam_id":76561198080736030,"connected_time":2217000000000,"state":"active","ping":66},{"user_id":218,"name":"jona3838","steam_id":76561199097658195,"connected_time":2282000000000,"state":"active","ping":99},{"user_id":236,"name":"Hungry grouse guy","steam_id":76561199043267545,"connected_time":1207000000000,"state":"active","ping":148},{"user_id":213,"name":"nynon","steam_id":76561197998432126,"connected_time":2314000000000,"state":"active","ping":92},{"user_id":246,"name":"British Disapproval","steam_id":76561198001375260,"connected_time":440000000000,"state":"active","ping":57},{"user_id":247,"name":"TheNerdman","steam_id":76561198097576111,"connected_time":422000000000,"state":"active","ping":66},{"user_id":201,"name":"zoinks!","steam_id":76561198068645362,"connected_time":3228000000000,"state":"active","ping":45},{"user_id":219,"name":"Providence","steam_id":76561198003920270,"connected_time":2275000000000,"state":"active","ping":78},{"user_id":177,"name":"RLCrazyCat3","steam_id":76561197983757878,"connected_time":4308000000000,"state":"active","ping":67},{"user_id":242,"name":"Cotton Eye Joe","steam_id":76561198080594207,"connected_time":773000000000,"state":"active","ping":56},{"user_id":245,"name":"Rook","steam_id":76561197995204779,"connected_time":496000000000,"state":"active","ping":44},{"user_id":210,"name":"sBLOCKER  85","steam_id":76561198939078994,"connected_time":2405000000000,"state":"active","ping":145},{"user_id":240,"name":"skilltissues","steam_id":76561198025828664,"connected_time":943000000000,"state":"active","ping":63},{"user_id":251,"name":"Omyskull","steam_id":76561198131711758,"connected_time":161000000000,"state":"active","ping":70},{"user_id":234,"name":"Mato","steam_id":76561198267114673,"connected_time":1568000000000,"state":"active","ping":72},{"user_id":249,"name":"[DAH] this a bocket Der good","steam_id":76561198085461681,"connected_time":377000000000,"state":"active","ping":77},{"user_id":250,"name":"D0kai","steam_id":76561198389271720,"connected_time":354000000000,"state":"active","ping":57},{"user_id":237,"name":"SeeYouSpaceRobot","steam_id":76561198454018197,"connected_time":1177000000000,"state":"active","ping":67},{"user_id":195,"name":"Edgar","steam_id":76561198065255259,"connected_time":3636000000000,"state":"active","ping":59},{"user_id":206,"name":"cat","steam_id":76561198832231975,"connected_time":3095000000000,"state":"active","ping":102}]},{"server_id":22,"name":"Uncletopia | London | 6 | All Maps","name_short":"lon-6","host":"lon-1.uk.uncletopia.com","port":27065,"enabled":true,"region":"eu","cc":"gb","latitude":51.509865,"longitude":-0.118092,"reserved":0,"last_update":"0001-01-01T00:00:00Z","name_a2s":"Uncletopia | London | 6 | All Maps","protocol":17,"map":"koth_lakeside_final","folder":"tf","game":"Team Fortress","app_id":440,"player_count":1,"max_players":24,"Bots":0,"server_type":"Dedicated","server_os":"Linux","password":true,"vac":true,"version":"7882260","steam_id":85568392924742830,"keywords":["cp","nocrits","nodmgspread","uncletopia"],"game_id":440,"stv_port":27066,"stv_name":"Uncletopia | London | 6 | All Maps | STV","players":[{"user_id":11,"name":"Loudnag","steam_id":76561199116991916,"connected_time":489000000000,"state":"active","ping":64}]},{"server_id":40,"name":"Uncletopia | London | 7 | No Payload","name_short":"lon-7","host":"lon-1.uk.uncletopia.com","port":27075,"enabled":true,"region":"eu","cc":"gb","latitude":51.509865,"longitude":-0.118092,"reserved":0,"last_update":"0001-01-01T00:00:00Z","name_a2s":"Uncletopia | London | 7 | No Payload","protocol":17,"map":"cp_sunshine","folder":"tf","game":"Team Fortress","app_id":440,"player_count":24,"max_players":24,"Bots":0,"server_type":"Dedicated","server_os":"Linux","password":true,"vac":true,"version":"7882260","steam_id":85568392924964314,"keywords":["cp","nocrits","nodmgspread","uncletopia"],"game_id":440,"stv_port":27076,"stv_name":"Uncletopia | London | 7 | No Payload | STV","players":[{"user_id":6,"name":"ran is running","steam_id":76561199443185667,"connected_time":3368000000000,"state":"active","ping":137},{"user_id":57,"name":"KeJToJEYs???","steam_id":76561198383628624,"connected_time":914000000000,"state":"active","ping":61},{"user_id":27,"name":"aughhh","steam_id":76561199000081676,"connected_time":2030000000000,"state":"active","ping":52},{"user_id":76,"name":"CubiCub","steam_id":76561198063875960,"connected_time":99000000000,"state":"active","ping":108},{"user_id":74,"name":"cosmetical","steam_id":76561198444036574,"connected_time":305000000000,"state":"active","ping":60},{"user_id":62,"name":"D ∞a…æ“°","steam_id":76561199072946207,"connected_time":771000000000,"state":"active","ping":76},{"user_id":75,"name":"Lyell","steam_id":76561198350329389,"connected_time":273000000000,"state":"active","ping":86},{"user_id":65,"name":"gezer4ever","steam_id":76561197999030453,"connected_time":642000000000,"state":"active","ping":119},{"user_id":24,"name":"TylowStar","steam_id":76561198357107806,"connected_time":2193000000000,"state":"active","ping":61},{"user_id":77,"name":"Scobra [FR]","steam_id":76561198000734400,"connected_time":62000000000,"state":"active","ping":109},{"user_id":61,"name":"Kestrel","steam_id":76561198144033005,"connected_time":816000000000,"state":"active","ping":52},{"user_id":31,"name":"Gnomes","steam_id":76561198093510773,"connected_time":1908000000000,"state":"active","ping":55},{"user_id":34,"name":"CLAPPER","steam_id":76561199061808252,"connected_time":1868000000000,"state":"active","ping":63},{"user_id":35,"name":"JonnyBain","steam_id":76561198090080911,"connected_time":1859000000000,"state":"active","ping":67},{"user_id":69,"name":"presidentialAIDS","steam_id":76561199257284077,"connected_time":578000000000,"state":"active","ping":138},{"user_id":70,"name":"mumbler","steam_id":76561197970641239,"connected_time":556000000000,"state":"active","ping":51},{"user_id":39,"name":"sccc","steam_id":76561198446866999,"connected_time":1776000000000,"state":"active","ping":73},{"user_id":41,"name":"Salty dodo","steam_id":76561198992829873,"connected_time":1730000000000,"state":"active","ping":78},{"user_id":42,"name":"Cultist","steam_id":76561198000620771,"connected_time":1715000000000,"state":"active","ping":94},{"user_id":43,"name":"Avoo","steam_id":76561198186954897,"connected_time":1714000000000,"state":"active","ping":71},{"user_id":73,"name":"saturn505","steam_id":76561198143921841,"connected_time":374000000000,"state":"active","ping":99},{"user_id":53,"name":"Lana Ev√∏l √Öttog","steam_id":76561198066287297,"connected_time":1304000000000,"state":"active","ping":54},{"user_id":50,"name":"Carol Olston","steam_id":76561198080257273,"connected_time":1408000000000,"state":"active","ping":44},{"user_id":72,"name":"Akira","steam_id":76561198323636432,"connected_time":532000000000,"state":"active","ping":60}]},{"server_id":41,"name":"Uncletopia | London | 8 | Community","name_short":"lon-8","host":"lon-1.uk.uncletopia.com","port":27085,"enabled":true,"region":"eu","cc":"gb","latitude":51.509865,"longitude":-0.118092,"reserved":0,"last_update":"0001-01-01T00:00:00Z","name_a2s":"Uncletopia | London | 8 | Community","protocol":17,"map":"workshop/cp_snowbase_b18.ugc2081770490","folder":"tf","game":"Team Fortress","app_id":440,"player_count":5,"max_players":24,"Bots":0,"server_type":"Dedicated","server_os":"Linux","password":true,"vac":true,"version":"7882260","steam_id":85568392924964315,"keywords":["cp","nocrits","nodmgspread","uncletopia"],"game_id":440,"stv_port":27086,"stv_name":"Uncletopia | London | 8 | Community | STV","players":[{"user_id":8,"name":"The‚òÜCops","steam_id":76561198146358073,"connected_time":3339000000000,"state":"active","ping":103},{"user_id":18,"name":"W","steam_id":76561199357934976,"connected_time":593000000000,"state":"active","ping":63},{"user_id":16,"name":"dishsoap","steam_id":76561198849284832,"connected_time":999000000000,"state":"active","ping":57},{"user_id":19,"name":"nemelex","steam_id":76561198958005865,"connected_time":275000000000,"state":"active","ping":58},{"user_id":20,"name":"SaCoMi","steam_id":76561198369555481,"connected_time":151000000000,"state":"active","ping":193}]},{"server_id":300,"name":"Uncletopia | Montr√©al | 1 | All Maps","name_short":"mtl-1","host":"mtl-1.ca.uncletopia.com","port":27015,"enabled":true,"region":"us-east","cc":"ca","latitude":45.50889,"longitude":-73.56167,"reserved":0,"last_update":"0001-01-01T00:00:00Z","name_a2s":"Uncletopia | Montr√©al | 1 | All Maps","protocol":17,"map":"koth_cascade","folder":"tf","game":"Team Fortress","app_id":440,"player_count":0,"max_players":24,"Bots":0,"server_type":"Dedicated","server_os":"Linux","password":true,"vac":true,"version":"7882260","steam_id":85568392924500087,"keywords":["cp","nocrits","nodmgspread","uncletopia"],"game_id":440,"stv_port":27016,"stv_name":"Uncletopia | Montr√©al | 1 | All Maps | STV","players":null},{"server_id":301,"name":"Uncletopia | Montr√©al | 2 | All Maps","name_short":"mtl-2","host":"mtl-1.ca.uncletopia.com","port":27025,"enabled":true,"region":"us-east","cc":"ca","latitude":45.50889,"longitude":-73.56167,"reserved":0,"last_update":"0001-01-01T00:00:00Z","name_a2s":"Uncletopia | Montr√©al | 2 | All Maps","protocol":17,"map":"pl_swiftwater_final1","folder":"tf","game":"Team Fortress","app_id":440,"player_count":0,"max_players":24,"Bots":0,"server_type":"Dedicated","server_os":"Linux","password":true,"vac":true,"version":"7882260","steam_id":85568392924500088,"keywords":["nocrits","nodmgspread","payload","uncletopia"],"game_id":440,"stv_port":27026,"stv_name":"Uncletopia | Montr√©al | 2 | All Maps | STV","players":null},{"server_id":302,"name":"Uncletopia | Montr√©al | 3 | All Maps","name_short":"mtl-3","host":"mtl-1.ca.uncletopia.com","port":27035,"enabled":true,"region":"us-east","cc":"ca","latitude":45.50889,"longitude":-73.56167,"reserved":0,"last_update":"0001-01-01T00:00:00Z","name_a2s":"Uncletopia | Montr√©al | 3 | All Maps","protocol":17,"map":"koth_highpass","folder":"tf","game":"Team Fortress","app_id":440,"player_count":0,"max_players":24,"Bots":0,"server_type":"Dedicated","server_os":"Linux","password":true,"vac":true,"version":"7882260","steam_id":85568392924500089,"keywords":["cp","nocrits","nodmgspread","uncletopia"],"game_id":440,"stv_port":27036,"stv_name":"Uncletopia | Montr√©al | 3 | All Maps | STV","players":null},{"server_id":303,"name":"Uncletopia | Montr√©al | 4 | No Payload","name_short":"mtl-4","host":"mtl-1.ca.uncletopia.com","port":27045,"enabled":true,"region":"us-east","cc":"ca","latitude":45.50889,"longitude":-73.56167,"reserved":0,"last_update":"0001-01-01T00:00:00Z","name_a2s":"Uncletopia | Montr√©al | 4 | No Payload","protocol":17,"map":"koth_highpass","folder":"tf","game":"Team Fortress","app_id":440,"player_count":0,"max_players":24,"Bots":0,"server_type":"Dedicated","server_os":"Linux","password":true,"vac":true,"version":"7882260","steam_id":85568392924500090,"keywords":["cp","nocrits","nodmgspread","uncletopia"],"game_id":440,"stv_port":27046,"stv_name":"Uncletopia | Montr√©al | 4 | No Payload | STV","players":null},{"server_id":13,"name":"Uncletopia | New York City | 1 | All Maps","name_short":"nyc-1","host":"nyc-1.us.uncletopia.com","port":27015,"enabled":true,"region":"us-east","cc":"us","latitude":40.73061,"longitude":-73.93524,"reserved":0,"last_update":"0001-01-01T00:00:00Z","name_a2s":"Uncletopia | New York City | 1 | All Maps","protocol":17,"map":"pl_upward","folder":"tf","game":"Team Fortress","app_id":440,"player_count":24,"max_players":24,"Bots":0,"server_type":"Dedicated","server_os":"Linux","password":true,"vac":true,"version":"7882260","steam_id":85568392924469993,"keywords":["nocrits","nodmgspread","payload","uncletopia"],"game_id":440,"stv_port":27016,"stv_name":"Uncletopia | New York City | 1 | All Maps | STV","players":[{"user_id":188,"name":"Lieutenant Lazybones","steam_id":76561198317647978,"connected_time":1187000000000,"state":"active","ping":93},{"user_id":196,"name":"TJThomas","steam_id":76561198038292405,"connected_time":556000000000,"state":"active","ping":47},{"user_id":191,"name":"who is gavin?","steam_id":76561198069415057,"connected_time":1037000000000,"state":"active","ping":44},{"user_id":176,"name":"quint","steam_id":76561198046797995,"connected_time":2144000000000,"state":"active","ping":69},{"user_id":205,"name":"All 24 Pok√©mon movies at once","steam_id":76561198164738311,"connected_time":264000000000,"state":"active","ping":86},{"user_id":180,"name":"Jim Eagle","steam_id":76561197964961639,"connected_time":1635000000000,"state":"active","ping":68},{"user_id":158,"name":"Constellar Nova","steam_id":76561198868215392,"connected_time":2792000000000,"state":"active","ping":55},{"user_id":162,"name":"Bee_Pirate","steam_id":76561199000599111,"connected_time":2687000000000,"state":"active","ping":64},{"user_id":187,"name":"Blackbird","steam_id":76561198127818333,"connected_time":1248000000000,"state":"active","ping":63},{"user_id":101,"name":"Fan Girl","steam_id":76561198253710690,"connected_time":7291000000000,"state":"active","ping":91},{"user_id":184,"name":"Galaxy","steam_id":76561198035134466,"connected_time":1431000000000,"state":"active","ping":56},{"user_id":181,"name":"fake Uncletopia server","steam_id":76561197997139225,"connected_time":1608000000000,"state":"active","ping":45},{"user_id":204,"name":"chiswola","steam_id":76561198046920142,"connected_time":279000000000,"state":"active","ping":87},{"user_id":169,"name":"turd ferguson","steam_id":76561198071620782,"connected_time":2356000000000,"state":"active","ping":61},{"user_id":202,"name":"Tea Enthusiast","steam_id":76561198185583925,"connected_time":327000000000,"state":"active","ping":44},{"user_id":193,"name":"Marcel","steam_id":76561199079200901,"connected_time":643000000000,"state":"active","ping":100},{"user_id":182,"name":"dr peppah chug!","steam_id":76561198068835693,"connected_time":1571000000000,"state":"active","ping":75},{"user_id":183,"name":"Dusken","steam_id":76561198020696265,"connected_time":1524000000000,"state":"active","ping":66},{"user_id":197,"name":"Wan Shi Tong","steam_id":76561198076441225,"connected_time":554000000000,"state":"active","ping":49},{"user_id":199,"name":"Der Krieger105","steam_id":76561197978384609,"connected_time":472000000000,"state":"active","ping":65},{"user_id":200,"name":"‚ô°Alyx‚ô°","steam_id":76561198024303978,"connected_time":463000000000,"state":"active","ping":48},{"user_id":186,"name":"TurnupDig75","steam_id":76561198852375121,"connected_time":1354000000000,"state":"active","ping":70},{"user_id":201,"name":"yeyoi","steam_id":76561198069821885,"connected_time":445000000000,"state":"active","ping":59},{"user_id":194,"name":"Unlock The Shock (She/They)","steam_id":76561198823616667,"connected_time":627000000000,"state":"active","ping":93}]},{"server_id":14,"name":"Uncletopia | New York City | 2 | All Maps","name_short":"nyc-2","host":"nyc-1.us.uncletopia.com","port":27025,"enabled":true,"region":"us-east","cc":"us","latitude":40.73061,"longitude":-73.93524,"reserved":0,"last_update":"0001-01-01T00:00:00Z","name_a2s":"Uncletopia | New York City | 2 | All Maps","protocol":17,"map":"cp_sunshine","folder":"tf","game":"Team Fortress","app_id":440,"player_count":25,"max_players":24,"Bots":0,"server_type":"Dedicated","server_os":"Linux","password":true,"vac":true,"version":"7882260","steam_id":85568392924469994,"keywords":["cp","nocrits","nodmgspread","uncletopia"],"game_id":440,"stv_port":27026,"stv_name":"Uncletopia | New York City | 2 | All Maps | STV","players":[{"user_id":15,"name":"t.tv/stabslive","steam_id":76561198293116584,"connected_time":2602000000000,"state":"active","ping":61},{"user_id":16,"name":"Goat","steam_id":76561198109415404,"connected_time":2595000000000,"state":"active","ping":128},{"user_id":51,"name":"[CTC] kooldan","steam_id":76561198136593625,"connected_time":506000000000,"state":"active","ping":75},{"user_id":19,"name":"Skinny Pete","steam_id":76561199097909603,"connected_time":2528000000000,"state":"active","ping":138},{"user_id":49,"name":"TafferBlaster","steam_id":76561198135665290,"connected_time":573000000000,"state":"active","ping":67},{"user_id":42,"name":"Titus Tyrwitt","steam_id":76561197990779673,"connected_time":719000000000,"state":"active","ping":70},{"user_id":33,"name":"FrogInShorts","steam_id":76561198081903213,"connected_time":1061000000000,"state":"active","ping":65},{"user_id":31,"name":"Slazzer","steam_id":76561198404351844,"connected_time":1154000000000,"state":"active","ping":58},{"user_id":43,"name":"BooceMaster","steam_id":76561198148520318,"connected_time":700000000000,"state":"active","ping":55},{"user_id":29,"name":"Deja Vu","steam_id":76561198062090620,"connected_time":1348000000000,"state":"active","ping":129},{"user_id":32,"name":"James 4:4","steam_id":76561198121933439,"connected_time":1137000000000,"state":"active","ping":63},{"user_id":41,"name":"notjak000","steam_id":76561199472259735,"connected_time":860000000000,"state":"active","ping":160},{"user_id":35,"name":"alokin505","steam_id":76561198872083128,"connected_time":1039000000000,"state":"active","ping":65},{"user_id":45,"name":"kefkja","steam_id":76561198283963218,"connected_time":681000000000,"state":"active","ping":47},{"user_id":37,"name":"Void","steam_id":76561199186496740,"connected_time":948000000000,"state":"active","ping":88},{"user_id":39,"name":"Ian","steam_id":76561199078852180,"connected_time":905000000000,"state":"active","ping":55},{"user_id":40,"name":"Thelonious Prime, King of Jazz","steam_id":76561198077785482,"connected_time":883000000000,"state":"active","ping":75},{"user_id":46,"name":"justwhothehelldoyouthinkiam","steam_id":76561198013064750,"connected_time":652000000000,"state":"active","ping":318},{"user_id":55,"name":"Minion Fartly","steam_id":76561197987805095,"connected_time":268000000000,"state":"active","ping":105},{"user_id":48,"name":"Tomatanator","steam_id":76561198993330383,"connected_time":592000000000,"state":"active","ping":45},{"user_id":50,"name":"Ghworg","steam_id":76561198324891401,"connected_time":568000000000,"state":"active","ping":68},{"user_id":52,"name":"Franklin M. Hooverville","steam_id":76561198245109084,"connected_time":488000000000,"state":"active","ping":68},{"user_id":53,"name":"ObscurePixel","steam_id":76561198393520301,"connected_time":479000000000,"state":"active","ping":65},{"user_id":54,"name":"Tony hawks pro skater 2 dlc","steam_id":76561198243387974,"connected_time":414000000000,"state":"active","ping":50},{"user_id":56,"name":"Pyroscorp","steam_id":76561199109194825,"connected_time":36000000000,"state":"spawning","ping":164}]},{"server_id":15,"name":"Uncletopia | New York City | 3 | Stopwatch Beta","name_short":"nyc-3","host":"nyc-1.us.uncletopia.com","port":27035,"enabled":true,"region":"us-east","cc":"us","latitude":40.73061,"longitude":-73.93524,"reserved":0,"last_update":"0001-01-01T00:00:00Z","name_a2s":"Uncletopia | New York City | 3 | Stopwatch Beta","protocol":17,"map":"pl_borneo","folder":"tf","game":"Team Fortress","app_id":440,"player_count":0,"max_players":24,"Bots":0,"server_type":"Dedicated","server_os":"Linux","password":true,"vac":true,"version":"7882260","steam_id":85568392924742820,"keywords":["nocrits","nodmgspread","payload","uncletopia"],"game_id":440,"stv_port":27036,"stv_name":"Uncletopia | New York City | 3 | Stopwatch Beta | STV","players":null},{"server_id":16,"name":"Uncletopia | New York City | 4 | Community","name_short":"nyc-4","host":"nyc-1.us.uncletopia.com","port":27045,"enabled":true,"region":"us-east","cc":"us","latitude":40.73061,"longitude":-73.93524,"reserved":0,"last_update":"0001-01-01T00:00:00Z","name_a2s":"Uncletopia | New York City | 4 | Community","protocol":17,"map":"workshop/cp_overgrown_rc7b.ugc503939302","folder":"tf","game":"Team Fortress","app_id":440,"player_count":0,"max_players":24,"Bots":0,"server_type":"Dedicated","server_os":"Linux","password":true,"vac":true,"version":"7882260","steam_id":85568392924742821,"keywords":["cp","nocrits","nodmgspread","uncletopia"],"game_id":440,"stv_port":27046,"stv_name":"Uncletopia | New York City | 4 | Community | STV","players":null},{"server_id":142,"name":"Uncletopia | S√£o Paulo | 1 | All Maps","name_short":"sao-1","host":"sao-1.br.uncletopia.com","port":27015,"enabled":true,"region":"sa","cc":"br","latitude":-23.533773,"longitude":-46.62529,"reserved":0,"last_update":"0001-01-01T00:00:00Z","name_a2s":"Uncletopia | S√£o Paulo | 1 | All Maps","protocol":17,"map":"koth_viaduct","folder":"tf","game":"Team Fortress","app_id":440,"player_count":0,"max_players":24,"Bots":0,"server_type":"Dedicated","server_os":"Linux","password":true,"vac":true,"version":"7882260","steam_id":85568392924469996,"keywords":["cp","nocrits","nodmgspread","uncletopia"],"game_id":440,"stv_port":27016,"stv_name":"Uncletopia | S√£o Paulo | 1 | All Maps | STV","players":null},{"server_id":143,"name":"Uncletopia | S√£o Paulo | 2 | All Maps","name_short":"sao-2","host":"sao-2.br.uncletopia.com","port":27015,"enabled":true,"region":"sa","cc":"br","latitude":-23.533773,"longitude":-46.62529,"reserved":0,"last_update":"0001-01-01T00:00:00Z","name_a2s":"Uncletopia | S√£o Paulo | 2 | All Maps","protocol":17,"map":"koth_king","folder":"tf","game":"Team Fortress","app_id":440,"player_count":0,"max_players":24,"Bots":0,"server_type":"Dedicated","server_os":"Linux","password":true,"vac":true,"version":"7882260","steam_id":85568392924485349,"keywords":["cp","nocrits","nodmgspread","uncletopia"],"game_id":440,"stv_port":27016,"stv_name":"Uncletopia | S√£o Paulo | 2 | All Maps | STV","players":null},{"server_id":7,"name":"Uncletopia | Seattle | 1 | All Maps","name_short":"sea-1","host":"sea-1.us.uncletopia.com","port":27015,"enabled":true,"region":"us-west","cc":"us","latitude":47.608013,"longitude":-122.33517,"reserved":0,"last_update":"0001-01-01T00:00:00Z","name_a2s":"Uncletopia | Seattle | 1 | All Maps","protocol":17,"map":"pl_barnblitz","folder":"tf","game":"Team Fortress","app_id":440,"player_count":24,"max_players":24,"Bots":0,"server_type":"Dedicated","server_os":"Linux","password":true,"vac":true,"version":"7882260","steam_id":85568392924469997,"keywords":["nocrits","nodmgspread","payload","uncletopia"],"game_id":440,"stv_port":27016,"stv_name":"Uncletopia | Seattle | 1 | All Maps | STV","players":[{"user_id":273,"name":"Jolly","steam_id":76561198116357972,"connected_time":2380000000000,"state":"active","ping":74},{"user_id":270,"name":"forest (italian)","steam_id":76561198157960257,"connected_time":2962000000000,"state":"active","ping":43},{"user_id":308,"name":"„Åµ„Çè„Åµ„ÇèÊØõÂ∏É","steam_id":76561198088403016,"connected_time":461000000000,"state":"active","ping":180},{"user_id":291,"name":"BlancaLamb","steam_id":76561198025646073,"connected_time":1061000000000,"state":"active","ping":91},{"user_id":309,"name":"Keamy","steam_id":76561199471434875,"connected_time":459000000000,"state":"active","ping":40},{"user_id":264,"name":"Defeat","steam_id":76561198065203818,"connected_time":3381000000000,"state":"active","ping":38},{"user_id":294,"name":"aggressive headpatter","steam_id":76561198042913843,"connected_time":1024000000000,"state":"active","ping":60},{"user_id":310,"name":"Lepa Radiƒá","steam_id":76561198014698593,"connected_time":408000000000,"state":"active","ping":49},{"user_id":238,"name":"Tyler\u0026Fingers","steam_id":76561198085154485,"connected_time":5760000000000,"state":"active","ping":134},{"user_id":295,"name":"Tideflat","steam_id":76561198179850851,"connected_time":996000000000,"state":"active","ping":101},{"user_id":287,"name":"Jim the Fish","steam_id":76561199135784419,"connected_time":2069000000000,"state":"active","ping":135},{"user_id":296,"name":"SAD MOSCOVIA","steam_id":76561198101081520,"connected_time":971000000000,"state":"active","ping":76},{"user_id":256,"name":"suger1316","steam_id":76561199079999423,"connected_time":3936000000000,"state":"active","ping":126},{"user_id":303,"name":"CURSED_ROKIM","steam_id":76561199120016510,"connected_time":811000000000,"state":"active","ping":84},{"user_id":311,"name":"hppd","steam_id":76561199001918194,"connected_time":380000000000,"state":"active","ping":89},{"user_id":297,"name":"|-HyperCube-|","steam_id":76561198167133597,"connected_time":961000000000,"state":"active","ping":81},{"user_id":265,"name":"Void","steam_id":76561198308290211,"connected_time":3176000000000,"state":"active","ping":87},{"user_id":304,"name":"Sods","steam_id":76561198010204565,"connected_time":807000000000,"state":"active","ping":91},{"user_id":298,"name":"Lord Aben","steam_id":76561198135266770,"connected_time":941000000000,"state":"active","ping":56},{"user_id":290,"name":"Tusked","steam_id":76561198078473398,"connected_time":1131000000000,"state":"active","ping":99},{"user_id":299,"name":"LunchTray ¬©","steam_id":76561197993337109,"connected_time":920000000000,"state":"active","ping":52},{"user_id":305,"name":"Derphat","steam_id":76561198899750839,"connected_time":800000000000,"state":"active","ping":123},{"user_id":301,"name":"WaffleWithNoToppings","steam_id":76561199088280111,"connected_time":911000000000,"state":"active","ping":49},{"user_id":307,"name":"jorts","steam_id":76561199041179985,"connected_time":675000000000,"state":"active","ping":59}]},{"server_id":119,"name":"Uncletopia | Seattle | 2 | All Maps","name_short":"sea-2","host":"sea-1.us.uncletopia.com","port":27025,"enabled":true,"region":"us-west","cc":"us","latitude":47.608013,"longitude":-122.33517,"reserved":0,"last_update":"0001-01-01T00:00:00Z","name_a2s":"Uncletopia | Seattle | 2 | All Maps","protocol":17,"map":"pl_upward","folder":"tf","game":"Team Fortress","app_id":440,"player_count":24,"max_players":24,"Bots":0,"server_type":"Dedicated","server_os":"Linux","password":true,"vac":true,"version":"7882260","steam_id":85568392924469998,"keywords":["nocrits","nodmgspread","payload","uncletopia"],"game_id":440,"stv_port":27026,"stv_name":"Uncletopia | Seattle | 2 | All Maps | STV","players":[{"user_id":86,"name":"shy guy","steam_id":76561198151246059,"connected_time":453000000000,"state":"active","ping":65},{"user_id":60,"name":"Mongkoot","steam_id":76561198033125093,"connected_time":2242000000000,"state":"active","ping":128},{"user_id":93,"name":"Bitter","steam_id":76561198047426244,"connected_time":259000000000,"state":"active","ping":54},{"user_id":83,"name":"gloobern","steam_id":76561198341190679,"connected_time":1037000000000,"state":"active","ping":67},{"user_id":77,"name":"Fiddle","steam_id":76561199114446250,"connected_time":1465000000000,"state":"active","ping":88},{"user_id":61,"name":"Dreadnaught","steam_id":76561198029232533,"connected_time":2220000000000,"state":"active","ping":129},{"user_id":92,"name":"Strikerbolt","steam_id":76561199095622897,"connected_time":292000000000,"state":"active","ping":76},{"user_id":95,"name":"Scorpianswag","steam_id":76561198260651036,"connected_time":167000000000,"state":"active","ping":69},{"user_id":94,"name":"GLaDOS Simp","steam_id":76561198084849541,"connected_time":178000000000,"state":"active","ping":91},{"user_id":98,"name":"iamoctopii","steam_id":76561198876901076,"connected_time":69000000000,"state":"active","ping":257},{"user_id":78,"name":"Nibotshooter","steam_id":76561199284825579,"connected_time":1463000000000,"state":"active","ping":83},{"user_id":23,"name":"Vitzenhauzer","steam_id":76561198116449787,"connected_time":3469000000000,"state":"active","ping":122},{"user_id":35,"name":"dweaver","steam_id":76561198119610135,"connected_time":3250000000000,"state":"active","ping":88},{"user_id":96,"name":"Reflector","steam_id":76561198078999855,"connected_time":120000000000,"state":"active","ping":109},{"user_id":91,"name":"novatova","steam_id":76561198970014265,"connected_time":305000000000,"state":"active","ping":92},{"user_id":97,"name":"brovo16gabe","steam_id":76561199466634995,"connected_time":120000000000,"state":"active","ping":140},{"user_id":54,"name":"dougrocks421","steam_id":76561198165063918,"connected_time":2593000000000,"state":"active","ping":35},{"user_id":79,"name":"Noxitril_Enjoyer","steam_id":76561198870649125,"connected_time":1402000000000,"state":"active","ping":73},{"user_id":30,"name":"Spruce","steam_id":76561198081684676,"connected_time":3334000000000,"state":"active","ping":62},{"user_id":56,"name":"Your childhood","steam_id":76561198799385466,"connected_time":2460000000000,"state":"active","ping":103},{"user_id":67,"name":"Lo-Pan","steam_id":76561198085670133,"connected_time":1966000000000,"state":"active","ping":112},{"user_id":90,"name":"BennBap","steam_id":76561198171881453,"connected_time":328000000000,"state":"active","ping":76},{"user_id":81,"name":"Jolly Chicken","steam_id":76561198095012194,"connected_time":1295000000000,"state":"active","ping":56},{"user_id":71,"name":"soapboxracer360","steam_id":76561198316394688,"connected_time":1892000000000,"state":"active","ping":87}]},{"server_id":406,"name":"Uncletopia | Seattle | 3 | Stopwatch Beta","name_short":"sea-3","host":"sea-1.us.uncletopia.com","port":27035,"enabled":true,"region":"us-west","cc":"us","latitude":47.608013,"longitude":-122.33517,"reserved":0,"last_update":"0001-01-01T00:00:00Z","name_a2s":"Uncletopia | Seattle | 3 | Stopwatch Beta","protocol":17,"map":"koth_viaduct","folder":"tf","game":"Team Fortress","app_id":440,"player_count":0,"max_players":24,"Bots":0,"server_type":"Dedicated","server_os":"Linux","password":true,"vac":true,"version":"7882260","steam_id":85568392924515217,"keywords":["cp","nocrits","nodmgspread","uncletopia"],"game_id":440,"stv_port":27036,"stv_name":"Uncletopia | Seattle | 3 | Stopwatch Beta | STV","players":null},{"server_id":17,"name":"Uncletopia | San Francisco | 1 | All Maps","name_short":"sfo-1","host":"sfo-1.us.uncletopia.com","port":27015,"enabled":true,"region":"us-west","cc":"us","latitude":37.77397,"longitude":-122.4313,"reserved":0,"last_update":"0001-01-01T00:00:00Z","name_a2s":"Uncletopia | San Francisco | 1 | All Maps","protocol":17,"map":"cp_dustbowl","folder":"tf","game":"Team Fortress","app_id":440,"player_count":22,"max_players":24,"Bots":0,"server_type":"Dedicated","server_os":"Linux","password":true,"vac":true,"version":"7882260","steam_id":85568392924469999,"keywords":["cp","nocrits","nodmgspread","uncletopia"],"game_id":440,"stv_port":27016,"stv_name":"Uncletopia | San Francisco | 1 | All Maps | STV","players":[{"user_id":208,"name":"Goodra Is The Best Dragon Type","steam_id":76561199194702127,"connected_time":205000000000,"state":"active","ping":112},{"user_id":206,"name":"mycoolcucumber","steam_id":76561198177586211,"connected_time":232000000000,"state":"active","ping":118},{"user_id":180,"name":"Cob","steam_id":76561198042518365,"connected_time":2801000000000,"state":"active","ping":46},{"user_id":197,"name":"DiscoTraveler","steam_id":76561199240168088,"connected_time":916000000000,"state":"active","ping":106},{"user_id":192,"name":"Altruisticailuridae","steam_id":76561198335295596,"connected_time":2060000000000,"state":"active","ping":57},{"user_id":199,"name":"Zirkel","steam_id":76561198091428512,"connected_time":658000000000,"state":"active","ping":56},{"user_id":195,"name":"Serupy","steam_id":76561198402330698,"connected_time":935000000000,"state":"active","ping":111},{"user_id":200,"name":"PheebsyDeebsy","steam_id":76561198101509436,"connected_time":650000000000,"state":"active","ping":54},{"user_id":210,"name":"Ianc11","steam_id":76561198116227422,"connected_time":159000000000,"state":"active","ping":137},{"user_id":209,"name":"MegaBitmap","steam_id":76561198086027059,"connected_time":196000000000,"state":"active","ping":61},{"user_id":211,"name":"oppai","steam_id":76561198347660282,"connected_time":156000000000,"state":"active","ping":81},{"user_id":204,"name":"Brixzee","steam_id":76561198022498312,"connected_time":510000000000,"state":"active","ping":115},{"user_id":178,"name":"Wahooka","steam_id":76561197962240925,"connected_time":2839000000000,"state":"active","ping":92},{"user_id":159,"name":"PaC","steam_id":76561198081053203,"connected_time":3874000000000,"state":"active","ping":92},{"user_id":191,"name":"noceof","steam_id":76561198043656816,"connected_time":2249000000000,"state":"active","ping":160},{"user_id":141,"name":"incompetentmedic","steam_id":76561199466073856,"connected_time":4948000000000,"state":"active","ping":112},{"user_id":196,"name":"BurdBrain","steam_id":76561197962097737,"connected_time":922000000000,"state":"active","ping":64},{"user_id":212,"name":"nekoknight, cum drinker","steam_id":76561198400058665,"connected_time":146000000000,"state":"active","ping":105},{"user_id":213,"name":"Gizmo","steam_id":76561198112511045,"connected_time":97000000000,"state":"active","ping":115},{"user_id":183,"name":"stboncho","steam_id":76561198172275301,"connected_time":2748000000000,"state":"active","ping":56},{"user_id":190,"name":"Dark_Eagle","steam_id":76561198397908108,"connected_time":2401000000000,"state":"active","ping":85},{"user_id":187,"name":"Chimpanzee","steam_id":76561198850387282,"connected_time":2509000000000,"state":"active","ping":107}]},{"server_id":18,"name":"Uncletopia | San Francisco | 2 | All Maps","name_short":"sfo-2","host":"sfo-1.us.uncletopia.com","port":27025,"enabled":true,"region":"us-west","cc":"us","latitude":37.77397,"longitude":-122.4313,"reserved":0,"last_update":"0001-01-01T00:00:00Z","name_a2s":"Uncletopia | San Francisco | 2 | All Maps","protocol":17,"map":"pl_snowycoast","folder":"tf","game":"Team Fortress","app_id":440,"player_count":0,"max_players":24,"Bots":0,"server_type":"Dedicated","server_os":"Linux","password":true,"vac":true,"version":"7882260","steam_id":85568392924470000,"keywords":["nocrits","nodmgspread","payload","uncletopia"],"game_id":440,"stv_port":27026,"stv_name":"Uncletopia | San Francisco | 2 | All Maps | STV","players":null},{"server_id":19,"name":"Uncletopia | San Francisco | 3 | Stopwatch Beta","name_short":"sfo-3","host":"sfo-1.us.uncletopia.com","port":27035,"enabled":true,"region":"us-west","cc":"us","latitude":37.77397,"longitude":-122.4313,"reserved":0,"last_update":"0001-01-01T00:00:00Z","name_a2s":"Uncletopia | San Francisco | 3 | Stopwatch Beta","protocol":17,"map":"pl_snowycoast","folder":"tf","game":"Team Fortress","app_id":440,"player_count":0,"max_players":24,"Bots":0,"server_type":"Dedicated","server_os":"Linux","password":true,"vac":true,"version":"7882260","steam_id":85568392924742824,"keywords":["nocrits","nodmgspread","payload","uncletopia"],"game_id":440,"stv_port":27036,"stv_name":"Uncletopia | San Francisco | 3 | Stopwatch Beta | STV","players":null},{"server_id":20,"name":"Uncletopia | San Francisco | 4 | Community","name_short":"sfo-4","host":"sfo-1.us.uncletopia.com","port":27045,"enabled":true,"region":"us-west","cc":"us","latitude":37.77397,"longitude":-122.4313,"reserved":0,"last_update":"0001-01-01T00:00:00Z","name_a2s":"Uncletopia | San Francisco | 4 | Community","protocol":17,"map":"pl_swiftwater_final1","folder":"tf","game":"Team Fortress","app_id":440,"player_count":0,"max_players":24,"Bots":0,"server_type":"Dedicated","server_os":"Linux","password":true,"vac":true,"version":"7882260","steam_id":85568392924742826,"keywords":["nocrits","nodmgspread","payload","uncletopia"],"game_id":440,"stv_port":27046,"stv_name":"Uncletopia | San Francisco | 4 | Community | STV","players":null},{"server_id":141,"name":"Uncletopia | Sydney | 1 | All Maps","name_short":"syd-1","host":"syd-1.au.uncletopia.com","port":27015,"enabled":true,"region":"au","cc":"au","latitude":-33.865143,"longitude":151.2099,"reserved":0,"last_update":"0001-01-01T00:00:00Z","name_a2s":"Uncletopia | Sydney | 1 | All Maps","protocol":17,"map":"cp_altitude","folder":"tf","game":"Team Fortress","app_id":440,"player_count":0,"max_players":24,"Bots":0,"server_type":"Dedicated","server_os":"Linux","password":true,"vac":true,"version":"7882260","steam_id":85568392924470001,"keywords":["cp","nocrits","nodmgspread","uncletopia"],"game_id":440,"stv_port":27016,"stv_name":"Uncletopia | Sydney | 1 | All Maps | STV","players":null},{"server_id":123,"name":"Uncletopia | Sydney | 2 | All Maps","name_short":"syd-2","host":"syd-1.au.uncletopia.com","port":27025,"enabled":true,"region":"au","cc":"au","latitude":-33.865143,"longitude":151.2099,"reserved":0,"last_update":"0001-01-01T00:00:00Z","name_a2s":"Uncletopia | Sydney | 2 | All Maps","protocol":17,"map":"cp_snakewater_final1","folder":"tf","game":"Team Fortress","app_id":440,"player_count":0,"max_players":24,"Bots":0,"server_type":"Dedicated","server_os":"Linux","password":true,"vac":true,"version":"7882260","steam_id":85568392924470002,"keywords":["cp","nocrits","nodmgspread","uncletopia"],"game_id":440,"stv_port":27026,"stv_name":"Uncletopia | Sydney | 2 | All Maps | STV","players":null},{"server_id":395,"name":"Uncletopia | Sydney | 3 | All Maps","name_short":"syd-3","host":"syd-1.au.uncletopia.com","port":27035,"enabled":true,"region":"au","cc":"au","latitude":-33.865143,"longitude":151.2099,"reserved":0,"last_update":"0001-01-01T00:00:00Z","name_a2s":"Uncletopia | Sydney | 3 | All Maps","protocol":17,"map":"pl_badwater","folder":"tf","game":"Team Fortress","app_id":440,"player_count":0,"max_players":24,"Bots":0,"server_type":"Dedicated","server_os":"Linux","password":true,"vac":true,"version":"7882260","steam_id":85568392925194467,"keywords":["nocrits","nodmgspread","payload","uncletopia"],"game_id":440,"stv_port":27036,"stv_name":"Uncletopia | Sydney | 3 | All Maps | STV","players":null},{"server_id":396,"name":"Uncletopia | Sydney | 4 | All Maps","name_short":"syd-4","host":"syd-1.au.uncletopia.com","port":27045,"enabled":true,"region":"au","cc":"au","latitude":-33.865143,"longitude":151.2099,"reserved":0,"last_update":"0001-01-01T00:00:00Z","name_a2s":"Uncletopia | Sydney | 4 | All Maps","protocol":17,"map":"cp_altitude","folder":"tf","game":"Team Fortress","app_id":440,"player_count":0,"max_players":24,"Bots":0,"server_type":"Dedicated","server_os":"Linux","password":true,"vac":true,"version":"7882260","steam_id":85568392925397958,"keywords":["cp","nocrits","nodmgspread","uncletopia"],"game_id":440,"stv_port":27046,"stv_name":"Uncletopia | Sydney | 4 | All Maps | STV","players":null},{"server_id":58,"name":"Uncletopia | Sydney | 5 | Stopwatch Beta","name_short":"syd-5","host":"syd-1.au.uncletopia.com","port":27055,"enabled":true,"region":"au","cc":"au","latitude":-33.865143,"longitude":151.2099,"reserved":0,"last_update":"0001-01-01T00:00:00Z","name_a2s":"Uncletopia | Sydney | 5 | Stopwatch Beta","protocol":17,"map":"koth_viaduct","folder":"tf","game":"Team Fortress","app_id":440,"player_count":0,"max_players":24,"Bots":0,"server_type":"Dedicated","server_os":"Linux","password":true,"vac":true,"version":"7882260","steam_id":85568392925397959,"keywords":["cp","nocrits","nodmgspread","uncletopia"],"game_id":440,"stv_port":27056,"stv_name":"Uncletopia | Sydney | 5 | Stopwatch Beta | STV","players":null},{"server_id":59,"name":"Uncletopia | Sydney | 6 | Community","name_short":"syd-6","host":"syd-1.au.uncletopia.com","port":27065,"enabled":true,"region":"au","cc":"au","latitude":-33.865143,"longitude":151.2099,"reserved":0,"last_update":"0001-01-01T00:00:00Z","name_a2s":"Uncletopia | Sydney | 6 | Community","protocol":17,"map":"pl_upward","folder":"tf","game":"Team Fortress","app_id":440,"player_count":0,"max_players":24,"Bots":0,"server_type":"Dedicated","server_os":"Linux","password":true,"vac":true,"version":"7882260","steam_id":85568392925397960,"keywords":["nocrits","nodmgspread","payload","uncletopia"],"game_id":440,"stv_port":27066,"stv_name":"Uncletopia | Sydney | 6 | Community | STV","players":null},{"server_id":49,"name":"Uncletopia | Warsaw | 1 | All Maps","name_short":"waw-1","host":"waw-1.pl.uncletopia.com","port":27015,"enabled":true,"region":"eu","cc":"pl","latitude":52.2297,"longitude":21.017532,"reserved":0,"last_update":"0001-01-01T00:00:00Z","name_a2s":"","protocol":0,"map":"","folder":"","game":"","app_id":0,"player_count":0,"max_players":0,"Bots":0,"server_type":"","server_os":"","password":false,"vac":false,"version":"","steam_id":0,"keywords":null,"game_id":0,"stv_port":0,"stv_name":"","players":null},{"server_id":50,"name":"Uncletopia | Warsaw | 2 | All Maps","name_short":"waw-2","host":"waw-1.pl.uncletopia.com","port":27025,"enabled":true,"region":"eu","cc":"pl","latitude":52.2297,"longitude":21.017532,"reserved":0,"last_update":"0001-01-01T00:00:00Z","name_a2s":"Uncletopia | Warsaw | 2 | All Maps","protocol":17,"map":"koth_viaduct","folder":"tf","game":"Team Fortress","app_id":440,"player_count":0,"max_players":24,"Bots":0,"server_type":"Dedicated","server_os":"Linux","password":true,"vac":true,"version":"7882260","steam_id":85568392925397851,"keywords":["cp","nocrits","nodmgspread","uncletopia"],"game_id":440,"stv_port":27026,"stv_name":"Uncletopia | Warsaw | 2 | All Maps | STV","players":null},{"server_id":51,"name":"Uncletopia | Warsaw | 3 | All Maps","name_short":"waw-3","host":"waw-1.pl.uncletopia.com","port":27035,"enabled":true,"region":"eu","cc":"pl","latitude":52.2297,"longitude":21.017532,"reserved":0,"last_update":"0001-01-01T00:00:00Z","name_a2s":"Uncletopia | Warsaw | 3 | All Maps","protocol":17,"map":"cp_process_final","folder":"tf","game":"Team Fortress","app_id":440,"player_count":0,"max_players":24,"Bots":0,"server_type":"Dedicated","server_os":"Linux","password":true,"vac":true,"version":"7882260","steam_id":85568392925397852,"keywords":["cp","nocrits","nodmgspread","uncletopia"],"game_id":440,"stv_port":27036,"stv_name":"Uncletopia | Warsaw | 3 | All Maps | STV","players":null},{"server_id":52,"name":"Uncletopia | Warsaw | 4 | All Maps","name_short":"waw-4","host":"waw-1.pl.uncletopia.com","port":27045,"enabled":true,"region":"eu","cc":"pl","latitude":52.2297,"longitude":21.017532,"reserved":0,"last_update":"0001-01-01T00:00:00Z","name_a2s":"Uncletopia | Warsaw | 4 | All Maps","protocol":17,"map":"koth_cascade","folder":"tf","game":"Team Fortress","app_id":440,"player_count":0,"max_players":24,"Bots":0,"server_type":"Dedicated","server_os":"Linux","password":true,"vac":true,"version":"7882260","steam_id":85568392925397853,"keywords":["cp","nocrits","nodmgspread","uncletopia"],"game_id":440,"stv_port":27046,"stv_name":"Uncletopia | Warsaw | 4 | All Maps | STV","players":null},{"server_id":53,"name":"Uncletopia | Warsaw | 5 | Stopwatch Beta","name_short":"waw-5","host":"waw-1.pl.uncletopia.com","port":27055,"enabled":true,"region":"eu","cc":"pl","latitude":52.2297,"longitude":21.017532,"reserved":0,"last_update":"0001-01-01T00:00:00Z","name_a2s":"Uncletopia | Warsaw | 5 | Stopwatch Beta","protocol":17,"map":"cp_dustbowl","folder":"tf","game":"Team Fortress","app_id":440,"player_count":9,"max_players":24,"Bots":0,"server_type":"Dedicated","server_os":"Linux","password":true,"vac":true,"version":"7882260","steam_id":85568392925397854,"keywords":["cp","nocrits","nodmgspread","uncletopia"],"game_id":440,"stv_port":27056,"stv_name":"Uncletopia | Warsaw | 5 | Stopwatch Beta | STV","players":[{"user_id":4,"name":"À¢ ∞·µÉ‚Åø‚Å±À£ ·µò ∑·µò","steam_id":76561198857228921,"connected_time":2405000000000,"state":"active","ping":64},{"user_id":5,"name":"Cappuccino","steam_id":76561199065155403,"connected_time":2354000000000,"state":"active","ping":62},{"user_id":6,"name":"Cass","steam_id":76561198327366139,"connected_time":2348000000000,"state":"active","ping":52},{"user_id":15,"name":"pyro tf2","steam_id":76561199171704098,"connected_time":776000000000,"state":"active","ping":45},{"user_id":8,"name":"Shvydrygailo [UA]","steam_id":76561198332237003,"connected_time":2284000000000,"state":"active","ping":69},{"user_id":11,"name":"Û†Ä°Û†Ä°","steam_id":76561198399390201,"connected_time":2107000000000,"state":"active","ping":75},{"user_id":14,"name":"ƒêesmond","steam_id":76561198097676225,"connected_time":1540000000000,"state":"active","ping":60},{"user_id":16,"name":"Frank","steam_id":76561198086672774,"connected_time":632000000000,"state":"active","ping":78},{"user_id":20,"name":"Bob Wildest","steam_id":76561199256639506,"connected_time":383000000000,"state":"active","ping":160}]},{"server_id":54,"name":"Uncletopia | Warsaw | 6 | Community","name_short":"waw-6","host":"waw-1.pl.uncletopia.com","port":27065,"enabled":true,"region":"eu","cc":"pl","latitude":52.2297,"longitude":21.017532,"reserved":0,"last_update":"0001-01-01T00:00:00Z","name_a2s":"Uncletopia | Warsaw | 6 | Community","protocol":17,"map":"workshop/koth_bagel_rc6.ugc2514036946","folder":"tf","game":"Team Fortress","app_id":440,"player_count":0,"max_players":24,"Bots":0,"server_type":"Dedicated","server_os":"Linux","password":true,"vac":true,"version":"7882260","steam_id":85568392925397856,"keywords":["cp","nocrits","nodmgspread","uncletopia"],"game_id":440,"stv_port":27066,"stv_name":"Uncletopia | Warsaw | 6 | Community | STV","players":null}]}