{"status":true,"message":"","result":[{"server_id":9,"name":"Uncletopia | Atlanta | 1 | All Maps","name_short":"atl-1","host":"atl-1.us.uncletopia.com","port":27015,"enabled":true,"region":"us-east","cc":"us","latitude":33.753746,"longitude":-84.38633,"reserved":0,"last_update":"0001-01-01T00:00:00Z","name_a2s":"Uncletopia | Atlanta | 1 | All Maps","protocol":17,"map":"koth_cascade","folder":"tf","game":"Team Fortress","app_id":440,"player_count":0,"max_players":24,"Bots":0,"server_type":"Dedicated","server_os":"Linux","password":true,"vac":true,"version":"7695204","steam_id":85568392924469982,"keywords":["cp","nocrits","nodmgspread","uncletopia"],"game_id":440,"stv_port":0,"stv_name":"","players":null},{"server_id":400,"name":"Uncletopia | Atlanta | 3 | All Maps","name_short":"atl-3","host":"atl-1.us.uncletopia.com","port":27035,"enabled":true,"region":"us-east","cc":"us","latitude":33.753746,"longitude":-84.38633,"reserved":0,"last_update":"0001-01-01T00:00:00Z","name_a2s":"Uncletopia | Atlanta | 3 | All Maps","protocol":17,"map":"pl_frontier_final","folder":"tf","game":"Team Fortress","app_id":440,"player_count":0,"max_players":24,"Bots":0,"server_type":"Dedicated","server_os":"Linux","password":true,"vac":true,"version":"7695204","steam_id":85568392924515187,"keywords":["nocrits","nodmgspread","payload","uncletopia"],"game_id":440,"stv_port":0,"stv_name":"","players":null},{"server_id":401,"name":"Uncletopia | Atlanta | 4 | No Payload","name_short":"atl-4","host":"atl-1.us.uncletopia.com","port":27045,"enabled":true,"region":"us-east","cc":"us","latitude":33.753746,"longitude":-84.38633,"reserved":0,"last_update":"0001-01-01T00:00:00Z","name_a2s":"Uncletopia | Atlanta | 4 | No Payload","protocol":17,"map":"cp_snakewater_final1","folder":"tf","game":"Team Fortress","app_id":440,"player_count":0,"max_players":24,"Bots":0,"server_type":"Dedicated","server_os":"Linux","password":true,"vac":true,"version":"7695204","steam_id":85568392924515188,"keywords":["cp","nocrits","nodmgspread","uncletopia"],"game_id":440,"stv_port":0,"stv_name":"","players":null},{"server_id":2,"name":"Uncletopia | Chicago | 1 | All Maps","name_short":"chi-1","host":"chi-1.us.uncletopia.com","port":27015,"enabled":true,"region":"us-central","cc":"us","latitude":41.881832,"longitude":-87.62318,"reserved":0,"last_update":"0001-01-01T00:00:00Z","name_a2s":"Uncletopia | Chicago | 1 | All Maps","protocol":17,"map":"koth_king","folder":"tf","game":"Team Fortress","app_id":440,"player_count":16,"max_players":24,"Bots":0,"server_type":"Dedicated","server_os":"Linux","password":true,"vac":true,"version":"7695204","steam_id":85568392924469984,"keywords":["cp","nocrits","nodmgspread","uncletopia"],"game_id":440,"stv_port":27016,"stv_name":"Uncletopia | Chicago | 1 | All Maps | STV","players":[{"user_id":57,"name":"Elizabeth truss","steam_id":76561198058250979,"connected_time":65000000000,"state":"active","ping":57},{"user_id":58,"name":"hope","steam_id":76561198965286076,"connected_time":50000000000,"state":"active","ping":55},{"user_id":53,"name":"Enforcer Enjoyer","steam_id":76561198018654093,"connected_time":319000000000,"state":"active","ping":60},{"user_id":55,"name":"rose","steam_id":76561198048882285,"connected_time":227000000000,"state":"active","ping":60},{"user_id":32,"name":"TJ Zensuke","steam_id":76561198033371196,"connected_time":1829000000000,"state":"active","ping":76},{"user_id":33,"name":"alpha1zer0ready","steam_id":76561199206731331,"connected_time":1455000000000,"state":"active","ping":91},{"user_id":40,"name":"Hallmark Christmas Movie","steam_id":76561198141041287,"connected_time":984000000000,"state":"active","ping":75},{"user_id":36,"name":"motorized bar of soap","steam_id":76561198882404753,"connected_time":1297000000000,"state":"active","ping":74},{"user_id":22,"name":"Big Tiddy Serperior","steam_id":76561198114808144,"connected_time":2659000000000,"state":"active","ping":123},{"user_id":37,"name":"Antreuse","steam_id":76561198219721132,"connected_time":1187000000000,"state":"active","ping":108},{"user_id":43,"name":"MysteryMage","steam_id":76561198074241821,"connected_time":808000000000,"state":"active","ping":109},{"user_id":26,"name":"lostos","steam_id":76561197983869145,"connected_time":2434000000000,"state":"active","ping":128},{"user_id":42,"name":"Fucken Tony","steam_id":76561198332613369,"connected_time":955000000000,"state":"active","ping":39},{"user_id":44,"name":"Chaotic Rushu","steam_id":76561198170054407,"connected_time":767000000000,"state":"active","ping":82},{"user_id":50,"name":"tim","steam_id":76561198253546985,"connected_time":576000000000,"state":"active","ping":178},{"user_id":48,"name":"Dannnnnn","steam_id":76561198442700385,"connected_time":717000000000,"state":"active","ping":169}]},{"server_id":106,"name":"Uncletopia | Chicago | 2 | All Maps","name_short":"chi-2","host":"chi-1.us.uncletopia.com","port":27025,"enabled":true,"region":"us-central","cc":"us","latitude":41.881832,"longitude":-87.62318,"reserved":0,"last_update":"0001-01-01T00:00:00Z","name_a2s":"Uncletopia | Chicago | 2 | All Maps","protocol":17,"map":"koth_viaduct","folder":"tf","game":"Team Fortress","app_id":440,"player_count":0,"max_players":24,"Bots":0,"server_type":"Dedicated","server_os":"Linux","password":true,"vac":true,"version":"7695204","steam_id":85568392924469985,"keywords":["cp","nocrits","nodmgspread","uncletopia"],"game_id":440,"stv_port":27026,"stv_name":"Uncletopia | Chicago | 2 | All Maps | STV","players":null},{"server_id":402,"name":"Uncletopia | Chicago | 3 | All Maps","name_short":"chi-3","host":"chi-1.us.uncletopia.com","port":27035,"enabled":true,"region":"us-central","cc":"us","latitude":41.881832,"longitude":-87.62318,"reserved":0,"last_update":"0001-01-01T00:00:00Z","name_a2s":"Uncletopia | Chicago | 3 | All Maps","protocol":17,"map":"pl_upward","folder":"tf","game":"Team Fortress","app_id":440,"player_count":0,"max_players":24,"Bots":0,"server_type":"Dedicated","server_os":"Linux","password":true,"vac":true,"version":"7695204","steam_id":85568392924515191,"keywords":["nocrits","nodmgspread","payload","uncletopia"],"game_id":440,"stv_port":0,"stv_name":"","players":null},{"server_id":403,"name":"Uncletopia | Chicago | 4 | All Maps","name_short":"chi-4","host":"chi-1.us.uncletopia.com","port":27045,"enabled":true,"region":"us-central","cc":"us","latitude":41.881832,"longitude":-87.62318,"reserved":0,"last_update":"0001-01-01T00:00:00Z","name_a2s":"Uncletopia | Chicago | 4 | All Maps","protocol":17,"map":"koth_highpass","folder":"tf","game":"Team Fortress","app_id":440,"player_count":0,"max_players":24,"Bots":0,"server_type":"Dedicated","server_os":"Linux","password":true,"vac":true,"version":"7695204","steam_id":85568392924515193,"keywords":["cp","nocrits","nodmgspread","uncletopia"],"game_id":440,"stv_port":0,"stv_name":"","players":null},{"server_id":36,"name":"Uncletopia | Chicago | 5 | All Maps","name_short":"chi-5","host":"chi-2.us.uncletopia.com","port":27015,"enabled":true,"region":"us-central","cc":"us","latitude":41.881832,"longitude":-87.62318,"reserved":0,"last_update":"0001-01-01T00:00:00Z","name_a2s":"Uncletopia | Chicago | 5 | All Maps","protocol":17,"map":"cp_altitude","folder":"tf","game":"Team Fortress","app_id":440,"player_count":0,"max_players":24,"Bots":0,"server_type":"Dedicated","server_os":"Linux","password":true,"vac":true,"version":"7695204","steam_id":85568392924866362,"keywords":["cp","nocrits","nodmgspread","uncletopia"],"game_id":440,"stv_port":0,"stv_name":"","players":null},{"server_id":37,"name":"Uncletopia | Chicago | 6 | All Maps","name_short":"chi-6","host":"chi-2.us.uncletopia.com","port":27025,"enabled":true,"region":"us-central","cc":"us","latitude":41.881832,"longitude":-87.62318,"reserved":0,"last_update":"0001-01-01T00:00:00Z","name_a2s":"Uncletopia | Chicago | 6 | All Maps","protocol":17,"map":"cp_snakewater_final1","folder":"tf","game":"Team Fortress","app_id":440,"player_count":0,"max_players":24,"Bots":0,"server_type":"Dedicated","server_os":"Linux","password":true,"vac":true,"version":"7695204","steam_id":85568392924866363,"keywords":["cp","nocrits","nodmgspread","uncletopia"],"game_id":440,"stv_port":0,"stv_name":"","players":null},{"server_id":38,"name":"Uncletopia | Chicago | 7 | No Payload","name_short":"chi-7","host":"chi-2.us.uncletopia.com","port":27035,"enabled":true,"region":"us-central","cc":"us","latitude":41.881832,"longitude":-87.62318,"reserved":0,"last_update":"0001-01-01T00:00:00Z","name_a2s":"Uncletopia | Chicago | 7 | No Payload","protocol":17,"map":"cp_altitude","folder":"tf","game":"Team Fortress","app_id":440,"player_count":1,"max_players":24,"Bots":0,"server_type":"Dedicated","server_os":"Linux","password":true,"vac":true,"version":"7695204","steam_id":85568392924866364,"keywords":["cp","nocrits","nodmgspread","uncletopia"],"game_id":440,"stv_port":0,"stv_name":"","players":[{"user_id":4,"name":"Aittrium","steam_id":76561199435287672,"connected_time":390000000000,"state":"active","ping":50}]},{"server_id":39,"name":"Uncletopia | Chicago | 8 | Community","name_short":"chi-8","host":"chi-2.us.uncletopia.com","port":27045,"enabled":true,"region":"us-central","cc":"us","latitude":41.881832,"longitude":-87.62318,"reserved":0,"last_update":"0001-01-01T00:00:00Z","name_a2s":"Uncletopia | Chicago | 8 | Community","protocol":17,"map":"cp_altitude","folder":"tf","game":"Team Fortress","app_id":440,"player_count":0,"max_players":24,"Bots":0,"server_type":"Dedicated","server_os":"Linux","password":true,"vac":true,"version":"7695204","steam_id":85568392924866365,"keywords":["cp","nocrits","nodmgspread","uncletopia"],"game_id":440,"stv_port":0,"stv_name":"","players":null},{"server_id":8,"name":"Uncletopia | Dallas | 1 | All Maps","name_short":"dal-1","host":"dal-1.us.uncletopia.com","port":27015,"enabled":true,"region":"us-central","cc":"us","latitude":32.779167,"longitude":-96.80889,"reserved":0,"last_update":"0001-01-01T00:00:00Z","name_a2s":"Uncletopia | Dallas | 1 | All Maps","protocol":17,"map":"pl_snowycoast","folder":"tf","game":"Team Fortress","app_id":440,"player_count":0,"max_players":24,"Bots":0,"server_type":"Dedicated","server_os":"Linux","password":true,"vac":true,"version":"7695204","steam_id":85568392924469986,"keywords":["nocrits","nodmgspread","payload","uncletopia"],"game_id":440,"stv_port":0,"stv_name":"","players":null},{"server_id":108,"name":"Uncletopia | Dallas | 2 | All Maps","name_short":"dal-2","host":"dal-1.us.uncletopia.com","port":27025,"enabled":true,"region":"us-central","cc":"us","latitude":32.779167,"longitude":-96.80889,"reserved":0,"last_update":"0001-01-01T00:00:00Z","name_a2s":"Uncletopia | Dallas | 2 | All Maps","protocol":17,"map":"cp_mountainlab","folder":"tf","game":"Team Fortress","app_id":440,"player_count":0,"max_players":24,"Bots":0,"server_type":"Dedicated","server_os":"Linux","password":true,"vac":true,"version":"7695204","steam_id":85568392924469988,"keywords":["cp","nocrits","nodmgspread","uncletopia"],"game_id":440,"stv_port":0,"stv_name":"","players":null},{"server_id":5,"name":"Uncletopia | Frankfurt | 1 | All Maps","name_short":"frk-1","host":"frk-1.de.uncletopia.com","port":27015,"enabled":true,"region":"eu","cc":"de","latitude":50.110924,"longitude":8.682127,"reserved":0,"last_update":"0001-01-01T00:00:00Z","name_a2s":"Uncletopia | Frankfurt | 1 | All Maps","protocol":17,"map":"pl_upward","folder":"tf","game":"Team Fortress","app_id":440,"player_count":23,"max_players":24,"Bots":0,"server_type":"Dedicated","server_os":"Linux","password":true,"vac":true,"version":"7695204","steam_id":85568392924469989,"keywords":["nocrits","nodmgspread","payload","uncletopia"],"game_id":440,"stv_port":27016,"stv_name":"Uncletopia | Frankfurt | 1 | All Maps | STV","players":[{"user_id":187,"name":"Such XD","steam_id":76561198129454909,"connected_time":2894000000000,"state":"active","ping":75},{"user_id":72,"name":"ciliorkun18","steam_id":76561198228942500,"connected_time":8580000000000,"state":"active","ping":93},{"user_id":210,"name":"Firevell","steam_id":76561198154813359,"connected_time":960000000000,"state":"active","ping":58},{"user_id":211,"name":"eskadan","steam_id":76561198035222898,"connected_time":892000000000,"state":"active","ping":64},{"user_id":172,"name":"Vertically Challenged","steam_id":76561198257158275,"connected_time":3633000000000,"state":"active","ping":146},{"user_id":225,"name":"E_WM","steam_id":76561198283432737,"connected_time":37000000000,"state":"active","ping":96},{"user_id":205,"name":"Shimas","steam_id":76561198867546842,"connected_time":1452000000000,"state":"active","ping":61},{"user_id":213,"name":"Moon","steam_id":76561198047535132,"connected_time":785000000000,"state":"active","ping":66},{"user_id":93,"name":"Jeg (the guy that ubers scouts)","steam_id":76561198405291408,"connected_time":7144000000000,"state":"active","ping":60},{"user_id":215,"name":"gus","steam_id":76561199211893372,"connected_time":759000000000,"state":"active","ping":140},{"user_id":202,"name":"goofy goober","steam_id":76561198013237629,"connected_time":1591000000000,"state":"active","ping":102},{"user_id":224,"name":"kira","steam_id":76561198894722441,"connected_time":112000000000,"state":"active","ping":76},{"user_id":216,"name":"Grey","steam_id":76561198073954578,"connected_time":758000000000,"state":"active","ping":86},{"user_id":217,"name":"where is my egg?","steam_id":76561198172542535,"connected_time":754000000000,"state":"active","ping":66},{"user_id":218,"name":"Drommar","steam_id":76561199219654706,"connected_time":633000000000,"state":"active","ping":80},{"user_id":99,"name":"nobody","steam_id":76561198180637374,"connected_time":6974000000000,"state":"active","ping":77},{"user_id":177,"name":"Lil Top","steam_id":76561198168740408,"connected_time":3574000000000,"state":"active","ping":57},{"user_id":223,"name":"Rhino.","steam_id":76561198065951617,"connected_time":547000000000,"state":"active","ping":72},{"user_id":220,"name":"R3inis","steam_id":76561199030393569,"connected_time":623000000000,"state":"active","ping":72},{"user_id":207,"name":"NoobfromHell","steam_id":76561198394221491,"connected_time":1323000000000,"state":"active","ping":58},{"user_id":154,"name":"Simeongr","steam_id":76561198167528347,"connected_time":4693000000000,"state":"active","ping":61},{"user_id":185,"name":"dankerghost","steam_id":76561198838761959,"connected_time":2960000000000,"state":"active","ping":113},{"user_id":221,"name":"Engineer Gaming","steam_id":76561198866730509,"connected_time":622000000000,"state":"active","ping":91}]},{"server_id":110,"name":"Uncletopia | Frankfurt | 2 | All Maps","name_short":"frk-2","host":"frk-1.de.uncletopia.com","port":27025,"enabled":true,"region":"eu","cc":"de","latitude":50.110924,"longitude":8.682127,"reserved":0,"last_update":"0001-01-01T00:00:00Z","name_a2s":"Uncletopia | Frankfurt | 2 | All Maps","protocol":17,"map":"pl_thundermountain","folder":"tf","game":"Team Fortress","app_id":440,"player_count":23,"max_players":24,"Bots":0,"server_type":"Dedicated","server_os":"Linux","password":true,"vac":true,"version":"7695204","steam_id":85568392924469990,"keywords":["nocrits","nodmgspread","payload","uncletopia"],"game_id":440,"stv_port":27026,"stv_name":"Uncletopia | Frankfurt | 2 | All Maps | STV","players":[{"user_id":139,"name":"Ducky[WADZ]üê§","steam_id":76561198060341245,"connected_time":192000000000,"state":"active","ping":50},{"user_id":140,"name":"Mr.Shpee","steam_id":76561198158701474,"connected_time":144000000000,"state":"active","ping":84},{"user_id":108,"name":"cslevi","steam_id":76561198142858923,"connected_time":2720000000000,"state":"active","ping":70},{"user_id":20,"name":"Swedde","steam_id":76561198297296440,"connected_time":8400000000000,"state":"active","ping":70},{"user_id":116,"name":"dreamurr36","steam_id":76561199382596019,"connected_time":2325000000000,"state":"active","ping":112},{"user_id":141,"name":"ZarcoinTheDuck","steam_id":76561198068250065,"connected_time":120000000000,"state":"active","ping":93},{"user_id":105,"name":"ViktorYoshi","steam_id":76561199157555246,"connected_time":3014000000000,"state":"active","ping":69},{"user_id":142,"name":"phoenix.","steam_id":76561198358532556,"connected_time":93000000000,"state":"active","ping":50},{"user_id":131,"name":"Strelomir","steam_id":76561198001126763,"connected_time":1105000000000,"state":"active","ping":49},{"user_id":143,"name":"maakgis","steam_id":76561198851703804,"connected_time":91000000000,"state":"active","ping":113},{"user_id":102,"name":"funny spy","steam_id":76561198267612598,"connected_time":3554000000000,"state":"active","ping":78},{"user_id":144,"name":"Swayer","steam_id":76561198056192460,"connected_time":70000000000,"state":"active","ping":66},{"user_id":145,"name":"reprak 13","steam_id":76561198145142128,"connected_time":65000000000,"state":"spawning","ping":62},{"user_id":124,"name":"mikE.","steam_id":76561199158913720,"connected_time":1574000000000,"state":"active","ping":87},{"user_id":117,"name":"Iphy","steam_id":76561198137519489,"connected_time":2319000000000,"state":"active","ping":75},{"user_id":135,"name":"delta man","steam_id":76561198204491245,"connected_time":803000000000,"state":"active","ping":140},{"user_id":146,"name":"‚ñ£ A12","steam_id":76561198282172748,"connected_time":46000000000,"state":"active","ping":112},{"user_id":136,"name":"gamer_","steam_id":76561198094125769,"connected_time":631000000000,"state":"active","ping":75},{"user_id":137,"name":"Montana","steam_id":76561198449437002,"connected_time":608000000000,"state":"active","ping":80},{"user_id":43,"name":"Aztek","steam_id":76561197980496357,"connected_time":7662000000000,"state":"active","ping":35},{"user_id":119,"name":"MasterNaglis","steam_id":76561198348834177,"connected_time":2298000000000,"state":"active","ping":70},{"user_id":147,"name":"ùñâùñóùñÜùñåùñîùñì","steam_id":76561199436349867,"connected_time":42000000000,"state":"spawning","ping":109},{"user_id":125,"name":"Aquatical","steam_id":76561198097333170,"connected_time":1542000000000,"state":"active","ping":86}]},{"server_id":308,"name":"Uncletopia | Frankfurt | 3 | All Maps","name_short":"frk-3","host":"frk-1.de.uncletopia.com","port":27035,"enabled":true,"region":"eu","cc":"de","latitude":50.110924,"longitude":8.682127,"reserved":0,"last_update":"0001-01-01T00:00:00Z","name_a2s":"Uncletopia | Frankfurt | 3 | All Maps","protocol":17,"map":"koth_highpass","folder":"tf","game":"Team Fortress","app_id":440,"player_count":0,"max_players":24,"Bots":0,"server_type":"Dedicated","server_os":"Linux","password":true,"vac":true,"version":"7695204","steam_id":85568392924504274,"keywords":["cp","nocrits","nodmgspread","uncletopia"],"game_id":440,"stv_port":27036,"stv_name":"Uncletopia | Frankfurt | 3 | All Maps | STV","players":null},{"server_id":309,"name":"Uncletopia | Frankfurt | 4 | All Maps","name_short":"frk-4","host":"frk-1.de.uncletopia.com","port":27045,"enabled":true,"region":"eu","cc":"de","latitude":50.110924,"longitude":8.682127,"reserved":0,"last_update":"0001-01-01T00:00:00Z","name_a2s":"Uncletopia | Frankfurt | 4 | All Maps","protocol":17,"map":"koth_highpass","folder":"tf","game":"Team Fortress","app_id":440,"player_count":0,"max_players":24,"Bots":0,"server_type":"Dedicated","server_os":"Linux","password":true,"vac":true,"version":"7695204","steam_id":85568392924504275,"keywords":["cp","nocrits","nodmgspread","uncletopia"],"game_id":440,"stv_port":0,"stv_name":"","players":null},{"server_id":310,"name":"Uncletopia | Frankfurt | 5 | All Maps","name_short":"frk-5","host":"frk-1.de.uncletopia.com","port":27055,"enabled":true,"region":"eu","cc":"de","latitude":50.110924,"longitude":8.682127,"reserved":0,"last_update":"0001-01-01T00:00:00Z","name_a2s":"Uncletopia | Frankfurt | 5 | All Maps","protocol":17,"map":"koth_highpass","folder":"tf","game":"Team Fortress","app_id":440,"player_count":0,"max_players":24,"Bots":0,"server_type":"Dedicated","server_os":"Linux","password":true,"vac":true,"version":"7695204","steam_id":85568392924504277,"keywords":["cp","nocrits","nodmgspread","uncletopia"],"game_id":440,"stv_port":27056,"stv_name":"Uncletopia | Frankfurt | 5 | All Maps | STV","players":null},{"server_id":311,"name":"Uncletopia | Frankfurt | 6 | All Maps","name_short":"frk-6","host":"frk-1.de.uncletopia.com","port":27065,"enabled":true,"region":"eu","cc":"de","latitude":50.110924,"longitude":8.682127,"reserved":0,"last_update":"0001-01-01T00:00:00Z","name_a2s":"Uncletopia | Frankfurt | 6 | All Maps","protocol":17,"map":"pl_borneo","folder":"tf","game":"Team Fortress","app_id":440,"player_count":24,"max_players":24,"Bots":0,"server_type":"Dedicated","server_os":"Linux","password":true,"vac":true,"version":"7695204","steam_id":85568392924504278,"keywords":["nocrits","nodmgspread","payload","uncletopia"],"game_id":440,"stv_port":27066,"stv_name":"Uncletopia | Frankfurt | 6 | All Maps | STV","players":[{"user_id":104,"name":"Dwigt","steam_id":76561198001282903,"connected_time":91000000000,"state":"active","ping":70},{"user_id":99,"name":"desperate rogue","steam_id":76561199016050401,"connected_time":323000000000,"state":"active","ping":124},{"user_id":107,"name":"SpyCrab  Erik Twice","steam_id":76561198009710309,"connected_time":10000000000,"state":"spawning","ping":242},{"user_id":105,"name":"YourDoom","steam_id":76561198080790857,"connected_time":88000000000,"state":"active","ping":47},{"user_id":84,"name":"LazyBane","steam_id":76561198032359132,"connected_time":1310000000000,"state":"active","ping":59},{"user_id":80,"name":"Brainlet","steam_id":76561198862617163,"connected_time":1733000000000,"state":"active","ping":59},{"user_id":75,"name":"Kalosz","steam_id":76561198152153729,"connected_time":2289000000000,"state":"active","ping":75},{"user_id":82,"name":"dept collector","steam_id":76561199216947541,"connected_time":1510000000000,"state":"active","ping":144},{"user_id":85,"name":"Mayor Wank from Wanker Town","steam_id":76561197998253588,"connected_time":1227000000000,"state":"active","ping":45},{"user_id":86,"name":"Fortezza","steam_id":76561198972539903,"connected_time":1222000000000,"state":"active","ping":53},{"user_id":98,"name":"Zerfesh","steam_id":76561198117534358,"connected_time":404000000000,"state":"active","ping":92},{"user_id":64,"name":"Canis[Magnus]Pectus","steam_id":76561198363775072,"connected_time":2572000000000,"state":"active","ping":122},{"user_id":87,"name":"highwayman","steam_id":76561199230709660,"connected_time":1190000000000,"state":"active","ping":48},{"user_id":95,"name":"jj","steam_id":76561198079200985,"connected_time":550000000000,"state":"active","ping":64},{"user_id":90,"name":"jeff","steam_id":76561198357104319,"connected_time":942000000000,"state":"active","ping":80},{"user_id":106,"name":"SoulEater","steam_id":76561198343354416,"connected_time":80000000000,"state":"active","ping":101},{"user_id":78,"name":"Scientific Idiocy","steam_id":76561198951206047,"connected_time":2024000000000,"state":"active","ping":85},{"user_id":81,"name":"really not suspicious chicken","steam_id":76561198067524060,"connected_time":1718000000000,"state":"active","ping":90},{"user_id":96,"name":"Dyzer.","steam_id":76561198899148126,"connected_time":477000000000,"state":"active","ping":106},{"user_id":103,"name":"pjena","steam_id":76561198207643025,"connected_time":164000000000,"state":"active","ping":44},{"user_id":93,"name":"LasagnaLarry22","steam_id":76561198089478290,"connected_time":839000000000,"state":"active","ping":60},{"user_id":100,"name":"Joepirate_228","steam_id":76561199088706573,"connected_time":316000000000,"state":"active","ping":93},{"user_id":102,"name":"Toaster1337","steam_id":76561198103706881,"connected_time":218000000000,"state":"active","ping":49},{"user_id":94,"name":"Okonell[HUN]","steam_id":76561198032216617,"connected_time":824000000000,"state":"active","ping":80}]},{"server_id":23,"name":"Uncletopia | Frankfurt | 7 | No Payload","name_short":"frk-7","host":"frk-1.de.uncletopia.com","port":27075,"enabled":true,"region":"eu","cc":"de","latitude":50.110924,"longitude":8.682127,"reserved":0,"last_update":"0001-01-01T00:00:00Z","name_a2s":"Uncletopia | Frankfurt | 7 | No Payload","protocol":17,"map":"pl_snowycoast","folder":"tf","game":"Team Fortress","app_id":440,"player_count":0,"max_players":24,"Bots":0,"server_type":"Dedicated","server_os":"Linux","password":true,"vac":true,"version":"7695204","steam_id":85568392924742827,"keywords":["nocrits","nodmgspread","payload","uncletopia"],"game_id":440,"stv_port":0,"stv_name":"","players":null},{"server_id":24,"name":"Uncletopia | Frankfurt | 8 | Community","name_short":"frk-8","host":"frk-1.de.uncletopia.com","port":27085,"enabled":true,"region":"eu","cc":"de","latitude":50.110924,"longitude":8.682127,"reserved":0,"last_update":"0001-01-01T00:00:00Z","name_a2s":"Uncletopia | Frankfurt | 8 | Community","protocol":17,"map":"koth_lakeside_final","folder":"tf","game":"Team Fortress","app_id":440,"player_count":0,"max_players":24,"Bots":0,"server_type":"Dedicated","server_os":"Linux","password":true,"vac":true,"version":"7695204","steam_id":85568392924742828,"keywords":["cp","nocrits","nodmgspread","uncletopia"],"game_id":440,"stv_port":0,"stv_name":"","players":null},{"server_id":202,"name":"Uncletopia | Hong Kong | 1 | All Maps","name_short":"hgk-1","host":"hgk-1.hk.uncletopia.com","port":27015,"enabled":true,"region":"asia","cc":"hk","latitude":22.302711,"longitude":114.177216,"reserved":0,"last_update":"0001-01-01T00:00:00Z","name_a2s":"Uncletopia | Hong Kong | 1 | All Maps","protocol":17,"map":"pl_frontier_final","folder":"tf","game":"Team Fortress","app_id":440,"player_count":24,"max_players":24,"Bots":0,"server_type":"Dedicated","server_os":"Linux","password":true,"vac":true,"version":"7695204","steam_id":85568392924494504,"keywords":["nocrits","nodmgspread","payload","uncletopia"],"game_id":440,"stv_port":27016,"stv_name":"Uncletopia | Hong Kong | 1 | All Maps | STV","players":[{"user_id":321,"name":"piyoko no english","steam_id":76561198088403016,"connected_time":11049000000000,"state":"active","ping":96},{"user_id":386,"name":"terrybl","steam_id":76561198055553140,"connected_time":4580000000000,"state":"active","ping":78},{"user_id":392,"name":"Afiq","steam_id":76561198030767337,"connected_time":3931000000000,"state":"active","ping":88},{"user_id":429,"name":"Tribal Mana","steam_id":76561198011757567,"connected_time":310000000000,"state":"active","ping":94},{"user_id":358,"name":"+","steam_id":76561198121311286,"connected_time":6637000000000,"state":"active","ping":75},{"user_id":413,"name":":)","steam_id":76561198437941450,"connected_time":1451000000000,"state":"active","ping":84},{"user_id":376,"name":"Pillboi","steam_id":76561198011172886,"connected_time":5066000000000,"state":"active","ping":45},{"user_id":411,"name":"apollo","steam_id":76561198823374287,"connected_time":1482000000000,"state":"active","ping":76},{"user_id":430,"name":"Momoxhien","steam_id":76561198414997429,"connected_time":207000000000,"state":"active","ping":63},{"user_id":426,"name":"greeny","steam_id":76561198024666371,"connected_time":874000000000,"state":"active","ping":91},{"user_id":417,"name":"high visceral","steam_id":76561197994194946,"connected_time":1263000000000,"state":"active","ping":104},{"user_id":405,"name":"TechMaster12(F2P) #savetf2","steam_id":76561199244754236,"connected_time":3059000000000,"state":"active","ping":97},{"user_id":342,"name":"cellum95","steam_id":76561198172146871,"connected_time":8924000000000,"state":"active","ping":63},{"user_id":333,"name":"Nimbus","steam_id":76561198877713016,"connected_time":10360000000000,"state":"active","ping":101},{"user_id":427,"name":"SunShine","steam_id":76561198323642446,"connected_time":472000000000,"state":"active","ping":97},{"user_id":416,"name":"+W+","steam_id":76561197997220367,"connected_time":1274000000000,"state":"active","ping":48},{"user_id":393,"name":"Oral Cigarettes","steam_id":76561198347418251,"connected_time":3908000000000,"state":"active","ping":129},{"user_id":347,"name":"nick","steam_id":76561198400698408,"connected_time":7755000000000,"state":"active","ping":92},{"user_id":419,"name":"Corn_Archer","steam_id":76561199185044554,"connected_time":1187000000000,"state":"active","ping":59},{"user_id":406,"name":"Kurtie","steam_id":76561198144737876,"connected_time":3033000000000,"state":"active","ping":66},{"user_id":422,"name":"ArcticDolphin","steam_id":76561198203626319,"connected_time":1126000000000,"state":"active","ping":176},{"user_id":423,"name":"xPhid","steam_id":76561199080808930,"connected_time":1113000000000,"state":"active","ping":67},{"user_id":381,"name":"L√∫d","steam_id":76561198828840546,"connected_time":4734000000000,"state":"active","ping":91},{"user_id":402,"name":"oppai „Åä„Å£„Å±„ÅÑ","steam_id":76561198008307645,"connected_time":3097000000000,"state":"active","ping":85}]},{"server_id":1,"name":"Uncletopia | Los Angeles | 1 | All Maps","name_short":"lax-1","host":"lax-1.us.uncletopia.com","port":27015,"enabled":true,"region":"us-west","cc":"us","latitude":33.94279,"longitude":-118.41004,"reserved":0,"last_update":"0001-01-01T00:00:00Z","name_a2s":"Uncletopia | Los Angeles | 1 | All Maps","protocol":17,"map":"koth_viaduct","folder":"tf","game":"Team Fortress","app_id":440,"player_count":0,"max_players":24,"Bots":0,"server_type":"Dedicated","server_os":"Linux","password":true,"vac":true,"version":"7695204","steam_id":85568392924469991,"keywords":["cp","nocrits","nodmgspread","uncletopia"],"game_id":440,"stv_port":27016,"stv_name":"Uncletopia | Los Angeles | 1 | All Maps | STV","players":null},{"server_id":112,"name":"Uncletopia | Los Angeles | 2 | All Maps","name_short":"lax-2","host":"lax-1.us.uncletopia.com","port":27025,"enabled":true,"region":"us-west","cc":"us","latitude":33.94279,"longitude":-118.41004,"reserved":0,"last_update":"0001-01-01T00:00:00Z","name_a2s":"Uncletopia | Los Angeles | 2 | All Maps","protocol":17,"map":"koth_highpass","folder":"tf","game":"Team Fortress","app_id":440,"player_count":0,"max_players":24,"Bots":0,"server_type":"Dedicated","server_os":"Linux","password":true,"vac":true,"version":"7695204","steam_id":85568392924469992,"keywords":["cp","nocrits","nodmgspread","uncletopia"],"game_id":440,"stv_port":27026,"stv_name":"Uncletopia | Los Angeles | 2 | All Maps | STV","players":null},{"server_id":324,"name":"Uncletopia | Los Angeles | 3 | All Maps","name_short":"lax-3","host":"lax-1.us.uncletopia.com","port":27035,"enabled":true,"region":"us-west","cc":"us","latitude":33.94279,"longitude":-118.41004,"reserved":0,"last_update":"0001-01-01T00:00:00Z","name_a2s":"Uncletopia | Los Angeles | 3 | All Maps","protocol":17,"map":"cp_snakewater_final1","folder":"tf","game":"Team Fortress","app_id":440,"player_count":0,"max_players":24,"Bots":0,"server_type":"Dedicated","server_os":"Linux","password":true,"vac":true,"version":"7695204","steam_id":85568392924510198,"keywords":["cp","nocrits","nodmgspread","uncletopia"],"game_id":440,"stv_port":27036,"stv_name":"Uncletopia | Los Angeles | 3 | All Maps | STV","players":null},{"server_id":25,"name":"Uncletopia | Los Angeles | 4 | No Payload","name_short":"lax-4","host":"lax-1.us.uncletopia.com","port":27045,"enabled":true,"region":"us-west","cc":"us","latitude":33.94279,"longitude":-118.41004,"reserved":0,"last_update":"0001-01-01T00:00:00Z","name_a2s":"Uncletopia | Los Angeles | 4 | No Payload","protocol":17,"map":"cp_gullywash_final1","folder":"tf","game":"Team Fortress","app_id":440,"player_count":0,"max_players":24,"Bots":0,"server_type":"Dedicated","server_os":"Linux","password":true,"vac":true,"version":"7695204","steam_id":85568392924510199,"keywords":["cp","nocrits","nodmgspread","uncletopia"],"game_id":440,"stv_port":27046,"stv_name":"Uncletopia | Los Angeles | 4 | No Payload | STV","players":null},{"server_id":11,"name":"Uncletopia | London | 1 | All Maps","name_short":"lon-1","host":"lon-1.uk.uncletopia.com","port":27015,"enabled":true,"region":"eu","cc":"gb","latitude":51.509865,"longitude":-0.118092,"reserved":0,"last_update":"0001-01-01T00:00:00Z","name_a2s":"Uncletopia | London | 1 | All Maps","protocol":17,"map":"koth_highpass","folder":"tf","game":"Team Fortress","app_id":440,"player_count":1,"max_players":24,"Bots":0,"server_type":"Dedicated","server_os":"Linux","password":true,"vac":true,"version":"7695204","steam_id":85568392924367362,"keywords":["cp","nocrits","nodmgspread","uncletopia"],"game_id":440,"stv_port":27016,"stv_name":"Uncletopia | London | 1 | All Maps | STV","players":[{"user_id":37,"name":"Lukero","steam_id":76561198301594341,"connected_time":128000000000,"state":"active","ping":61}]},{"server_id":114,"name":"Uncletopia | London | 2 | All Maps","name_short":"lon-2","host":"lon-1.uk.uncletopia.com","port":27025,"enabled":true,"region":"eu","cc":"gb","latitude":51.509865,"longitude":-0.118092,"reserved":0,"last_update":"0001-01-01T00:00:00Z","name_a2s":"Uncletopia | London | 2 | All Maps","protocol":17,"map":"koth_highpass","folder":"tf","game":"Team Fortress","app_id":440,"player_count":0,"max_players":24,"Bots":0,"server_type":"Dedicated","server_os":"Linux","password":true,"vac":true,"version":"7695204","steam_id":85568392924470941,"keywords":["cp","nocrits","nodmgspread","uncletopia"],"game_id":440,"stv_port":27026,"stv_name":"Uncletopia | London | 2 | All Maps | STV","players":null},{"server_id":320,"name":"Uncletopia | London | 3 | All Maps","name_short":"lon-3","host":"lon-1.uk.uncletopia.com","port":27035,"enabled":true,"region":"eu","cc":"gb","latitude":51.509865,"longitude":-0.118092,"reserved":0,"last_update":"0001-01-01T00:00:00Z","name_a2s":"Uncletopia | London | 3 | All Maps","protocol":17,"map":"cp_process_final","folder":"tf","game":"Team Fortress","app_id":440,"player_count":24,"max_players":24,"Bots":0,"server_type":"Dedicated","server_os":"Linux","password":true,"vac":true,"version":"7695204","steam_id":85568392924510192,"keywords":["cp","nocrits","nodmgspread","uncletopia"],"game_id":440,"stv_port":27036,"stv_name":"Uncletopia | London | 3 | All Maps | STV","players":[{"user_id":392,"name":"eka","steam_id":76561198132995289,"connected_time":1618000000000,"state":"active","ping":83},{"user_id":365,"name":"Smag","steam_id":76561198153675141,"connected_time":3428000000000,"state":"active","ping":40},{"user_id":306,"name":"boat","steam_id":76561198044915818,"connected_time":6268000000000,"state":"active","ping":85},{"user_id":393,"name":"Arty","steam_id":76561198073420892,"connected_time":1414000000000,"state":"active","ping":91},{"user_id":310,"name":"Ôº≤ ÔºØ Ôº¢ Ôº¢ Ôº• Ôº≤ Ôº¥","steam_id":76561198134404830,"connected_time":5984000000000,"state":"active","ping":144},{"user_id":409,"name":"Rasmusson [29th ID]","steam_id":76561198191451713,"connected_time":387000000000,"state":"active","ping":90},{"user_id":402,"name":"PhantomStriker","steam_id":76561199116689935,"connected_time":1047000000000,"state":"active","ping":68},{"user_id":366,"name":"Kahvi","steam_id":76561198723244199,"connected_time":3394000000000,"state":"active","ping":86},{"user_id":420,"name":"Areck2","steam_id":76561199041737814,"connected_time":139000000000,"state":"active","ping":36},{"user_id":357,"name":"Festivized Pitpit","steam_id":76561198005342133,"connected_time":4052000000000,"state":"active","ping":38},{"user_id":382,"name":"Bounter","steam_id":76561198072614188,"connected_time":2406000000000,"state":"active","ping":83},{"user_id":397,"name":"partizan","steam_id":76561198440837262,"connected_time":1266000000000,"state":"active","ping":45},{"user_id":302,"name":"Bottomest","steam_id":76561198091734693,"connected_time":6715000000000,"state":"active","ping":60},{"user_id":327,"name":"tiny baby man","steam_id":76561198386933065,"connected_time":5022000000000,"state":"active","ping":63},{"user_id":405,"name":"End","steam_id":76561198332429328,"connected_time":518000000000,"state":"active","ping":35},{"user_id":398,"name":"king251311","steam_id":76561199063310889,"connected_time":1258000000000,"state":"active","ping":78},{"user_id":406,"name":"Lovelessvaccuum","steam_id":76561198079555422,"connected_time":456000000000,"state":"active","ping":36},{"user_id":390,"name":"Untermenshh","steam_id":76561198284636705,"connected_time":1727000000000,"state":"active","ping":102},{"user_id":399,"name":"LeatheryDutchbag","steam_id":76561198800023728,"connected_time":1215000000000,"state":"active","ping":60},{"user_id":290,"name":"whimsmas.","steam_id":76561198878171763,"connected_time":7719000000000,"state":"active","ping":54},{"user_id":383,"name":"cat (they/them)","steam_id":76561198416657815,"connected_time":2392000000000,"state":"active","ping":157},{"user_id":422,"name":"gsr","steam_id":76561198441974031,"connected_time":111000000000,"state":"active","ping":79},{"user_id":404,"name":"Ax ._.","steam_id":76561198073575185,"connected_time":971000000000,"state":"active","ping":47},{"user_id":408,"name":"JimBowBlade","steam_id":76561198018620946,"connected_time":422000000000,"state":"active","ping":51}]},{"server_id":321,"name":"Uncletopia | London | 4 | All Maps","name_short":"lon-4","host":"lon-1.uk.uncletopia.com","port":27045,"enabled":true,"region":"eu","cc":"gb","latitude":51.509865,"longitude":-0.118092,"reserved":0,"last_update":"0001-01-01T00:00:00Z","name_a2s":"Uncletopia | London | 4 | All Maps","protocol":17,"map":"koth_viaduct","folder":"tf","game":"Team Fortress","app_id":440,"player_count":0,"max_players":24,"Bots":0,"server_type":"Dedicated","server_os":"Linux","password":true,"vac":true,"version":"7695204","steam_id":85568392924510193,"keywords":["cp","nocrits","nodmgspread","uncletopia"],"game_id":440,"stv_port":0,"stv_name":"","players":null},{"server_id":21,"name":"Uncletopia | London | 5 | All Maps","name_short":"lon-5","host":"lon-1.uk.uncletopia.com","port":27055,"enabled":true,"region":"eu","cc":"gb","latitude":51.509865,"longitude":-0.118092,"reserved":0,"last_update":"0001-01-01T00:00:00Z","name_a2s":"Uncletopia | London | 5 | All Maps","protocol":17,"map":"koth_cascade","folder":"tf","game":"Team Fortress","app_id":440,"player_count":0,"max_players":24,"Bots":0,"server_type":"Dedicated","server_os":"Linux","password":true,"vac":true,"version":"7695204","steam_id":85568392924742829,"keywords":["cp","nocrits","nodmgspread","uncletopia"],"game_id":440,"stv_port":0,"stv_name":"","players":null},{"server_id":22,"name":"Uncletopia | London | 6 | All Maps","name_short":"lon-6","host":"lon-1.uk.uncletopia.com","port":27065,"enabled":true,"region":"eu","cc":"gb","latitude":51.509865,"longitude":-0.118092,"reserved":0,"last_update":"0001-01-01T00:00:00Z","name_a2s":"Uncletopia | London | 6 | All Maps","protocol":17,"map":"pl_pier","folder":"tf","game":"Team Fortress","app_id":440,"player_count":0,"max_players":24,"Bots":0,"server_type":"Dedicated","server_os":"Linux","password":true,"vac":true,"version":"7695204","steam_id":85568392924742830,"keywords":["nocrits","nodmgspread","payload","uncletopia"],"game_id":440,"stv_port":0,"stv_name":"","players":null},{"server_id":40,"name":"Uncletopia | London | 7 | No Payload","name_short":"lon-7","host":"lon-1.uk.uncletopia.com","port":27075,"enabled":true,"region":"eu","cc":"gb","latitude":51.509865,"longitude":-0.118092,"reserved":0,"last_update":"0001-01-01T00:00:00Z","name_a2s":"Uncletopia | London | 7 | No Payload","protocol":17,"map":"cp_snakewater_final1","folder":"tf","game":"Team Fortress","app_id":440,"player_count":0,"max_players":24,"Bots":0,"server_type":"Dedicated","server_os":"Linux","password":true,"vac":true,"version":"7695204","steam_id":85568392924964314,"keywords":["cp","nocrits","nodmgspread","uncletopia"],"game_id":440,"stv_port":0,"stv_name":"","players":null},{"server_id":41,"name":"Uncletopia | London | 8 | Community","name_short":"lon-8","host":"lon-1.uk.uncletopia.com","port":27085,"enabled":true,"region":"eu","cc":"gb","latitude":51.509865,"longitude":-0.118092,"reserved":0,"last_update":"0001-01-01T00:00:00Z","name_a2s":"Uncletopia | London | 8 | Community","protocol":17,"map":"cp_dustbowl","folder":"tf","game":"Team Fortress","app_id":440,"player_count":0,"max_players":24,"Bots":0,"server_type":"Dedicated","server_os":"Linux","password":true,"vac":true,"version":"7695204","steam_id":85568392924964315,"keywords":["cp","nocrits","nodmgspread","uncletopia"],"game_id":440,"stv_port":0,"stv_name":"","players":null},{"server_id":300,"name":"Uncletopia | Montr√©al | 1 | All Maps","name_short":"mtl-1","host":"mtl-1.ca.uncletopia.com","port":27015,"enabled":true,"region":"us-east","cc":"ca","latitude":45.50889,"longitude":-73.56167,"reserved":0,"last_update":"0001-01-01T00:00:00Z","name_a2s":"Uncletopia | Montr√©al | 1 | All Maps","protocol":17,"map":"cp_sunshine","folder":"tf","game":"Team Fortress","app_id":440,"player_count":0,"max_players":24,"Bots":0,"server_type":"Dedicated","server_os":"Linux","password":true,"vac":true,"version":"7695204","steam_id":85568392924500087,"keywords":["cp","nocrits","nodmgspread","uncletopia"],"game_id":440,"stv_port":27016,"stv_name":"Uncletopia | Montr√©al | 1 | All Maps | STV","players":null},{"server_id":301,"name":"Uncletopia | Montr√©al | 2 | All Maps","name_short":"mtl-2","host":"mtl-1.ca.uncletopia.com","port":27025,"enabled":true,"region":"us-east","cc":"ca","latitude":45.50889,"longitude":-73.56167,"reserved":0,"last_update":"0001-01-01T00:00:00Z","name_a2s":"Uncletopia | Montr√©al | 2 | All Maps","protocol":17,"map":"pl_snowycoast","folder":"tf","game":"Team Fortress","app_id":440,"player_count":0,"max_players":24,"Bots":0,"server_type":"Dedicated","server_os":"Linux","password":true,"vac":true,"version":"7695204","steam_id":85568392924500088,"keywords":["nocrits","nodmgspread","payload","uncletopia"],"game_id":440,"stv_port":0,"stv_name":"","players":null},{"server_id":302,"name":"Uncletopia | Montr√©al | 3 | All Maps","name_short":"mtl-3","host":"mtl-1.ca.uncletopia.com","port":27035,"enabled":true,"region":"us-east","cc":"ca","latitude":45.50889,"longitude":-73.56167,"reserved":0,"last_update":"0001-01-01T00:00:00Z","name_a2s":"Uncletopia | Montr√©al | 3 | All Maps","protocol":17,"map":"koth_viaduct","folder":"tf","game":"Team Fortress","app_id":440,"player_count":0,"max_players":24,"Bots":0,"server_type":"Dedicated","server_os":"Linux","password":true,"vac":true,"version":"7695204","steam_id":85568392924500089,"keywords":["cp","nocrits","nodmgspread","uncletopia"],"game_id":440,"stv_port":0,"stv_name":"","players":null},{"server_id":303,"name":"Uncletopia | Montr√©al | 4 | No Payload","name_short":"mtl-4","host":"mtl-1.ca.uncletopia.com","port":27045,"enabled":true,"region":"us-east","cc":"ca","latitude":45.50889,"longitude":-73.56167,"reserved":0,"last_update":"0001-01-01T00:00:00Z","name_a2s":"Uncletopia | Montr√©al | 4 | No Payload","protocol":17,"map":"cp_dustbowl","folder":"tf","game":"Team Fortress","app_id":440,"player_count":0,"max_players":24,"Bots":0,"server_type":"Dedicated","server_os":"Linux","password":true,"vac":true,"version":"7695204","steam_id":85568392924500090,"keywords":["cp","nocrits","nodmgspread","uncletopia"],"game_id":440,"stv_port":0,"stv_name":"","players":null},{"server_id":13,"name":"Uncletopia | New York City | 1 | All Maps","name_short":"nyc-1","host":"nyc-1.us.uncletopia.com","port":27015,"enabled":true,"region":"us-east","cc":"us","latitude":40.73061,"longitude":-73.93524,"reserved":0,"last_update":"0001-01-01T00:00:00Z","name_a2s":"Uncletopia | New York City | 1 | All Maps","protocol":17,"map":"koth_lakeside_final","folder":"tf","game":"Team Fortress","app_id":440,"player_count":0,"max_players":24,"Bots":0,"server_type":"Dedicated","server_os":"Linux","password":true,"vac":true,"version":"7695204","steam_id":85568392924469993,"keywords":["cp","nocrits","nodmgspread","uncletopia"],"game_id":440,"stv_port":27016,"stv_name":"Uncletopia | New York City | 1 | All Maps | STV","players":null},{"server_id":14,"name":"Uncletopia | New York City | 2 | All Maps","name_short":"nyc-2","host":"nyc-1.us.uncletopia.com","port":27025,"enabled":true,"region":"us-east","cc":"us","latitude":40.73061,"longitude":-73.93524,"reserved":0,"last_update":"0001-01-01T00:00:00Z","name_a2s":"Uncletopia | New York City | 2 | All Maps","protocol":17,"map":"pl_borneo","folder":"tf","game":"Team Fortress","app_id":440,"player_count":0,"max_players":24,"Bots":0,"server_type":"Dedicated","server_os":"Linux","password":true,"vac":true,"version":"7695204","steam_id":85568392924469994,"keywords":["nocrits","nodmgspread","payload","uncletopia"],"game_id":440,"stv_port":0,"stv_name":"","players":null},{"server_id":15,"name":"Uncletopia | New York City | 3 | All Maps","name_short":"nyc-3","host":"nyc-1.us.uncletopia.com","port":27035,"enabled":true,"region":"us-east","cc":"us","latitude":40.73061,"longitude":-73.93524,"reserved":0,"last_update":"0001-01-01T00:00:00Z","name_a2s":"Uncletopia | New York City | 3 | All Maps","protocol":17,"map":"pl_snowycoast","folder":"tf","game":"Team Fortress","app_id":440,"player_count":0,"max_players":24,"Bots":0,"server_type":"Dedicated","server_os":"Linux","password":true,"vac":true,"version":"7695204","steam_id":85568392924742820,"keywords":["nocrits","nodmgspread","payload","uncletopia"],"game_id":440,"stv_port":0,"stv_name":"","players":null},{"server_id":16,"name":"Uncletopia | New York City | 4 | Community","name_short":"nyc-4","host":"nyc-1.us.uncletopia.com","port":27045,"enabled":true,"region":"us-east","cc":"us","latitude":40.73061,"longitude":-73.93524,"reserved":0,"last_update":"0001-01-01T00:00:00Z","name_a2s":"Uncletopia | New York City | 4 | Community","protocol":17,"map":"pl_barnblitz","folder":"tf","game":"Team Fortress","app_id":440,"player_count":0,"max_players":24,"Bots":0,"server_type":"Dedicated","server_os":"Linux","password":true,"vac":true,"version":"7695204","steam_id":85568392924742821,"keywords":["nocrits","nodmgspread","payload","uncletopia"],"game_id":440,"stv_port":0,"stv_name":"","players":null},{"server_id":142,"name":"Uncletopia | S√£o Paulo | 1 | All Maps","name_short":"sao-1","host":"sao-1.br.uncletopia.com","port":27015,"enabled":true,"region":"sa","cc":"br","latitude":-23.533773,"longitude":-46.62529,"reserved":0,"last_update":"0001-01-01T00:00:00Z","name_a2s":"Uncletopia | S√£o Paulo | 1 | All Maps","protocol":17,"map":"koth_cascade","folder":"tf","game":"Team Fortress","app_id":440,"player_count":0,"max_players":24,"Bots":0,"server_type":"Dedicated","server_os":"Linux","password":true,"vac":true,"version":"7695204","steam_id":85568392924469996,"keywords":["cp","nocrits","nodmgspread","uncletopia"],"game_id":440,"stv_port":0,"stv_name":"","players":null},{"server_id":143,"name":"Uncletopia | S√£o Paulo | 2 | All Maps","name_short":"sao-2","host":"sao-2.br.uncletopia.com","port":27015,"enabled":true,"region":"sa","cc":"br","latitude":-23.533773,"longitude":-46.62529,"reserved":0,"last_update":"0001-01-01T00:00:00Z","name_a2s":"Uncletopia | S√£o Paulo | 2 | All Maps","protocol":17,"map":"cp_dustbowl","folder":"tf","game":"Team Fortress","app_id":440,"player_count":0,"max_players":24,"Bots":0,"server_type":"Dedicated","server_os":"Linux","password":true,"vac":true,"version":"7695204","steam_id":85568392924485349,"keywords":["cp","nocrits","nodmgspread","uncletopia"],"game_id":440,"stv_port":27016,"stv_name":"Uncletopia | S√£o Paulo | 2 | All Maps | STV","players":null},{"server_id":7,"name":"Uncletopia | Seattle | 1 | All Maps","name_short":"sea-1","host":"sea-1.us.uncletopia.com","port":27015,"enabled":true,"region":"us-west","cc":"us","latitude":47.608013,"longitude":-122.33517,"reserved":0,"last_update":"0001-01-01T00:00:00Z","name_a2s":"Uncletopia | Seattle | 1 | All Maps","protocol":17,"map":"pl_badwater","folder":"tf","game":"Team Fortress","app_id":440,"player_count":24,"max_players":24,"Bots":0,"server_type":"Dedicated","server_os":"Linux","password":true,"vac":true,"version":"7695204","steam_id":85568392924469997,"keywords":["nocrits","nodmgspread","payload","uncletopia"],"game_id":440,"stv_port":27016,"stv_name":"Uncletopia | Seattle | 1 | All Maps | STV","players":[{"user_id":776,"name":"RYMAXRULES","steam_id":76561198841603682,"connected_time":2526000000000,"state":"active","ping":84},{"user_id":674,"name":"Level 99 Mudcrab","steam_id":76561198077452771,"connected_time":11406000000000,"state":"active","ping":55},{"user_id":772,"name":"owlbortch","steam_id":76561198042849350,"connected_time":2730000000000,"state":"active","ping":128},{"user_id":777,"name":"DaRoyalYoshi","steam_id":76561198145186375,"connected_time":2493000000000,"state":"active","ping":90},{"user_id":744,"name":"üå∏Redüå∏","steam_id":76561198037346199,"connected_time":4465000000000,"state":"active","ping":93},{"user_id":778,"name":"Yakts","steam_id":76561198115044159,"connected_time":2134000000000,"state":"active","ping":44},{"user_id":763,"name":"Yuhh","steam_id":76561199112894955,"connected_time":3144000000000,"state":"active","ping":72},{"user_id":788,"name":"Jesus Loves You57","steam_id":76561199058833769,"connected_time":1438000000000,"state":"active","ping":72},{"user_id":749,"name":"Cool_guy_jones","steam_id":76561199010658004,"connected_time":3782000000000,"state":"active","ping":120},{"user_id":801,"name":"TheFlyingTortis","steam_id":76561198071576016,"connected_time":248000000000,"state":"active","ping":108},{"user_id":781,"name":"Tyler\u0026Fingers","steam_id":76561198085154485,"connected_time":1941000000000,"state":"active","ping":131},{"user_id":802,"name":"Mario 64 on the samsung tablet","steam_id":76561199243489976,"connected_time":230000000000,"state":"active","ping":79},{"user_id":766,"name":"Krazzle","steam_id":76561198029782412,"connected_time":2932000000000,"state":"active","ping":70},{"user_id":782,"name":"Kuyumiester","steam_id":76561198126835302,"connected_time":1884000000000,"state":"active","ping":74},{"user_id":691,"name":"‚ù§madeleine‚ù§","steam_id":76561198110142386,"connected_time":9790000000000,"state":"active","ping":64},{"user_id":804,"name":"no vc no c","steam_id":76561197989503095,"connected_time":25000000000,"state":"spawning","ping":213},{"user_id":805,"name":"i deepthroat shiny keys","steam_id":76561198986534519,"connected_time":17000000000,"state":"active","ping":52},{"user_id":786,"name":"Àú‚Äù*¬∞‚Ä¢ ‚ôãÔ∏é.ùïªùñÜùñï","steam_id":76561198035814292,"connected_time":1572000000000,"state":"active","ping":51},{"user_id":791,"name":"Peanut Butter Enthusiast","steam_id":76561198260351932,"connected_time":1269000000000,"state":"active","ping":123},{"user_id":799,"name":"Marie","steam_id":76561198056104899,"connected_time":326000000000,"state":"active","ping":135},{"user_id":790,"name":"Lootbug Enjoyer","steam_id":76561198271965324,"connected_time":1381000000000,"state":"active","ping":61},{"user_id":774,"name":"PROFILE NAME","steam_id":76561199438851854,"connected_time":2688000000000,"state":"active","ping":51},{"user_id":708,"name":"xerro","steam_id":76561198323340524,"connected_time":7854000000000,"state":"active","ping":126},{"user_id":695,"name":"Phoenix","steam_id":76561197971265992,"connected_time":9781000000000,"state":"active","ping":48}]},{"server_id":119,"name":"Uncletopia | Seattle | 2 | All Maps","name_short":"sea-2","host":"sea-1.us.uncletopia.com","port":27025,"enabled":true,"region":"us-west","cc":"us","latitude":47.608013,"longitude":-122.33517,"reserved":0,"last_update":"0001-01-01T00:00:00Z","name_a2s":"Uncletopia | Seattle | 2 | All Maps","protocol":17,"map":"koth_viaduct","folder":"tf","game":"Team Fortress","app_id":440,"player_count":0,"max_players":24,"Bots":0,"server_type":"Dedicated","server_os":"Linux","password":true,"vac":true,"version":"7695204","steam_id":85568392924469998,"keywords":["cp","nocrits","nodmgspread","uncletopia"],"game_id":440,"stv_port":27026,"stv_name":"Uncletopia | Seattle | 2 | All Maps | STV","players":null},{"server_id":17,"name":"Uncletopia | San Francisco | 1 | All Maps","name_short":"sfo-1","host":"sfo-1.us.uncletopia.com","port":27015,"enabled":true,"region":"us-west","cc":"us","latitude":37.77397,"longitude":-122.4313,"reserved":0,"last_update":"0001-01-01T00:00:00Z","name_a2s":"Uncletopia | San Francisco | 1 | All Maps","protocol":17,"map":"koth_highpass","folder":"tf","game":"Team Fortress","app_id":440,"player_count":0,"max_players":24,"Bots":0,"server_type":"Dedicated","server_os":"Linux","password":true,"vac":true,"version":"7695204","steam_id":85568392924469999,"keywords":["cp","nocrits","nodmgspread","uncletopia"],"game_id":440,"stv_port":27016,"stv_name":"Uncletopia | San Francisco | 1 | All Maps | STV","players":null},{"server_id":18,"name":"Uncletopia | San Francisco | 2 | All Maps","name_short":"sfo-2","host":"sfo-1.us.uncletopia.com","port":27025,"enabled":true,"region":"us-west","cc":"us","latitude":37.77397,"longitude":-122.4313,"reserved":0,"last_update":"0001-01-01T00:00:00Z","name_a2s":"Uncletopia | San Francisco | 2 | All Maps","protocol":17,"map":"koth_lakeside_final","folder":"tf","game":"Team Fortress","app_id":440,"player_count":0,"max_players":24,"Bots":0,"server_type":"Dedicated","server_os":"Linux","password":true,"vac":true,"version":"7695204","steam_id":85568392924470000,"keywords":["cp","nocrits","nodmgspread","uncletopia"],"game_id":440,"stv_port":27026,"stv_name":"Uncletopia | San Francisco | 2 | All Maps | STV","players":null},{"server_id":19,"name":"Uncletopia | San Francisco | 3 | No Payload","name_short":"sfo-3","host":"sfo-1.us.uncletopia.com","port":27035,"enabled":true,"region":"us-west","cc":"us","latitude":37.77397,"longitude":-122.4313,"reserved":0,"last_update":"0001-01-01T00:00:00Z","name_a2s":"Uncletopia | San Francisco | 3 | No Payload","protocol":17,"map":"koth_harvest_final","folder":"tf","game":"Team Fortress","app_id":440,"player_count":0,"max_players":24,"Bots":0,"server_type":"Dedicated","server_os":"Linux","password":true,"vac":true,"version":"7695204","steam_id":85568392924742824,"keywords":["cp","nocrits","nodmgspread","uncletopia"],"game_id":440,"stv_port":27036,"stv_name":"Uncletopia | San Francisco | 3 | No Payload | STV","players":null},{"server_id":20,"name":"Uncletopia | San Francisco | 4 | Community","name_short":"sfo-4","host":"sfo-1.us.uncletopia.com","port":27045,"enabled":true,"region":"us-west","cc":"us","latitude":37.77397,"longitude":-122.4313,"reserved":0,"last_update":"0001-01-01T00:00:00Z","name_a2s":"Uncletopia | San Francisco | 4 | Community","protocol":17,"map":"koth_highpass","folder":"tf","game":"Team Fortress","app_id":440,"player_count":0,"max_players":24,"Bots":0,"server_type":"Dedicated","server_os":"Linux","password":true,"vac":true,"version":"7695204","steam_id":85568392924742826,"keywords":["cp","nocrits","nodmgspread","uncletopia"],"game_id":440,"stv_port":0,"stv_name":"","players":null},{"server_id":141,"name":"Uncletopia | Sydney | 1 | All Maps","name_short":"syd-1","host":"syd-1.au.uncletopia.com","port":27015,"enabled":true,"region":"au","cc":"au","latitude":-33.865143,"longitude":151.2099,"reserved":0,"last_update":"0001-01-01T00:00:00Z","name_a2s":"Uncletopia | Sydney | 1 | All Maps","protocol":17,"map":"pl_upward","folder":"tf","game":"Team Fortress","app_id":440,"player_count":5,"max_players":24,"Bots":0,"server_type":"Dedicated","server_os":"Linux","password":true,"vac":true,"version":"7695204","steam_id":85568392924470001,"keywords":["nocrits","nodmgspread","payload","uncletopia"],"game_id":440,"stv_port":27016,"stv_name":"Uncletopia | Sydney | 1 | All Maps | STV","players":[{"user_id":648,"name":"ineedausername124","steam_id":76561198209086647,"connected_time":443000000000,"state":"active","ping":41},{"user_id":652,"name":"SlenderFox","steam_id":76561198044002401,"connected_time":241000000000,"state":"active","ping":55},{"user_id":625,"name":"KILLER WHALES","steam_id":76561198012422705,"connected_time":1547000000000,"state":"active","ping":52},{"user_id":609,"name":"Soru","steam_id":76561198010844786,"connected_time":3176000000000,"state":"active","ping":60},{"user_id":597,"name":"Yeehaw","steam_id":76561198039684922,"connected_time":4825000000000,"state":"active","ping":38}]},{"server_id":123,"name":"Uncletopia | Sydney | 2 | All Maps","name_short":"syd-2","host":"syd-1.au.uncletopia.com","port":27025,"enabled":true,"region":"au","cc":"au","latitude":-33.865143,"longitude":151.2099,"reserved":0,"last_update":"0001-01-01T00:00:00Z","name_a2s":"Uncletopia | Sydney | 2 | All Maps","protocol":17,"map":"koth_cascade","folder":"tf","game":"Team Fortress","app_id":440,"player_count":0,"max_players":24,"Bots":0,"server_type":"Dedicated","server_os":"Linux","password":true,"vac":true,"version":"7695204","steam_id":85568392924470002,"keywords":["cp","nocrits","nodmgspread","uncletopia"],"game_id":440,"stv_port":27026,"stv_name":"Uncletopia | Sydney | 2 | All Maps | STV","players":null},{"server_id":395,"name":"Uncletopia | Sydney | 3 | All Maps","name_short":"syd-3","host":"syd-1.au.uncletopia.com","port":27035,"enabled":true,"region":"au","cc":"au","latitude":-33.865143,"longitude":151.2099,"reserved":0,"last_update":"0001-01-01T00:00:00Z","name_a2s":"Uncletopia | Sydney | 3 | All Maps","protocol":17,"map":"pl_snowycoast","folder":"tf","game":"Team Fortress","app_id":440,"player_count":0,"max_players":24,"Bots":0,"server_type":"Dedicated","server_os":"Linux","password":true,"vac":true,"version":"7695204","steam_id":85568392925194467,"keywords":["nocrits","nodmgspread","payload","uncletopia"],"game_id":440,"stv_port":27036,"stv_name":"Uncletopia | Sydney | 3 | All Maps | STV","players":null},{"server_id":396,"name":"Uncletopia | Sydney | 4 | All Maps","name_short":"syd-4","host":"syd-1.au.uncletopia.com","port":27045,"enabled":true,"region":"au","cc":"au","latitude":-33.865143,"longitude":151.2099,"reserved":0,"last_update":"0001-01-01T00:00:00Z","name_a2s":"Uncletopia | Sydney | 4 | All Maps","protocol":17,"map":"pl_snowycoast","folder":"tf","game":"Team Fortress","app_id":440,"player_count":2,"max_players":24,"Bots":0,"server_type":"Dedicated","server_os":"Linux","password":true,"vac":true,"version":"7695204","steam_id":85568392925397958,"keywords":["nocrits","nodmgspread","payload","uncletopia"],"game_id":440,"stv_port":27046,"stv_name":"Uncletopia | Sydney | 4 | All Maps | STV","players":[{"user_id":477,"name":"Yaurria","steam_id":76561197971456252,"connected_time":3305000000000,"state":"active","ping":48},{"user_id":486,"name":"Night","steam_id":76561198371839412,"connected_time":1849000000000,"state":"active","ping":48}]},{"server_id":58,"name":"Uncletopia | Sydney | 5 | No Payload","name_short":"syd-5","host":"syd-1.au.uncletopia.com","port":27055,"enabled":true,"region":"au","cc":"au","latitude":-33.865143,"longitude":151.2099,"reserved":0,"last_update":"0001-01-01T00:00:00Z","name_a2s":"Uncletopia | Sydney | 5 | No Payload","protocol":17,"map":"koth_sawmill","folder":"tf","game":"Team Fortress","app_id":440,"player_count":2,"max_players":24,"Bots":0,"server_type":"Dedicated","server_os":"Linux","password":true,"vac":true,"version":"7695204","steam_id":85568392925397959,"keywords":["cp","nocrits","nodmgspread","uncletopia"],"game_id":440,"stv_port":27056,"stv_name":"Uncletopia | Sydney | 5 | No Payload | STV","players":[{"user_id":15,"name":"Skippdidilly","steam_id":76561198808213740,"connected_time":176000000000,"state":"active","ping":64},{"user_id":16,"name":"The Courierkid","steam_id":76561198410010726,"connected_time":145000000000,"state":"active","ping":65}]},{"server_id":59,"name":"Uncletopia | Sydney | 6 | Community","name_short":"syd-6","host":"syd-1.au.uncletopia.com","port":27065,"enabled":true,"region":"au","cc":"au","latitude":-33.865143,"longitude":151.2099,"reserved":0,"last_update":"0001-01-01T00:00:00Z","name_a2s":"Uncletopia | Sydney | 6 | Community","protocol":17,"map":"workshop/koth_ashville_final.ugc2130459942","folder":"tf","game":"Team Fortress","app_id":440,"player_count":0,"max_players":24,"Bots":0,"server_type":"Dedicated","server_os":"Linux","password":true,"vac":true,"version":"7695204","steam_id":85568392925397960,"keywords":["cp","nocrits","nodmgspread","uncletopia"],"game_id":440,"stv_port":27066,"stv_name":"Uncletopia | Sydney | 6 | Community | STV","players":null},{"server_id":49,"name":"Uncletopia | Warsaw | 1 | All Maps","name_short":"waw-1","host":"waw-1.pl.uncletopia.com","port":27015,"enabled":true,"region":"eu","cc":"pl","latitude":52.2297,"longitude":21.017532,"reserved":0,"last_update":"0001-01-01T00:00:00Z","name_a2s":"Uncletopia | Warsaw | 1 | All Maps","protocol":17,"map":"pl_frontier_final","folder":"tf","game":"Team Fortress","app_id":440,"player_count":0,"max_players":24,"Bots":0,"server_type":"Dedicated","server_os":"Linux","password":true,"vac":true,"version":"7695204","steam_id":85568392925397850,"keywords":["nocrits","nodmgspread","payload","uncletopia"],"game_id":440,"stv_port":0,"stv_name":"","players":null},{"server_id":50,"name":"Uncletopia | Warsaw | 2 | All Maps","name_short":"waw-2","host":"waw-1.pl.uncletopia.com","port":27025,"enabled":true,"region":"eu","cc":"pl","latitude":52.2297,"longitude":21.017532,"reserved":0,"last_update":"0001-01-01T00:00:00Z","name_a2s":"Uncletopia | Warsaw | 2 | All Maps","protocol":17,"map":"cp_snakewater_final1","folder":"tf","game":"Team Fortress","app_id":440,"player_count":0,"max_players":24,"Bots":0,"server_type":"Dedicated","server_os":"Linux","password":true,"vac":true,"version":"7695204","steam_id":85568392925397851,"keywords":["cp","nocrits","nodmgspread","uncletopia"],"game_id":440,"stv_port":0,"stv_name":"","players":null},{"server_id":51,"name":"Uncletopia | Warsaw | 3 | All Maps","name_short":"waw-3","host":"waw-1.pl.uncletopia.com","port":27035,"enabled":true,"region":"eu","cc":"pl","latitude":52.2297,"longitude":21.017532,"reserved":0,"last_update":"0001-01-01T00:00:00Z","name_a2s":"Uncletopia | Warsaw | 3 | All Maps","protocol":17,"map":"koth_lakeside_final","folder":"tf","game":"Team Fortress","app_id":440,"player_count":0,"max_players":24,"Bots":0,"server_type":"Dedicated","server_os":"Linux","password":true,"vac":true,"version":"7695204","steam_id":85568392925397852,"keywords":["cp","nocrits","nodmgspread","uncletopia"],"game_id":440,"stv_port":27036,"stv_name":"Uncletopia | Warsaw | 3 | All Maps | STV","players":null},{"server_id":52,"name":"Uncletopia | Warsaw | 4 | All Maps","name_short":"waw-4","host":"waw-1.pl.uncletopia.com","port":27045,"enabled":true,"region":"eu","cc":"pl","latitude":52.2297,"longitude":21.017532,"reserved":0,"last_update":"0001-01-01T00:00:00Z","name_a2s":"Uncletopia | Warsaw | 4 | All Maps","protocol":17,"map":"cp_altitude","folder":"tf","game":"Team Fortress","app_id":440,"player_count":0,"max_players":24,"Bots":0,"server_type":"Dedicated","server_os":"Linux","password":true,"vac":true,"version":"7695204","steam_id":85568392925397853,"keywords":["cp","nocrits","nodmgspread","uncletopia"],"game_id":440,"stv_port":0,"stv_name":"","players":null},{"server_id":53,"name":"Uncletopia | Warsaw | 5 | No Payload","name_short":"waw-5","host":"waw-1.pl.uncletopia.com","port":27055,"enabled":true,"region":"eu","cc":"pl","latitude":52.2297,"longitude":21.017532,"reserved":0,"last_update":"0001-01-01T00:00:00Z","name_a2s":"Uncletopia | Warsaw | 5 | No Payload","protocol":17,"map":"koth_king","folder":"tf","game":"Team Fortress","app_id":440,"player_count":0,"max_players":24,"Bots":0,"server_type":"Dedicated","server_os":"Linux","password":true,"vac":true,"version":"7695204","steam_id":85568392925397854,"keywords":["cp","nocrits","nodmgspread","uncletopia"],"game_id":440,"stv_port":27056,"stv_name":"Uncletopia | Warsaw | 5 | No Payload | STV","players":null},{"server_id":54,"name":"Uncletopia | Warsaw | 6 | Community","name_short":"waw-6","host":"waw-1.pl.uncletopia.com","port":27065,"enabled":true,"region":"eu","cc":"pl","latitude":52.2297,"longitude":21.017532,"reserved":0,"last_update":"0001-01-01T00:00:00Z","name_a2s":"Uncletopia | Warsaw | 6 | Community","protocol":17,"map":"workshop/cp_sulfur_rc2.ugc619869471","folder":"tf","game":"Team Fortress","app_id":440,"player_count":6,"max_players":24,"Bots":0,"server_type":"Dedicated","server_os":"Linux","password":true,"vac":true,"version":"7695204","steam_id":85568392925397856,"keywords":["cp","nocrits","nodmgspread","uncletopia"],"game_id":440,"stv_port":27066,"stv_name":"Uncletopia | Warsaw | 6 | Community | STV","players":[{"user_id":3,"name":"Flaffian","steam_id":76561198261614764,"connected_time":2385000000000,"state":"active","ping":56},{"user_id":4,"name":"–°–∞–Ω—è2014","steam_id":76561198184235809,"connected_time":2358000000000,"state":"active","ping":147},{"user_id":5,"name":"ZXC_–°–µ—Ä—ë–≥–∞_228","steam_id":76561198060993967,"connected_time":2356000000000,"state":"active","ping":92},{"user_id":6,"name":"–ö—Ä–∞—Ö –º—É–∂–µ—Å—Ç–≤–∞","steam_id":76561198251356426,"connected_time":2350000000000,"state":"active","ping":99},{"user_id":8,"name":"I'm inside your computer","steam_id":76561198097151072,"connected_time":1732000000000,"state":"active","ping":52},{"user_id":12,"name":"El pibe motosierra","steam_id":76561198956396101,"connected_time":600000000000,"state":"active","ping":216}]}]}