{"status":true,"message":"","result":[{"server_id":9,"name":"Uncletopia | Atlanta | 1 | All Maps","name_short":"atl-1","host":"atl-1.us.uncletopia.com","port":27015,"enabled":true,"region":"us-east","cc":"us","latitude":33.753746,"longitude":-84.38633,"reserved":0,"last_update":"0001-01-01T00:00:00Z","name_a2s":"Uncletopia | Atlanta | 1 | All Maps","protocol":17,"map":"cp_snakewater_final1","folder":"tf","game":"Team Fortress","app_id":440,"player_count":0,"max_players":24,"Bots":0,"server_type":"Dedicated","server_os":"Linux","password":true,"vac":true,"version":"7961495","steam_id":85568392924469982,"keywords":["cp","nocrits","nodmgspread","uncletopia"],"game_id":440,"stv_port":27016,"stv_name":"Uncletopia | Atlanta | 1 | All Maps | STV","players":null},{"server_id":104,"name":"Uncletopia | Atlanta | 2 | All Maps","name_short":"atl-2","host":"atl-1.us.uncletopia.com","port":27025,"enabled":true,"region":"us-east","cc":"us","latitude":33.753746,"longitude":-84.38633,"reserved":0,"last_update":"0001-01-01T00:00:00Z","name_a2s":"Uncletopia | Atlanta | 2 | All Maps","protocol":17,"map":"koth_cascade","folder":"tf","game":"Team Fortress","app_id":440,"player_count":0,"max_players":24,"Bots":0,"server_type":"Dedicated","server_os":"Linux","password":true,"vac":true,"version":"7961495","steam_id":85568392924469983,"keywords":["cp","nocrits","nodmgspread","uncletopia"],"game_id":440,"stv_port":27026,"stv_name":"Uncletopia | Atlanta | 2 | All Maps | STV","players":null},{"server_id":400,"name":"Uncletopia | Atlanta | 3 | All Maps","name_short":"atl-3","host":"atl-1.us.uncletopia.com","port":27035,"enabled":true,"region":"us-east","cc":"us","latitude":33.753746,"longitude":-84.38633,"reserved":0,"last_update":"0001-01-01T00:00:00Z","name_a2s":"Uncletopia | Atlanta | 3 | All Maps","protocol":17,"map":"pl_snowycoast","folder":"tf","game":"Team Fortress","app_id":440,"player_count":20,"max_players":24,"Bots":0,"server_type":"Dedicated","server_os":"Linux","password":true,"vac":true,"version":"7961495","steam_id":85568392924515187,"keywords":["nocrits","nodmgspread","payload","uncletopia"],"game_id":440,"stv_port":27036,"stv_name":"Uncletopia | Atlanta | 3 | All Maps | STV","players":null},{"server_id":401,"name":"Uncletopia | Atlanta | 4 | Community","name_short":"atl-4","host":"atl-1.us.uncletopia.com","port":27045,"enabled":true,"region":"us-east","cc":"us","latitude":33.753746,"longitude":-84.38633,"reserved":0,"last_update":"0001-01-01T00:00:00Z","name_a2s":"Uncletopia | Atlanta | 4 | Community","protocol":17,"map":"koth_cascade","folder":"tf","game":"Team Fortress","app_id":440,"player_count":0,"max_players":24,"Bots":0,"server_type":"Dedicated","server_os":"Linux","password":true,"vac":true,"version":"7961495","steam_id":85568392924515188,"keywords":["cp","nocrits","nodmgspread","uncletopia"],"game_id":440,"stv_port":27046,"stv_name":"Uncletopia | Atlanta | 4 | Community | STV","players":null},{"server_id":2,"name":"Uncletopia | Chicago | 1 | All Maps","name_short":"chi-1","host":"chi-1.us.uncletopia.com","port":27015,"enabled":true,"region":"us-central","cc":"us","latitude":41.881832,"longitude":-87.62318,"reserved":0,"last_update":"0001-01-01T00:00:00Z","name_a2s":"Uncletopia | Chicago | 1 | All Maps","protocol":17,"map":"pl_frontier_final","folder":"tf","game":"Team Fortress","app_id":440,"player_count":24,"max_players":24,"Bots":0,"server_type":"Dedicated","server_os":"Linux","password":true,"vac":true,"version":"7961495","steam_id":85568392924469984,"keywords":["nocrits","nodmgspread","payload","uncletopia"],"game_id":440,"stv_port":27016,"stv_name":"Uncletopia | Chicago | 1 | All Maps | STV","players":[{"user_id":676,"name":"Draconic Ballad","steam_id":76561198027191515,"connected_time":827000000000,"state":"active","ping":45},{"user_id":649,"name":"Manchurian Bandit","steam_id":76561198072410042,"connected_time":2110000000000,"state":"active","ping":95},{"user_id":669,"name":"El Bozo","steam_id":76561198010370396,"connected_time":1457000000000,"state":"active","ping":45},{"user_id":679,"name":"Sigiferd","steam_id":76561198148788110,"connected_time":512000000000,"state":"active","ping":128},{"user_id":648,"name":"whimsical little creature","steam_id":76561198271710504,"connected_time":2117000000000,"state":"active","ping":50},{"user_id":672,"name":"Stranger in a Strange Land","steam_id":76561198049843671,"connected_time":1003000000000,"state":"active","ping":63},{"user_id":681,"name":"Sneaky_Tank","steam_id":76561198078814793,"connected_time":284000000000,"state":"active","ping":56},{"user_id":670,"name":"Sir Real with Milk","steam_id":76561198090356880,"connected_time":1073000000000,"state":"active","ping":44},{"user_id":651,"name":"㋛ countblanc","steam_id":76561197993171771,"connected_time":2091000000000,"state":"active","ping":56},{"user_id":640,"name":"Lucky","steam_id":76561198418262145,"connected_time":3301000000000,"state":"active","ping":128},{"user_id":646,"name":"workin for snapple","steam_id":76561198013732450,"connected_time":2318000000000,"state":"active","ping":53},{"user_id":666,"name":"wow120000000000000098","steam_id":76561198016826181,"connected_time":1811000000000,"state":"active","ping":70},{"user_id":602,"name":"Preacher","steam_id":76561198022215764,"connected_time":5616000000000,"state":"active","ping":72},{"user_id":664,"name":"mistral","steam_id":76561198883415090,"connected_time":1860000000000,"state":"active","ping":92},{"user_id":660,"name":"Anger","steam_id":76561198206494752,"connected_time":2019000000000,"state":"active","ping":81},{"user_id":671,"name":"Doctor Emerald(real)","steam_id":76561199123003872,"connected_time":1070000000000,"state":"active","ping":93},{"user_id":603,"name":"Swiftmend","steam_id":76561197995595692,"connected_time":5255000000000,"state":"active","ping":76},{"user_id":656,"name":"windyme","steam_id":76561198193819986,"connected_time":2079000000000,"state":"active","ping":69},{"user_id":674,"name":"rad killl raccoon","steam_id":76561198980975595,"connected_time":968000000000,"state":"active","ping":105},{"user_id":641,"name":"Pattar","steam_id":76561198146276146,"connected_time":3115000000000,"state":"active","ping":60},{"user_id":662,"name":"creal","steam_id":76561198127116199,"connected_time":1977000000000,"state":"active","ping":60},{"user_id":665,"name":"Vegerot","steam_id":76561197997843710,"connected_time":1854000000000,"state":"active","ping":60},{"user_id":663,"name":"chiswola","steam_id":76561198046920142,"connected_time":1975000000000,"state":"active","ping":86},{"user_id":678,"name":"goose","steam_id":76561198367551668,"connected_time":825000000000,"state":"active","ping":60}]},{"server_id":106,"name":"Uncletopia | Chicago | 2 | All Maps","name_short":"chi-2","host":"chi-1.us.uncletopia.com","port":27025,"enabled":true,"region":"us-central","cc":"us","latitude":41.881832,"longitude":-87.62318,"reserved":0,"last_update":"0001-01-01T00:00:00Z","name_a2s":"Uncletopia | Chicago | 2 | All Maps","protocol":17,"map":"pl_upward","folder":"tf","game":"Team Fortress","app_id":440,"player_count":24,"max_players":24,"Bots":0,"server_type":"Dedicated","server_os":"Linux","password":true,"vac":true,"version":"7961495","steam_id":85568392924469985,"keywords":["nocrits","nodmgspread","payload","uncletopia"],"game_id":440,"stv_port":27026,"stv_name":"Uncletopia | Chicago | 2 | All Maps | STV","players":[{"user_id":22,"name":"i suffer from ligma","steam_id":76561199158496518,"connected_time":1612000000000,"state":"active","ping":118},{"user_id":27,"name":"Evaporated_373k","steam_id":76561199435266743,"connected_time":1247000000000,"state":"active","ping":89},{"user_id":64,"name":"tA.CHRONIC","steam_id":76561197960760990,"connected_time":118000000000,"state":"active","ping":49},{"user_id":24,"name":"the epiccgaemar","steam_id":76561198804408996,"connected_time":1457000000000,"state":"active","ping":84},{"user_id":40,"name":"phoenix.","steam_id":76561198993853483,"connected_time":803000000000,"state":"active","ping":87},{"user_id":52,"name":"MCwopsi","steam_id":76561198318263376,"connected_time":598000000000,"state":"active","ping":83},{"user_id":56,"name":"Vizier","steam_id":76561198880503885,"connected_time":539000000000,"state":"active","ping":73},{"user_id":31,"name":"Lord_of_Happy_Death","steam_id":76561198880762204,"connected_time":1139000000000,"state":"active","ping":63},{"user_id":33,"name":"homeless pyro gaming (official)","steam_id":76561198870068763,"connected_time":1103000000000,"state":"active","ping":96},{"user_id":36,"name":"melvinsaurus56430","steam_id":76561198170276601,"connected_time":972000000000,"state":"active","ping":88},{"user_id":37,"name":"Lawrence Pemberton","steam_id":76561198180863090,"connected_time":949000000000,"state":"active","ping":78},{"user_id":38,"name":"pong_","steam_id":76561198166982558,"connected_time":933000000000,"state":"active","ping":87},{"user_id":39,"name":"eat Pant","steam_id":76561197974965536,"connected_time":829000000000,"state":"active","ping":54},{"user_id":63,"name":"ArrantWolf","steam_id":76561198251820446,"connected_time":160000000000,"state":"active","ping":117},{"user_id":43,"name":"Fella","steam_id":76561198373886887,"connected_time":736000000000,"state":"active","ping":81},{"user_id":44,"name":"imng","steam_id":76561198014988031,"connected_time":710000000000,"state":"active","ping":73},{"user_id":45,"name":"Osrio","steam_id":76561198083428069,"connected_time":685000000000,"state":"active","ping":87},{"user_id":48,"name":"Cool for Cats","steam_id":76561199046667189,"connected_time":658000000000,"state":"active","ping":59},{"user_id":49,"name":"Six Piece Chicken McNobody","steam_id":76561198129848222,"connected_time":657000000000,"state":"active","ping":70},{"user_id":50,"name":"JoeFalco","steam_id":76561198064005012,"connected_time":652000000000,"state":"active","ping":83},{"user_id":51,"name":"Spectre","steam_id":76561198025652246,"connected_time":635000000000,"state":"active","ping":53},{"user_id":54,"name":"Kinbo2487","steam_id":76561198184714198,"connected_time":590000000000,"state":"active","ping":74},{"user_id":58,"name":"Chhaam","steam_id":76561198058508132,"connected_time":526000000000,"state":"active","ping":60},{"user_id":62,"name":"ZirØhh","steam_id":76561198202286460,"connected_time":226000000000,"state":"active","ping":83}]},{"server_id":402,"name":"Uncletopia | Chicago | 3 | All Maps","name_short":"chi-3","host":"chi-1.us.uncletopia.com","port":27035,"enabled":true,"region":"us-central","cc":"us","latitude":41.881832,"longitude":-87.62318,"reserved":0,"last_update":"0001-01-01T00:00:00Z","name_a2s":"Uncletopia | Chicago | 3 | All Maps","protocol":17,"map":"pl_pier","folder":"tf","game":"Team Fortress","app_id":440,"player_count":24,"max_players":24,"Bots":0,"server_type":"Dedicated","server_os":"Linux","password":true,"vac":true,"version":"7961495","steam_id":85568392924515191,"keywords":["nocrits","nodmgspread","payload","uncletopia"],"game_id":440,"stv_port":27036,"stv_name":"Uncletopia | Chicago | 3 | All Maps | STV","players":[{"user_id":499,"name":"thunderous prophet","steam_id":76561198131166135,"connected_time":1034000000000,"state":"active","ping":86},{"user_id":464,"name":"playguy carter","steam_id":76561198080679337,"connected_time":3244000000000,"state":"active","ping":55},{"user_id":505,"name":"benjamator67","steam_id":76561198209002860,"connected_time":110000000000,"state":"active","ping":51},{"user_id":504,"name":"Destmon","steam_id":76561199075175675,"connected_time":119000000000,"state":"active","ping":53},{"user_id":467,"name":"pinky","steam_id":76561199109784776,"connected_time":3091000000000,"state":"active","ping":49},{"user_id":490,"name":"Toast","steam_id":76561199207957224,"connected_time":1393000000000,"state":"active","ping":69},{"user_id":458,"name":"Predicta","steam_id":76561198017630616,"connected_time":3712000000000,"state":"active","ping":53},{"user_id":478,"name":"Fobby #Savetf2","steam_id":76561198047681469,"connected_time":2294000000000,"state":"active","ping":117},{"user_id":466,"name":"Easey","steam_id":76561198230316868,"connected_time":3141000000000,"state":"active","ping":61},{"user_id":507,"name":"Propaniac Gaming ☑","steam_id":76561198133963270,"connected_time":8000000000,"state":"spawning","ping":57},{"user_id":483,"name":"Blake...","steam_id":76561198064090974,"connected_time":1437000000000,"state":"active","ping":87},{"user_id":475,"name":"Saggy Haggis Balls","steam_id":76561198047845399,"connected_time":3026000000000,"state":"active","ping":70},{"user_id":503,"name":"Cosmos Rogue","steam_id":76561198378791617,"connected_time":254000000000,"state":"active","ping":55},{"user_id":500,"name":"Comfy!","steam_id":76561198008818346,"connected_time":975000000000,"state":"active","ping":61},{"user_id":477,"name":"ameritech","steam_id":76561198064769089,"connected_time":2295000000000,"state":"active","ping":46},{"user_id":502,"name":"TheOneZoot","steam_id":76561198121944243,"connected_time":785000000000,"state":"active","ping":78},{"user_id":488,"name":"Burf","steam_id":76561198019341161,"connected_time":1414000000000,"state":"active","ping":70},{"user_id":494,"name":"DinkleBerg","steam_id":76561198891626233,"connected_time":1249000000000,"state":"active","ping":73},{"user_id":497,"name":"Soup","steam_id":76561198079000665,"connected_time":1097000000000,"state":"active","ping":55},{"user_id":506,"name":"guppy","steam_id":76561198041380190,"connected_time":90000000000,"state":"active","ping":87},{"user_id":501,"name":"thatguy_luigi","steam_id":76561198968055462,"connected_time":924000000000,"state":"active","ping":122},{"user_id":508,"name":"Ceige (redemption arc)","steam_id":76561198068538473,"connected_time":8000000000,"state":"spawning","ping":74},{"user_id":495,"name":"Terminally Ill Downie Brownie","steam_id":76561198356484354,"connected_time":1190000000000,"state":"active","ping":117},{"user_id":480,"name":"Jatt","steam_id":76561198822011219,"connected_time":2104000000000,"state":"active","ping":69}]},{"server_id":403,"name":"Uncletopia | Chicago | 4 | All Maps","name_short":"chi-4","host":"chi-1.us.uncletopia.com","port":27045,"enabled":true,"region":"us-central","cc":"us","latitude":41.881832,"longitude":-87.62318,"reserved":0,"last_update":"0001-01-01T00:00:00Z","name_a2s":"Uncletopia | Chicago | 4 | All Maps","protocol":17,"map":"pl_badwater","folder":"tf","game":"Team Fortress","app_id":440,"player_count":24,"max_players":24,"Bots":0,"server_type":"Dedicated","server_os":"Linux","password":true,"vac":true,"version":"7961495","steam_id":85568392924515193,"keywords":["nocrits","nodmgspread","payload","uncletopia"],"game_id":440,"stv_port":27046,"stv_name":"Uncletopia | Chicago | 4 | All Maps | STV","players":[{"user_id":348,"name":"$0.18","steam_id":76561198360134800,"connected_time":1586000000000,"state":"active","ping":75},{"user_id":361,"name":"nyanyaemon!","steam_id":76561198201365621,"connected_time":951000000000,"state":"active","ping":42},{"user_id":365,"name":"Sovereign","steam_id":76561198018841787,"connected_time":789000000000,"state":"active","ping":90},{"user_id":330,"name":"Tax_Collector","steam_id":76561198990505496,"connected_time":4202000000000,"state":"active","ping":95},{"user_id":306,"name":"Adum","steam_id":76561198181162382,"connected_time":5494000000000,"state":"active","ping":63},{"user_id":378,"name":"aversa","steam_id":76561198840460101,"connected_time":149000000000,"state":"active","ping":70},{"user_id":369,"name":"Autogyro","steam_id":76561198047943679,"connected_time":373000000000,"state":"active","ping":60},{"user_id":331,"name":"Itichi","steam_id":76561199132533506,"connected_time":3891000000000,"state":"active","ping":77},{"user_id":370,"name":"SecondCarpet","steam_id":76561199008323078,"connected_time":364000000000,"state":"active","ping":84},{"user_id":346,"name":"Furniture Living Set $299","steam_id":76561198077756206,"connected_time":2627000000000,"state":"active","ping":133},{"user_id":371,"name":"GooniOoni","steam_id":76561198102154561,"connected_time":354000000000,"state":"active","ping":42},{"user_id":379,"name":"FunGi","steam_id":76561198881418662,"connected_time":38000000000,"state":"active","ping":119},{"user_id":317,"name":"RightWardDust92","steam_id":76561198264763608,"connected_time":4799000000000,"state":"active","ping":96},{"user_id":345,"name":"Not_Douglas","steam_id":76561199024184136,"connected_time":2680000000000,"state":"active","ping":59},{"user_id":368,"name":"Rambly Dambly","steam_id":76561198844496567,"connected_time":408000000000,"state":"active","ping":48},{"user_id":362,"name":"a table","steam_id":76561198158461279,"connected_time":925000000000,"state":"active","ping":66},{"user_id":380,"name":"snark","steam_id":76561199046993811,"connected_time":2000000000,"state":"spawning","ping":83},{"user_id":372,"name":"Yimberly","steam_id":76561199206923109,"connected_time":338000000000,"state":"active","ping":79},{"user_id":377,"name":"Lonely Friendless Gamer","steam_id":76561198046728155,"connected_time":229000000000,"state":"active","ping":49},{"user_id":342,"name":"Am I Good At The Video Game?","steam_id":76561198046053281,"connected_time":3177000000000,"state":"active","ping":66},{"user_id":363,"name":"rwrangler05","steam_id":76561198922899122,"connected_time":861000000000,"state":"active","ping":101},{"user_id":374,"name":"「Daws_Dudeguy」","steam_id":76561198205838645,"connected_time":333000000000,"state":"active","ping":72},{"user_id":375,"name":"superwarm07","steam_id":76561199196313157,"connected_time":333000000000,"state":"active","ping":88}]},{"server_id":36,"name":"Uncletopia | Chicago | 5 | All Maps","name_short":"chi-5","host":"chi-2.us.uncletopia.com","port":27015,"enabled":true,"region":"us-central","cc":"us","latitude":41.881832,"longitude":-87.62318,"reserved":0,"last_update":"0001-01-01T00:00:00Z","name_a2s":"Uncletopia | Chicago | 5 | All Maps","protocol":17,"map":"cp_snakewater_final1","folder":"tf","game":"Team Fortress","app_id":440,"player_count":23,"max_players":24,"Bots":0,"server_type":"Dedicated","server_os":"Linux","password":true,"vac":true,"version":"7961495","steam_id":85568392924866362,"keywords":["cp","nocrits","nodmgspread","uncletopia"],"game_id":440,"stv_port":27016,"stv_name":"Uncletopia | Chicago | 5 | All Maps | STV","players":[{"user_id":295,"name":"Dubious Adubio","steam_id":76561198442369067,"connected_time":1123000000000,"state":"active","ping":69},{"user_id":306,"name":"GibbusGod","steam_id":76561199232436690,"connected_time":156000000000,"state":"active","ping":72},{"user_id":273,"name":"Magnifico Giganticus","steam_id":76561197984426746,"connected_time":1746000000000,"state":"active","ping":69},{"user_id":274,"name":"joddson63","steam_id":76561198124576125,"connected_time":1717000000000,"state":"active","ping":82},{"user_id":290,"name":"El-Chubbo","steam_id":76561198087889236,"connected_time":1264000000000,"state":"active","ping":114},{"user_id":280,"name":"Kaiju","steam_id":76561198035703156,"connected_time":1415000000000,"state":"active","ping":53},{"user_id":307,"name":"Evan","steam_id":76561197972292926,"connected_time":53000000000,"state":"active","ping":74},{"user_id":297,"name":"Bird of Paradise","steam_id":76561198891152046,"connected_time":1089000000000,"state":"active","ping":102},{"user_id":283,"name":"living in mushroom park","steam_id":76561198097588802,"connected_time":1361000000000,"state":"active","ping":44},{"user_id":197,"name":"Hydroxianchaos","steam_id":76561198043786828,"connected_time":7615000000000,"state":"active","ping":65},{"user_id":267,"name":"Ibrahim","steam_id":76561198028320625,"connected_time":2184000000000,"state":"active","ping":67},{"user_id":305,"name":"Domino's App ft. Hatsune Miku","steam_id":76561198073853955,"connected_time":611000000000,"state":"active","ping":91},{"user_id":255,"name":"bananalover5","steam_id":76561199143854578,"connected_time":2837000000000,"state":"active","ping":90},{"user_id":285,"name":"darkness consumes","steam_id":76561198048925904,"connected_time":1330000000000,"state":"active","ping":108},{"user_id":301,"name":"Missing Minus","steam_id":76561198120822928,"connected_time":974000000000,"state":"active","ping":59},{"user_id":276,"name":"Null","steam_id":76561198062791227,"connected_time":1676000000000,"state":"active","ping":73},{"user_id":277,"name":"Van Tastic","steam_id":76561198063855523,"connected_time":1604000000000,"state":"active","ping":107},{"user_id":247,"name":"Christian Bonnie","steam_id":76561199194702127,"connected_time":3024000000000,"state":"active","ping":83},{"user_id":298,"name":"primordialheath","steam_id":76561199386942638,"connected_time":1063000000000,"state":"active","ping":58},{"user_id":303,"name":"the laughing man","steam_id":76561198877312648,"connected_time":759000000000,"state":"active","ping":86},{"user_id":299,"name":"cecilcooper","steam_id":76561199486676318,"connected_time":1024000000000,"state":"active","ping":62},{"user_id":302,"name":"A_Malebolgia","steam_id":76561198097722818,"connected_time":964000000000,"state":"active","ping":91},{"user_id":270,"name":"tasty","steam_id":76561198083839061,"connected_time":1887000000000,"state":"active","ping":50}]},{"server_id":37,"name":"Uncletopia | Chicago | 6 | All Maps","name_short":"chi-6","host":"chi-2.us.uncletopia.com","port":27025,"enabled":true,"region":"us-central","cc":"us","latitude":41.881832,"longitude":-87.62318,"reserved":0,"last_update":"0001-01-01T00:00:00Z","name_a2s":"Uncletopia | Chicago | 6 | All Maps","protocol":17,"map":"pl_badwater","folder":"tf","game":"Team Fortress","app_id":440,"player_count":24,"max_players":24,"Bots":0,"server_type":"Dedicated","server_os":"Linux","password":true,"vac":true,"version":"7961495","steam_id":85568392924866363,"keywords":["nocrits","nodmgspread","payload","uncletopia"],"game_id":440,"stv_port":27026,"stv_name":"Uncletopia | Chicago | 6 | All Maps | STV","players":[{"user_id":293,"name":"Phaze","steam_id":76561198025267071,"connected_time":3410000000000,"state":"active","ping":63},{"user_id":303,"name":"dirty30","steam_id":76561198021226566,"connected_time":2459000000000,"state":"active","ping":99},{"user_id":308,"name":"Poopisviel Von Einzbern","steam_id":76561198259260433,"connected_time":2169000000000,"state":"active","ping":87},{"user_id":287,"name":"crispylego_","steam_id":76561199453679719,"connected_time":3716000000000,"state":"active","ping":129},{"user_id":326,"name":"Treeckogeek","steam_id":76561198453328078,"connected_time":224000000000,"state":"active","ping":60},{"user_id":318,"name":"b","steam_id":76561198118211523,"connected_time":1292000000000,"state":"active","ping":64},{"user_id":306,"name":"joelMMD","steam_id":76561198855834404,"connected_time":2438000000000,"state":"active","ping":71},{"user_id":246,"name":"LittleFieryOne","steam_id":76561198107463724,"connected_time":5370000000000,"state":"active","ping":62},{"user_id":321,"name":"sansa musa","steam_id":76561198163723555,"connected_time":842000000000,"state":"active","ping":62},{"user_id":270,"name":"frank","steam_id":76561198137777483,"connected_time":4674000000000,"state":"active","ping":69},{"user_id":298,"name":"vareh","steam_id":76561197993190926,"connected_time":3059000000000,"state":"active","ping":117},{"user_id":302,"name":"radicalPolio","steam_id":76561197961561855,"connected_time":2681000000000,"state":"active","ping":68},{"user_id":314,"name":"/HA","steam_id":76561198049901965,"connected_time":1350000000000,"state":"active","ping":80},{"user_id":327,"name":"LerN","steam_id":76561198083463877,"connected_time":204000000000,"state":"active","ping":47},{"user_id":323,"name":"MacchuPeachu","steam_id":76561199093242587,"connected_time":473000000000,"state":"active","ping":82},{"user_id":310,"name":"GruntRule","steam_id":76561198039987143,"connected_time":2032000000000,"state":"active","ping":81},{"user_id":260,"name":"dr peppah chug!","steam_id":76561198068835693,"connected_time":4965000000000,"state":"active","ping":95},{"user_id":328,"name":"Dan Backslide","steam_id":76561198375517188,"connected_time":163000000000,"state":"active","ping":73},{"user_id":324,"name":"madara uchiha","steam_id":76561199071173129,"connected_time":418000000000,"state":"active","ping":68},{"user_id":294,"name":"MrDudeMan","steam_id":76561198959351282,"connected_time":3408000000000,"state":"active","ping":74},{"user_id":320,"name":"UNRELIABLE TEAMMATE","steam_id":76561198063526102,"connected_time":1268000000000,"state":"active","ping":113},{"user_id":329,"name":"Use More Gun (UMG)","steam_id":76561198137734808,"connected_time":88000000000,"state":"active","ping":95},{"user_id":307,"name":"Lucon","steam_id":76561198067147724,"connected_time":2414000000000,"state":"active","ping":58},{"user_id":311,"name":"sophie","steam_id":76561198272979713,"connected_time":1931000000000,"state":"active","ping":67}]},{"server_id":38,"name":"Uncletopia | Chicago | 7 | Stopwatch Beta","name_short":"chi-7","host":"chi-2.us.uncletopia.com","port":27035,"enabled":true,"region":"us-central","cc":"us","latitude":41.881832,"longitude":-87.62318,"reserved":0,"last_update":"0001-01-01T00:00:00Z","name_a2s":"Uncletopia | Chicago | 7 | Stopwatch Beta","protocol":17,"map":"workshop/koth_product_final.ugc454272353","folder":"tf","game":"Team Fortress","app_id":440,"player_count":0,"max_players":24,"Bots":0,"server_type":"Dedicated","server_os":"Linux","password":true,"vac":true,"version":"7961495","steam_id":85568392924866364,"keywords":["cp","nocrits","nodmgspread","uncletopia"],"game_id":440,"stv_port":27036,"stv_name":"Uncletopia | Chicago | 7 | Stopwatch Beta | STV","players":null},{"server_id":39,"name":"Uncletopia | Chicago | 8 | Community","name_short":"chi-8","host":"chi-2.us.uncletopia.com","port":27045,"enabled":true,"region":"us-central","cc":"us","latitude":41.881832,"longitude":-87.62318,"reserved":0,"last_update":"0001-01-01T00:00:00Z","name_a2s":"Uncletopia | Chicago | 8 | Community","protocol":17,"map":"workshop/cp_bruhstbowl_b6.ugc2878604990","folder":"tf","game":"Team Fortress","app_id":440,"player_count":23,"max_players":24,"Bots":0,"server_type":"Dedicated","server_os":"Linux","password":true,"vac":true,"version":"7961495","steam_id":85568392924866365,"keywords":["cp","nocrits","nodmgspread","uncletopia"],"game_id":440,"stv_port":27046,"stv_name":"Uncletopia | Chicago | 8 | Community | STV","players":[{"user_id":391,"name":"Slice of Meat [415fam,NERD]","steam_id":76561198004553723,"connected_time":563000000000,"state":"active","ping":79},{"user_id":396,"name":"corned beef","steam_id":76561199366782761,"connected_time":256000000000,"state":"active","ping":159},{"user_id":379,"name":"Tenna","steam_id":76561198052020077,"connected_time":1233000000000,"state":"active","ping":90},{"user_id":373,"name":"Gaming","steam_id":76561198107080532,"connected_time":1764000000000,"state":"active","ping":71},{"user_id":366,"name":"Wiener Hole Paper Cut","steam_id":76561198000808203,"connected_time":2446000000000,"state":"active","ping":75},{"user_id":395,"name":"Let me Fuuuuuuuuuck","steam_id":76561198256886614,"connected_time":307000000000,"state":"active","ping":132},{"user_id":384,"name":"Grify","steam_id":76561198012292317,"connected_time":882000000000,"state":"active","ping":86},{"user_id":309,"name":"ZariaGalaxy","steam_id":76561198089441300,"connected_time":4827000000000,"state":"active","ping":74},{"user_id":383,"name":"Zorlovo","steam_id":76561198006443283,"connected_time":904000000000,"state":"active","ping":78},{"user_id":381,"name":"Wiscipline","steam_id":76561198019206178,"connected_time":1014000000000,"state":"active","ping":78},{"user_id":389,"name":"Lunchboxx","steam_id":76561198079735916,"connected_time":653000000000,"state":"active","ping":71},{"user_id":376,"name":"2spooky","steam_id":76561198094747637,"connected_time":1430000000000,"state":"active","ping":103},{"user_id":343,"name":"IAmAProfesonal","steam_id":76561199171858953,"connected_time":3179000000000,"state":"active","ping":51},{"user_id":321,"name":"Aldinach","steam_id":76561198079912615,"connected_time":4341000000000,"state":"active","ping":45},{"user_id":385,"name":"drwwby","steam_id":76561198067741339,"connected_time":845000000000,"state":"active","ping":52},{"user_id":390,"name":"catus","steam_id":76561198167075606,"connected_time":586000000000,"state":"active","ping":76},{"user_id":375,"name":"Spicy Within Reason","steam_id":76561198066700370,"connected_time":1685000000000,"state":"active","ping":89},{"user_id":392,"name":"Retrosticcs","steam_id":76561199464318632,"connected_time":488000000000,"state":"active","ping":71},{"user_id":352,"name":"Mark","steam_id":76561199092079229,"connected_time":2965000000000,"state":"active","ping":115},{"user_id":363,"name":"Breach","steam_id":76561198045060392,"connected_time":2530000000000,"state":"active","ping":45},{"user_id":397,"name":"F2P Rights Activist","steam_id":76561199012786293,"connected_time":218000000000,"state":"active","ping":92},{"user_id":394,"name":"H. P. Corbcraft","steam_id":76561198119470355,"connected_time":423000000000,"state":"active","ping":74},{"user_id":364,"name":"conner","steam_id":76561198052911241,"connected_time":2521000000000,"state":"active","ping":75}]},{"server_id":8,"name":"Uncletopia | Dallas | 1 | All Maps","name_short":"dal-1","host":"dal-1.us.uncletopia.com","port":27015,"enabled":true,"region":"us-central","cc":"us","latitude":32.779167,"longitude":-96.80889,"reserved":0,"last_update":"0001-01-01T00:00:00Z","name_a2s":"Uncletopia | Dallas | 1 | All Maps","protocol":17,"map":"pl_frontier_final","folder":"tf","game":"Team Fortress","app_id":440,"player_count":24,"max_players":24,"Bots":0,"server_type":"Dedicated","server_os":"Linux","password":true,"vac":true,"version":"7961495","steam_id":85568392924469986,"keywords":["nocrits","nodmgspread","payload","uncletopia"],"game_id":440,"stv_port":27016,"stv_name":"Uncletopia | Dallas | 1 | All Maps | STV","players":[{"user_id":463,"name":"real worm","steam_id":76561199065645094,"connected_time":1387000000000,"state":"active","ping":71},{"user_id":470,"name":"squirtle","steam_id":76561198211451045,"connected_time":1268000000000,"state":"active","ping":81},{"user_id":466,"name":"Ġ1 ♦ Synth","steam_id":76561198058660228,"connected_time":1356000000000,"state":"active","ping":56},{"user_id":469,"name":"riSygneD","steam_id":76561198331618687,"connected_time":1322000000000,"state":"active","ping":63},{"user_id":478,"name":"Karl_Marx_Onlyfans","steam_id":76561198212389613,"connected_time":198000000000,"state":"active","ping":104},{"user_id":447,"name":"Crouching Helps","steam_id":76561198011862054,"connected_time":2632000000000,"state":"active","ping":75},{"user_id":462,"name":"NooseNeck","steam_id":76561198202416199,"connected_time":1404000000000,"state":"active","ping":53},{"user_id":477,"name":"Failafel","steam_id":76561199111552786,"connected_time":533000000000,"state":"active","ping":155},{"user_id":348,"name":"AMBIENCE","steam_id":76561198442522722,"connected_time":10354000000000,"state":"active","ping":72},{"user_id":404,"name":"Tommy Provolone","steam_id":76561198170062377,"connected_time":5441000000000,"state":"active","ping":70},{"user_id":455,"name":"AudaCD","steam_id":76561198202775853,"connected_time":1941000000000,"state":"active","ping":60},{"user_id":464,"name":"(no monitor) ayylien","steam_id":76561198042127970,"connected_time":1385000000000,"state":"active","ping":77},{"user_id":465,"name":"TechnoBear2099","steam_id":76561198238863596,"connected_time":1385000000000,"state":"active","ping":52},{"user_id":423,"name":"Odd Life","steam_id":76561198244979998,"connected_time":4340000000000,"state":"active","ping":76},{"user_id":474,"name":"1st year at kindergarden","steam_id":76561199100342013,"connected_time":927000000000,"state":"active","ping":77},{"user_id":468,"name":"thesmilingman654","steam_id":76561199196497254,"connected_time":1344000000000,"state":"active","ping":89},{"user_id":460,"name":"Pixler544","steam_id":76561198240575132,"connected_time":1500000000000,"state":"active","ping":78},{"user_id":479,"name":"Greg Boberton 2012","steam_id":76561198983566026,"connected_time":198000000000,"state":"active","ping":85},{"user_id":472,"name":"Legless Amphibian","steam_id":76561198880476222,"connected_time":1203000000000,"state":"active","ping":58},{"user_id":449,"name":"Mugenman88","steam_id":76561198041261388,"connected_time":2624000000000,"state":"active","ping":84},{"user_id":480,"name":"barker bill","steam_id":76561198018451994,"connected_time":192000000000,"state":"active","ping":58},{"user_id":457,"name":"big ol' buford","steam_id":76561198290675957,"connected_time":1916000000000,"state":"active","ping":44},{"user_id":473,"name":"Chimpanzee","steam_id":76561198850387282,"connected_time":1129000000000,"state":"active","ping":77},{"user_id":438,"name":"Rodgedan","steam_id":76561198226236524,"connected_time":3088000000000,"state":"active","ping":101}]},{"server_id":108,"name":"Uncletopia | Dallas | 2 | All Maps","name_short":"dal-2","host":"dal-1.us.uncletopia.com","port":27025,"enabled":true,"region":"us-central","cc":"us","latitude":32.779167,"longitude":-96.80889,"reserved":0,"last_update":"0001-01-01T00:00:00Z","name_a2s":"Uncletopia | Dallas | 2 | All Maps","protocol":17,"map":"pl_barnblitz","folder":"tf","game":"Team Fortress","app_id":440,"player_count":24,"max_players":24,"Bots":0,"server_type":"Dedicated","server_os":"Linux","password":true,"vac":true,"version":"7961495","steam_id":85568392924469988,"keywords":["nocrits","nodmgspread","payload","uncletopia"],"game_id":440,"stv_port":27026,"stv_name":"Uncletopia | Dallas | 2 | All Maps | STV","players":[{"user_id":408,"name":"Dr Oshawott","steam_id":76561198042021629,"connected_time":3467000000000,"state":"active","ping":84},{"user_id":422,"name":"cozy","steam_id":76561199044037628,"connected_time":2035000000000,"state":"active","ping":82},{"user_id":430,"name":"wyattcobra2012","steam_id":76561199258827763,"connected_time":459000000000,"state":"active","ping":61},{"user_id":433,"name":"mountain goat","steam_id":76561198326628884,"connected_time":103000000000,"state":"active","ping":88},{"user_id":376,"name":"A Straw","steam_id":76561199367935846,"connected_time":6401000000000,"state":"active","ping":75},{"user_id":425,"name":"432hz","steam_id":76561198202746749,"connected_time":1606000000000,"state":"active","ping":98},{"user_id":426,"name":"Bacon","steam_id":76561199078407152,"connected_time":1046000000000,"state":"active","ping":80},{"user_id":431,"name":"Drapph","steam_id":76561199384213314,"connected_time":415000000000,"state":"active","ping":85},{"user_id":434,"name":"capeeKo","steam_id":76561197970346623,"connected_time":96000000000,"state":"active","ping":110},{"user_id":395,"name":"Jabroni Kris","steam_id":76561198048736247,"connected_time":4648000000000,"state":"active","ping":112},{"user_id":373,"name":"bubba simp club","steam_id":76561199338554815,"connected_time":6926000000000,"state":"active","ping":80},{"user_id":413,"name":"anton ego","steam_id":76561199019583362,"connected_time":2838000000000,"state":"active","ping":87},{"user_id":366,"name":"truecel philanthropist","steam_id":76561198273568117,"connected_time":7598000000000,"state":"active","ping":63},{"user_id":417,"name":"Hunter","steam_id":76561198050617754,"connected_time":2413000000000,"state":"active","ping":95},{"user_id":397,"name":"SuppressedBarrel","steam_id":76561198032336504,"connected_time":4432000000000,"state":"active","ping":45},{"user_id":432,"name":"Horse","steam_id":76561198004583631,"connected_time":214000000000,"state":"active","ping":103},{"user_id":405,"name":"Rhutebeer","steam_id":76561198018302761,"connected_time":3664000000000,"state":"active","ping":85},{"user_id":423,"name":"DistantJragon","steam_id":76561198117563641,"connected_time":1774000000000,"state":"active","ping":91},{"user_id":392,"name":"Trashgaming","steam_id":76561199184268442,"connected_time":4929000000000,"state":"active","ping":111},{"user_id":435,"name":"LordKirby","steam_id":76561198006938286,"connected_time":14000000000,"state":"active","ping":101},{"user_id":429,"name":"D.E.O","steam_id":76561198096992957,"connected_time":868000000000,"state":"active","ping":129},{"user_id":424,"name":"drdonutman","steam_id":76561197998488821,"connected_time":1747000000000,"state":"active","ping":76},{"user_id":411,"name":"Big Yoshi","steam_id":76561199160576376,"connected_time":2909000000000,"state":"active","ping":96},{"user_id":428,"name":"Icefrisbee","steam_id":76561198398032005,"connected_time":1027000000000,"state":"active","ping":101}]},{"server_id":404,"name":"Uncletopia | Dallas | 3 | All Maps","name_short":"dal-3","host":"dal-1.us.uncletopia.com","port":27035,"enabled":true,"region":"us-central","cc":"us","latitude":32.779167,"longitude":-96.80889,"reserved":0,"last_update":"0001-01-01T00:00:00Z","name_a2s":"Uncletopia | Dallas | 3 | All Maps","protocol":17,"map":"pl_badwater","folder":"tf","game":"Team Fortress","app_id":440,"player_count":1,"max_players":24,"Bots":0,"server_type":"Dedicated","server_os":"Linux","password":true,"vac":true,"version":"7961495","steam_id":85568392924515219,"keywords":["nocrits","nodmgspread","payload","uncletopia"],"game_id":440,"stv_port":27036,"stv_name":"Uncletopia | Dallas | 3 | All Maps | STV","players":[{"user_id":414,"name":"kanatoro","steam_id":76561199229919765,"connected_time":36000000000,"state":"active","ping":88}]},{"server_id":405,"name":"Uncletopia | Dallas | 4 | Community","name_short":"dal-4","host":"dal-1.us.uncletopia.com","port":27045,"enabled":true,"region":"us-central","cc":"us","latitude":32.779167,"longitude":-96.80889,"reserved":0,"last_update":"0001-01-01T00:00:00Z","name_a2s":"Uncletopia | Dallas | 4 | Community","protocol":17,"map":"workshop/cp_croissant_final.ugc458840209","folder":"tf","game":"Team Fortress","app_id":440,"player_count":23,"max_players":24,"Bots":0,"server_type":"Dedicated","server_os":"Linux","password":true,"vac":true,"version":"7961495","steam_id":85568392924515220,"keywords":["cp","nocrits","nodmgspread","uncletopia"],"game_id":440,"stv_port":27046,"stv_name":"Uncletopia | Dallas | 4 | Community | STV","players":[{"user_id":305,"name":"Grok","steam_id":76561198410665043,"connected_time":284000000000,"state":"active","ping":99},{"user_id":300,"name":"mothbrained","steam_id":76561198279680400,"connected_time":890000000000,"state":"active","ping":58},{"user_id":309,"name":"Squagol","steam_id":76561197987486159,"connected_time":191000000000,"state":"active","ping":61},{"user_id":303,"name":"pvt parts","steam_id":76561199199615102,"connected_time":807000000000,"state":"active","ping":84},{"user_id":308,"name":"happy man!!! :D!!!!","steam_id":76561198128468316,"connected_time":212000000000,"state":"active","ping":61},{"user_id":297,"name":"grant","steam_id":76561198083266065,"connected_time":1641000000000,"state":"active","ping":73},{"user_id":281,"name":"b4rry","steam_id":76561198365887154,"connected_time":2294000000000,"state":"active","ping":90},{"user_id":310,"name":"TheFryingDutchman","steam_id":76561199193784099,"connected_time":137000000000,"state":"active","ping":65},{"user_id":282,"name":"webaline :3","steam_id":76561199052450127,"connected_time":2293000000000,"state":"active","ping":73},{"user_id":260,"name":"North","steam_id":76561198814844969,"connected_time":3336000000000,"state":"active","ping":76},{"user_id":283,"name":"Balloon","steam_id":76561198068498829,"connected_time":2293000000000,"state":"active","ping":78},{"user_id":290,"name":"Vapor Man","steam_id":76561198210173112,"connected_time":1916000000000,"state":"active","ping":123},{"user_id":291,"name":"whats up dog","steam_id":76561198063062263,"connected_time":1907000000000,"state":"active","ping":99},{"user_id":138,"name":"Giselle","steam_id":76561198162593640,"connected_time":12414000000000,"state":"active","ping":105},{"user_id":298,"name":"Palamedes Sextus","steam_id":76561198096306325,"connected_time":931000000000,"state":"active","ping":87},{"user_id":302,"name":"Alientech","steam_id":76561198010018028,"connected_time":814000000000,"state":"active","ping":84},{"user_id":258,"name":"alset333","steam_id":76561198405345260,"connected_time":3561000000000,"state":"active","ping":89},{"user_id":294,"name":"dweamy","steam_id":76561198119181880,"connected_time":1667000000000,"state":"active","ping":60},{"user_id":268,"name":"Archangel","steam_id":76561198020089542,"connected_time":2990000000000,"state":"active","ping":55},{"user_id":304,"name":"Pepo","steam_id":76561199286546297,"connected_time":804000000000,"state":"active","ping":57},{"user_id":267,"name":"Gard","steam_id":76561198015240412,"connected_time":3034000000000,"state":"active","ping":61},{"user_id":241,"name":"Lezabel","steam_id":76561198970753261,"connected_time":4513000000000,"state":"active","ping":76},{"user_id":277,"name":"Calvin?","steam_id":76561198034069587,"connected_time":2608000000000,"state":"active","ping":113}]},{"server_id":5,"name":"Uncletopia | Frankfurt | 1 | All Maps","name_short":"frk-1","host":"frk-1.de.uncletopia.com","port":27015,"enabled":true,"region":"eu","cc":"de","latitude":50.110924,"longitude":8.682127,"reserved":0,"last_update":"0001-01-01T00:00:00Z","name_a2s":"Uncletopia | Frankfurt | 1 | All Maps","protocol":17,"map":"cp_process_final","folder":"tf","game":"Team Fortress","app_id":440,"player_count":0,"max_players":24,"Bots":0,"server_type":"Dedicated","server_os":"Linux","password":true,"vac":true,"version":"7961495","steam_id":85568392924469989,"keywords":["cp","nocrits","nodmgspread","uncletopia"],"game_id":440,"stv_port":27016,"stv_name":"Uncletopia | Frankfurt | 1 | All Maps | STV","players":null},{"server_id":110,"name":"Uncletopia | Frankfurt | 2 | All Maps","name_short":"frk-2","host":"frk-1.de.uncletopia.com","port":27025,"enabled":true,"region":"eu","cc":"de","latitude":50.110924,"longitude":8.682127,"reserved":0,"last_update":"0001-01-01T00:00:00Z","name_a2s":"Uncletopia | Frankfurt | 2 | All Maps","protocol":17,"map":"pl_frontier_final","folder":"tf","game":"Team Fortress","app_id":440,"player_count":20,"max_players":24,"Bots":0,"server_type":"Dedicated","server_os":"Linux","password":true,"vac":true,"version":"7961495","steam_id":85568392924469990,"keywords":["nocrits","nodmgspread","payload","uncletopia"],"game_id":440,"stv_port":27026,"stv_name":"Uncletopia | Frankfurt | 2 | All Maps | STV","players":[{"user_id":360,"name":"Dawn","steam_id":76561198093189141,"connected_time":957000000000,"state":"active","ping":91},{"user_id":371,"name":"t.tv/Montreetor","steam_id":76561198088729562,"connected_time":675000000000,"state":"active","ping":52},{"user_id":379,"name":"margaret thatcher's girl power","steam_id":76561199401283123,"connected_time":198000000000,"state":"active","ping":55},{"user_id":380,"name":"spinning on uncletopia","steam_id":76561199233979726,"connected_time":133000000000,"state":"active","ping":81},{"user_id":378,"name":"Ser Colgate","steam_id":76561198042882420,"connected_time":203000000000,"state":"active","ping":63},{"user_id":357,"name":"Cdkatpifuzrmeu-uhfffaoysa-","steam_id":76561198185348855,"connected_time":1742000000000,"state":"active","ping":65},{"user_id":362,"name":"gangsta","steam_id":76561198403756332,"connected_time":903000000000,"state":"active","ping":90},{"user_id":344,"name":"tone","steam_id":76561197975301462,"connected_time":2433000000000,"state":"active","ping":106},{"user_id":372,"name":"aSpectVEVO | ETF2L KANKER","steam_id":76561198237799694,"connected_time":642000000000,"state":"active","ping":50},{"user_id":359,"name":"SPEEDOPHILE","steam_id":76561198053400769,"connected_time":1236000000000,"state":"active","ping":60},{"user_id":351,"name":"proph","steam_id":76561197998803950,"connected_time":2124000000000,"state":"active","ping":50},{"user_id":381,"name":"ff:ff:ff:ff:ff:ff","steam_id":76561198072122983,"connected_time":76000000000,"state":"active","ping":71},{"user_id":376,"name":"Ch4bby","steam_id":76561198058792875,"connected_time":237000000000,"state":"active","ping":60},{"user_id":348,"name":"LionKing","steam_id":76561198023399545,"connected_time":2358000000000,"state":"active","ping":48},{"user_id":370,"name":"Juan F. Kennedy","steam_id":76561198084228819,"connected_time":717000000000,"state":"active","ping":67},{"user_id":349,"name":"Kabachok Aeronavt","steam_id":76561198123659806,"connected_time":2323000000000,"state":"active","ping":96},{"user_id":282,"name":"halow","steam_id":76561198061505163,"connected_time":6434000000000,"state":"active","ping":85},{"user_id":369,"name":"Dizzy","steam_id":76561198010192462,"connected_time":780000000000,"state":"active","ping":56},{"user_id":316,"name":"Vitun vittu","steam_id":76561198110679463,"connected_time":4292000000000,"state":"active","ping":76},{"user_id":375,"name":"if i speak i'll be in trouble","steam_id":76561198055552635,"connected_time":548000000000,"state":"active","ping":53}]},{"server_id":308,"name":"Uncletopia | Frankfurt | 3 | All Maps","name_short":"frk-3","host":"frk-1.de.uncletopia.com","port":27035,"enabled":true,"region":"eu","cc":"de","latitude":50.110924,"longitude":8.682127,"reserved":0,"last_update":"0001-01-01T00:00:00Z","name_a2s":"Uncletopia | Frankfurt | 3 | All Maps","protocol":17,"map":"koth_lakeside_final","folder":"tf","game":"Team Fortress","app_id":440,"player_count":0,"max_players":24,"Bots":0,"server_type":"Dedicated","server_os":"Linux","password":true,"vac":true,"version":"7961495","steam_id":85568392924504274,"keywords":["cp","nocrits","nodmgspread","uncletopia"],"game_id":440,"stv_port":27036,"stv_name":"Uncletopia | Frankfurt | 3 | All Maps | STV","players":null},{"server_id":309,"name":"Uncletopia | Frankfurt | 4 | All Maps","name_short":"frk-4","host":"frk-1.de.uncletopia.com","port":27045,"enabled":true,"region":"eu","cc":"de","latitude":50.110924,"longitude":8.682127,"reserved":0,"last_update":"0001-01-01T00:00:00Z","name_a2s":"Uncletopia | Frankfurt | 4 | All Maps","protocol":17,"map":"cp_mountainlab","folder":"tf","game":"Team Fortress","app_id":440,"player_count":0,"max_players":24,"Bots":0,"server_type":"Dedicated","server_os":"Linux","password":true,"vac":true,"version":"7961495","steam_id":85568392924504275,"keywords":["cp","nocrits","nodmgspread","uncletopia"],"game_id":440,"stv_port":27046,"stv_name":"Uncletopia | Frankfurt | 4 | All Maps | STV","players":null},{"server_id":310,"name":"Uncletopia | Frankfurt | 5 | All Maps","name_short":"frk-5","host":"frk-1.de.uncletopia.com","port":27055,"enabled":true,"region":"eu","cc":"de","latitude":50.110924,"longitude":8.682127,"reserved":0,"last_update":"0001-01-01T00:00:00Z","name_a2s":"Uncletopia | Frankfurt | 5 | All Maps","protocol":17,"map":"pl_swiftwater_final1","folder":"tf","game":"Team Fortress","app_id":440,"player_count":0,"max_players":24,"Bots":0,"server_type":"Dedicated","server_os":"Linux","password":true,"vac":true,"version":"7961495","steam_id":85568392924504277,"keywords":["nocrits","nodmgspread","payload","uncletopia"],"game_id":440,"stv_port":27056,"stv_name":"Uncletopia | Frankfurt | 5 | All Maps | STV","players":null},{"server_id":311,"name":"Uncletopia | Frankfurt | 6 | All Maps","name_short":"frk-6","host":"frk-1.de.uncletopia.com","port":27065,"enabled":true,"region":"eu","cc":"de","latitude":50.110924,"longitude":8.682127,"reserved":0,"last_update":"0001-01-01T00:00:00Z","name_a2s":"Uncletopia | Frankfurt | 6 | All Maps","protocol":17,"map":"cp_mountainlab","folder":"tf","game":"Team Fortress","app_id":440,"player_count":0,"max_players":24,"Bots":0,"server_type":"Dedicated","server_os":"Linux","password":true,"vac":true,"version":"7961495","steam_id":85568392924504278,"keywords":["cp","nocrits","nodmgspread","uncletopia"],"game_id":440,"stv_port":27066,"stv_name":"Uncletopia | Frankfurt | 6 | All Maps | STV","players":null},{"server_id":23,"name":"Uncletopia | Frankfurt | 7 | Stopwatch Beta","name_short":"frk-7","host":"frk-1.de.uncletopia.com","port":27075,"enabled":true,"region":"eu","cc":"de","latitude":50.110924,"longitude":8.682127,"reserved":0,"last_update":"0001-01-01T00:00:00Z","name_a2s":"Uncletopia | Frankfurt | 7 | Stopwatch Beta","protocol":17,"map":"workshop/koth_clearcut_b15.ugc2107050255","folder":"tf","game":"Team Fortress","app_id":440,"player_count":0,"max_players":24,"Bots":0,"server_type":"Dedicated","server_os":"Linux","password":true,"vac":true,"version":"7961495","steam_id":85568392924742827,"keywords":["cp","nocrits","nodmgspread","uncletopia"],"game_id":440,"stv_port":27076,"stv_name":"Uncletopia | Frankfurt | 7 | Stopwatch Beta | STV","players":null},{"server_id":24,"name":"Uncletopia | Frankfurt | 8 | Community","name_short":"frk-8","host":"frk-1.de.uncletopia.com","port":27085,"enabled":true,"region":"eu","cc":"de","latitude":50.110924,"longitude":8.682127,"reserved":0,"last_update":"0001-01-01T00:00:00Z","name_a2s":"Uncletopia | Frankfurt | 8 | Community","protocol":17,"map":"workshop/cp_snowbase_b18.ugc2081770490","folder":"tf","game":"Team Fortress","app_id":440,"player_count":0,"max_players":24,"Bots":0,"server_type":"Dedicated","server_os":"Linux","password":true,"vac":true,"version":"7961495","steam_id":85568392924742828,"keywords":["cp","nocrits","nodmgspread","uncletopia"],"game_id":440,"stv_port":27086,"stv_name":"Uncletopia | Frankfurt | 8 | Community | STV","players":null},{"server_id":202,"name":"Uncletopia | Hong Kong | 1 | All Maps","name_short":"hgk-1","host":"hgk-1.hk.uncletopia.com","port":27015,"enabled":true,"region":"asia","cc":"hk","latitude":22.302711,"longitude":114.177216,"reserved":0,"last_update":"0001-01-01T00:00:00Z","name_a2s":"","protocol":0,"map":"","folder":"","game":"","app_id":0,"player_count":0,"max_players":0,"Bots":0,"server_type":"","server_os":"","password":false,"vac":false,"version":"","steam_id":0,"keywords":null,"game_id":0,"stv_port":0,"stv_name":"","players":null},{"server_id":1,"name":"Uncletopia | Los Angeles | 1 | All Maps","name_short":"lax-1","host":"lax-1.us.uncletopia.com","port":27015,"enabled":true,"region":"us-west","cc":"us","latitude":33.94279,"longitude":-118.41004,"reserved":0,"last_update":"0001-01-01T00:00:00Z","name_a2s":"Uncletopia | Los Angeles | 1 | All Maps","protocol":17,"map":"cp_dustbowl","folder":"tf","game":"Team Fortress","app_id":440,"player_count":22,"max_players":24,"Bots":0,"server_type":"Dedicated","server_os":"Linux","password":true,"vac":true,"version":"7961495","steam_id":85568392924469991,"keywords":["cp","nocrits","nodmgspread","uncletopia"],"game_id":440,"stv_port":27016,"stv_name":"Uncletopia | Los Angeles | 1 | All Maps | STV","players":[{"user_id":83,"name":"Doppelgänger","steam_id":76561198036730436,"connected_time":2069000000000,"state":"active","ping":53},{"user_id":106,"name":"boppetson","steam_id":76561198073529045,"connected_time":652000000000,"state":"active","ping":98},{"user_id":70,"name":"GlizzLord","steam_id":76561198321010427,"connected_time":2256000000000,"state":"active","ping":69},{"user_id":61,"name":"NewGuy","steam_id":76561198968058652,"connected_time":2433000000000,"state":"active","ping":71},{"user_id":59,"name":"Dimmerswitch","steam_id":76561198034782177,"connected_time":2591000000000,"state":"active","ping":51},{"user_id":101,"name":"!","steam_id":76561199189013920,"connected_time":912000000000,"state":"active","ping":45},{"user_id":102,"name":"HUGE beef | youtube.com/@idiots","steam_id":76561199021242941,"connected_time":911000000000,"state":"active","ping":70},{"user_id":105,"name":"Croco","steam_id":76561198146366724,"connected_time":748000000000,"state":"active","ping":103},{"user_id":108,"name":"paint (oil lover)","steam_id":76561199006886644,"connected_time":555000000000,"state":"active","ping":57},{"user_id":107,"name":"Ronnie Pickering!","steam_id":76561198041842118,"connected_time":642000000000,"state":"active","ping":55},{"user_id":109,"name":"Sax","steam_id":76561198055425123,"connected_time":545000000000,"state":"active","ping":95},{"user_id":68,"name":"papi Chulo","steam_id":76561198126274984,"connected_time":2303000000000,"state":"active","ping":80},{"user_id":104,"name":"Spenn","steam_id":76561198348473831,"connected_time":797000000000,"state":"active","ping":59},{"user_id":110,"name":"SomeRandomBetaFish","steam_id":76561198827731399,"connected_time":491000000000,"state":"active","ping":120},{"user_id":114,"name":"TwoBit","steam_id":76561198062437559,"connected_time":297000000000,"state":"active","ping":135},{"user_id":112,"name":"Kito","steam_id":76561198032401946,"connected_time":470000000000,"state":"active","ping":81},{"user_id":75,"name":"heavy","steam_id":76561199391478575,"connected_time":2232000000000,"state":"active","ping":92},{"user_id":78,"name":"monkey squirts","steam_id":76561197983101644,"connected_time":2165000000000,"state":"active","ping":43},{"user_id":113,"name":"Metal Mouse","steam_id":76561198271975696,"connected_time":421000000000,"state":"active","ping":53},{"user_id":87,"name":"Neocherry","steam_id":76561198137036962,"connected_time":1830000000000,"state":"active","ping":87},{"user_id":88,"name":"DarkWolf","steam_id":76561198392222947,"connected_time":1827000000000,"state":"active","ping":112},{"user_id":117,"name":"Lumina","steam_id":76561198089227368,"connected_time":96000000000,"state":"active","ping":166}]},{"server_id":112,"name":"Uncletopia | Los Angeles | 2 | All Maps","name_short":"lax-2","host":"lax-1.us.uncletopia.com","port":27025,"enabled":true,"region":"us-west","cc":"us","latitude":33.94279,"longitude":-118.41004,"reserved":0,"last_update":"0001-01-01T00:00:00Z","name_a2s":"Uncletopia | Los Angeles | 2 | All Maps","protocol":17,"map":"pl_badwater","folder":"tf","game":"Team Fortress","app_id":440,"player_count":22,"max_players":24,"Bots":0,"server_type":"Dedicated","server_os":"Linux","password":true,"vac":true,"version":"7961495","steam_id":85568392924469992,"keywords":["nocrits","nodmgspread","payload","uncletopia"],"game_id":440,"stv_port":27026,"stv_name":"Uncletopia | Los Angeles | 2 | All Maps | STV","players":[{"user_id":283,"name":"Mr. Enforce","steam_id":76561198362168020,"connected_time":441000000000,"state":"active","ping":93},{"user_id":224,"name":"choodle","steam_id":76561198930608649,"connected_time":4677000000000,"state":"active","ping":32},{"user_id":285,"name":"Man Man","steam_id":76561199068338634,"connected_time":401000000000,"state":"active","ping":86},{"user_id":280,"name":"catfish from toontown","steam_id":76561198060070002,"connected_time":1435000000000,"state":"active","ping":103},{"user_id":255,"name":"Igrium","steam_id":76561198119549811,"connected_time":3441000000000,"state":"active","ping":70},{"user_id":262,"name":"Amateur Glaswegian","steam_id":76561198030851956,"connected_time":2706000000000,"state":"active","ping":79},{"user_id":227,"name":"Bomber64","steam_id":76561198355519894,"connected_time":4483000000000,"state":"active","ping":135},{"user_id":263,"name":"TüCold","steam_id":76561198111278197,"connected_time":2682000000000,"state":"active","ping":58},{"user_id":279,"name":"Grand Piano Tuna","steam_id":76561198135137213,"connected_time":1582000000000,"state":"active","ping":76},{"user_id":230,"name":"Fami","steam_id":76561198193580105,"connected_time":4458000000000,"state":"active","ping":63},{"user_id":231,"name":"mAKO","steam_id":76561198166022879,"connected_time":4433000000000,"state":"active","ping":45},{"user_id":286,"name":"Disc0","steam_id":76561198067337267,"connected_time":385000000000,"state":"active","ping":76},{"user_id":271,"name":"the fool","steam_id":76561198133933158,"connected_time":1871000000000,"state":"active","ping":53},{"user_id":295,"name":"mos","steam_id":76561198146126212,"connected_time":141000000000,"state":"active","ping":97},{"user_id":274,"name":"WaywardHero","steam_id":76561198404043351,"connected_time":1817000000000,"state":"active","ping":84},{"user_id":281,"name":"Underscorn","steam_id":76561198374209415,"connected_time":1279000000000,"state":"active","ping":89},{"user_id":293,"name":"ira","steam_id":76561198120360801,"connected_time":190000000000,"state":"active","ping":61},{"user_id":275,"name":"Mario","steam_id":76561198321794277,"connected_time":1799000000000,"state":"active","ping":108},{"user_id":294,"name":"Walrus","steam_id":76561198001799905,"connected_time":188000000000,"state":"active","ping":48},{"user_id":296,"name":"SoggyBread","steam_id":76561199094181697,"connected_time":63000000000,"state":"active","ping":110},{"user_id":252,"name":"mega","steam_id":76561198089520959,"connected_time":3672000000000,"state":"active","ping":116},{"user_id":265,"name":"De Monki","steam_id":76561198964210411,"connected_time":2606000000000,"state":"active","ping":64}]},{"server_id":324,"name":"Uncletopia | Los Angeles | 3 | All Maps","name_short":"lax-3","host":"lax-1.us.uncletopia.com","port":27035,"enabled":true,"region":"us-west","cc":"us","latitude":33.94279,"longitude":-118.41004,"reserved":0,"last_update":"0001-01-01T00:00:00Z","name_a2s":"Uncletopia | Los Angeles | 3 | All Maps","protocol":17,"map":"pl_swiftwater_final1","folder":"tf","game":"Team Fortress","app_id":440,"player_count":24,"max_players":24,"Bots":0,"server_type":"Dedicated","server_os":"Linux","password":true,"vac":true,"version":"7961495","steam_id":85568392924510198,"keywords":["nocrits","nodmgspread","payload","uncletopia"],"game_id":440,"stv_port":27036,"stv_name":"Uncletopia | Los Angeles | 3 | All Maps | STV","players":[{"user_id":114,"name":"[☯] randomshagz*","steam_id":76561197968666646,"connected_time":615000000000,"state":"active","ping":68},{"user_id":115,"name":"MayKaye","steam_id":76561199016092265,"connected_time":541000000000,"state":"active","ping":58},{"user_id":101,"name":"Shalom","steam_id":76561198410005222,"connected_time":2112000000000,"state":"active","ping":77},{"user_id":93,"name":"DrWilloughby","steam_id":76561198095260357,"connected_time":3140000000000,"state":"active","ping":69},{"user_id":106,"name":"Pemalon","steam_id":76561198389661782,"connected_time":1283000000000,"state":"active","ping":56},{"user_id":71,"name":"Ralph Kramden (Slim Charles)","steam_id":76561197981687895,"connected_time":4689000000000,"state":"active","ping":61},{"user_id":107,"name":"It's a Doggydog World","steam_id":76561198018232414,"connected_time":1281000000000,"state":"active","ping":71},{"user_id":22,"name":"Ockulus","steam_id":76561199069638460,"connected_time":8140000000000,"state":"active","ping":50},{"user_id":116,"name":"MEDIO METRO","steam_id":76561198424030927,"connected_time":538000000000,"state":"active","ping":110},{"user_id":119,"name":"finman","steam_id":76561198127639913,"connected_time":369000000000,"state":"active","ping":47},{"user_id":113,"name":"Toy Engie","steam_id":76561198329988873,"connected_time":793000000000,"state":"active","ping":61},{"user_id":28,"name":"Velgrauder","steam_id":76561198848526938,"connected_time":7877000000000,"state":"active","ping":98},{"user_id":109,"name":"Tyjutsu","steam_id":76561198079951159,"connected_time":1161000000000,"state":"active","ping":101},{"user_id":118,"name":"FrostyBoiGrim [Honcho Guy]","steam_id":76561198114335037,"connected_time":415000000000,"state":"active","ping":54},{"user_id":111,"name":"Tom","steam_id":76561198139202942,"connected_time":1087000000000,"state":"active","ping":123},{"user_id":120,"name":"Hindmost","steam_id":76561199081837220,"connected_time":324000000000,"state":"active","ping":100},{"user_id":125,"name":"Proxe223","steam_id":76561199045028560,"connected_time":28000000000,"state":"active","ping":207},{"user_id":112,"name":"Lucky","steam_id":76561199108883530,"connected_time":1070000000000,"state":"active","ping":70},{"user_id":121,"name":"ShmixyTheBishop","steam_id":76561199281919953,"connected_time":324000000000,"state":"active","ping":97},{"user_id":84,"name":"Frebresio","steam_id":76561198353493333,"connected_time":3948000000000,"state":"active","ping":56},{"user_id":122,"name":"Hat Booper","steam_id":76561198181302614,"connected_time":316000000000,"state":"active","ping":68},{"user_id":87,"name":"Lock'd","steam_id":76561198170108230,"connected_time":3843000000000,"state":"active","ping":47},{"user_id":123,"name":"Sábado Gigante","steam_id":76561197994685971,"connected_time":173000000000,"state":"active","ping":58},{"user_id":79,"name":"Pvt. Sandvich","steam_id":76561198010317453,"connected_time":4113000000000,"state":"active","ping":60}]},{"server_id":25,"name":"Uncletopia | Los Angeles | 4 | Stopwatch Beta","name_short":"lax-4","host":"lax-1.us.uncletopia.com","port":27045,"enabled":true,"region":"us-west","cc":"us","latitude":33.94279,"longitude":-118.41004,"reserved":0,"last_update":"0001-01-01T00:00:00Z","name_a2s":"Uncletopia | Los Angeles | 4 | Stopwatch Beta","protocol":17,"map":"workshop/koth_ashville_final.ugc2130459942","folder":"tf","game":"Team Fortress","app_id":440,"player_count":8,"max_players":24,"Bots":0,"server_type":"Dedicated","server_os":"Linux","password":true,"vac":true,"version":"7961495","steam_id":85568392924510199,"keywords":["cp","nocrits","nodmgspread","uncletopia"],"game_id":440,"stv_port":27046,"stv_name":"Uncletopia | Los Angeles | 4 | Stopwatch Beta | STV","players":[{"user_id":10,"name":"Demoslow","steam_id":76561198805592656,"connected_time":4400000000000,"state":"active","ping":56},{"user_id":24,"name":"Stormy_RainLemon","steam_id":76561198880916049,"connected_time":1017000000000,"state":"active","ping":68},{"user_id":12,"name":"Sgt. Satire","steam_id":76561198104193483,"connected_time":3207000000000,"state":"active","ping":60},{"user_id":31,"name":"sarcastic_monke","steam_id":76561198918244788,"connected_time":403000000000,"state":"active","ping":91},{"user_id":14,"name":"Maxmind24","steam_id":76561198859888778,"connected_time":2876000000000,"state":"active","ping":90},{"user_id":25,"name":"Parmleche The Apostle","steam_id":76561198179197774,"connected_time":997000000000,"state":"active","ping":58},{"user_id":21,"name":"bigman_boi556","steam_id":76561199383012156,"connected_time":1570000000000,"state":"active","ping":86},{"user_id":34,"name":"juan.png","steam_id":76561199276894516,"connected_time":28000000000,"state":"active","ping":85}]},{"server_id":11,"name":"Uncletopia | London | 1 | All Maps","name_short":"lon-1","host":"lon-1.uk.uncletopia.com","port":27015,"enabled":true,"region":"eu","cc":"gb","latitude":51.509865,"longitude":-0.118092,"reserved":0,"last_update":"0001-01-01T00:00:00Z","name_a2s":"Uncletopia | London | 1 | All Maps","protocol":17,"map":"plr_hightower","folder":"tf","game":"Team Fortress","app_id":440,"player_count":19,"max_players":24,"Bots":0,"server_type":"Dedicated","server_os":"Linux","password":true,"vac":true,"version":"7961495","steam_id":85568392924367362,"keywords":["nocrits","nodmgspread","payload","uncletopia"],"game_id":440,"stv_port":27016,"stv_name":"Uncletopia | London | 1 | All Maps | STV","players":[{"user_id":513,"name":"Whitey","steam_id":76561198001472889,"connected_time":462000000000,"state":"active","ping":49},{"user_id":493,"name":"Golden Boy","steam_id":76561198049072159,"connected_time":3093000000000,"state":"active","ping":57},{"user_id":480,"name":"Lidl Employee","steam_id":76561198360395476,"connected_time":5083000000000,"state":"active","ping":46},{"user_id":491,"name":"TMC","steam_id":76561198077956157,"connected_time":3405000000000,"state":"active","ping":44},{"user_id":517,"name":"SeaCine","steam_id":76561198085122171,"connected_time":258000000000,"state":"active","ping":123},{"user_id":518,"name":"lidl","steam_id":76561198895235231,"connected_time":235000000000,"state":"active","ping":49},{"user_id":482,"name":"淘氣的小伙子","steam_id":76561199210404349,"connected_time":5081000000000,"state":"active","ping":45},{"user_id":515,"name":"THEBIDSMAN","steam_id":76561199480867755,"connected_time":446000000000,"state":"active","ping":113},{"user_id":516,"name":"ashley","steam_id":76561198448551449,"connected_time":422000000000,"state":"active","ping":35},{"user_id":464,"name":"Prome","steam_id":76561199050383942,"connected_time":7073000000000,"state":"active","ping":56},{"user_id":486,"name":"Sixie","steam_id":76561198251675360,"connected_time":4998000000000,"state":"active","ping":53},{"user_id":509,"name":"✪ Danny","steam_id":76561198104483241,"connected_time":1747000000000,"state":"active","ping":50},{"user_id":506,"name":"Purps","steam_id":76561198053886680,"connected_time":1907000000000,"state":"active","ping":45},{"user_id":503,"name":"Laser man","steam_id":76561198133280860,"connected_time":2004000000000,"state":"active","ping":81},{"user_id":489,"name":"beda","steam_id":76561198277943630,"connected_time":3916000000000,"state":"active","ping":70},{"user_id":512,"name":"Sabour","steam_id":76561197963965445,"connected_time":1316000000000,"state":"active","ping":74},{"user_id":463,"name":"beebo","steam_id":76561199120277007,"connected_time":7096000000000,"state":"active","ping":52},{"user_id":461,"name":"teddy","steam_id":76561198007436837,"connected_time":7360000000000,"state":"active","ping":45},{"user_id":494,"name":"shooer!","steam_id":76561198110531281,"connected_time":3092000000000,"state":"active","ping":66}]},{"server_id":114,"name":"Uncletopia | London | 2 | All Maps","name_short":"lon-2","host":"lon-1.uk.uncletopia.com","port":27025,"enabled":true,"region":"eu","cc":"gb","latitude":51.509865,"longitude":-0.118092,"reserved":0,"last_update":"0001-01-01T00:00:00Z","name_a2s":"Uncletopia | London | 2 | All Maps","protocol":17,"map":"koth_highpass","folder":"tf","game":"Team Fortress","app_id":440,"player_count":0,"max_players":24,"Bots":0,"server_type":"Dedicated","server_os":"Linux","password":true,"vac":true,"version":"7961495","steam_id":85568392924470941,"keywords":["cp","nocrits","nodmgspread","uncletopia"],"game_id":440,"stv_port":27026,"stv_name":"Uncletopia | London | 2 | All Maps | STV","players":null},{"server_id":320,"name":"Uncletopia | London | 3 | All Maps","name_short":"lon-3","host":"lon-1.uk.uncletopia.com","port":27035,"enabled":true,"region":"eu","cc":"gb","latitude":51.509865,"longitude":-0.118092,"reserved":0,"last_update":"0001-01-01T00:00:00Z","name_a2s":"Uncletopia | London | 3 | All Maps","protocol":17,"map":"koth_lakeside_final","folder":"tf","game":"Team Fortress","app_id":440,"player_count":24,"max_players":24,"Bots":0,"server_type":"Dedicated","server_os":"Linux","password":true,"vac":true,"version":"7961495","steam_id":85568392924510192,"keywords":["cp","nocrits","nodmgspread","uncletopia"],"game_id":440,"stv_port":27036,"stv_name":"Uncletopia | London | 3 | All Maps | STV","players":[{"user_id":420,"name":"Seail_M","steam_id":76561198002405605,"connected_time":227000000000,"state":"active","ping":62},{"user_id":389,"name":"Dispenser.jsx","steam_id":76561198303429751,"connected_time":1681000000000,"state":"active","ping":45},{"user_id":372,"name":"Tx_madmash","steam_id":76561198924656512,"connected_time":3250000000000,"state":"active","ping":138},{"user_id":377,"name":"Mobster Tortoise","steam_id":76561199036837091,"connected_time":2309000000000,"state":"active","ping":87},{"user_id":375,"name":"fence_","steam_id":76561198150386379,"connected_time":2902000000000,"state":"active","ping":45},{"user_id":374,"name":"g unit (gangster unit)","steam_id":76561198059483703,"connected_time":2996000000000,"state":"active","ping":51},{"user_id":422,"name":"Buamadoir","steam_id":76561198229417388,"connected_time":78000000000,"state":"active","ping":75},{"user_id":379,"name":"BallinScout","steam_id":76561198152443697,"connected_time":2262000000000,"state":"active","ping":53},{"user_id":380,"name":"Moon","steam_id":76561198808108594,"connected_time":2251000000000,"state":"active","ping":93},{"user_id":402,"name":"SirCyu","steam_id":76561198279703610,"connected_time":1327000000000,"state":"active","ping":84},{"user_id":386,"name":"Rrako","steam_id":76561198078708823,"connected_time":1779000000000,"state":"active","ping":54},{"user_id":417,"name":"Qdarks","steam_id":76561198013391340,"connected_time":476000000000,"state":"active","ping":145},{"user_id":404,"name":"welseq","steam_id":76561198039018578,"connected_time":1295000000000,"state":"active","ping":129},{"user_id":400,"name":"ReenoDaWizard","steam_id":76561198841678291,"connected_time":1379000000000,"state":"active","ping":46},{"user_id":392,"name":"Skippie","steam_id":76561198102029146,"connected_time":1608000000000,"state":"active","ping":85},{"user_id":416,"name":"Dr Condom","steam_id":76561198378657692,"connected_time":662000000000,"state":"active","ping":39},{"user_id":394,"name":"Ash","steam_id":76561198148738525,"connected_time":1547000000000,"state":"active","ping":105},{"user_id":413,"name":"Darkmaen","steam_id":76561198060543390,"connected_time":795000000000,"state":"active","ping":57},{"user_id":401,"name":"Mr. Fox","steam_id":76561198803610709,"connected_time":1361000000000,"state":"active","ping":124},{"user_id":418,"name":"Miss American PIe","steam_id":76561198867108476,"connected_time":398000000000,"state":"active","ping":41},{"user_id":403,"name":"oku.","steam_id":76561199061511307,"connected_time":1314000000000,"state":"active","ping":73},{"user_id":406,"name":"u sux","steam_id":76561198397522328,"connected_time":1174000000000,"state":"active","ping":69},{"user_id":414,"name":"Genesis","steam_id":76561198999652040,"connected_time":761000000000,"state":"active","ping":60},{"user_id":415,"name":"Sakari","steam_id":76561197997811299,"connected_time":712000000000,"state":"active","ping":60}]},{"server_id":321,"name":"Uncletopia | London | 4 | All Maps","name_short":"lon-4","host":"lon-1.uk.uncletopia.com","port":27045,"enabled":true,"region":"eu","cc":"gb","latitude":51.509865,"longitude":-0.118092,"reserved":0,"last_update":"0001-01-01T00:00:00Z","name_a2s":"Uncletopia | London | 4 | All Maps","protocol":17,"map":"cp_mountainlab","folder":"tf","game":"Team Fortress","app_id":440,"player_count":0,"max_players":24,"Bots":0,"server_type":"Dedicated","server_os":"Linux","password":true,"vac":true,"version":"7961495","steam_id":85568392924510193,"keywords":["cp","nocrits","nodmgspread","uncletopia"],"game_id":440,"stv_port":27046,"stv_name":"Uncletopia | London | 4 | All Maps | STV","players":null},{"server_id":21,"name":"Uncletopia | London | 5 | All Maps","name_short":"lon-5","host":"lon-1.uk.uncletopia.com","port":27055,"enabled":true,"region":"eu","cc":"gb","latitude":51.509865,"longitude":-0.118092,"reserved":0,"last_update":"0001-01-01T00:00:00Z","name_a2s":"Uncletopia | London | 5 | All Maps","protocol":17,"map":"pl_frontier_final","folder":"tf","game":"Team Fortress","app_id":440,"player_count":18,"max_players":24,"Bots":0,"server_type":"Dedicated","server_os":"Linux","password":true,"vac":true,"version":"7961495","steam_id":85568392924742829,"keywords":["nocrits","nodmgspread","payload","uncletopia"],"game_id":440,"stv_port":27056,"stv_name":"Uncletopia | London | 5 | All Maps | STV","players":[{"user_id":488,"name":"LeonCactus","steam_id":76561198102360825,"connected_time":639000000000,"state":"active","ping":55},{"user_id":469,"name":"The Traveller","steam_id":76561198105364304,"connected_time":2403000000000,"state":"active","ping":97},{"user_id":489,"name":"Refurbished Boy","steam_id":76561197995834697,"connected_time":390000000000,"state":"active","ping":99},{"user_id":480,"name":"Grimlock","steam_id":76561198087751260,"connected_time":916000000000,"state":"active","ping":75},{"user_id":427,"name":"KittyKate ❤","steam_id":76561198116340817,"connected_time":4909000000000,"state":"active","ping":60},{"user_id":494,"name":"God's Silliest Little Jester","steam_id":76561197987168654,"connected_time":175000000000,"state":"active","ping":62},{"user_id":429,"name":"BuzzBees ❤","steam_id":76561198101502273,"connected_time":4899000000000,"state":"active","ping":50},{"user_id":493,"name":"Star in a pond","steam_id":76561198205501279,"connected_time":216000000000,"state":"active","ping":104},{"user_id":479,"name":"Boxtrot","steam_id":76561198026321441,"connected_time":1075000000000,"state":"active","ping":74},{"user_id":491,"name":"SneakyJayMLP","steam_id":76561198969565685,"connected_time":334000000000,"state":"active","ping":137},{"user_id":483,"name":"Salih","steam_id":76561198287934839,"connected_time":704000000000,"state":"active","ping":65},{"user_id":477,"name":"DaCZ","steam_id":76561198093301141,"connected_time":1462000000000,"state":"active","ping":68},{"user_id":492,"name":"stopydapbip","steam_id":76561198332245230,"connected_time":288000000000,"state":"active","ping":91},{"user_id":423,"name":"Julio Bashmore","steam_id":76561198257836694,"connected_time":5211000000000,"state":"active","ping":42},{"user_id":476,"name":"GoatLord1","steam_id":76561198157964544,"connected_time":1603000000000,"state":"active","ping":50},{"user_id":460,"name":"Christmas Ham","steam_id":76561198119601623,"connected_time":3085000000000,"state":"active","ping":50},{"user_id":474,"name":"mrbeast109385079350229083479082","steam_id":76561198370687830,"connected_time":1853000000000,"state":"active","ping":115},{"user_id":450,"name":"DavidGilbertLover268","steam_id":76561198324775476,"connected_time":3710000000000,"state":"active","ping":60}]},{"server_id":22,"name":"Uncletopia | London | 6 | All Maps","name_short":"lon-6","host":"lon-1.uk.uncletopia.com","port":27065,"enabled":true,"region":"eu","cc":"gb","latitude":51.509865,"longitude":-0.118092,"reserved":0,"last_update":"0001-01-01T00:00:00Z","name_a2s":"Uncletopia | London | 6 | All Maps","protocol":17,"map":"koth_highpass","folder":"tf","game":"Team Fortress","app_id":440,"player_count":0,"max_players":24,"Bots":0,"server_type":"Dedicated","server_os":"Linux","password":true,"vac":true,"version":"7961495","steam_id":85568392924742830,"keywords":["cp","nocrits","nodmgspread","uncletopia"],"game_id":440,"stv_port":27066,"stv_name":"Uncletopia | London | 6 | All Maps | STV","players":null},{"server_id":40,"name":"Uncletopia | London | 7 | No Payload","name_short":"lon-7","host":"lon-1.uk.uncletopia.com","port":27075,"enabled":true,"region":"eu","cc":"gb","latitude":51.509865,"longitude":-0.118092,"reserved":0,"last_update":"0001-01-01T00:00:00Z","name_a2s":"Uncletopia | London | 7 | No Payload","protocol":17,"map":"koth_viaduct","folder":"tf","game":"Team Fortress","app_id":440,"player_count":24,"max_players":24,"Bots":0,"server_type":"Dedicated","server_os":"Linux","password":true,"vac":true,"version":"7961495","steam_id":85568392924964314,"keywords":["cp","nocrits","nodmgspread","uncletopia"],"game_id":440,"stv_port":27076,"stv_name":"Uncletopia | London | 7 | No Payload | STV","players":[{"user_id":407,"name":"seigfried","steam_id":76561198047260133,"connected_time":2183000000000,"state":"active","ping":73},{"user_id":409,"name":"Fox","steam_id":76561198052541711,"connected_time":2084000000000,"state":"active","ping":61},{"user_id":369,"name":"Gry","steam_id":76561198053961616,"connected_time":4376000000000,"state":"active","ping":47},{"user_id":423,"name":"Tellme_now","steam_id":76561198847243605,"connected_time":1017000000000,"state":"active","ping":90},{"user_id":428,"name":"notpanmanmemes","steam_id":76561199168536547,"connected_time":800000000000,"state":"active","ping":136},{"user_id":371,"name":"♥Seven♥","steam_id":76561198107860996,"connected_time":4198000000000,"state":"active","ping":55},{"user_id":403,"name":"Archer","steam_id":76561198132860299,"connected_time":2473000000000,"state":"active","ping":58},{"user_id":394,"name":"b","steam_id":76561198074160877,"connected_time":2765000000000,"state":"active","ping":49},{"user_id":398,"name":"Reets","steam_id":76561199389301257,"connected_time":2560000000000,"state":"active","ping":49},{"user_id":430,"name":"Mr_Pulse_","steam_id":76561198095001602,"connected_time":415000000000,"state":"active","ping":108},{"user_id":380,"name":"mr mufasi","steam_id":76561198068453867,"connected_time":3922000000000,"state":"active","ping":51},{"user_id":426,"name":"Chucko Kokos","steam_id":76561198112553005,"connected_time":871000000000,"state":"active","ping":68},{"user_id":429,"name":"Zaakaroose","steam_id":76561198995514961,"connected_time":581000000000,"state":"active","ping":71},{"user_id":432,"name":"Envy","steam_id":76561198132723219,"connected_time":198000000000,"state":"active","ping":107},{"user_id":381,"name":"keepflatandenjoy","steam_id":76561198976062150,"connected_time":3914000000000,"state":"active","ping":53},{"user_id":417,"name":"Zzzz","steam_id":76561198152392309,"connected_time":1241000000000,"state":"active","ping":46},{"user_id":359,"name":"Nightmenia","steam_id":76561198010430569,"connected_time":4975000000000,"state":"active","ping":49},{"user_id":388,"name":"zoinks!","steam_id":76561198068645362,"connected_time":3552000000000,"state":"active","ping":44},{"user_id":425,"name":"erapapa","steam_id":76561198835302370,"connected_time":963000000000,"state":"active","ping":85},{"user_id":408,"name":"free parking","steam_id":76561198274631806,"connected_time":2169000000000,"state":"active","ping":47},{"user_id":411,"name":"Scottish Fox","steam_id":76561198052990270,"connected_time":1746000000000,"state":"active","ping":49},{"user_id":387,"name":"darkwater","steam_id":76561197986978738,"connected_time":3584000000000,"state":"active","ping":60},{"user_id":422,"name":"order66.exe","steam_id":76561198057558449,"connected_time":1061000000000,"state":"active","ping":55},{"user_id":427,"name":"miro","steam_id":76561198196357213,"connected_time":845000000000,"state":"active","ping":90}]},{"server_id":41,"name":"Uncletopia | London | 8 | Community","name_short":"lon-8","host":"lon-1.uk.uncletopia.com","port":27085,"enabled":true,"region":"eu","cc":"gb","latitude":51.509865,"longitude":-0.118092,"reserved":0,"last_update":"0001-01-01T00:00:00Z","name_a2s":"Uncletopia | London | 8 | Community","protocol":17,"map":"workshop/koth_ashville_final.ugc2130459942","folder":"tf","game":"Team Fortress","app_id":440,"player_count":0,"max_players":24,"Bots":0,"server_type":"Dedicated","server_os":"Linux","password":true,"vac":true,"version":"7961495","steam_id":85568392924964315,"keywords":["cp","nocrits","nodmgspread","uncletopia"],"game_id":440,"stv_port":27086,"stv_name":"Uncletopia | London | 8 | Community | STV","players":null},{"server_id":300,"name":"Uncletopia | Montréal | 1 | All Maps","name_short":"mtl-1","host":"mtl-1.ca.uncletopia.com","port":27015,"enabled":true,"region":"us-east","cc":"ca","latitude":45.50889,"longitude":-73.56167,"reserved":0,"last_update":"0001-01-01T00:00:00Z","name_a2s":"Uncletopia | Montréal | 1 | All Maps","protocol":17,"map":"pl_swiftwater_final1","folder":"tf","game":"Team Fortress","app_id":440,"player_count":0,"max_players":24,"Bots":0,"server_type":"Dedicated","server_os":"Linux","password":true,"vac":true,"version":"7961495","steam_id":85568392924500087,"keywords":["nocrits","nodmgspread","payload","uncletopia"],"game_id":440,"stv_port":27016,"stv_name":"Uncletopia | Montréal | 1 | All Maps | STV","players":null},{"server_id":301,"name":"Uncletopia | Montréal | 2 | All Maps","name_short":"mtl-2","host":"mtl-1.ca.uncletopia.com","port":27025,"enabled":true,"region":"us-east","cc":"ca","latitude":45.50889,"longitude":-73.56167,"reserved":0,"last_update":"0001-01-01T00:00:00Z","name_a2s":"Uncletopia | Montréal | 2 | All Maps","protocol":17,"map":"cp_dustbowl","folder":"tf","game":"Team Fortress","app_id":440,"player_count":0,"max_players":24,"Bots":0,"server_type":"Dedicated","server_os":"Linux","password":true,"vac":true,"version":"7961495","steam_id":85568392924500088,"keywords":["cp","nocrits","nodmgspread","uncletopia"],"game_id":440,"stv_port":27026,"stv_name":"Uncletopia | Montréal | 2 | All Maps | STV","players":null},{"server_id":302,"name":"Uncletopia | Montréal | 3 | All Maps","name_short":"mtl-3","host":"mtl-1.ca.uncletopia.com","port":27035,"enabled":true,"region":"us-east","cc":"ca","latitude":45.50889,"longitude":-73.56167,"reserved":0,"last_update":"0001-01-01T00:00:00Z","name_a2s":"Uncletopia | Montréal | 3 | All Maps","protocol":17,"map":"koth_cascade","folder":"tf","game":"Team Fortress","app_id":440,"player_count":0,"max_players":24,"Bots":0,"server_type":"Dedicated","server_os":"Linux","password":true,"vac":true,"version":"7961495","steam_id":85568392924500089,"keywords":["cp","nocrits","nodmgspread","uncletopia"],"game_id":440,"stv_port":27036,"stv_name":"Uncletopia | Montréal | 3 | All Maps | STV","players":null},{"server_id":303,"name":"Uncletopia | Montréal | 4 | No Payload","name_short":"mtl-4","host":"mtl-1.ca.uncletopia.com","port":27045,"enabled":true,"region":"us-east","cc":"ca","latitude":45.50889,"longitude":-73.56167,"reserved":0,"last_update":"0001-01-01T00:00:00Z","name_a2s":"Uncletopia | Montréal | 4 | No Payload","protocol":17,"map":"koth_lakeside_final","folder":"tf","game":"Team Fortress","app_id":440,"player_count":0,"max_players":24,"Bots":0,"server_type":"Dedicated","server_os":"Linux","password":true,"vac":true,"version":"7961495","steam_id":85568392924500090,"keywords":["cp","nocrits","nodmgspread","uncletopia"],"game_id":440,"stv_port":27046,"stv_name":"Uncletopia | Montréal | 4 | No Payload | STV","players":null},{"server_id":13,"name":"Uncletopia | New York City | 1 | All Maps","name_short":"nyc-1","host":"nyc-1.us.uncletopia.com","port":27015,"enabled":true,"region":"us-east","cc":"us","latitude":40.73061,"longitude":-73.93524,"reserved":0,"last_update":"0001-01-01T00:00:00Z","name_a2s":"Uncletopia | New York City | 1 | All Maps","protocol":17,"map":"koth_nucleus","folder":"tf","game":"Team Fortress","app_id":440,"player_count":24,"max_players":24,"Bots":0,"server_type":"Dedicated","server_os":"Linux","password":true,"vac":true,"version":"7961495","steam_id":85568392924469993,"keywords":["cp","nocrits","nodmgspread","uncletopia"],"game_id":440,"stv_port":27016,"stv_name":"Uncletopia | New York City | 1 | All Maps | STV","players":[{"user_id":657,"name":"carrot cake","steam_id":76561198055174915,"connected_time":4344000000000,"state":"active","ping":65},{"user_id":634,"name":"็Periculosum PhD in Funny","steam_id":76561198123370914,"connected_time":6224000000000,"state":"active","ping":90},{"user_id":698,"name":"Justario","steam_id":76561198016095410,"connected_time":1013000000000,"state":"active","ping":43},{"user_id":709,"name":"Big Milk","steam_id":76561198066904836,"connected_time":225000000000,"state":"active","ping":80},{"user_id":646,"name":"SLaPPy- oNaSiS","steam_id":76561198009286862,"connected_time":5022000000000,"state":"active","ping":79},{"user_id":697,"name":"Niλiwiλi, ▼iscount of ▼io","steam_id":76561198009193777,"connected_time":1119000000000,"state":"active","ping":55},{"user_id":689,"name":"laddie","steam_id":76561198063029230,"connected_time":1815000000000,"state":"active","ping":55},{"user_id":706,"name":"Phil Swift","steam_id":76561198044914005,"connected_time":533000000000,"state":"active","ping":55},{"user_id":535,"name":"Raine","steam_id":76561198055761141,"connected_time":13944000000000,"state":"active","ping":88},{"user_id":708,"name":"Mr. White","steam_id":76561198044780664,"connected_time":474000000000,"state":"active","ping":146},{"user_id":707,"name":"3hunna56k.n3t","steam_id":76561198404564240,"connected_time":503000000000,"state":"active","ping":45},{"user_id":677,"name":"joe","steam_id":76561199389283507,"connected_time":2613000000000,"state":"active","ping":59},{"user_id":700,"name":"Roket107","steam_id":76561198183851087,"connected_time":960000000000,"state":"active","ping":72},{"user_id":710,"name":"chuck","steam_id":76561198102300433,"connected_time":149000000000,"state":"active","ping":76},{"user_id":679,"name":"tiananmensquare1989","steam_id":76561199076837870,"connected_time":2522000000000,"state":"active","ping":85},{"user_id":659,"name":"Bee_Pirate","steam_id":76561199000599111,"connected_time":4297000000000,"state":"active","ping":69},{"user_id":701,"name":"king dedede","steam_id":76561198965562679,"connected_time":944000000000,"state":"active","ping":73},{"user_id":711,"name":"all_classics","steam_id":76561198012738913,"connected_time":118000000000,"state":"active","ping":69},{"user_id":673,"name":"5mech","steam_id":76561198979167520,"connected_time":3206000000000,"state":"active","ping":60},{"user_id":653,"name":"Acidic Salt","steam_id":76561199082198609,"connected_time":4861000000000,"state":"active","ping":65},{"user_id":705,"name":"DEMOMAN","steam_id":76561198005018601,"connected_time":787000000000,"state":"active","ping":85},{"user_id":635,"name":"googy doogy","steam_id":76561199025852100,"connected_time":6219000000000,"state":"active","ping":51},{"user_id":692,"name":"uhooter","steam_id":76561198007829078,"connected_time":1488000000000,"state":"active","ping":61},{"user_id":623,"name":"Biden Blast","steam_id":76561198366729030,"connected_time":6952000000000,"state":"active","ping":120}]},{"server_id":14,"name":"Uncletopia | New York City | 2 | All Maps","name_short":"nyc-2","host":"nyc-1.us.uncletopia.com","port":27025,"enabled":true,"region":"us-east","cc":"us","latitude":40.73061,"longitude":-73.93524,"reserved":0,"last_update":"0001-01-01T00:00:00Z","name_a2s":"Uncletopia | New York City | 2 | All Maps","protocol":17,"map":"cp_dustbowl","folder":"tf","game":"Team Fortress","app_id":440,"player_count":24,"max_players":24,"Bots":0,"server_type":"Dedicated","server_os":"Linux","password":true,"vac":true,"version":"7961495","steam_id":85568392924469994,"keywords":["cp","nocrits","nodmgspread","uncletopia"],"game_id":440,"stv_port":27026,"stv_name":"Uncletopia | New York City | 2 | All Maps | STV","players":[{"user_id":544,"name":"Terraboi3","steam_id":76561199465751949,"connected_time":765000000000,"state":"active","ping":72},{"user_id":462,"name":"Lord_HoboJo","steam_id":76561198039800002,"connected_time":5808000000000,"state":"active","ping":66},{"user_id":458,"name":"dog","steam_id":76561198263873491,"connected_time":5849000000000,"state":"active","ping":61},{"user_id":537,"name":"Nekotine ᗜˬᗜ","steam_id":76561198375885194,"connected_time":1025000000000,"state":"active","ping":61},{"user_id":531,"name":"Tay1Qr","steam_id":76561198082809935,"connected_time":1836000000000,"state":"active","ping":69},{"user_id":541,"name":"Average Dispenser Enjoyer","steam_id":76561198989154975,"connected_time":928000000000,"state":"active","ping":61},{"user_id":526,"name":"Jaxell212","steam_id":76561198307237534,"connected_time":2010000000000,"state":"active","ping":82},{"user_id":538,"name":"Antoine Griezmann","steam_id":76561199491334690,"connected_time":1017000000000,"state":"active","ping":35},{"user_id":508,"name":"AlmondMilk","steam_id":76561198151229725,"connected_time":3227000000000,"state":"active","ping":46},{"user_id":503,"name":"Nilantive","steam_id":76561198177565082,"connected_time":3724000000000,"state":"active","ping":40},{"user_id":530,"name":"Baron von Whoopsie","steam_id":76561197996691013,"connected_time":1926000000000,"state":"active","ping":67},{"user_id":534,"name":"Tri_Hunter","steam_id":76561198108176706,"connected_time":1505000000000,"state":"active","ping":54},{"user_id":542,"name":"Mecha","steam_id":76561198014927379,"connected_time":814000000000,"state":"active","ping":69},{"user_id":528,"name":"nhbiker","steam_id":76561198081277675,"connected_time":1992000000000,"state":"active","ping":44},{"user_id":545,"name":"Ejaculation Zach","steam_id":76561198203765200,"connected_time":92000000000,"state":"active","ping":68},{"user_id":522,"name":"Blood Moon","steam_id":76561197995279133,"connected_time":2652000000000,"state":"active","ping":55},{"user_id":536,"name":"HeavyMettleDick","steam_id":76561198001925087,"connected_time":1086000000000,"state":"active","ping":75},{"user_id":521,"name":"Poi","steam_id":76561198176914898,"connected_time":2714000000000,"state":"active","ping":86},{"user_id":543,"name":"Sableye","steam_id":76561198061247147,"connected_time":788000000000,"state":"active","ping":75},{"user_id":532,"name":"Adamantium44","steam_id":76561198266957710,"connected_time":1761000000000,"state":"active","ping":91},{"user_id":547,"name":"crayonnipple","steam_id":76561198070253331,"connected_time":62000000000,"state":"active","ping":75},{"user_id":540,"name":"Nobody","steam_id":76561198160544586,"connected_time":966000000000,"state":"active","ping":83},{"user_id":518,"name":"Astrozombeez","steam_id":76561198113754079,"connected_time":2895000000000,"state":"active","ping":94},{"user_id":421,"name":"mytoyo2k2","steam_id":76561199486326945,"connected_time":8792000000000,"state":"active","ping":74}]},{"server_id":15,"name":"Uncletopia | New York City | 3 | Stopwatch Beta","name_short":"nyc-3","host":"nyc-1.us.uncletopia.com","port":27035,"enabled":true,"region":"us-east","cc":"us","latitude":40.73061,"longitude":-73.93524,"reserved":0,"last_update":"0001-01-01T00:00:00Z","name_a2s":"Uncletopia | New York City | 3 | Stopwatch Beta","protocol":17,"map":"workshop/koth_ramjam_rc1.ugc459778887","folder":"tf","game":"Team Fortress","app_id":440,"player_count":0,"max_players":24,"Bots":0,"server_type":"Dedicated","server_os":"Linux","password":true,"vac":true,"version":"7961495","steam_id":85568392924742820,"keywords":["cp","nocrits","nodmgspread","uncletopia"],"game_id":440,"stv_port":27036,"stv_name":"Uncletopia | New York City | 3 | Stopwatch Beta | STV","players":null},{"server_id":16,"name":"Uncletopia | New York City | 4 | Community","name_short":"nyc-4","host":"nyc-1.us.uncletopia.com","port":27045,"enabled":true,"region":"us-east","cc":"us","latitude":40.73061,"longitude":-73.93524,"reserved":0,"last_update":"0001-01-01T00:00:00Z","name_a2s":"Uncletopia | New York City | 4 | Community","protocol":17,"map":"workshop/koth_ashville_final.ugc2130459942","folder":"tf","game":"Team Fortress","app_id":440,"player_count":24,"max_players":24,"Bots":0,"server_type":"Dedicated","server_os":"Linux","password":true,"vac":true,"version":"7961495","steam_id":85568392924742821,"keywords":["cp","nocrits","nodmgspread","uncletopia"],"game_id":440,"stv_port":27046,"stv_name":"Uncletopia | New York City | 4 | Community | STV","players":[{"user_id":314,"name":"A Puppy","steam_id":76561198828184456,"connected_time":5774000000000,"state":"active","ping":46},{"user_id":348,"name":"GiraffeMan","steam_id":76561198042104084,"connected_time":1373000000000,"state":"active","ping":62},{"user_id":337,"name":"dnaak","steam_id":76561197960489193,"connected_time":2857000000000,"state":"active","ping":61},{"user_id":358,"name":"Crafty Butcher","steam_id":76561197993426667,"connected_time":759000000000,"state":"active","ping":70},{"user_id":349,"name":"Yato","steam_id":76561198084100335,"connected_time":1372000000000,"state":"active","ping":75},{"user_id":356,"name":"Gorgon Freeman","steam_id":76561198000367036,"connected_time":809000000000,"state":"active","ping":76},{"user_id":257,"name":"is there anything unfappable?","steam_id":76561198032259680,"connected_time":10307000000000,"state":"active","ping":61},{"user_id":363,"name":"Bagels And Chaos","steam_id":76561198323951963,"connected_time":654000000000,"state":"active","ping":96},{"user_id":306,"name":"Major_Mooseman","steam_id":76561198126438141,"connected_time":6198000000000,"state":"active","ping":88},{"user_id":328,"name":"phonedirectory","steam_id":76561198102360911,"connected_time":4144000000000,"state":"active","ping":84},{"user_id":366,"name":"Dusklight","steam_id":76561198036982638,"connected_time":585000000000,"state":"active","ping":99},{"user_id":341,"name":"Z3k3R1V3R5","steam_id":76561197989235639,"connected_time":2258000000000,"state":"active","ping":125},{"user_id":367,"name":"4Lukaska","steam_id":76561198083515060,"connected_time":20000000000,"state":"spawning","ping":413},{"user_id":340,"name":"l3fty","steam_id":76561198057788958,"connected_time":2445000000000,"state":"active","ping":65},{"user_id":361,"name":"Foxfire","steam_id":76561198123927944,"connected_time":705000000000,"state":"active","ping":105},{"user_id":259,"name":"kiobu","steam_id":76561198012914428,"connected_time":10234000000000,"state":"active","ping":85},{"user_id":352,"name":"Windup Monkey in a Human Suit","steam_id":76561198119501444,"connected_time":1146000000000,"state":"active","ping":83},{"user_id":362,"name":"Soup","steam_id":76561199014722829,"connected_time":703000000000,"state":"active","ping":64},{"user_id":364,"name":"crittr","steam_id":76561198014302068,"connected_time":649000000000,"state":"active","ping":59},{"user_id":354,"name":"Silverkeys","steam_id":76561197986012496,"connected_time":1091000000000,"state":"active","ping":57},{"user_id":321,"name":"Cookie","steam_id":76561198047736899,"connected_time":4728000000000,"state":"active","ping":43},{"user_id":347,"name":"Chicken Joe","steam_id":76561198077799885,"connected_time":1847000000000,"state":"active","ping":53},{"user_id":365,"name":"Loaf E²r","steam_id":76561198174967027,"connected_time":621000000000,"state":"active","ping":75},{"user_id":339,"name":"littlesack","steam_id":76561197960270526,"connected_time":2711000000000,"state":"active","ping":104}]},{"server_id":142,"name":"Uncletopia | São Paulo | 1 | All Maps","name_short":"sao-1","host":"sao-1.br.uncletopia.com","port":27015,"enabled":true,"region":"sa","cc":"br","latitude":-23.533773,"longitude":-46.62529,"reserved":0,"last_update":"0001-01-01T00:00:00Z","name_a2s":"Uncletopia | São Paulo | 1 | All Maps","protocol":17,"map":"cp_mountainlab","folder":"tf","game":"Team Fortress","app_id":440,"player_count":0,"max_players":24,"Bots":0,"server_type":"Dedicated","server_os":"Linux","password":true,"vac":true,"version":"7961495","steam_id":85568392924469996,"keywords":["cp","nocrits","nodmgspread","uncletopia"],"game_id":440,"stv_port":27016,"stv_name":"Uncletopia | São Paulo | 1 | All Maps | STV","players":null},{"server_id":143,"name":"Uncletopia | São Paulo | 2 | Community","name_short":"sao-2","host":"sao-2.br.uncletopia.com","port":27015,"enabled":true,"region":"sa","cc":"br","latitude":-23.533773,"longitude":-46.62529,"reserved":0,"last_update":"0001-01-01T00:00:00Z","name_a2s":"Uncletopia | São Paulo | 2 | Community","protocol":17,"map":"workshop/pl_barnblitz_pro7.ugc582280235","folder":"tf","game":"Team Fortress","app_id":440,"player_count":11,"max_players":24,"Bots":0,"server_type":"Dedicated","server_os":"Linux","password":true,"vac":true,"version":"7961495","steam_id":85568392924485349,"keywords":["nocrits","nodmgspread","payload","uncletopia"],"game_id":440,"stv_port":27016,"stv_name":"Uncletopia | São Paulo | 2 | Community | STV","players":[{"user_id":76,"name":"Hercules","steam_id":76561199017999458,"connected_time":1807000000000,"state":"active","ping":83},{"user_id":77,"name":"K. Montozo","steam_id":76561198892462260,"connected_time":1769000000000,"state":"active","ping":73},{"user_id":92,"name":"Sandviche™,O Sanduíche Sovi\ufffd","steam_id":76561198042404296,"connected_time":447000000000,"state":"active","ping":53},{"user_id":96,"name":"a","steam_id":76561198948978264,"connected_time":139000000000,"state":"connecting","ping":0},{"user_id":86,"name":"Ricardo Ereto","steam_id":76561199022729585,"connected_time":962000000000,"state":"active","ping":49},{"user_id":63,"name":"Fioti","steam_id":76561199001100062,"connected_time":3597000000000,"state":"active","ping":202},{"user_id":83,"name":"kifi","steam_id":76561199069994646,"connected_time":1272000000000,"state":"active","ping":94},{"user_id":89,"name":"Gogoyle50","steam_id":76561198148524228,"connected_time":648000000000,"state":"active","ping":49},{"user_id":90,"name":"marado","steam_id":76561198102394172,"connected_time":511000000000,"state":"active","ping":69},{"user_id":91,"name":"Kibetsuban","steam_id":76561198056480228,"connected_time":455000000000,"state":"active","ping":55},{"user_id":93,"name":"Frans","steam_id":76561198207928860,"connected_time":424000000000,"state":"active","ping":31}]},{"server_id":7,"name":"Uncletopia | Seattle | 1 | All Maps","name_short":"sea-1","host":"sea-1.us.uncletopia.com","port":27015,"enabled":true,"region":"us-west","cc":"us","latitude":47.608013,"longitude":-122.33517,"reserved":0,"last_update":"0001-01-01T00:00:00Z","name_a2s":"Uncletopia | Seattle | 1 | All Maps","protocol":17,"map":"koth_badlands","folder":"tf","game":"Team Fortress","app_id":440,"player_count":25,"max_players":24,"Bots":0,"server_type":"Dedicated","server_os":"Linux","password":true,"vac":true,"version":"7961495","steam_id":85568392924469997,"keywords":["cp","nocrits","nodmgspread","uncletopia"],"game_id":440,"stv_port":27016,"stv_name":"Uncletopia | Seattle | 1 | All Maps | STV","players":[{"user_id":194,"name":"ejschild745","steam_id":76561199013388867,"connected_time":7499000000000,"state":"active","ping":72},{"user_id":195,"name":"Optimore","steam_id":76561198047662990,"connected_time":7475000000000,"state":"active","ping":73},{"user_id":273,"name":"pigswill","steam_id":76561197999081865,"connected_time":1401000000000,"state":"active","ping":120},{"user_id":191,"name":"Gerbias","steam_id":76561198001002427,"connected_time":7618000000000,"state":"active","ping":72},{"user_id":277,"name":"bullet man","steam_id":76561198080058079,"connected_time":852000000000,"state":"active","ping":51},{"user_id":237,"name":"no vc no c","steam_id":76561197989503095,"connected_time":4718000000000,"state":"active","ping":154},{"user_id":280,"name":"Mr. Sean Connery","steam_id":76561198100896969,"connected_time":248000000000,"state":"active","ping":65},{"user_id":275,"name":"mooney","steam_id":76561199110622484,"connected_time":1063000000000,"state":"active","ping":69},{"user_id":261,"name":"help","steam_id":76561198171840525,"connected_time":2522000000000,"state":"active","ping":59},{"user_id":247,"name":"jacix3 [silly doggie :3]","steam_id":76561198205004165,"connected_time":3946000000000,"state":"active","ping":67},{"user_id":246,"name":"mine diam","steam_id":76561198119123981,"connected_time":4188000000000,"state":"active","ping":46},{"user_id":272,"name":"Alltrex","steam_id":76561198202254225,"connected_time":1581000000000,"state":"active","ping":49},{"user_id":274,"name":"forest (minecraft npc)","steam_id":76561198157960257,"connected_time":1368000000000,"state":"active","ping":55},{"user_id":241,"name":"greens beans","steam_id":76561198153611491,"connected_time":4518000000000,"state":"active","ping":42},{"user_id":278,"name":"Nea","steam_id":76561198408792773,"connected_time":671000000000,"state":"active","ping":47},{"user_id":231,"name":"A UsedNom","steam_id":76561198402832756,"connected_time":4957000000000,"state":"active","ping":58},{"user_id":248,"name":"Career","steam_id":76561198028542212,"connected_time":3730000000000,"state":"active","ping":132},{"user_id":271,"name":"thegreatsawyer","steam_id":76561198393604826,"connected_time":1647000000000,"state":"active","ping":50},{"user_id":276,"name":"Arsonist Goose","steam_id":76561198147441830,"connected_time":952000000000,"state":"active","ping":71},{"user_id":267,"name":"jayeskae","steam_id":76561198144220801,"connected_time":1676000000000,"state":"active","ping":56},{"user_id":220,"name":"Puppygirl full of Estradiol","steam_id":76561198085813708,"connected_time":5592000000000,"state":"active","ping":121},{"user_id":228,"name":"Ayayayayayahuasca","steam_id":76561199002906056,"connected_time":5179000000000,"state":"active","ping":53},{"user_id":281,"name":"ZaniZ","steam_id":76561198161467000,"connected_time":231000000000,"state":"active","ping":32},{"user_id":284,"name":"WaffleWithNoToppings","steam_id":76561199088280111,"connected_time":75000000000,"state":"active","ping":47},{"user_id":285,"name":"ุ","steam_id":76561198084134025,"connected_time":52000000000,"state":"active","ping":60}]},{"server_id":119,"name":"Uncletopia | Seattle | 2 | All Maps","name_short":"sea-2","host":"sea-1.us.uncletopia.com","port":27025,"enabled":true,"region":"us-west","cc":"us","latitude":47.608013,"longitude":-122.33517,"reserved":0,"last_update":"0001-01-01T00:00:00Z","name_a2s":"Uncletopia | Seattle | 2 | All Maps","protocol":17,"map":"pl_pier","folder":"tf","game":"Team Fortress","app_id":440,"player_count":24,"max_players":24,"Bots":0,"server_type":"Dedicated","server_os":"Linux","password":true,"vac":true,"version":"7961495","steam_id":85568392924469998,"keywords":["nocrits","nodmgspread","payload","uncletopia"],"game_id":440,"stv_port":27026,"stv_name":"Uncletopia | Seattle | 2 | All Maps | STV","players":[{"user_id":286,"name":"sixshabbyshearedsheepshitting","steam_id":76561197972601902,"connected_time":2082000000000,"state":"active","ping":75},{"user_id":297,"name":"Morse","steam_id":76561198039944542,"connected_time":1016000000000,"state":"active","ping":54},{"user_id":296,"name":"Vibrantword3732","steam_id":76561198916638641,"connected_time":1027000000000,"state":"active","ping":70},{"user_id":270,"name":"[DATS➡] Sugar Meowth","steam_id":76561197995251793,"connected_time":3748000000000,"state":"active","ping":45},{"user_id":310,"name":"lamb cutlet","steam_id":76561199063557758,"connected_time":803000000000,"state":"active","ping":92},{"user_id":298,"name":"gangsta necoarc","steam_id":76561199492390896,"connected_time":992000000000,"state":"active","ping":74},{"user_id":299,"name":"krootonitron","steam_id":76561198114113037,"connected_time":987000000000,"state":"active","ping":59},{"user_id":312,"name":"ArchmageF","steam_id":76561197992246851,"connected_time":650000000000,"state":"active","ping":63},{"user_id":302,"name":"Arkus :watermelon:","steam_id":76561199092478198,"connected_time":927000000000,"state":"active","ping":51},{"user_id":314,"name":"Fluff","steam_id":76561198820119532,"connected_time":472000000000,"state":"active","ping":122},{"user_id":275,"name":"Lambchop","steam_id":76561198043900363,"connected_time":3213000000000,"state":"active","ping":77},{"user_id":290,"name":"CashGordon","steam_id":76561197975594096,"connected_time":1760000000000,"state":"active","ping":41},{"user_id":259,"name":"SolarusD","steam_id":76561198029279861,"connected_time":4681000000000,"state":"active","ping":70},{"user_id":305,"name":"pybroZer0","steam_id":76561198171093203,"connected_time":860000000000,"state":"active","ping":73},{"user_id":295,"name":"YahYeeterson","steam_id":76561198120480906,"connected_time":1031000000000,"state":"active","ping":66},{"user_id":315,"name":"♦Benji♦","steam_id":76561198313529973,"connected_time":311000000000,"state":"active","ping":44},{"user_id":316,"name":"Jukesy","steam_id":76561199136910514,"connected_time":178000000000,"state":"active","ping":100},{"user_id":307,"name":"Bleedin' Action Man","steam_id":76561198045722214,"connected_time":831000000000,"state":"active","ping":84},{"user_id":308,"name":"Robotferret87","steam_id":76561198259837716,"connected_time":828000000000,"state":"active","ping":117},{"user_id":309,"name":"Pyronautica","steam_id":76561198032490218,"connected_time":824000000000,"state":"active","ping":53},{"user_id":291,"name":"Bluedemon","steam_id":76561199212058684,"connected_time":1724000000000,"state":"active","ping":86},{"user_id":292,"name":"Gold_S4 #saveTF2","steam_id":76561199082435571,"connected_time":1720000000000,"state":"active","ping":114},{"user_id":267,"name":"Pebbles","steam_id":76561197985155770,"connected_time":4087000000000,"state":"active","ping":123},{"user_id":234,"name":"Where'd my ants go?","steam_id":76561198011675372,"connected_time":6051000000000,"state":"active","ping":61}]},{"server_id":406,"name":"Uncletopia | Seattle | 3 | Stopwatch Beta","name_short":"sea-3","host":"sea-1.us.uncletopia.com","port":27035,"enabled":true,"region":"us-west","cc":"us","latitude":47.608013,"longitude":-122.33517,"reserved":0,"last_update":"0001-01-01T00:00:00Z","name_a2s":"Uncletopia | Seattle | 3 | Stopwatch Beta","protocol":17,"map":"workshop/pl_vigil_rc9.ugc1266210012","folder":"tf","game":"Team Fortress","app_id":440,"player_count":0,"max_players":24,"Bots":0,"server_type":"Dedicated","server_os":"Linux","password":true,"vac":true,"version":"7961495","steam_id":85568392924515217,"keywords":["nocrits","nodmgspread","payload","uncletopia"],"game_id":440,"stv_port":27036,"stv_name":"Uncletopia | Seattle | 3 | Stopwatch Beta | STV","players":null},{"server_id":17,"name":"Uncletopia | San Francisco | 1 | All Maps","name_short":"sfo-1","host":"sfo-1.us.uncletopia.com","port":27015,"enabled":true,"region":"us-west","cc":"us","latitude":37.77397,"longitude":-122.4313,"reserved":0,"last_update":"0001-01-01T00:00:00Z","name_a2s":"Uncletopia | San Francisco | 1 | All Maps","protocol":17,"map":"pl_badwater","folder":"tf","game":"Team Fortress","app_id":440,"player_count":22,"max_players":24,"Bots":0,"server_type":"Dedicated","server_os":"Linux","password":true,"vac":true,"version":"7961495","steam_id":85568392924469999,"keywords":["nocrits","nodmgspread","payload","uncletopia"],"game_id":440,"stv_port":27016,"stv_name":"Uncletopia | San Francisco | 1 | All Maps | STV","players":[{"user_id":252,"name":"normal","steam_id":76561198133712839,"connected_time":193000000000,"state":"active","ping":110},{"user_id":253,"name":"Super crak 202 9","steam_id":76561199176207530,"connected_time":110000000000,"state":"active","ping":70},{"user_id":241,"name":"lǝᴉuɐp","steam_id":76561198297016780,"connected_time":784000000000,"state":"active","ping":58},{"user_id":210,"name":"bobtheninjaman","steam_id":76561198066424544,"connected_time":2712000000000,"state":"active","ping":66},{"user_id":248,"name":"croissantcrusader","steam_id":76561198813533235,"connected_time":509000000000,"state":"active","ping":100},{"user_id":157,"name":"homewurk","steam_id":76561199080327081,"connected_time":6414000000000,"state":"active","ping":67},{"user_id":250,"name":"Trips","steam_id":76561198054581597,"connected_time":479000000000,"state":"active","ping":45},{"user_id":254,"name":"Artificial","steam_id":76561199013455885,"connected_time":94000000000,"state":"active","ping":147},{"user_id":195,"name":"kuysterr","steam_id":76561198081337009,"connected_time":3949000000000,"state":"active","ping":85},{"user_id":240,"name":"BigNugs","steam_id":76561198056402610,"connected_time":787000000000,"state":"active","ping":118},{"user_id":255,"name":"Mr. E","steam_id":76561198060381147,"connected_time":82000000000,"state":"active","ping":79},{"user_id":232,"name":"Skreed [G*]","steam_id":76561197998086143,"connected_time":1624000000000,"state":"active","ping":100},{"user_id":207,"name":"Ssamjang","steam_id":76561197966891870,"connected_time":2903000000000,"state":"active","ping":68},{"user_id":244,"name":"God's Drunkest Driver","steam_id":76561199174579733,"connected_time":753000000000,"state":"active","ping":109},{"user_id":256,"name":"allimadness","steam_id":76561199061698187,"connected_time":77000000000,"state":"active","ping":148},{"user_id":230,"name":"Black Tiger Sex Machine","steam_id":76561198060078398,"connected_time":1881000000000,"state":"active","ping":81},{"user_id":209,"name":"Irritated Duck","steam_id":76561198247792076,"connected_time":2894000000000,"state":"active","ping":100},{"user_id":228,"name":"NotAWeeb","steam_id":76561198165530739,"connected_time":1907000000000,"state":"active","ping":46},{"user_id":237,"name":"don't get mad","steam_id":76561198064662875,"connected_time":1232000000000,"state":"active","ping":47},{"user_id":245,"name":"Павло Паченко","steam_id":76561198314446564,"connected_time":688000000000,"state":"active","ping":46},{"user_id":238,"name":"Amogous Supreme","steam_id":76561198025476774,"connected_time":1062000000000,"state":"active","ping":59},{"user_id":202,"name":"crumbles","steam_id":76561198168707036,"connected_time":3188000000000,"state":"active","ping":54}]},{"server_id":18,"name":"Uncletopia | San Francisco | 2 | All Maps","name_short":"sfo-2","host":"sfo-1.us.uncletopia.com","port":27025,"enabled":true,"region":"us-west","cc":"us","latitude":37.77397,"longitude":-122.4313,"reserved":0,"last_update":"0001-01-01T00:00:00Z","name_a2s":"Uncletopia | San Francisco | 2 | All Maps","protocol":17,"map":"cp_mountainlab","folder":"tf","game":"Team Fortress","app_id":440,"player_count":0,"max_players":24,"Bots":0,"server_type":"Dedicated","server_os":"Linux","password":true,"vac":true,"version":"7961495","steam_id":85568392924470000,"keywords":["cp","nocrits","nodmgspread","uncletopia"],"game_id":440,"stv_port":27026,"stv_name":"Uncletopia | San Francisco | 2 | All Maps | STV","players":null},{"server_id":19,"name":"Uncletopia | San Francisco | 3 | Stopwatch Beta","name_short":"sfo-3","host":"sfo-1.us.uncletopia.com","port":27035,"enabled":true,"region":"us-west","cc":"us","latitude":37.77397,"longitude":-122.4313,"reserved":0,"last_update":"0001-01-01T00:00:00Z","name_a2s":"Uncletopia | San Francisco | 3 | Stopwatch Beta","protocol":17,"map":"pl_borneo","folder":"tf","game":"Team Fortress","app_id":440,"player_count":0,"max_players":24,"Bots":0,"server_type":"Dedicated","server_os":"Linux","password":true,"vac":true,"version":"7961495","steam_id":85568392924742824,"keywords":["nocrits","nodmgspread","payload","uncletopia"],"game_id":440,"stv_port":27036,"stv_name":"Uncletopia | San Francisco | 3 | Stopwatch Beta | STV","players":null},{"server_id":20,"name":"Uncletopia | San Francisco | 4 | Community","name_short":"sfo-4","host":"sfo-1.us.uncletopia.com","port":27045,"enabled":true,"region":"us-west","cc":"us","latitude":37.77397,"longitude":-122.4313,"reserved":0,"last_update":"0001-01-01T00:00:00Z","name_a2s":"Uncletopia | San Francisco | 4 | Community","protocol":17,"map":"koth_viaduct","folder":"tf","game":"Team Fortress","app_id":440,"player_count":4,"max_players":24,"Bots":0,"server_type":"Dedicated","server_os":"Linux","password":true,"vac":true,"version":"7961495","steam_id":85568392924742826,"keywords":["cp","nocrits","nodmgspread","uncletopia"],"game_id":440,"stv_port":27046,"stv_name":"Uncletopia | San Francisco | 4 | Community | STV","players":[{"user_id":8,"name":"Skilliton","steam_id":76561198212089960,"connected_time":2405000000000,"state":"active","ping":30},{"user_id":7,"name":"Renz","steam_id":76561198118995036,"connected_time":2646000000000,"state":"active","ping":61},{"user_id":10,"name":"cofferhead","steam_id":76561199191108449,"connected_time":2088000000000,"state":"active","ping":64},{"user_id":12,"name":"Villchip","steam_id":76561198198599982,"connected_time":1555000000000,"state":"active","ping":67}]},{"server_id":141,"name":"Uncletopia | Sydney | 1 | All Maps","name_short":"syd-1","host":"syd-1.au.uncletopia.com","port":27015,"enabled":true,"region":"au","cc":"au","latitude":-33.865143,"longitude":151.2099,"reserved":0,"last_update":"0001-01-01T00:00:00Z","name_a2s":"","protocol":0,"map":"","folder":"","game":"","app_id":0,"player_count":0,"max_players":0,"Bots":0,"server_type":"","server_os":"","password":false,"vac":false,"version":"","steam_id":0,"keywords":null,"game_id":0,"stv_port":0,"stv_name":"","players":null},{"server_id":123,"name":"Uncletopia | Sydney | 2 | All Maps","name_short":"syd-2","host":"syd-1.au.uncletopia.com","port":27025,"enabled":true,"region":"au","cc":"au","latitude":-33.865143,"longitude":151.2099,"reserved":0,"last_update":"0001-01-01T00:00:00Z","name_a2s":"","protocol":0,"map":"","folder":"","game":"","app_id":0,"player_count":0,"max_players":0,"Bots":0,"server_type":"","server_os":"","password":false,"vac":false,"version":"","steam_id":0,"keywords":null,"game_id":0,"stv_port":0,"stv_name":"","players":null},{"server_id":395,"name":"Uncletopia | Sydney | 3 | All Maps","name_short":"syd-3","host":"syd-1.au.uncletopia.com","port":27035,"enabled":true,"region":"au","cc":"au","latitude":-33.865143,"longitude":151.2099,"reserved":0,"last_update":"0001-01-01T00:00:00Z","name_a2s":"","protocol":0,"map":"","folder":"","game":"","app_id":0,"player_count":0,"max_players":0,"Bots":0,"server_type":"","server_os":"","password":false,"vac":false,"version":"","steam_id":0,"keywords":null,"game_id":0,"stv_port":0,"stv_name":"","players":null},{"server_id":396,"name":"Uncletopia | Sydney | 4 | All Maps","name_short":"syd-4","host":"syd-1.au.uncletopia.com","port":27045,"enabled":true,"region":"au","cc":"au","latitude":-33.865143,"longitude":151.2099,"reserved":0,"last_update":"0001-01-01T00:00:00Z","name_a2s":"","protocol":0,"map":"","folder":"","game":"","app_id":0,"player_count":0,"max_players":0,"Bots":0,"server_type":"","server_os":"","password":false,"vac":false,"version":"","steam_id":0,"keywords":null,"game_id":0,"stv_port":0,"stv_name":"","players":null},{"server_id":58,"name":"Uncletopia | Sydney | 5 | Stopwatch Beta","name_short":"syd-5","host":"syd-1.au.uncletopia.com","port":27055,"enabled":true,"region":"au","cc":"au","latitude":-33.865143,"longitude":151.2099,"reserved":0,"last_update":"0001-01-01T00:00:00Z","name_a2s":"","protocol":0,"map":"","folder":"","game":"","app_id":0,"player_count":0,"max_players":0,"Bots":0,"server_type":"","server_os":"","password":false,"vac":false,"version":"","steam_id":0,"keywords":null,"game_id":0,"stv_port":0,"stv_name":"","players":null},{"server_id":59,"name":"Uncletopia | Sydney | 6 | Community","name_short":"syd-6","host":"syd-1.au.uncletopia.com","port":27065,"enabled":true,"region":"au","cc":"au","latitude":-33.865143,"longitude":151.2099,"reserved":0,"last_update":"0001-01-01T00:00:00Z","name_a2s":"","protocol":0,"map":"","folder":"","game":"","app_id":0,"player_count":2,"max_players":0,"Bots":0,"server_type":"","server_os":"","password":false,"vac":false,"version":"","steam_id":0,"keywords":null,"game_id":0,"stv_port":0,"stv_name":"","players":[{"user_id":3,"name":"LegEaterHK","steam_id":76561199357838817,"connected_time":2662000000000,"state":"active","ping":74},{"user_id":6,"name":"Q*bert-the42ndwafflefluxtardis","steam_id":76561199152151734,"connected_time":897000000000,"state":"active","ping":71}]},{"server_id":49,"name":"Uncletopia | Warsaw | 1 | All Maps","name_short":"waw-1","host":"waw-1.pl.uncletopia.com","port":27015,"enabled":true,"region":"eu","cc":"pl","latitude":52.2297,"longitude":21.017532,"reserved":0,"last_update":"0001-01-01T00:00:00Z","name_a2s":"","protocol":0,"map":"","folder":"","game":"","app_id":0,"player_count":0,"max_players":0,"Bots":0,"server_type":"","server_os":"","password":false,"vac":false,"version":"","steam_id":0,"keywords":null,"game_id":0,"stv_port":0,"stv_name":"","players":null},{"server_id":50,"name":"Uncletopia | Warsaw | 2 | All Maps","name_short":"waw-2","host":"waw-1.pl.uncletopia.com","port":27025,"enabled":true,"region":"eu","cc":"pl","latitude":52.2297,"longitude":21.017532,"reserved":0,"last_update":"0001-01-01T00:00:00Z","name_a2s":"","protocol":0,"map":"","folder":"","game":"","app_id":0,"player_count":0,"max_players":0,"Bots":0,"server_type":"","server_os":"","password":false,"vac":false,"version":"","steam_id":0,"keywords":null,"game_id":0,"stv_port":0,"stv_name":"","players":null},{"server_id":51,"name":"Uncletopia | Warsaw | 3 | All Maps","name_short":"waw-3","host":"waw-1.pl.uncletopia.com","port":27035,"enabled":true,"region":"eu","cc":"pl","latitude":52.2297,"longitude":21.017532,"reserved":0,"last_update":"0001-01-01T00:00:00Z","name_a2s":"","protocol":0,"map":"","folder":"","game":"","app_id":0,"player_count":0,"max_players":0,"Bots":0,"server_type":"","server_os":"","password":false,"vac":false,"version":"","steam_id":0,"keywords":null,"game_id":0,"stv_port":0,"stv_name":"","players":null},{"server_id":52,"name":"Uncletopia | Warsaw | 4 | All Maps","name_short":"waw-4","host":"waw-1.pl.uncletopia.com","port":27045,"enabled":true,"region":"eu","cc":"pl","latitude":52.2297,"longitude":21.017532,"reserved":0,"last_update":"0001-01-01T00:00:00Z","name_a2s":"","protocol":0,"map":"","folder":"","game":"","app_id":0,"player_count":0,"max_players":0,"Bots":0,"server_type":"","server_os":"","password":false,"vac":false,"version":"","steam_id":0,"keywords":null,"game_id":0,"stv_port":0,"stv_name":"","players":null},{"server_id":53,"name":"Uncletopia | Warsaw | 5 | No Payload","name_short":"waw-5","host":"waw-1.pl.uncletopia.com","port":27055,"enabled":true,"region":"eu","cc":"pl","latitude":52.2297,"longitude":21.017532,"reserved":0,"last_update":"0001-01-01T00:00:00Z","name_a2s":"","protocol":0,"map":"","folder":"","game":"","app_id":0,"player_count":0,"max_players":0,"Bots":0,"server_type":"","server_os":"","password":false,"vac":false,"version":"","steam_id":0,"keywords":null,"game_id":0,"stv_port":0,"stv_name":"","players":null},{"server_id":54,"name":"Uncletopia | Warsaw | 6 | Community","name_short":"waw-6","host":"waw-1.pl.uncletopia.com","port":27065,"enabled":true,"region":"eu","cc":"pl","latitude":52.2297,"longitude":21.017532,"reserved":0,"last_update":"0001-01-01T00:00:00Z","name_a2s":"","protocol":0,"map":"","folder":"","game":"","app_id":0,"player_count":0,"max_players":0,"Bots":0,"server_type":"","server_os":"","password":false,"vac":false,"version":"","steam_id":0,"keywords":null,"game_id":0,"stv_port":0,"stv_name":"","players":null}]}