{"status":true,"message":"","result":[{"server_id":9,"name":"Uncletopia | Atlanta | 1 | All Maps","name_short":"atl-1","host":"atl-1.us.uncletopia.com","port":27015,"enabled":true,"region":"us-east","cc":"us","latitude":33.753746,"longitude":-84.38633,"reserved":0,"last_update":"0001-01-01T00:00:00Z","name_a2s":"Uncletopia | Atlanta | 1 | All Maps","protocol":17,"map":"pl_barnblitz","folder":"tf","game":"Team Fortress","app_id":440,"player_count":24,"max_players":24,"Bots":0,"server_type":"Dedicated","server_os":"Linux","password":true,"vac":true,"version":"7742253","steam_id":85568392924469982,"keywords":["nocrits","nodmgspread","payload","uncletopia"],"game_id":440,"stv_port":27016,"stv_name":"Uncletopia | Atlanta | 1 | All Maps | STV","players":[{"user_id":580,"name":"DFR Wingm4n","steam_id":76561198064127012,"connected_time":168000000000,"state":"active","ping":62},{"user_id":584,"name":"Spare(8)Ball","steam_id":76561197982432995,"connected_time":129000000000,"state":"active","ping":115},{"user_id":518,"name":"--_Cook_--","steam_id":76561198080855748,"connected_time":7688000000000,"state":"active","ping":60},{"user_id":550,"name":"new year new personality","steam_id":76561198016121536,"connected_time":4472000000000,"state":"active","ping":80},{"user_id":583,"name":"Koishi","steam_id":76561198054541054,"connected_time":131000000000,"state":"active","ping":57},{"user_id":535,"name":"ATL1 | Lancer Fan Club","steam_id":76561198355495948,"connected_time":6171000000000,"state":"active","ping":77},{"user_id":585,"name":"Room","steam_id":76561199174579733,"connected_time":124000000000,"state":"active","ping":67},{"user_id":572,"name":"WitheringLeo","steam_id":76561198046722918,"connected_time":1307000000000,"state":"active","ping":73},{"user_id":586,"name":"[txc] garf","steam_id":76561198083078030,"connected_time":47000000000,"state":"active","ping":55},{"user_id":538,"name":"shaderoses","steam_id":76561198070800500,"connected_time":5283000000000,"state":"active","ping":71},{"user_id":576,"name":"ATL1 | to4st","steam_id":76561198981009008,"connected_time":1005000000000,"state":"active","ping":66},{"user_id":570,"name":"Hanky","steam_id":76561199042672335,"connected_time":1326000000000,"state":"active","ping":73},{"user_id":578,"name":"LionHeart","steam_id":76561198075573693,"connected_time":626000000000,"state":"active","ping":61},{"user_id":561,"name":"Inky (Coolest)","steam_id":76561198968337022,"connected_time":3028000000000,"state":"active","ping":51},{"user_id":541,"name":"trappy","steam_id":76561198402801140,"connected_time":5278000000000,"state":"active","ping":88},{"user_id":577,"name":"Vladikr1","steam_id":76561198401495362,"connected_time":868000000000,"state":"active","ping":75},{"user_id":516,"name":"stink","steam_id":76561198099318923,"connected_time":7724000000000,"state":"active","ping":76},{"user_id":505,"name":"ash","steam_id":76561198127890645,"connected_time":9910000000000,"state":"active","ping":61},{"user_id":568,"name":"C papi","steam_id":76561198027779564,"connected_time":1720000000000,"state":"active","ping":57},{"user_id":562,"name":"ATL1 | Lav4ie They/Them","steam_id":76561198825997674,"connected_time":2976000000000,"state":"active","ping":68},{"user_id":579,"name":"Alt","steam_id":76561197992591984,"connected_time":421000000000,"state":"active","ping":76},{"user_id":560,"name":"☙ Corrupt ❧","steam_id":76561197977631915,"connected_time":3126000000000,"state":"active","ping":68},{"user_id":567,"name":"[txc] milk","steam_id":76561198127457787,"connected_time":2204000000000,"state":"active","ping":74},{"user_id":574,"name":"DFR Le4n!!!","steam_id":76561198045522596,"connected_time":1285000000000,"state":"active","ping":77}]},{"server_id":400,"name":"Uncletopia | Atlanta | 3 | Stopwatch Beta","name_short":"atl-3","host":"atl-1.us.uncletopia.com","port":27035,"enabled":true,"region":"us-east","cc":"us","latitude":33.753746,"longitude":-84.38633,"reserved":0,"last_update":"0001-01-01T00:00:00Z","name_a2s":"Uncletopia | Atlanta | 3 | Stopwatch Beta","protocol":17,"map":"pl_upward","folder":"tf","game":"Team Fortress","app_id":440,"player_count":0,"max_players":24,"Bots":0,"server_type":"Dedicated","server_os":"Linux","password":true,"vac":true,"version":"7742253","steam_id":85568392924515187,"keywords":["nocrits","nodmgspread","payload","uncletopia"],"game_id":440,"stv_port":27036,"stv_name":"Uncletopia | Atlanta | 3 | Stopwatch Beta | STV","players":null},{"server_id":401,"name":"Uncletopia | Atlanta | 4 | No Payload","name_short":"atl-4","host":"atl-1.us.uncletopia.com","port":27045,"enabled":true,"region":"us-east","cc":"us","latitude":33.753746,"longitude":-84.38633,"reserved":0,"last_update":"0001-01-01T00:00:00Z","name_a2s":"Uncletopia | Atlanta | 4 | No Payload","protocol":17,"map":"pl_pier","folder":"tf","game":"Team Fortress","app_id":440,"player_count":0,"max_players":24,"Bots":0,"server_type":"Dedicated","server_os":"Linux","password":true,"vac":true,"version":"7723704","steam_id":85568392924515188,"keywords":["nocrits","nodmgspread","payload","uncletopia"],"game_id":440,"stv_port":27046,"stv_name":"Uncletopia | Atlanta | 4 | No Payload | STV","players":null},{"server_id":2,"name":"Uncletopia | Chicago | 1 | All Maps","name_short":"chi-1","host":"chi-1.us.uncletopia.com","port":27015,"enabled":true,"region":"us-central","cc":"us","latitude":41.881832,"longitude":-87.62318,"reserved":0,"last_update":"0001-01-01T00:00:00Z","name_a2s":"Uncletopia | Chicago | 1 | All Maps","protocol":17,"map":"pl_frontier_final","folder":"tf","game":"Team Fortress","app_id":440,"player_count":23,"max_players":24,"Bots":0,"server_type":"Dedicated","server_os":"Linux","password":true,"vac":true,"version":"7742253","steam_id":85568392924469984,"keywords":["nocrits","nodmgspread","payload","uncletopia"],"game_id":440,"stv_port":27016,"stv_name":"Uncletopia | Chicago | 1 | All Maps | STV","players":[{"user_id":664,"name":"David De Bergerac","steam_id":76561198010306294,"connected_time":4500000000000,"state":"active","ping":77},{"user_id":707,"name":"Dan Flashes Rewards Card Holder","steam_id":76561199215811448,"connected_time":476000000000,"state":"active","ping":65},{"user_id":683,"name":"penguinlord","steam_id":76561198305192692,"connected_time":1799000000000,"state":"active","ping":45},{"user_id":713,"name":"Mothership","steam_id":76561198044029501,"connected_time":189000000000,"state":"active","ping":147},{"user_id":714,"name":"Skuntle Bingoid","steam_id":76561198046942778,"connected_time":131000000000,"state":"active","ping":73},{"user_id":708,"name":"Dr. Pleasant","steam_id":76561198111945101,"connected_time":475000000000,"state":"active","ping":66},{"user_id":710,"name":"Avril Lavigne Enthusiast","steam_id":76561198090413533,"connected_time":337000000000,"state":"active","ping":54},{"user_id":694,"name":"0rangeJuicé","steam_id":76561198408593857,"connected_time":1542000000000,"state":"active","ping":58},{"user_id":662,"name":"Witch!","steam_id":76561198062763756,"connected_time":4517000000000,"state":"active","ping":45},{"user_id":715,"name":"Shwal","steam_id":76561198138840448,"connected_time":108000000000,"state":"active","ping":88},{"user_id":704,"name":"ุ","steam_id":76561198170624701,"connected_time":825000000000,"state":"active","ping":78},{"user_id":716,"name":"the final penis friday of 2012","steam_id":76561198071229473,"connected_time":105000000000,"state":"active","ping":65},{"user_id":687,"name":"Trusty","steam_id":76561198035444237,"connected_time":1737000000000,"state":"active","ping":65},{"user_id":711,"name":"Shmoopy","steam_id":76561198030459152,"connected_time":273000000000,"state":"active","ping":76},{"user_id":717,"name":"big texas cum","steam_id":76561198031794961,"connected_time":100000000000,"state":"active","ping":52},{"user_id":688,"name":"Casual Crusader","steam_id":76561198153584395,"connected_time":1731000000000,"state":"active","ping":82},{"user_id":649,"name":"TheToastingToaster","steam_id":76561198439391966,"connected_time":8118000000000,"state":"active","ping":59},{"user_id":718,"name":"Jerma983","steam_id":76561198104182138,"connected_time":99000000000,"state":"active","ping":70},{"user_id":654,"name":"Liquid Oxycodone","steam_id":76561198154162664,"connected_time":7599000000000,"state":"active","ping":75},{"user_id":680,"name":"potato pat","steam_id":76561198025489194,"connected_time":2248000000000,"state":"active","ping":86},{"user_id":703,"name":"Malaflub_55","steam_id":76561199112453790,"connected_time":870000000000,"state":"active","ping":55},{"user_id":693,"name":"The Muffin Man","steam_id":76561199088286427,"connected_time":1640000000000,"state":"active","ping":91},{"user_id":719,"name":"Tom","steam_id":76561198126800063,"connected_time":53000000000,"state":"active","ping":127}]},{"server_id":106,"name":"Uncletopia | Chicago | 2 | All Maps","name_short":"chi-2","host":"chi-1.us.uncletopia.com","port":27025,"enabled":true,"region":"us-central","cc":"us","latitude":41.881832,"longitude":-87.62318,"reserved":0,"last_update":"0001-01-01T00:00:00Z","name_a2s":"Uncletopia | Chicago | 2 | All Maps","protocol":17,"map":"pl_badwater","folder":"tf","game":"Team Fortress","app_id":440,"player_count":24,"max_players":24,"Bots":0,"server_type":"Dedicated","server_os":"Linux","password":true,"vac":true,"version":"7742253","steam_id":85568392924469985,"keywords":["nocrits","nodmgspread","payload","uncletopia"],"game_id":440,"stv_port":27026,"stv_name":"Uncletopia | Chicago | 2 | All Maps | STV","players":[{"user_id":710,"name":"SketchMeister","steam_id":76561198042362032,"connected_time":596000000000,"state":"active","ping":45},{"user_id":713,"name":"Suicide Simulator","steam_id":76561199384140341,"connected_time":202000000000,"state":"active","ping":65},{"user_id":667,"name":"skiky","steam_id":76561198797004708,"connected_time":5208000000000,"state":"active","ping":76},{"user_id":657,"name":"Cloudman","steam_id":76561198041389138,"connected_time":5727000000000,"state":"active","ping":75},{"user_id":694,"name":"Elmo","steam_id":76561198838596371,"connected_time":2605000000000,"state":"active","ping":48},{"user_id":706,"name":"cassius","steam_id":76561198203851303,"connected_time":988000000000,"state":"active","ping":95},{"user_id":688,"name":"WannaSeeA","steam_id":76561198097701042,"connected_time":3060000000000,"state":"active","ping":71},{"user_id":676,"name":"Ignited","steam_id":76561198385604391,"connected_time":3855000000000,"state":"active","ping":68},{"user_id":709,"name":"Rantov","steam_id":76561198302886329,"connected_time":827000000000,"state":"active","ping":46},{"user_id":703,"name":"poey","steam_id":76561198865346767,"connected_time":1442000000000,"state":"active","ping":97},{"user_id":708,"name":"Grandpa Simpson (Official)","steam_id":76561198057607033,"connected_time":835000000000,"state":"active","ping":60},{"user_id":666,"name":"ShitsandGiggles™","steam_id":76561198058708019,"connected_time":5381000000000,"state":"active","ping":50},{"user_id":714,"name":"Metal 9","steam_id":76561198178318343,"connected_time":81000000000,"state":"active","ping":68},{"user_id":684,"name":"chucknut","steam_id":76561199329553584,"connected_time":3300000000000,"state":"active","ping":137},{"user_id":680,"name":"-flagellum","steam_id":76561198006297974,"connected_time":3546000000000,"state":"active","ping":57},{"user_id":715,"name":"IRAcide","steam_id":76561198236149504,"connected_time":66000000000,"state":"active","ping":98},{"user_id":665,"name":"malon milk","steam_id":76561198042558913,"connected_time":5479000000000,"state":"active","ping":77},{"user_id":652,"name":"Grayo","steam_id":76561198059652623,"connected_time":6477000000000,"state":"active","ping":61},{"user_id":670,"name":"celty","steam_id":76561198141204302,"connected_time":4157000000000,"state":"active","ping":77},{"user_id":716,"name":"[T]aKer","steam_id":76561198001778013,"connected_time":63000000000,"state":"active","ping":137},{"user_id":668,"name":"CreativeUsername","steam_id":76561198186045503,"connected_time":5183000000000,"state":"active","ping":50},{"user_id":682,"name":"Lil Spoook","steam_id":76561198115638936,"connected_time":3364000000000,"state":"active","ping":61},{"user_id":681,"name":"Xx_PR3TTY_R4VE_G!R1_xX","steam_id":76561199059016425,"connected_time":3418000000000,"state":"active","ping":51},{"user_id":705,"name":"comet sooicidy","steam_id":76561198025173479,"connected_time":1410000000000,"state":"active","ping":87}]},{"server_id":402,"name":"Uncletopia | Chicago | 3 | All Maps","name_short":"chi-3","host":"chi-1.us.uncletopia.com","port":27035,"enabled":true,"region":"us-central","cc":"us","latitude":41.881832,"longitude":-87.62318,"reserved":0,"last_update":"0001-01-01T00:00:00Z","name_a2s":"Uncletopia | Chicago | 3 | All Maps","protocol":17,"map":"pl_badwater","folder":"tf","game":"Team Fortress","app_id":440,"player_count":24,"max_players":24,"Bots":0,"server_type":"Dedicated","server_os":"Linux","password":true,"vac":true,"version":"7742253","steam_id":85568392924515191,"keywords":["nocrits","nodmgspread","payload","uncletopia"],"game_id":440,"stv_port":27036,"stv_name":"Uncletopia | Chicago | 3 | All Maps | STV","players":[{"user_id":605,"name":"quiche","steam_id":76561199389567487,"connected_time":88000000000,"state":"spawning","ping":609},{"user_id":589,"name":"BADLANDS CHUGS","steam_id":76561198129028971,"connected_time":1145000000000,"state":"spawning","ping":107},{"user_id":609,"name":"TerracottaP","steam_id":76561199402983168,"connected_time":13000000000,"state":"spawning","ping":240},{"user_id":602,"name":"ForShovelry1","steam_id":76561198149395527,"connected_time":498000000000,"state":"spawning","ping":120},{"user_id":530,"name":"you are loved","steam_id":76561198108524571,"connected_time":5698000000000,"state":"spawning","ping":207},{"user_id":604,"name":"Dust","steam_id":76561198063959574,"connected_time":294000000000,"state":"spawning","ping":174},{"user_id":608,"name":"1 DEACONRAP FAN","steam_id":76561198799763267,"connected_time":20000000000,"state":"spawning","ping":124},{"user_id":610,"name":"breathing meat donut","steam_id":76561198123566649,"connected_time":4000000000,"state":"spawning","ping":237},{"user_id":573,"name":"Antknee","steam_id":76561198263793809,"connected_time":2903000000000,"state":"spawning","ping":129},{"user_id":607,"name":"Lost","steam_id":76561198025933206,"connected_time":77000000000,"state":"spawning","ping":157},{"user_id":565,"name":"bass97","steam_id":76561198849018884,"connected_time":3694000000000,"state":"spawning","ping":132},{"user_id":599,"name":"SuperFresh","steam_id":76561198200723198,"connected_time":754000000000,"state":"spawning","ping":109},{"user_id":529,"name":"kairOs.fk","steam_id":76561197972421260,"connected_time":5902000000000,"state":"spawning","ping":152},{"user_id":593,"name":"TheAilingSword","steam_id":76561198250350844,"connected_time":996000000000,"state":"spawning","ping":136},{"user_id":459,"name":"A Puppy","steam_id":76561198828184456,"connected_time":9785000000000,"state":"spawning","ping":143},{"user_id":579,"name":"100 PERCENT PURE CROWTEIN","steam_id":76561198011134631,"connected_time":1993000000000,"state":"spawning","ping":162},{"user_id":594,"name":"Pop Pop","steam_id":76561198211396781,"connected_time":988000000000,"state":"spawning","ping":165},{"user_id":566,"name":"dog","steam_id":76561198295237946,"connected_time":3693000000000,"state":"spawning","ping":221},{"user_id":595,"name":"Frosti","steam_id":76561198332850064,"connected_time":970000000000,"state":"spawning","ping":109},{"user_id":596,"name":"Bojangles Sr. VIII","steam_id":76561198354564001,"connected_time":896000000000,"state":"spawning","ping":117},{"user_id":567,"name":"Duncan Idaho","steam_id":76561197988963861,"connected_time":3676000000000,"state":"spawning","ping":226},{"user_id":577,"name":"dahperson","steam_id":76561198067207467,"connected_time":2727000000000,"state":"spawning","ping":99},{"user_id":585,"name":"PHONE","steam_id":76561198029268743,"connected_time":1841000000000,"state":"spawning","ping":154},{"user_id":588,"name":"bad spy player","steam_id":76561198873699671,"connected_time":1203000000000,"state":"spawning","ping":239}]},{"server_id":403,"name":"Uncletopia | Chicago | 4 | All Maps","name_short":"chi-4","host":"chi-1.us.uncletopia.com","port":27045,"enabled":true,"region":"us-central","cc":"us","latitude":41.881832,"longitude":-87.62318,"reserved":0,"last_update":"0001-01-01T00:00:00Z","name_a2s":"Uncletopia | Chicago | 4 | All Maps","protocol":17,"map":"pl_pier","folder":"tf","game":"Team Fortress","app_id":440,"player_count":23,"max_players":24,"Bots":0,"server_type":"Dedicated","server_os":"Linux","password":true,"vac":true,"version":"7742253","steam_id":85568392924515193,"keywords":["nocrits","nodmgspread","payload","uncletopia"],"game_id":440,"stv_port":27046,"stv_name":"Uncletopia | Chicago | 4 | All Maps | STV","players":[{"user_id":491,"name":"Simply G","steam_id":76561199221934609,"connected_time":80000000000,"state":"active","ping":104},{"user_id":453,"name":"Distinguished Banana","steam_id":76561198143930557,"connected_time":3047000000000,"state":"active","ping":62},{"user_id":494,"name":"Rikuus","steam_id":76561198093799835,"connected_time":0,"state":"spawning","ping":18},{"user_id":458,"name":"morbissey","steam_id":76561198072592880,"connected_time":2301000000000,"state":"active","ping":40},{"user_id":460,"name":"Raine","steam_id":76561199081937889,"connected_time":2248000000000,"state":"active","ping":70},{"user_id":487,"name":"Aspxts","steam_id":76561199125254746,"connected_time":911000000000,"state":"active","ping":54},{"user_id":482,"name":"Pal","steam_id":76561198004363431,"connected_time":1080000000000,"state":"active","ping":87},{"user_id":473,"name":"xeeyuh","steam_id":76561198822313775,"connected_time":1812000000000,"state":"active","ping":79},{"user_id":479,"name":"methlord84093234","steam_id":76561198186390474,"connected_time":1150000000000,"state":"active","ping":96},{"user_id":483,"name":"yenseii","steam_id":76561198304265800,"connected_time":1030000000000,"state":"active","ping":73},{"user_id":463,"name":"Mr. Morrow","steam_id":76561198011333701,"connected_time":2126000000000,"state":"active","ping":68},{"user_id":474,"name":"wezeer","steam_id":76561198407577922,"connected_time":1715000000000,"state":"active","ping":53},{"user_id":462,"name":"glitch","steam_id":76561197979495589,"connected_time":2210000000000,"state":"active","ping":61},{"user_id":427,"name":"matchstick","steam_id":76561198190100027,"connected_time":5299000000000,"state":"active","ping":62},{"user_id":424,"name":"bobdragon27","steam_id":76561198065833387,"connected_time":5357000000000,"state":"active","ping":59},{"user_id":481,"name":"AAAAAAAAAAAAAAAAAAAAAAAAAAAAAAA","steam_id":76561198125467937,"connected_time":1116000000000,"state":"active","ping":112},{"user_id":475,"name":"jaboody","steam_id":76561197997274845,"connected_time":1639000000000,"state":"active","ping":62},{"user_id":425,"name":"snawg","steam_id":76561198141739280,"connected_time":5341000000000,"state":"active","ping":99},{"user_id":488,"name":"Raven","steam_id":76561198393887732,"connected_time":594000000000,"state":"active","ping":70},{"user_id":400,"name":"Semyr","steam_id":76561198125655939,"connected_time":6998000000000,"state":"active","ping":67},{"user_id":486,"name":"JoānKisaragiⱽ⁰","steam_id":76561199370650064,"connected_time":1013000000000,"state":"active","ping":130},{"user_id":492,"name":"Jax_Senn","steam_id":76561199092522972,"connected_time":75000000000,"state":"active","ping":75},{"user_id":478,"name":"Rainbow","steam_id":76561199036658795,"connected_time":1427000000000,"state":"active","ping":76}]},{"server_id":36,"name":"Uncletopia | Chicago | 5 | All Maps","name_short":"chi-5","host":"chi-2.us.uncletopia.com","port":27015,"enabled":true,"region":"us-central","cc":"us","latitude":41.881832,"longitude":-87.62318,"reserved":0,"last_update":"0001-01-01T00:00:00Z","name_a2s":"Uncletopia | Chicago | 5 | All Maps","protocol":17,"map":"pl_coal_event","folder":"tf","game":"Team Fortress","app_id":440,"player_count":24,"max_players":24,"Bots":0,"server_type":"Dedicated","server_os":"Linux","password":true,"vac":true,"version":"7742253","steam_id":85568392924866362,"keywords":["nocrits","nodmgspread","payload","uncletopia"],"game_id":440,"stv_port":27016,"stv_name":"Uncletopia | Chicago | 5 | All Maps | STV","players":[{"user_id":182,"name":"Undertime Slopper","steam_id":76561198396789061,"connected_time":2977000000000,"state":"active","ping":88},{"user_id":177,"name":"Jamendithas","steam_id":76561198119537716,"connected_time":3841000000000,"state":"active","ping":69},{"user_id":221,"name":"lanoc","steam_id":76561198055415367,"connected_time":846000000000,"state":"active","ping":63},{"user_id":217,"name":"vyx","steam_id":76561198037205391,"connected_time":1294000000000,"state":"active","ping":60},{"user_id":208,"name":"Bush's Baked Beans","steam_id":76561198992019588,"connected_time":1411000000000,"state":"active","ping":69},{"user_id":209,"name":"Pakidude","steam_id":76561198142093134,"connected_time":1402000000000,"state":"active","ping":69},{"user_id":223,"name":"AlecTheNefarious","steam_id":76561198035291230,"connected_time":467000000000,"state":"active","ping":72},{"user_id":159,"name":"Zeora","steam_id":76561198799145251,"connected_time":5068000000000,"state":"active","ping":70},{"user_id":210,"name":"4r da locals","steam_id":76561198147746558,"connected_time":1368000000000,"state":"active","ping":60},{"user_id":225,"name":"KTB","steam_id":76561197990744614,"connected_time":409000000000,"state":"active","ping":52},{"user_id":188,"name":"BigOrca54","steam_id":76561198181360271,"connected_time":2684000000000,"state":"active","ping":63},{"user_id":203,"name":"Trap Card","steam_id":76561197991648012,"connected_time":1731000000000,"state":"active","ping":76},{"user_id":169,"name":"CrowbarCat","steam_id":76561198197755101,"connected_time":4352000000000,"state":"active","ping":103},{"user_id":222,"name":"boog","steam_id":76561198010203040,"connected_time":559000000000,"state":"active","ping":69},{"user_id":205,"name":"MR.meeseeks","steam_id":76561198294943420,"connected_time":1529000000000,"state":"active","ping":75},{"user_id":212,"name":"azr","steam_id":76561198146234744,"connected_time":1355000000000,"state":"active","ping":76},{"user_id":213,"name":"sithreis","steam_id":76561198000564263,"connected_time":1325000000000,"state":"active","ping":74},{"user_id":214,"name":"boy actress","steam_id":76561198106690989,"connected_time":1323000000000,"state":"active","ping":74},{"user_id":215,"name":"Shamoo56","steam_id":76561198010019214,"connected_time":1321000000000,"state":"active","ping":69},{"user_id":216,"name":"java","steam_id":76561198030276792,"connected_time":1313000000000,"state":"active","ping":73},{"user_id":226,"name":"snark","steam_id":76561198132980859,"connected_time":367000000000,"state":"active","ping":60},{"user_id":173,"name":"GarlicDipp","steam_id":76561198064438763,"connected_time":4289000000000,"state":"active","ping":103},{"user_id":180,"name":"pilk♡","steam_id":76561198284683550,"connected_time":3620000000000,"state":"active","ping":82},{"user_id":219,"name":"middd","steam_id":76561198072996397,"connected_time":1167000000000,"state":"active","ping":69}]},{"server_id":37,"name":"Uncletopia | Chicago | 6 | All Maps","name_short":"chi-6","host":"chi-2.us.uncletopia.com","port":27025,"enabled":true,"region":"us-central","cc":"us","latitude":41.881832,"longitude":-87.62318,"reserved":0,"last_update":"0001-01-01T00:00:00Z","name_a2s":"Uncletopia | Chicago | 6 | All Maps","protocol":17,"map":"pl_borneo","folder":"tf","game":"Team Fortress","app_id":440,"player_count":24,"max_players":24,"Bots":0,"server_type":"Dedicated","server_os":"Linux","password":true,"vac":true,"version":"7742253","steam_id":85568392924866363,"keywords":["nocrits","nodmgspread","payload","uncletopia"],"game_id":440,"stv_port":27026,"stv_name":"Uncletopia | Chicago | 6 | All Maps | STV","players":[{"user_id":484,"name":"starboy","steam_id":76561198072072241,"connected_time":2569000000000,"state":"active","ping":50},{"user_id":501,"name":"FireQuiz","steam_id":76561198107357249,"connected_time":1095000000000,"state":"active","ping":106},{"user_id":499,"name":"RhyThm","steam_id":76561198090916616,"connected_time":1442000000000,"state":"active","ping":76},{"user_id":435,"name":"tyler","steam_id":76561198112039956,"connected_time":4603000000000,"state":"active","ping":68},{"user_id":493,"name":"Eureka","steam_id":76561198072295401,"connected_time":1950000000000,"state":"active","ping":59},{"user_id":508,"name":"Leviathan","steam_id":76561197997528907,"connected_time":719000000000,"state":"active","ping":54},{"user_id":439,"name":"Dealyo","steam_id":76561198282395338,"connected_time":4487000000000,"state":"active","ping":73},{"user_id":497,"name":"[GUT] RiDiK®","steam_id":76561197969756446,"connected_time":1477000000000,"state":"active","ping":52},{"user_id":509,"name":"WalrusNyetheBonkGuy","steam_id":76561197995626774,"connected_time":650000000000,"state":"active","ping":109},{"user_id":400,"name":"blob","steam_id":76561198122375328,"connected_time":6763000000000,"state":"active","ping":141},{"user_id":511,"name":"Dr. Martin Luther","steam_id":76561198064572586,"connected_time":601000000000,"state":"active","ping":70},{"user_id":447,"name":"bee gamer","steam_id":76561198092135570,"connected_time":4248000000000,"state":"active","ping":71},{"user_id":515,"name":"Negurescu","steam_id":76561198128777349,"connected_time":334000000000,"state":"active","ping":163},{"user_id":494,"name":"game sucks","steam_id":76561198237479738,"connected_time":1810000000000,"state":"active","ping":82},{"user_id":506,"name":"winkelwagen","steam_id":76561197987025017,"connected_time":819000000000,"state":"active","ping":91},{"user_id":490,"name":"[GUT] 13","steam_id":76561197985209820,"connected_time":2363000000000,"state":"active","ping":66},{"user_id":503,"name":"Jesus Of Suburbia","steam_id":76561198941700660,"connected_time":1079000000000,"state":"active","ping":118},{"user_id":510,"name":"Sicko Mode (Chris Pratt Cover)","steam_id":76561198315786174,"connected_time":647000000000,"state":"active","ping":99},{"user_id":507,"name":"Bee","steam_id":76561198074681324,"connected_time":772000000000,"state":"active","ping":67},{"user_id":517,"name":"Minnie","steam_id":76561198091052019,"connected_time":144000000000,"state":"active","ping":72},{"user_id":415,"name":"Ras","steam_id":76561198123546775,"connected_time":5528000000000,"state":"active","ping":61},{"user_id":516,"name":"SwingDickerson","steam_id":76561198045542926,"connected_time":210000000000,"state":"active","ping":75},{"user_id":495,"name":"Bluejay","steam_id":76561198092542171,"connected_time":1735000000000,"state":"active","ping":80},{"user_id":513,"name":"Theory-ZaZa","steam_id":76561198116419931,"connected_time":518000000000,"state":"active","ping":111}]},{"server_id":38,"name":"Uncletopia | Chicago | 7 | Stopwatch Beta","name_short":"chi-7","host":"chi-2.us.uncletopia.com","port":27035,"enabled":true,"region":"us-central","cc":"us","latitude":41.881832,"longitude":-87.62318,"reserved":0,"last_update":"0001-01-01T00:00:00Z","name_a2s":"Uncletopia | Chicago | 7 | Stopwatch Beta","protocol":17,"map":"pl_upward","folder":"tf","game":"Team Fortress","app_id":440,"player_count":0,"max_players":24,"Bots":0,"server_type":"Dedicated","server_os":"Linux","password":true,"vac":true,"version":"7742253","steam_id":85568392924866364,"keywords":["nocrits","nodmgspread","payload","uncletopia"],"game_id":440,"stv_port":27036,"stv_name":"Uncletopia | Chicago | 7 | Stopwatch Beta | STV","players":null},{"server_id":39,"name":"Uncletopia | Chicago | 8 | Community","name_short":"chi-8","host":"chi-2.us.uncletopia.com","port":27045,"enabled":true,"region":"us-central","cc":"us","latitude":41.881832,"longitude":-87.62318,"reserved":0,"last_update":"0001-01-01T00:00:00Z","name_a2s":"Uncletopia | Chicago | 8 | Community","protocol":17,"map":"workshop/koth_product_final.ugc454272353","folder":"tf","game":"Team Fortress","app_id":440,"player_count":0,"max_players":24,"Bots":0,"server_type":"Dedicated","server_os":"Linux","password":true,"vac":true,"version":"7742253","steam_id":85568392924866365,"keywords":["cp","nocrits","nodmgspread","uncletopia"],"game_id":440,"stv_port":27046,"stv_name":"Uncletopia | Chicago | 8 | Community | STV","players":null},{"server_id":8,"name":"Uncletopia | Dallas | 1 | All Maps","name_short":"dal-1","host":"dal-1.us.uncletopia.com","port":27015,"enabled":true,"region":"us-central","cc":"us","latitude":32.779167,"longitude":-96.80889,"reserved":0,"last_update":"0001-01-01T00:00:00Z","name_a2s":"Uncletopia | Dallas | 1 | All Maps","protocol":17,"map":"cp_mountainlab","folder":"tf","game":"Team Fortress","app_id":440,"player_count":23,"max_players":24,"Bots":0,"server_type":"Dedicated","server_os":"Linux","password":true,"vac":true,"version":"7742253","steam_id":85568392924469986,"keywords":["cp","nocrits","nodmgspread","uncletopia"],"game_id":440,"stv_port":27016,"stv_name":"Uncletopia | Dallas | 1 | All Maps | STV","players":[{"user_id":663,"name":"Nobody","steam_id":76561199352089107,"connected_time":1340000000000,"state":"active","ping":71},{"user_id":692,"name":"Krow","steam_id":76561198010392099,"connected_time":499000000000,"state":"active","ping":51},{"user_id":654,"name":"Mayor McCheese","steam_id":76561198063955582,"connected_time":1557000000000,"state":"active","ping":75},{"user_id":659,"name":"Sly Marbo","steam_id":76561198056476987,"connected_time":1396000000000,"state":"active","ping":65},{"user_id":669,"name":"Quack ò_ó   \u003c3","steam_id":76561198100375038,"connected_time":1182000000000,"state":"active","ping":71},{"user_id":694,"name":"Anderswo","steam_id":76561198253224241,"connected_time":493000000000,"state":"active","ping":85},{"user_id":547,"name":"MrHappyMAg","steam_id":76561198060359133,"connected_time":10090000000000,"state":"active","ping":44},{"user_id":664,"name":"WhistlingFox04","steam_id":76561198381509938,"connected_time":1334000000000,"state":"active","ping":90},{"user_id":658,"name":"Sneezes in braille","steam_id":76561198059502626,"connected_time":1487000000000,"state":"active","ping":66},{"user_id":656,"name":"water daniel","steam_id":76561198267702400,"connected_time":1504000000000,"state":"active","ping":56},{"user_id":697,"name":"addison","steam_id":76561198859580427,"connected_time":406000000000,"state":"active","ping":58},{"user_id":662,"name":"Jade (Fictional)","steam_id":76561198804884796,"connected_time":1371000000000,"state":"active","ping":63},{"user_id":666,"name":"Bargain Brand Cereal","steam_id":76561198440470058,"connected_time":1314000000000,"state":"active","ping":82},{"user_id":674,"name":"Zzzzzzz","steam_id":76561198046852115,"connected_time":1120000000000,"state":"active","ping":75},{"user_id":668,"name":"GarretGood","steam_id":76561198071881495,"connected_time":1229000000000,"state":"active","ping":100},{"user_id":699,"name":"pain.","steam_id":76561198289370780,"connected_time":290000000000,"state":"active","ping":75},{"user_id":672,"name":"Gardenof_onion","steam_id":76561198182087497,"connected_time":1151000000000,"state":"active","ping":53},{"user_id":691,"name":"Moctezuma","steam_id":76561198084075989,"connected_time":521000000000,"state":"active","ping":57},{"user_id":706,"name":"Blixstorm","steam_id":76561198352750870,"connected_time":72000000000,"state":"active","ping":96},{"user_id":677,"name":"Cringle McDuberry","steam_id":76561199122518364,"connected_time":1004000000000,"state":"active","ping":57},{"user_id":678,"name":"CampinCarl","steam_id":76561197997373624,"connected_time":990000000000,"state":"active","ping":83},{"user_id":681,"name":"Stylo","steam_id":76561198157735574,"connected_time":897000000000,"state":"active","ping":125},{"user_id":695,"name":"arashsmash","steam_id":76561198277649058,"connected_time":477000000000,"state":"active","ping":91}]},{"server_id":108,"name":"Uncletopia | Dallas | 2 | All Maps","name_short":"dal-2","host":"dal-1.us.uncletopia.com","port":27025,"enabled":true,"region":"us-central","cc":"us","latitude":32.779167,"longitude":-96.80889,"reserved":0,"last_update":"0001-01-01T00:00:00Z","name_a2s":"Uncletopia | Dallas | 2 | All Maps","protocol":17,"map":"pl_snowycoast","folder":"tf","game":"Team Fortress","app_id":440,"player_count":24,"max_players":24,"Bots":0,"server_type":"Dedicated","server_os":"Linux","password":true,"vac":true,"version":"7742253","steam_id":85568392924469988,"keywords":["nocrits","nodmgspread","payload","uncletopia"],"game_id":440,"stv_port":27026,"stv_name":"Uncletopia | Dallas | 2 | All Maps | STV","players":[{"user_id":626,"name":"DeadlyPinkSheep","steam_id":76561198271773858,"connected_time":627000000000,"state":"active","ping":55},{"user_id":596,"name":"Moonflower ✦","steam_id":76561198191782483,"connected_time":2758000000000,"state":"active","ping":65},{"user_id":570,"name":"KFC☭","steam_id":76561199206815320,"connected_time":6035000000000,"state":"active","ping":70},{"user_id":631,"name":"Professor Cuthbert Calculus","steam_id":76561198003257461,"connected_time":266000000000,"state":"active","ping":105},{"user_id":619,"name":"superboyDJ","steam_id":76561198985347002,"connected_time":1413000000000,"state":"active","ping":104},{"user_id":624,"name":"Mailman","steam_id":76561198090675970,"connected_time":1223000000000,"state":"active","ping":61},{"user_id":609,"name":"JasonIsGold79","steam_id":76561198101441539,"connected_time":1772000000000,"state":"active","ping":106},{"user_id":627,"name":"s0rryn0tsos0rry","steam_id":76561198302912838,"connected_time":613000000000,"state":"active","ping":60},{"user_id":630,"name":"Alset","steam_id":76561197993820174,"connected_time":306000000000,"state":"active","ping":57},{"user_id":628,"name":"a bucket of chicken","steam_id":76561198023710042,"connected_time":598000000000,"state":"active","ping":55},{"user_id":621,"name":"Dead Dude","steam_id":76561197965448444,"connected_time":1375000000000,"state":"active","ping":60},{"user_id":606,"name":"Genuine angeri","steam_id":76561198044549863,"connected_time":1907000000000,"state":"active","ping":91},{"user_id":569,"name":"Snoopy","steam_id":76561198273735974,"connected_time":6148000000000,"state":"active","ping":81},{"user_id":582,"name":"SpA_Ceyy","steam_id":76561199011611671,"connected_time":4794000000000,"state":"active","ping":58},{"user_id":620,"name":"TheConchinator","steam_id":76561199388149092,"connected_time":1398000000000,"state":"active","ping":78},{"user_id":625,"name":"Riff","steam_id":76561198066921423,"connected_time":940000000000,"state":"active","ping":63},{"user_id":629,"name":"tobrehto","steam_id":76561198097544038,"connected_time":526000000000,"state":"active","ping":75},{"user_id":575,"name":"Astro","steam_id":76561198035676106,"connected_time":5430000000000,"state":"active","ping":64},{"user_id":614,"name":"FG7","steam_id":76561198381197197,"connected_time":1523000000000,"state":"active","ping":110},{"user_id":605,"name":"blehz","steam_id":76561198048429098,"connected_time":2075000000000,"state":"active","ping":102},{"user_id":622,"name":"OMEGA","steam_id":76561199050639351,"connected_time":1371000000000,"state":"active","ping":102},{"user_id":514,"name":"Pitch Stick","steam_id":76561198800287853,"connected_time":8446000000000,"state":"active","ping":139},{"user_id":616,"name":"redzach","steam_id":76561198444094359,"connected_time":1505000000000,"state":"active","ping":74},{"user_id":623,"name":"jer","steam_id":76561198148235230,"connected_time":1371000000000,"state":"active","ping":87}]},{"server_id":5,"name":"Uncletopia | Frankfurt | 1 | All Maps","name_short":"frk-1","host":"frk-1.de.uncletopia.com","port":27015,"enabled":true,"region":"eu","cc":"de","latitude":50.110924,"longitude":8.682127,"reserved":0,"last_update":"0001-01-01T00:00:00Z","name_a2s":"Uncletopia | Frankfurt | 1 | All Maps","protocol":17,"map":"pl_borneo","folder":"tf","game":"Team Fortress","app_id":440,"player_count":0,"max_players":24,"Bots":0,"server_type":"Dedicated","server_os":"Linux","password":true,"vac":true,"version":"7742253","steam_id":85568392924469989,"keywords":["nocrits","nodmgspread","payload","uncletopia"],"game_id":440,"stv_port":27016,"stv_name":"Uncletopia | Frankfurt | 1 | All Maps | STV","players":null},{"server_id":110,"name":"Uncletopia | Frankfurt | 2 | All Maps","name_short":"frk-2","host":"frk-1.de.uncletopia.com","port":27025,"enabled":true,"region":"eu","cc":"de","latitude":50.110924,"longitude":8.682127,"reserved":0,"last_update":"0001-01-01T00:00:00Z","name_a2s":"Uncletopia | Frankfurt | 2 | All Maps","protocol":17,"map":"pl_swiftwater_final1","folder":"tf","game":"Team Fortress","app_id":440,"player_count":0,"max_players":24,"Bots":0,"server_type":"Dedicated","server_os":"Linux","password":true,"vac":true,"version":"7742253","steam_id":85568392924469990,"keywords":["nocrits","nodmgspread","payload","uncletopia"],"game_id":440,"stv_port":27026,"stv_name":"Uncletopia | Frankfurt | 2 | All Maps | STV","players":null},{"server_id":308,"name":"Uncletopia | Frankfurt | 3 | All Maps","name_short":"frk-3","host":"frk-1.de.uncletopia.com","port":27035,"enabled":true,"region":"eu","cc":"de","latitude":50.110924,"longitude":8.682127,"reserved":0,"last_update":"0001-01-01T00:00:00Z","name_a2s":"Uncletopia | Frankfurt | 3 | All Maps","protocol":17,"map":"cp_dustbowl","folder":"tf","game":"Team Fortress","app_id":440,"player_count":0,"max_players":24,"Bots":0,"server_type":"Dedicated","server_os":"Linux","password":true,"vac":true,"version":"7742253","steam_id":85568392924504274,"keywords":["cp","nocrits","nodmgspread","uncletopia"],"game_id":440,"stv_port":27036,"stv_name":"Uncletopia | Frankfurt | 3 | All Maps | STV","players":null},{"server_id":309,"name":"Uncletopia | Frankfurt | 4 | All Maps","name_short":"frk-4","host":"frk-1.de.uncletopia.com","port":27045,"enabled":true,"region":"eu","cc":"de","latitude":50.110924,"longitude":8.682127,"reserved":0,"last_update":"0001-01-01T00:00:00Z","name_a2s":"Uncletopia | Frankfurt | 4 | All Maps","protocol":17,"map":"cp_sunshine","folder":"tf","game":"Team Fortress","app_id":440,"player_count":0,"max_players":24,"Bots":0,"server_type":"Dedicated","server_os":"Linux","password":true,"vac":true,"version":"7742253","steam_id":85568392924504275,"keywords":["cp","nocrits","nodmgspread","uncletopia"],"game_id":440,"stv_port":27046,"stv_name":"Uncletopia | Frankfurt | 4 | All Maps | STV","players":null},{"server_id":310,"name":"Uncletopia | Frankfurt | 5 | All Maps","name_short":"frk-5","host":"frk-1.de.uncletopia.com","port":27055,"enabled":true,"region":"eu","cc":"de","latitude":50.110924,"longitude":8.682127,"reserved":0,"last_update":"0001-01-01T00:00:00Z","name_a2s":"Uncletopia | Frankfurt | 5 | All Maps","protocol":17,"map":"cp_snakewater_final1","folder":"tf","game":"Team Fortress","app_id":440,"player_count":0,"max_players":24,"Bots":0,"server_type":"Dedicated","server_os":"Linux","password":true,"vac":true,"version":"7742253","steam_id":85568392924504277,"keywords":["cp","nocrits","nodmgspread","uncletopia"],"game_id":440,"stv_port":27056,"stv_name":"Uncletopia | Frankfurt | 5 | All Maps | STV","players":null},{"server_id":311,"name":"Uncletopia | Frankfurt | 6 | All Maps","name_short":"frk-6","host":"frk-1.de.uncletopia.com","port":27065,"enabled":true,"region":"eu","cc":"de","latitude":50.110924,"longitude":8.682127,"reserved":0,"last_update":"0001-01-01T00:00:00Z","name_a2s":"Uncletopia | Frankfurt | 6 | All Maps","protocol":17,"map":"koth_lakeside_final","folder":"tf","game":"Team Fortress","app_id":440,"player_count":0,"max_players":24,"Bots":0,"server_type":"Dedicated","server_os":"Linux","password":true,"vac":true,"version":"7742253","steam_id":85568392924504278,"keywords":["cp","nocrits","nodmgspread","uncletopia"],"game_id":440,"stv_port":27066,"stv_name":"Uncletopia | Frankfurt | 6 | All Maps | STV","players":null},{"server_id":23,"name":"Uncletopia | Frankfurt | 7 | Stopwatch Beta","name_short":"frk-7","host":"frk-1.de.uncletopia.com","port":27075,"enabled":true,"region":"eu","cc":"de","latitude":50.110924,"longitude":8.682127,"reserved":0,"last_update":"0001-01-01T00:00:00Z","name_a2s":"Uncletopia | Frankfurt | 7 | Stopwatch Beta","protocol":17,"map":"pl_badwater","folder":"tf","game":"Team Fortress","app_id":440,"player_count":0,"max_players":24,"Bots":0,"server_type":"Dedicated","server_os":"Linux","password":true,"vac":true,"version":"7742253","steam_id":85568392924742827,"keywords":["nocrits","nodmgspread","payload","uncletopia"],"game_id":440,"stv_port":27076,"stv_name":"Uncletopia | Frankfurt | 7 | Stopwatch Beta | STV","players":null},{"server_id":24,"name":"Uncletopia | Frankfurt | 8 | Community","name_short":"frk-8","host":"frk-1.de.uncletopia.com","port":27085,"enabled":true,"region":"eu","cc":"de","latitude":50.110924,"longitude":8.682127,"reserved":0,"last_update":"0001-01-01T00:00:00Z","name_a2s":"Uncletopia | Frankfurt | 8 | Community","protocol":17,"map":"koth_cascade","folder":"tf","game":"Team Fortress","app_id":440,"player_count":0,"max_players":24,"Bots":0,"server_type":"Dedicated","server_os":"Linux","password":true,"vac":true,"version":"7742253","steam_id":85568392924742828,"keywords":["cp","nocrits","nodmgspread","uncletopia"],"game_id":440,"stv_port":27086,"stv_name":"Uncletopia | Frankfurt | 8 | Community | STV","players":null},{"server_id":202,"name":"Uncletopia | Hong Kong | 1 | All Maps","name_short":"hgk-1","host":"hgk-1.hk.uncletopia.com","port":27015,"enabled":true,"region":"asia","cc":"hk","latitude":22.302711,"longitude":114.177216,"reserved":0,"last_update":"0001-01-01T00:00:00Z","name_a2s":"Uncletopia | Hong Kong | 1 | All Maps","protocol":17,"map":"pl_pier","folder":"tf","game":"Team Fortress","app_id":440,"player_count":24,"max_players":24,"Bots":0,"server_type":"Dedicated","server_os":"Linux","password":true,"vac":true,"version":"7742253","steam_id":85568392924494504,"keywords":["nocrits","nodmgspread","payload","uncletopia"],"game_id":440,"stv_port":27016,"stv_name":"Uncletopia | Hong Kong | 1 | All Maps | STV","players":[{"user_id":61,"name":"derek.patriarca30","steam_id":76561199427230206,"connected_time":5525000000000,"state":"active","ping":57},{"user_id":120,"name":"alphakennybuddy","steam_id":76561199219625644,"connected_time":1186000000000,"state":"active","ping":118},{"user_id":113,"name":"qb","steam_id":76561198412329672,"connected_time":1862000000000,"state":"active","ping":88},{"user_id":126,"name":"Ian","steam_id":76561198159334435,"connected_time":249000000000,"state":"active","ping":164},{"user_id":93,"name":"monkeyman536","steam_id":76561197997717737,"connected_time":3266000000000,"state":"active","ping":116},{"user_id":87,"name":"T.","steam_id":76561198337887896,"connected_time":3339000000000,"state":"active","ping":76},{"user_id":86,"name":"Urotsuki","steam_id":76561198074339034,"connected_time":3434000000000,"state":"active","ping":74},{"user_id":125,"name":"Mega 00F","steam_id":76561198962485791,"connected_time":888000000000,"state":"active","ping":133},{"user_id":91,"name":"Kill potato","steam_id":76561198205412923,"connected_time":3293000000000,"state":"active","ping":125},{"user_id":124,"name":"mufat","steam_id":76561199205514309,"connected_time":924000000000,"state":"active","ping":74},{"user_id":53,"name":"Male Detected!","steam_id":76561199082459598,"connected_time":5943000000000,"state":"active","ping":87},{"user_id":92,"name":"MR. BUTTER","steam_id":76561198329902657,"connected_time":3286000000000,"state":"active","ping":110},{"user_id":90,"name":"RedBee (Femboy Nurse 雙)","steam_id":76561198976736971,"connected_time":3329000000000,"state":"active","ping":43},{"user_id":104,"name":"Cheesey","steam_id":76561198975684137,"connected_time":2540000000000,"state":"active","ping":96},{"user_id":37,"name":"uptriste","steam_id":76561198158666692,"connected_time":6928000000000,"state":"active","ping":41},{"user_id":121,"name":"aisha","steam_id":76561198132172320,"connected_time":1038000000000,"state":"active","ping":75},{"user_id":51,"name":"Windmill","steam_id":76561199230997986,"connected_time":6417000000000,"state":"active","ping":74},{"user_id":122,"name":"FAQ","steam_id":76561198068689092,"connected_time":1010000000000,"state":"active","ping":89},{"user_id":75,"name":"sáu thiện nhân","steam_id":76561199373637717,"connected_time":4755000000000,"state":"active","ping":66},{"user_id":118,"name":"PRAKTIS","steam_id":76561198383524863,"connected_time":1392000000000,"state":"active","ping":106},{"user_id":119,"name":"nihil","steam_id":76561198339641444,"connected_time":1244000000000,"state":"active","ping":84},{"user_id":68,"name":"lillalune","steam_id":76561198230213828,"connected_time":4927000000000,"state":"active","ping":70},{"user_id":111,"name":"ellz","steam_id":76561199216074568,"connected_time":1943000000000,"state":"active","ping":131},{"user_id":49,"name":"UltraFat","steam_id":76561198253918132,"connected_time":6641000000000,"state":"active","ping":83}]},{"server_id":1,"name":"Uncletopia | Los Angeles | 1 | All Maps","name_short":"lax-1","host":"lax-1.us.uncletopia.com","port":27015,"enabled":true,"region":"us-west","cc":"us","latitude":33.94279,"longitude":-118.41004,"reserved":0,"last_update":"0001-01-01T00:00:00Z","name_a2s":"Uncletopia | Los Angeles | 1 | All Maps","protocol":17,"map":"pl_swiftwater_final1","folder":"tf","game":"Team Fortress","app_id":440,"player_count":24,"max_players":24,"Bots":0,"server_type":"Dedicated","server_os":"Linux","password":true,"vac":true,"version":"7742253","steam_id":85568392924469991,"keywords":["nocrits","nodmgspread","payload","uncletopia"],"game_id":440,"stv_port":27016,"stv_name":"Uncletopia | Los Angeles | 1 | All Maps | STV","players":[{"user_id":482,"name":"AmudPuddle","steam_id":76561198017041618,"connected_time":2945000000000,"state":"active","ping":113},{"user_id":472,"name":"Chara","steam_id":76561198853239207,"connected_time":3568000000000,"state":"active","ping":72},{"user_id":521,"name":"M.L.JEW","steam_id":76561198997375055,"connected_time":507000000000,"state":"active","ping":109},{"user_id":513,"name":"Abobo","steam_id":76561198161817421,"connected_time":830000000000,"state":"active","ping":83},{"user_id":487,"name":"Kopenich","steam_id":76561198066205245,"connected_time":2669000000000,"state":"active","ping":48},{"user_id":529,"name":"Neowudan","steam_id":76561198136850867,"connected_time":24000000000,"state":"active","ping":124},{"user_id":524,"name":"groovetomanny","steam_id":76561198371660675,"connected_time":444000000000,"state":"active","ping":58},{"user_id":493,"name":"DejectedKiwi","steam_id":76561198115055574,"connected_time":2143000000000,"state":"active","ping":71},{"user_id":515,"name":"38 Gophers","steam_id":76561198976732896,"connected_time":649000000000,"state":"active","ping":89},{"user_id":512,"name":"zinnk","steam_id":76561198092081825,"connected_time":967000000000,"state":"active","ping":58},{"user_id":526,"name":"jelderjr","steam_id":76561198208862897,"connected_time":324000000000,"state":"active","ping":50},{"user_id":510,"name":"SparklePawz ♥","steam_id":76561198093703065,"connected_time":1229000000000,"state":"active","ping":175},{"user_id":511,"name":"lukednoob","steam_id":76561199158872193,"connected_time":1228000000000,"state":"active","ping":55},{"user_id":525,"name":"Salazar9","steam_id":76561198049903973,"connected_time":383000000000,"state":"active","ping":81},{"user_id":509,"name":"MadRukx","steam_id":76561198119080922,"connected_time":1543000000000,"state":"active","ping":74},{"user_id":459,"name":"Shovel","steam_id":76561198082922382,"connected_time":4360000000000,"state":"active","ping":48},{"user_id":503,"name":"It's Me. A Mario.","steam_id":76561197961107982,"connected_time":1795000000000,"state":"active","ping":143},{"user_id":527,"name":"sweaterfan","steam_id":76561199389567214,"connected_time":297000000000,"state":"active","ping":91},{"user_id":519,"name":"TheWarrior987","steam_id":76561198276440630,"connected_time":582000000000,"state":"active","ping":108},{"user_id":520,"name":"a man of baguette","steam_id":76561199011575428,"connected_time":574000000000,"state":"active","ping":74},{"user_id":528,"name":"Mom","steam_id":76561198207936000,"connected_time":289000000000,"state":"active","ping":53},{"user_id":506,"name":"fuzzorino","steam_id":76561198093146293,"connected_time":1704000000000,"state":"active","ping":59},{"user_id":488,"name":"Frisk","steam_id":76561198149968471,"connected_time":2529000000000,"state":"active","ping":100},{"user_id":507,"name":"SQbuilder","steam_id":76561198076473375,"connected_time":1667000000000,"state":"active","ping":52}]},{"server_id":112,"name":"Uncletopia | Los Angeles | 2 | All Maps","name_short":"lax-2","host":"lax-1.us.uncletopia.com","port":27025,"enabled":true,"region":"us-west","cc":"us","latitude":33.94279,"longitude":-118.41004,"reserved":0,"last_update":"0001-01-01T00:00:00Z","name_a2s":"Uncletopia | Los Angeles | 2 | All Maps","protocol":17,"map":"pl_barnblitz","folder":"tf","game":"Team Fortress","app_id":440,"player_count":24,"max_players":24,"Bots":0,"server_type":"Dedicated","server_os":"Linux","password":true,"vac":true,"version":"7742253","steam_id":85568392924469992,"keywords":["nocrits","nodmgspread","payload","uncletopia"],"game_id":440,"stv_port":27026,"stv_name":"Uncletopia | Los Angeles | 2 | All Maps | STV","players":[{"user_id":194,"name":"prdxninja","steam_id":76561198170081774,"connected_time":2583000000000,"state":"active","ping":89},{"user_id":195,"name":"The Assistant Regional Manager","steam_id":76561199221484936,"connected_time":2574000000000,"state":"active","ping":60},{"user_id":182,"name":"NagitoTheLucky","steam_id":76561198065096327,"connected_time":3063000000000,"state":"active","ping":65},{"user_id":183,"name":"Veritox","steam_id":76561198075778026,"connected_time":3026000000000,"state":"active","ping":51},{"user_id":217,"name":"SomeFuckingGuy","steam_id":76561199239165015,"connected_time":911000000000,"state":"active","ping":90},{"user_id":214,"name":"AKKAWI","steam_id":76561198203159952,"connected_time":1757000000000,"state":"active","ping":58},{"user_id":184,"name":"squid","steam_id":76561198070236972,"connected_time":3023000000000,"state":"active","ping":61},{"user_id":185,"name":"Lune","steam_id":76561198124572077,"connected_time":3016000000000,"state":"active","ping":91},{"user_id":226,"name":"Mike Bean Burritos","steam_id":76561198173430607,"connected_time":601000000000,"state":"active","ping":80},{"user_id":188,"name":"Bada Bingus","steam_id":76561198046743307,"connected_time":2838000000000,"state":"active","ping":116},{"user_id":189,"name":"Cave Dweller","steam_id":76561198374825685,"connected_time":2817000000000,"state":"active","ping":74},{"user_id":207,"name":"Cute Gatito","steam_id":76561198351147780,"connected_time":2168000000000,"state":"active","ping":50},{"user_id":223,"name":"Stapler","steam_id":76561198099295077,"connected_time":741000000000,"state":"active","ping":53},{"user_id":192,"name":"HeroOfTime","steam_id":76561199096218001,"connected_time":2679000000000,"state":"active","ping":53},{"user_id":227,"name":"Nondescript","steam_id":76561198035777247,"connected_time":572000000000,"state":"active","ping":70},{"user_id":196,"name":"Mohjin","steam_id":76561198300786414,"connected_time":2517000000000,"state":"active","ping":118},{"user_id":220,"name":"Killerofzombie23","steam_id":76561198799173778,"connected_time":813000000000,"state":"active","ping":65},{"user_id":225,"name":"TheOtherBrush","steam_id":76561199048222977,"connected_time":678000000000,"state":"active","ping":72},{"user_id":230,"name":"Harley [Ramiel]","steam_id":76561198079510840,"connected_time":169000000000,"state":"active","ping":77},{"user_id":213,"name":"plat","steam_id":76561198974178569,"connected_time":1763000000000,"state":"active","ping":75},{"user_id":216,"name":"krootonitron","steam_id":76561198114113037,"connected_time":958000000000,"state":"active","ping":58},{"user_id":215,"name":"Deku Scrublord","steam_id":76561198036602402,"connected_time":1381000000000,"state":"active","ping":106},{"user_id":222,"name":"agolem3214","steam_id":76561198121844002,"connected_time":792000000000,"state":"active","ping":44},{"user_id":229,"name":"grandma","steam_id":76561198203789568,"connected_time":216000000000,"state":"active","ping":114}]},{"server_id":324,"name":"Uncletopia | Los Angeles | 3 | All Maps","name_short":"lax-3","host":"lax-1.us.uncletopia.com","port":27035,"enabled":true,"region":"us-west","cc":"us","latitude":33.94279,"longitude":-118.41004,"reserved":0,"last_update":"0001-01-01T00:00:00Z","name_a2s":"Uncletopia | Los Angeles | 3 | All Maps","protocol":17,"map":"pl_frontier_final","folder":"tf","game":"Team Fortress","app_id":440,"player_count":24,"max_players":24,"Bots":0,"server_type":"Dedicated","server_os":"Linux","password":true,"vac":true,"version":"7742253","steam_id":85568392924510198,"keywords":["nocrits","nodmgspread","payload","uncletopia"],"game_id":440,"stv_port":27036,"stv_name":"Uncletopia | Los Angeles | 3 | All Maps | STV","players":[{"user_id":103,"name":"DanielDaSavage9","steam_id":76561198401532367,"connected_time":555000000000,"state":"active","ping":58},{"user_id":104,"name":"a chicken","steam_id":76561198313121580,"connected_time":519000000000,"state":"active","ping":50},{"user_id":109,"name":"PirateJet","steam_id":76561198050858744,"connected_time":348000000000,"state":"active","ping":50},{"user_id":101,"name":"Anyar","steam_id":76561198160174097,"connected_time":771000000000,"state":"active","ping":76},{"user_id":89,"name":"assassincrazy18","steam_id":76561199465661561,"connected_time":1657000000000,"state":"active","ping":85},{"user_id":100,"name":"Chiaki Nanami","steam_id":76561198164782653,"connected_time":895000000000,"state":"active","ping":115},{"user_id":33,"name":"tac","steam_id":76561198155113345,"connected_time":5537000000000,"state":"active","ping":75},{"user_id":90,"name":"El Gato Paranoico","steam_id":76561198116567116,"connected_time":1656000000000,"state":"active","ping":90},{"user_id":99,"name":"Axis","steam_id":76561198065881173,"connected_time":1158000000000,"state":"active","ping":56},{"user_id":35,"name":"BTS COME BRASIL PLESE","steam_id":76561198158408338,"connected_time":5403000000000,"state":"active","ping":83},{"user_id":37,"name":"Poser01","steam_id":76561197999257332,"connected_time":5314000000000,"state":"active","ping":157},{"user_id":105,"name":"1000 Ping","steam_id":76561198098330939,"connected_time":508000000000,"state":"active","ping":62},{"user_id":106,"name":"DinoCare","steam_id":76561198810958881,"connected_time":490000000000,"state":"active","ping":56},{"user_id":76,"name":"gerg","steam_id":76561197997127387,"connected_time":3652000000000,"state":"active","ping":61},{"user_id":41,"name":"MiddleC","steam_id":76561198170332855,"connected_time":5112000000000,"state":"active","ping":82},{"user_id":95,"name":"Chafn","steam_id":76561197969386702,"connected_time":1456000000000,"state":"active","ping":60},{"user_id":75,"name":"social distance warrior","steam_id":76561198128992994,"connected_time":3713000000000,"state":"active","ping":75},{"user_id":44,"name":"Ayvier","steam_id":76561198042750874,"connected_time":4988000000000,"state":"active","ping":64},{"user_id":77,"name":"BlitzTheBlock","steam_id":76561198239546394,"connected_time":3616000000000,"state":"active","ping":51},{"user_id":107,"name":"yoyo","steam_id":76561198285758098,"connected_time":428000000000,"state":"active","ping":55},{"user_id":108,"name":"NeoN","steam_id":76561198117608366,"connected_time":413000000000,"state":"active","ping":73},{"user_id":112,"name":"SHADOW (he/him)","steam_id":76561198207768148,"connected_time":258000000000,"state":"active","ping":68},{"user_id":110,"name":"BackToSchoolAds","steam_id":76561198870281128,"connected_time":318000000000,"state":"active","ping":90},{"user_id":111,"name":"Smyles","steam_id":76561198856210005,"connected_time":314000000000,"state":"active","ping":101}]},{"server_id":25,"name":"Uncletopia | Los Angeles | 4 | Stopwatch Beta","name_short":"lax-4","host":"lax-1.us.uncletopia.com","port":27045,"enabled":true,"region":"us-west","cc":"us","latitude":33.94279,"longitude":-118.41004,"reserved":0,"last_update":"0001-01-01T00:00:00Z","name_a2s":"Uncletopia | Los Angeles | 4 | Stopwatch Beta","protocol":17,"map":"workshop/koth_product_final.ugc454272353","folder":"tf","game":"Team Fortress","app_id":440,"player_count":0,"max_players":24,"Bots":0,"server_type":"Dedicated","server_os":"Linux","password":true,"vac":true,"version":"7742253","steam_id":85568392924510199,"keywords":["cp","nocrits","nodmgspread","uncletopia"],"game_id":440,"stv_port":27046,"stv_name":"Uncletopia | Los Angeles | 4 | Stopwatch Beta | STV","players":null},{"server_id":11,"name":"Uncletopia | London | 1 | All Maps","name_short":"lon-1","host":"lon-1.uk.uncletopia.com","port":27015,"enabled":true,"region":"eu","cc":"gb","latitude":51.509865,"longitude":-0.118092,"reserved":0,"last_update":"0001-01-01T00:00:00Z","name_a2s":"Uncletopia | London | 1 | All Maps","protocol":17,"map":"koth_lakeside_final","folder":"tf","game":"Team Fortress","app_id":440,"player_count":0,"max_players":24,"Bots":0,"server_type":"Dedicated","server_os":"Linux","password":true,"vac":true,"version":"7742253","steam_id":85568392924367362,"keywords":["cp","nocrits","nodmgspread","uncletopia"],"game_id":440,"stv_port":27016,"stv_name":"Uncletopia | London | 1 | All Maps | STV","players":null},{"server_id":114,"name":"Uncletopia | London | 2 | All Maps","name_short":"lon-2","host":"lon-1.uk.uncletopia.com","port":27025,"enabled":true,"region":"eu","cc":"gb","latitude":51.509865,"longitude":-0.118092,"reserved":0,"last_update":"0001-01-01T00:00:00Z","name_a2s":"Uncletopia | London | 2 | All Maps","protocol":17,"map":"koth_cascade","folder":"tf","game":"Team Fortress","app_id":440,"player_count":0,"max_players":24,"Bots":0,"server_type":"Dedicated","server_os":"Linux","password":true,"vac":true,"version":"7742253","steam_id":85568392924470941,"keywords":["cp","nocrits","nodmgspread","uncletopia"],"game_id":440,"stv_port":27026,"stv_name":"Uncletopia | London | 2 | All Maps | STV","players":null},{"server_id":320,"name":"Uncletopia | London | 3 | All Maps","name_short":"lon-3","host":"lon-1.uk.uncletopia.com","port":27035,"enabled":true,"region":"eu","cc":"gb","latitude":51.509865,"longitude":-0.118092,"reserved":0,"last_update":"0001-01-01T00:00:00Z","name_a2s":"Uncletopia | London | 3 | All Maps","protocol":17,"map":"pl_frontier_final","folder":"tf","game":"Team Fortress","app_id":440,"player_count":14,"max_players":24,"Bots":0,"server_type":"Dedicated","server_os":"Linux","password":true,"vac":true,"version":"7742253","steam_id":85568392924510192,"keywords":["nocrits","nodmgspread","payload","uncletopia"],"game_id":440,"stv_port":27036,"stv_name":"Uncletopia | London | 3 | All Maps | STV","players":[{"user_id":1033,"name":"87","steam_id":76561197976345859,"connected_time":319000000000,"state":"active","ping":41},{"user_id":1005,"name":"Noodle","steam_id":76561197997208006,"connected_time":2890000000000,"state":"active","ping":60},{"user_id":1034,"name":"Za_Warudo_69_420","steam_id":76561199172415952,"connected_time":246000000000,"state":"active","ping":35},{"user_id":949,"name":"thomas +","steam_id":76561198355097756,"connected_time":7048000000000,"state":"active","ping":61},{"user_id":992,"name":"hmscole09","steam_id":76561198811362788,"connected_time":3798000000000,"state":"active","ping":47},{"user_id":1037,"name":"łIł","steam_id":76561198056134279,"connected_time":115000000000,"state":"active","ping":84},{"user_id":1038,"name":"IKARUS","steam_id":76561198850898422,"connected_time":66000000000,"state":"active","ping":65},{"user_id":1039,"name":"CarbonPan","steam_id":76561198072169983,"connected_time":13000000000,"state":"spawning","ping":119},{"user_id":1022,"name":"Economic crisis","steam_id":76561198063562843,"connected_time":1796000000000,"state":"active","ping":60},{"user_id":1017,"name":"J3NS!","steam_id":76561198284241630,"connected_time":2033000000000,"state":"active","ping":56},{"user_id":987,"name":"Plimpus","steam_id":76561198086654069,"connected_time":4348000000000,"state":"active","ping":63},{"user_id":967,"name":"Gry","steam_id":76561198053961616,"connected_time":6224000000000,"state":"active","ping":50},{"user_id":1031,"name":"coyo","steam_id":76561198079583195,"connected_time":472000000000,"state":"active","ping":45},{"user_id":1032,"name":"skagok","steam_id":76561198439561745,"connected_time":398000000000,"state":"active","ping":161}]},{"server_id":321,"name":"Uncletopia | London | 4 | All Maps","name_short":"lon-4","host":"lon-1.uk.uncletopia.com","port":27045,"enabled":true,"region":"eu","cc":"gb","latitude":51.509865,"longitude":-0.118092,"reserved":0,"last_update":"0001-01-01T00:00:00Z","name_a2s":"Uncletopia | London | 4 | All Maps","protocol":17,"map":"koth_highpass","folder":"tf","game":"Team Fortress","app_id":440,"player_count":0,"max_players":24,"Bots":0,"server_type":"Dedicated","server_os":"Linux","password":true,"vac":true,"version":"7742253","steam_id":85568392924510193,"keywords":["cp","nocrits","nodmgspread","uncletopia"],"game_id":440,"stv_port":27046,"stv_name":"Uncletopia | London | 4 | All Maps | STV","players":null},{"server_id":21,"name":"Uncletopia | London | 5 | All Maps","name_short":"lon-5","host":"lon-1.uk.uncletopia.com","port":27055,"enabled":true,"region":"eu","cc":"gb","latitude":51.509865,"longitude":-0.118092,"reserved":0,"last_update":"0001-01-01T00:00:00Z","name_a2s":"Uncletopia | London | 5 | All Maps","protocol":17,"map":"koth_lakeside_final","folder":"tf","game":"Team Fortress","app_id":440,"player_count":0,"max_players":24,"Bots":0,"server_type":"Dedicated","server_os":"Linux","password":true,"vac":true,"version":"7742253","steam_id":85568392924742829,"keywords":["cp","nocrits","nodmgspread","uncletopia"],"game_id":440,"stv_port":27056,"stv_name":"Uncletopia | London | 5 | All Maps | STV","players":null},{"server_id":22,"name":"Uncletopia | London | 6 | All Maps","name_short":"lon-6","host":"lon-1.uk.uncletopia.com","port":27065,"enabled":true,"region":"eu","cc":"gb","latitude":51.509865,"longitude":-0.118092,"reserved":0,"last_update":"0001-01-01T00:00:00Z","name_a2s":"Uncletopia | London | 6 | All Maps","protocol":17,"map":"pl_swiftwater_final1","folder":"tf","game":"Team Fortress","app_id":440,"player_count":0,"max_players":24,"Bots":0,"server_type":"Dedicated","server_os":"Linux","password":true,"vac":true,"version":"7742253","steam_id":85568392924742830,"keywords":["nocrits","nodmgspread","payload","uncletopia"],"game_id":440,"stv_port":27066,"stv_name":"Uncletopia | London | 6 | All Maps | STV","players":null},{"server_id":40,"name":"Uncletopia | London | 7 | No Payload","name_short":"lon-7","host":"lon-1.uk.uncletopia.com","port":27075,"enabled":true,"region":"eu","cc":"gb","latitude":51.509865,"longitude":-0.118092,"reserved":0,"last_update":"0001-01-01T00:00:00Z","name_a2s":"Uncletopia | London | 7 | No Payload","protocol":17,"map":"koth_badlands","folder":"tf","game":"Team Fortress","app_id":440,"player_count":0,"max_players":24,"Bots":0,"server_type":"Dedicated","server_os":"Linux","password":true,"vac":true,"version":"7742253","steam_id":85568392924964314,"keywords":["cp","nocrits","nodmgspread","uncletopia"],"game_id":440,"stv_port":27076,"stv_name":"Uncletopia | London | 7 | No Payload | STV","players":null},{"server_id":41,"name":"Uncletopia | London | 8 | Community","name_short":"lon-8","host":"lon-1.uk.uncletopia.com","port":27085,"enabled":true,"region":"eu","cc":"gb","latitude":51.509865,"longitude":-0.118092,"reserved":0,"last_update":"0001-01-01T00:00:00Z","name_a2s":"Uncletopia | London | 8 | Community","protocol":17,"map":"workshop/koth_ramjam_rc1.ugc459778887","folder":"tf","game":"Team Fortress","app_id":440,"player_count":0,"max_players":24,"Bots":0,"server_type":"Dedicated","server_os":"Linux","password":true,"vac":true,"version":"7742253","steam_id":85568392924964315,"keywords":["cp","nocrits","nodmgspread","uncletopia"],"game_id":440,"stv_port":27086,"stv_name":"Uncletopia | London | 8 | Community | STV","players":null},{"server_id":300,"name":"Uncletopia | Montréal | 1 | All Maps","name_short":"mtl-1","host":"mtl-1.ca.uncletopia.com","port":27015,"enabled":true,"region":"us-east","cc":"ca","latitude":45.50889,"longitude":-73.56167,"reserved":0,"last_update":"0001-01-01T00:00:00Z","name_a2s":"Uncletopia | Montréal | 1 | All Maps","protocol":17,"map":"cp_process_final","folder":"tf","game":"Team Fortress","app_id":440,"player_count":4,"max_players":24,"Bots":0,"server_type":"Dedicated","server_os":"Linux","password":true,"vac":true,"version":"7742253","steam_id":85568392924500087,"keywords":["cp","nocrits","nodmgspread","uncletopia"],"game_id":440,"stv_port":27016,"stv_name":"Uncletopia | Montréal | 1 | All Maps | STV","players":[{"user_id":532,"name":"ShitpostSamuel","steam_id":76561198346660049,"connected_time":147000000000,"state":"active","ping":131},{"user_id":506,"name":"watchfull","steam_id":76561198433266742,"connected_time":2286000000000,"state":"active","ping":122},{"user_id":510,"name":"Ziixx","steam_id":76561198380423847,"connected_time":2207000000000,"state":"active","ping":69},{"user_id":423,"name":"Aerox","steam_id":76561198871081935,"connected_time":7577000000000,"state":"active","ping":92}]},{"server_id":301,"name":"Uncletopia | Montréal | 2 | All Maps","name_short":"mtl-2","host":"mtl-1.ca.uncletopia.com","port":27025,"enabled":true,"region":"us-east","cc":"ca","latitude":45.50889,"longitude":-73.56167,"reserved":0,"last_update":"0001-01-01T00:00:00Z","name_a2s":"Uncletopia | Montréal | 2 | All Maps","protocol":17,"map":"cp_altitude","folder":"tf","game":"Team Fortress","app_id":440,"player_count":0,"max_players":24,"Bots":0,"server_type":"Dedicated","server_os":"Linux","password":true,"vac":true,"version":"7742253","steam_id":85568392924500088,"keywords":["cp","nocrits","nodmgspread","uncletopia"],"game_id":440,"stv_port":27026,"stv_name":"Uncletopia | Montréal | 2 | All Maps | STV","players":null},{"server_id":302,"name":"Uncletopia | Montréal | 3 | All Maps","name_short":"mtl-3","host":"mtl-1.ca.uncletopia.com","port":27035,"enabled":true,"region":"us-east","cc":"ca","latitude":45.50889,"longitude":-73.56167,"reserved":0,"last_update":"0001-01-01T00:00:00Z","name_a2s":"Uncletopia | Montréal | 3 | All Maps","protocol":17,"map":"cp_process_final","folder":"tf","game":"Team Fortress","app_id":440,"player_count":0,"max_players":24,"Bots":0,"server_type":"Dedicated","server_os":"Linux","password":true,"vac":true,"version":"7742253","steam_id":85568392924500089,"keywords":["cp","nocrits","nodmgspread","uncletopia"],"game_id":440,"stv_port":27036,"stv_name":"Uncletopia | Montréal | 3 | All Maps | STV","players":null},{"server_id":303,"name":"Uncletopia | Montréal | 4 | No Payload","name_short":"mtl-4","host":"mtl-1.ca.uncletopia.com","port":27045,"enabled":true,"region":"us-east","cc":"ca","latitude":45.50889,"longitude":-73.56167,"reserved":0,"last_update":"0001-01-01T00:00:00Z","name_a2s":"Uncletopia | Montréal | 4 | No Payload","protocol":17,"map":"plr_pipeline","folder":"tf","game":"Team Fortress","app_id":440,"player_count":0,"max_players":24,"Bots":0,"server_type":"Dedicated","server_os":"Linux","password":true,"vac":true,"version":"7742253","steam_id":85568392924500090,"keywords":["nocrits","nodmgspread","payload","uncletopia"],"game_id":440,"stv_port":27046,"stv_name":"Uncletopia | Montréal | 4 | No Payload | STV","players":null},{"server_id":13,"name":"Uncletopia | New York City | 1 | All Maps","name_short":"nyc-1","host":"nyc-1.us.uncletopia.com","port":27015,"enabled":true,"region":"us-east","cc":"us","latitude":40.73061,"longitude":-73.93524,"reserved":0,"last_update":"0001-01-01T00:00:00Z","name_a2s":"Uncletopia | New York City | 1 | All Maps","protocol":17,"map":"pl_upward","folder":"tf","game":"Team Fortress","app_id":440,"player_count":24,"max_players":24,"Bots":0,"server_type":"Dedicated","server_os":"Linux","password":true,"vac":true,"version":"7742253","steam_id":85568392924469993,"keywords":["nocrits","nodmgspread","payload","uncletopia"],"game_id":440,"stv_port":27016,"stv_name":"Uncletopia | New York City | 1 | All Maps | STV","players":[{"user_id":678,"name":"Striuph","steam_id":76561198097002352,"connected_time":2574000000000,"state":"active","ping":47},{"user_id":688,"name":"TheBootyGenocide(Circa 1911)","steam_id":76561198158493500,"connected_time":1531000000000,"state":"active","ping":85},{"user_id":704,"name":"Unionized Gnoll","steam_id":76561198005577021,"connected_time":170000000000,"state":"active","ping":100},{"user_id":691,"name":"dan","steam_id":76561197984998426,"connected_time":1122000000000,"state":"active","ping":103},{"user_id":679,"name":"ThatGhastyBoi","steam_id":76561199243666311,"connected_time":2570000000000,"state":"active","ping":62},{"user_id":693,"name":"Zed","steam_id":76561197961852209,"connected_time":1007000000000,"state":"active","ping":65},{"user_id":620,"name":"Sammich","steam_id":76561198010543087,"connected_time":5503000000000,"state":"active","ping":75},{"user_id":649,"name":"Aldinach","steam_id":76561198079912615,"connected_time":3595000000000,"state":"active","ping":60},{"user_id":618,"name":"Spiral Mountain","steam_id":76561198058683715,"connected_time":5614000000000,"state":"active","ping":70},{"user_id":631,"name":"drain.pablo.2005","steam_id":76561198303963691,"connected_time":4410000000000,"state":"active","ping":68},{"user_id":588,"name":"robert","steam_id":76561198001196512,"connected_time":7623000000000,"state":"active","ping":88},{"user_id":569,"name":"RokkitFrog","steam_id":76561198046465850,"connected_time":8704000000000,"state":"active","ping":94},{"user_id":658,"name":"(◔) Neville","steam_id":76561198025637970,"connected_time":3217000000000,"state":"active","ping":60},{"user_id":694,"name":"Karma","steam_id":76561198030565234,"connected_time":1004000000000,"state":"active","ping":49},{"user_id":699,"name":"AmazingPlasma","steam_id":76561199005527586,"connected_time":720000000000,"state":"active","ping":99},{"user_id":671,"name":"saus","steam_id":76561198114729364,"connected_time":2841000000000,"state":"active","ping":140},{"user_id":702,"name":"Alpha","steam_id":76561198202401624,"connected_time":402000000000,"state":"active","ping":44},{"user_id":676,"name":"fortnite.jimmy.2012","steam_id":76561198114444973,"connected_time":2683000000000,"state":"active","ping":85},{"user_id":697,"name":"Sprinklingmydoughnut","steam_id":76561198168009092,"connected_time":928000000000,"state":"active","ping":81},{"user_id":687,"name":"the skeleton","steam_id":76561198237671314,"connected_time":2026000000000,"state":"active","ping":82},{"user_id":703,"name":"Koloco","steam_id":76561199022194660,"connected_time":388000000000,"state":"active","ping":78},{"user_id":684,"name":"StonedGiant","steam_id":76561197984386932,"connected_time":2436000000000,"state":"active","ping":64},{"user_id":675,"name":"Bucket of Chestnuts","steam_id":76561198115079427,"connected_time":2701000000000,"state":"active","ping":52},{"user_id":680,"name":"bishoykossa1","steam_id":76561198860548733,"connected_time":2561000000000,"state":"active","ping":92}]},{"server_id":14,"name":"Uncletopia | New York City | 2 | All Maps","name_short":"nyc-2","host":"nyc-1.us.uncletopia.com","port":27025,"enabled":true,"region":"us-east","cc":"us","latitude":40.73061,"longitude":-73.93524,"reserved":0,"last_update":"0001-01-01T00:00:00Z","name_a2s":"Uncletopia | New York City | 2 | All Maps","protocol":17,"map":"koth_harvest_final","folder":"tf","game":"Team Fortress","app_id":440,"player_count":24,"max_players":24,"Bots":0,"server_type":"Dedicated","server_os":"Linux","password":true,"vac":true,"version":"7742253","steam_id":85568392924469994,"keywords":["cp","nocrits","nodmgspread","uncletopia"],"game_id":440,"stv_port":27026,"stv_name":"Uncletopia | New York City | 2 | All Maps | STV","players":[{"user_id":639,"name":"flexer_2000","steam_id":76561198084422657,"connected_time":2661000000000,"state":"active","ping":110},{"user_id":662,"name":"BNTF","steam_id":76561198062740087,"connected_time":843000000000,"state":"active","ping":71},{"user_id":680,"name":"vastrobotmax","steam_id":76561198417110724,"connected_time":22000000000,"state":"active","ping":108},{"user_id":602,"name":"Festivized-Nugget","steam_id":76561198126085694,"connected_time":5614000000000,"state":"active","ping":48},{"user_id":664,"name":"DazzlingMaggot","steam_id":76561197972716928,"connected_time":736000000000,"state":"active","ping":63},{"user_id":644,"name":"Ronin Grinch","steam_id":76561198041439581,"connected_time":2316000000000,"state":"active","ping":57},{"user_id":681,"name":"aversa","steam_id":76561198840460101,"connected_time":19000000000,"state":"active","ping":66},{"user_id":666,"name":"Scum Knight","steam_id":76561198282444763,"connected_time":629000000000,"state":"active","ping":47},{"user_id":682,"name":"gamerNOTgirl2000","steam_id":76561198968095376,"connected_time":5000000000,"state":"spawning","ping":84},{"user_id":667,"name":"Sezlinc","steam_id":76561198884251725,"connected_time":589000000000,"state":"active","ping":62},{"user_id":648,"name":"The Unmatched Power of The Sun","steam_id":76561198090891781,"connected_time":1847000000000,"state":"active","ping":51},{"user_id":671,"name":"ZIL","steam_id":76561198273731203,"connected_time":299000000000,"state":"active","ping":73},{"user_id":669,"name":"lyanide","steam_id":76561198311704368,"connected_time":517000000000,"state":"active","ping":55},{"user_id":645,"name":"BazicPerzanity | #SaveTF2","steam_id":76561198307843713,"connected_time":2291000000000,"state":"active","ping":47},{"user_id":670,"name":"Sanic_Bum","steam_id":76561198094179822,"connected_time":470000000000,"state":"active","ping":47},{"user_id":672,"name":"Donatello (parnets)","steam_id":76561198801214349,"connected_time":299000000000,"state":"active","ping":75},{"user_id":647,"name":"$200 Shirt","steam_id":76561197977329534,"connected_time":2215000000000,"state":"active","ping":54},{"user_id":610,"name":"deech","steam_id":76561198066429444,"connected_time":4865000000000,"state":"active","ping":48},{"user_id":675,"name":"choi","steam_id":76561198053669887,"connected_time":218000000000,"state":"active","ping":120},{"user_id":677,"name":"GnafS","steam_id":76561199101583864,"connected_time":156000000000,"state":"connecting","ping":0},{"user_id":614,"name":"☃❆FLVRRY☃❆","steam_id":76561199072765441,"connected_time":4839000000000,"state":"active","ping":121},{"user_id":632,"name":"Not Guztaf","steam_id":76561198334924763,"connected_time":3219000000000,"state":"active","ping":85},{"user_id":678,"name":"oryps","steam_id":76561198048748866,"connected_time":144000000000,"state":"active","ping":92},{"user_id":679,"name":"Fimose Nuclear","steam_id":76561198874985577,"connected_time":109000000000,"state":"active","ping":170}]},{"server_id":15,"name":"Uncletopia | New York City | 3 | Stopwatch Beta","name_short":"nyc-3","host":"nyc-1.us.uncletopia.com","port":27035,"enabled":true,"region":"us-east","cc":"us","latitude":40.73061,"longitude":-73.93524,"reserved":0,"last_update":"0001-01-01T00:00:00Z","name_a2s":"Uncletopia | New York City | 3 | Stopwatch Beta","protocol":17,"map":"workshop/pl_summercoast_rc8e.ugc1761528829","folder":"tf","game":"Team Fortress","app_id":440,"player_count":0,"max_players":24,"Bots":0,"server_type":"Dedicated","server_os":"Linux","password":true,"vac":true,"version":"7742253","steam_id":85568392924742820,"keywords":["nocrits","nodmgspread","payload","uncletopia"],"game_id":440,"stv_port":27036,"stv_name":"Uncletopia | New York City | 3 | Stopwatch Beta | STV","players":null},{"server_id":16,"name":"Uncletopia | New York City | 4 | Community","name_short":"nyc-4","host":"nyc-1.us.uncletopia.com","port":27045,"enabled":true,"region":"us-east","cc":"us","latitude":40.73061,"longitude":-73.93524,"reserved":0,"last_update":"0001-01-01T00:00:00Z","name_a2s":"Uncletopia | New York City | 4 | Community","protocol":17,"map":"workshop/pl_eruption_b9a.ugc2807898013","folder":"tf","game":"Team Fortress","app_id":440,"player_count":11,"max_players":24,"Bots":0,"server_type":"Dedicated","server_os":"Linux","password":true,"vac":true,"version":"7742253","steam_id":85568392924742821,"keywords":["nocrits","nodmgspread","payload","uncletopia"],"game_id":440,"stv_port":27046,"stv_name":"Uncletopia | New York City | 4 | Community | STV","players":[{"user_id":506,"name":"e2_e8","steam_id":76561198025032556,"connected_time":1749000000000,"state":"active","ping":49},{"user_id":524,"name":"Hemo-Goblin","steam_id":76561198433424320,"connected_time":955000000000,"state":"active","ping":67},{"user_id":508,"name":"Missing Minus","steam_id":76561198120822928,"connected_time":1627000000000,"state":"active","ping":74},{"user_id":510,"name":"Aminu Black","steam_id":76561199054007341,"connected_time":1593000000000,"state":"active","ping":66},{"user_id":532,"name":"GnafS","steam_id":76561199101583864,"connected_time":124000000000,"state":"active","ping":113},{"user_id":499,"name":"qjkxkcd","steam_id":76561198035922283,"connected_time":2148000000000,"state":"active","ping":46},{"user_id":511,"name":"Vince Offer","steam_id":76561198991008825,"connected_time":1444000000000,"state":"active","ping":63},{"user_id":525,"name":"Pizza Parker","steam_id":76561198797278008,"connected_time":945000000000,"state":"active","ping":85},{"user_id":526,"name":"Dankly Do This","steam_id":76561199001161929,"connected_time":938000000000,"state":"active","ping":79},{"user_id":516,"name":"Nightfall","steam_id":76561198169718867,"connected_time":1329000000000,"state":"active","ping":113},{"user_id":485,"name":"uhooter","steam_id":76561198007829078,"connected_time":2881000000000,"state":"active","ping":61}]},{"server_id":142,"name":"Uncletopia | São Paulo | 1 | All Maps","name_short":"sao-1","host":"sao-1.br.uncletopia.com","port":27015,"enabled":true,"region":"sa","cc":"br","latitude":-23.533773,"longitude":-46.62529,"reserved":0,"last_update":"0001-01-01T00:00:00Z","name_a2s":"Uncletopia | São Paulo | 1 | All Maps","protocol":17,"map":"plr_hightower","folder":"tf","game":"Team Fortress","app_id":440,"player_count":0,"max_players":24,"Bots":0,"server_type":"Dedicated","server_os":"Linux","password":true,"vac":true,"version":"7742253","steam_id":85568392924469996,"keywords":["nocrits","nodmgspread","payload","uncletopia"],"game_id":440,"stv_port":27016,"stv_name":"Uncletopia | São Paulo | 1 | All Maps | STV","players":null},{"server_id":143,"name":"Uncletopia | São Paulo | 2 | All Maps","name_short":"sao-2","host":"sao-2.br.uncletopia.com","port":27015,"enabled":true,"region":"sa","cc":"br","latitude":-23.533773,"longitude":-46.62529,"reserved":0,"last_update":"0001-01-01T00:00:00Z","name_a2s":"Uncletopia | São Paulo | 2 | All Maps","protocol":17,"map":"cp_altitude","folder":"tf","game":"Team Fortress","app_id":440,"player_count":0,"max_players":24,"Bots":0,"server_type":"Dedicated","server_os":"Linux","password":true,"vac":true,"version":"7742253","steam_id":85568392924485349,"keywords":["cp","nocrits","nodmgspread","uncletopia"],"game_id":440,"stv_port":27016,"stv_name":"Uncletopia | São Paulo | 2 | All Maps | STV","players":null},{"server_id":7,"name":"Uncletopia | Seattle | 1 | All Maps","name_short":"sea-1","host":"sea-1.us.uncletopia.com","port":27015,"enabled":true,"region":"us-west","cc":"us","latitude":47.608013,"longitude":-122.33517,"reserved":0,"last_update":"0001-01-01T00:00:00Z","name_a2s":"Uncletopia | Seattle | 1 | All Maps","protocol":17,"map":"koth_harvest_final","folder":"tf","game":"Team Fortress","app_id":440,"player_count":24,"max_players":24,"Bots":0,"server_type":"Dedicated","server_os":"Linux","password":true,"vac":true,"version":"7742253","steam_id":85568392924469997,"keywords":["cp","nocrits","nodmgspread","uncletopia"],"game_id":440,"stv_port":27016,"stv_name":"Uncletopia | Seattle | 1 | All Maps | STV","players":[{"user_id":496,"name":"padder b0i","steam_id":76561198088131563,"connected_time":6208000000000,"state":"active","ping":82},{"user_id":500,"name":"pcplace","steam_id":76561198097987387,"connected_time":5907000000000,"state":"active","ping":37},{"user_id":544,"name":"[TrC] Nosy","steam_id":76561197978859310,"connected_time":2306000000000,"state":"active","ping":58},{"user_id":504,"name":"Agent","steam_id":76561199389584938,"connected_time":5876000000000,"state":"active","ping":44},{"user_id":494,"name":"NickoDeeBz","steam_id":76561198294657867,"connected_time":6477000000000,"state":"active","ping":96},{"user_id":568,"name":"Canaan ❤","steam_id":76561198044337051,"connected_time":729000000000,"state":"active","ping":88},{"user_id":562,"name":"Kirbothebrony","steam_id":76561198971911330,"connected_time":1107000000000,"state":"active","ping":118},{"user_id":392,"name":"soup","steam_id":76561198043209046,"connected_time":15091000000000,"state":"active","ping":70},{"user_id":556,"name":"butt3r_","steam_id":76561198156374792,"connected_time":1678000000000,"state":"active","ping":46},{"user_id":561,"name":"glop shitto bounter hunter","steam_id":76561198063138457,"connected_time":1127000000000,"state":"active","ping":52},{"user_id":565,"name":"Rave Cat","steam_id":76561198026369683,"connected_time":948000000000,"state":"active","ping":96},{"user_id":570,"name":"Salty.Sam","steam_id":76561198030933901,"connected_time":406000000000,"state":"active","ping":99},{"user_id":563,"name":"Crabby","steam_id":76561198040023173,"connected_time":1051000000000,"state":"active","ping":62},{"user_id":569,"name":"Lilythen","steam_id":76561198299570513,"connected_time":632000000000,"state":"active","ping":108},{"user_id":538,"name":"[TrC] Dackstrus","steam_id":76561197973518509,"connected_time":2629000000000,"state":"active","ping":44},{"user_id":524,"name":"rachel slurs","steam_id":76561198986534519,"connected_time":4260000000000,"state":"active","ping":56},{"user_id":572,"name":"Voxeltile","steam_id":76561198043724134,"connected_time":159000000000,"state":"active","ping":63},{"user_id":541,"name":"weegeebad","steam_id":76561198280841437,"connected_time":2362000000000,"state":"active","ping":134},{"user_id":542,"name":"Live Tucker Gaming","steam_id":76561198094565340,"connected_time":2357000000000,"state":"active","ping":100},{"user_id":424,"name":"dosimeter","steam_id":76561198039608940,"connected_time":12813000000000,"state":"active","ping":57},{"user_id":539,"name":"spenca","steam_id":76561198025371154,"connected_time":2373000000000,"state":"active","ping":77},{"user_id":547,"name":"The Super Mario Bros. Movie","steam_id":76561198871692156,"connected_time":2169000000000,"state":"active","ping":57},{"user_id":555,"name":"Frongus","steam_id":76561197979056451,"connected_time":1728000000000,"state":"active","ping":46},{"user_id":557,"name":"goldhed","steam_id":76561198051751133,"connected_time":1677000000000,"state":"active","ping":59}]},{"server_id":119,"name":"Uncletopia | Seattle | 2 | All Maps","name_short":"sea-2","host":"sea-1.us.uncletopia.com","port":27025,"enabled":true,"region":"us-west","cc":"us","latitude":47.608013,"longitude":-122.33517,"reserved":0,"last_update":"0001-01-01T00:00:00Z","name_a2s":"Uncletopia | Seattle | 2 | All Maps","protocol":17,"map":"pl_upward","folder":"tf","game":"Team Fortress","app_id":440,"player_count":24,"max_players":24,"Bots":0,"server_type":"Dedicated","server_os":"Linux","password":true,"vac":true,"version":"7742253","steam_id":85568392924469998,"keywords":["nocrits","nodmgspread","payload","uncletopia"],"game_id":440,"stv_port":27026,"stv_name":"Uncletopia | Seattle | 2 | All Maps | STV","players":[{"user_id":484,"name":"Sylain","steam_id":76561198043958855,"connected_time":993000000000,"state":"active","ping":67},{"user_id":472,"name":"Jupiter Morningstar","steam_id":76561198042679485,"connected_time":2331000000000,"state":"active","ping":57},{"user_id":483,"name":"Juustin","steam_id":76561198121922413,"connected_time":1005000000000,"state":"active","ping":76},{"user_id":480,"name":"jacix3 [gay wolfgirl]{she/it}","steam_id":76561198205004165,"connected_time":1442000000000,"state":"active","ping":57},{"user_id":467,"name":"eraser cat","steam_id":76561199045570463,"connected_time":2652000000000,"state":"active","ping":42},{"user_id":455,"name":"der","steam_id":76561198060762287,"connected_time":4192000000000,"state":"active","ping":49},{"user_id":441,"name":"Thembo","steam_id":76561199037594575,"connected_time":5387000000000,"state":"active","ping":63},{"user_id":490,"name":"Nidus | IFN.GG","steam_id":76561198886277516,"connected_time":96000000000,"state":"active","ping":117},{"user_id":477,"name":"Glen Frogmire","steam_id":76561198059313367,"connected_time":1577000000000,"state":"active","ping":44},{"user_id":482,"name":"Dargoos","steam_id":76561198366212046,"connected_time":1312000000000,"state":"active","ping":67},{"user_id":462,"name":"Dad 2","steam_id":76561198138546187,"connected_time":2946000000000,"state":"active","ping":86},{"user_id":492,"name":"TheAlphaDoor","steam_id":76561198336551859,"connected_time":30000000000,"state":"spawning","ping":61},{"user_id":473,"name":"BEASTxGODx420","steam_id":76561198184814466,"connected_time":2074000000000,"state":"active","ping":41},{"user_id":479,"name":"snorlax_gamer","steam_id":76561199084972996,"connected_time":1494000000000,"state":"active","ping":50},{"user_id":474,"name":"Gahuppy","steam_id":76561198072129855,"connected_time":1816000000000,"state":"active","ping":59},{"user_id":453,"name":"KingTinkerer","steam_id":76561198226856548,"connected_time":4325000000000,"state":"active","ping":67},{"user_id":426,"name":"dust","steam_id":76561198045218909,"connected_time":7198000000000,"state":"active","ping":39},{"user_id":347,"name":"tweaker","steam_id":76561198115269587,"connected_time":12205000000000,"state":"active","ping":119},{"user_id":470,"name":"Pneumo.","steam_id":76561197987911883,"connected_time":2426000000000,"state":"active","ping":60},{"user_id":481,"name":"ZaniZ","steam_id":76561198161467000,"connected_time":1425000000000,"state":"active","ping":31},{"user_id":485,"name":"SvicidalBug","steam_id":76561198221390504,"connected_time":775000000000,"state":"active","ping":68},{"user_id":450,"name":"A Fruit","steam_id":76561198951830050,"connected_time":4623000000000,"state":"active","ping":103},{"user_id":466,"name":"Amateur Glaswegian","steam_id":76561198030851956,"connected_time":2839000000000,"state":"active","ping":51},{"user_id":456,"name":"Strength!!","steam_id":76561198001241984,"connected_time":4024000000000,"state":"active","ping":54}]},{"server_id":406,"name":"Uncletopia | Seattle | 3 | Stopwatch Beta","name_short":"sea-3","host":"sea-1.us.uncletopia.com","port":27035,"enabled":true,"region":"us-west","cc":"us","latitude":47.608013,"longitude":-122.33517,"reserved":0,"last_update":"0001-01-01T00:00:00Z","name_a2s":"Uncletopia | Seattle | 3 | Stopwatch Beta","protocol":17,"map":"pl_borneo","folder":"tf","game":"Team Fortress","app_id":440,"player_count":0,"max_players":24,"Bots":0,"server_type":"Dedicated","server_os":"Linux","password":true,"vac":true,"version":"7742253","steam_id":85568392924515217,"keywords":["nocrits","nodmgspread","payload","uncletopia"],"game_id":440,"stv_port":27036,"stv_name":"Uncletopia | Seattle | 3 | Stopwatch Beta | STV","players":null},{"server_id":17,"name":"Uncletopia | San Francisco | 1 | All Maps","name_short":"sfo-1","host":"sfo-1.us.uncletopia.com","port":27015,"enabled":true,"region":"us-west","cc":"us","latitude":37.77397,"longitude":-122.4313,"reserved":0,"last_update":"0001-01-01T00:00:00Z","name_a2s":"Uncletopia | San Francisco | 1 | All Maps","protocol":17,"map":"cp_altitude","folder":"tf","game":"Team Fortress","app_id":440,"player_count":1,"max_players":24,"Bots":0,"server_type":"Dedicated","server_os":"Linux","password":true,"vac":true,"version":"7742253","steam_id":85568392924469999,"keywords":["cp","nocrits","nodmgspread","uncletopia"],"game_id":440,"stv_port":27016,"stv_name":"Uncletopia | San Francisco | 1 | All Maps | STV","players":[{"user_id":274,"name":"Thiccums","steam_id":76561198291586739,"connected_time":12000000000,"state":"spawning","ping":197}]},{"server_id":18,"name":"Uncletopia | San Francisco | 2 | All Maps","name_short":"sfo-2","host":"sfo-1.us.uncletopia.com","port":27025,"enabled":true,"region":"us-west","cc":"us","latitude":37.77397,"longitude":-122.4313,"reserved":0,"last_update":"0001-01-01T00:00:00Z","name_a2s":"Uncletopia | San Francisco | 2 | All Maps","protocol":17,"map":"cp_snakewater_final1","folder":"tf","game":"Team Fortress","app_id":440,"player_count":24,"max_players":24,"Bots":0,"server_type":"Dedicated","server_os":"Linux","password":true,"vac":true,"version":"7742253","steam_id":85568392924470000,"keywords":["cp","nocrits","nodmgspread","uncletopia"],"game_id":440,"stv_port":27026,"stv_name":"Uncletopia | San Francisco | 2 | All Maps | STV","players":[{"user_id":113,"name":"NotThatTox","steam_id":76561198075201905,"connected_time":5187000000000,"state":"active","ping":107},{"user_id":143,"name":"marin","steam_id":76561198805841066,"connected_time":308000000000,"state":"active","ping":43},{"user_id":96,"name":"Blizzard","steam_id":76561198052643541,"connected_time":6353000000000,"state":"active","ping":96},{"user_id":112,"name":"Agent86","steam_id":76561198046794593,"connected_time":5195000000000,"state":"active","ping":79},{"user_id":144,"name":"Camohno","steam_id":76561198283519918,"connected_time":290000000000,"state":"active","ping":57},{"user_id":135,"name":"blumbo","steam_id":76561198799330018,"connected_time":1851000000000,"state":"active","ping":64},{"user_id":65,"name":"Grungus","steam_id":76561198047700230,"connected_time":7717000000000,"state":"active","ping":45},{"user_id":145,"name":"deku is my nigga","steam_id":76561198134411374,"connected_time":278000000000,"state":"active","ping":111},{"user_id":124,"name":"RMBL","steam_id":76561198150137369,"connected_time":3123000000000,"state":"active","ping":54},{"user_id":140,"name":"doobiebob","steam_id":76561198071963742,"connected_time":1265000000000,"state":"active","ping":60},{"user_id":87,"name":"sciz","steam_id":76561198065303402,"connected_time":6632000000000,"state":"active","ping":106},{"user_id":136,"name":"John","steam_id":76561198065100839,"connected_time":1450000000000,"state":"active","ping":50},{"user_id":119,"name":"Crustiest_Bill","steam_id":76561198842722858,"connected_time":4649000000000,"state":"active","ping":55},{"user_id":37,"name":"conductor i have a problem","steam_id":76561198140231083,"connected_time":11287000000000,"state":"active","ping":70},{"user_id":114,"name":"G. Howard Dee","steam_id":76561198058382812,"connected_time":5169000000000,"state":"active","ping":60},{"user_id":141,"name":"t","steam_id":76561198175988929,"connected_time":1084000000000,"state":"active","ping":73},{"user_id":116,"name":"crumbles","steam_id":76561198168707036,"connected_time":5139000000000,"state":"active","ping":51},{"user_id":38,"name":"Magikarp_Gamer","steam_id":76561198143910511,"connected_time":11279000000000,"state":"active","ping":62},{"user_id":90,"name":"Sulong","steam_id":76561198798244209,"connected_time":6587000000000,"state":"active","ping":113},{"user_id":40,"name":"Ranger Lugi","steam_id":76561198143611016,"connected_time":11261000000000,"state":"active","ping":65},{"user_id":44,"name":"Locrian","steam_id":76561198356159602,"connected_time":11167000000000,"state":"active","ping":61},{"user_id":110,"name":"DoctorHa","steam_id":76561198044026008,"connected_time":5888000000000,"state":"active","ping":64},{"user_id":142,"name":"Tora","steam_id":76561198000740296,"connected_time":1043000000000,"state":"active","ping":47},{"user_id":121,"name":"jawnymac","steam_id":76561198179529599,"connected_time":3954000000000,"state":"active","ping":56}]},{"server_id":19,"name":"Uncletopia | San Francisco | 3 | Stopwatch Beta","name_short":"sfo-3","host":"sfo-1.us.uncletopia.com","port":27035,"enabled":true,"region":"us-west","cc":"us","latitude":37.77397,"longitude":-122.4313,"reserved":0,"last_update":"0001-01-01T00:00:00Z","name_a2s":"Uncletopia | San Francisco | 3 | Stopwatch Beta","protocol":17,"map":"workshop/cp_process_f11.ugc2302948105","folder":"tf","game":"Team Fortress","app_id":440,"player_count":0,"max_players":24,"Bots":0,"server_type":"Dedicated","server_os":"Linux","password":true,"vac":true,"version":"7742253","steam_id":85568392924742824,"keywords":["cp","nocrits","nodmgspread","uncletopia"],"game_id":440,"stv_port":27036,"stv_name":"Uncletopia | San Francisco | 3 | Stopwatch Beta | STV","players":null},{"server_id":20,"name":"Uncletopia | San Francisco | 4 | Community","name_short":"sfo-4","host":"sfo-1.us.uncletopia.com","port":27045,"enabled":true,"region":"us-west","cc":"us","latitude":37.77397,"longitude":-122.4313,"reserved":0,"last_update":"0001-01-01T00:00:00Z","name_a2s":"Uncletopia | San Francisco | 4 | Community","protocol":17,"map":"workshop/pl_fifthcurve_rc1.ugc648227046","folder":"tf","game":"Team Fortress","app_id":440,"player_count":0,"max_players":24,"Bots":0,"server_type":"Dedicated","server_os":"Linux","password":true,"vac":true,"version":"7742253","steam_id":85568392924742826,"keywords":["nocrits","nodmgspread","payload","uncletopia"],"game_id":440,"stv_port":27046,"stv_name":"Uncletopia | San Francisco | 4 | Community | STV","players":null},{"server_id":141,"name":"Uncletopia | Sydney | 1 | All Maps","name_short":"syd-1","host":"syd-1.au.uncletopia.com","port":27015,"enabled":true,"region":"au","cc":"au","latitude":-33.865143,"longitude":151.2099,"reserved":0,"last_update":"0001-01-01T00:00:00Z","name_a2s":"Uncletopia | Sydney | 1 | All Maps","protocol":17,"map":"pl_swiftwater_final1","folder":"tf","game":"Team Fortress","app_id":440,"player_count":24,"max_players":24,"Bots":0,"server_type":"Dedicated","server_os":"Linux","password":true,"vac":true,"version":"7742253","steam_id":85568392924470001,"keywords":["nocrits","nodmgspread","payload","uncletopia"],"game_id":440,"stv_port":27016,"stv_name":"Uncletopia | Sydney | 1 | All Maps | STV","players":[{"user_id":436,"name":"billy loomis","steam_id":76561198032687714,"connected_time":1044000000000,"state":"active","ping":90},{"user_id":422,"name":"Huyimon","steam_id":76561198051208660,"connected_time":1624000000000,"state":"active","ping":48},{"user_id":390,"name":"Livid","steam_id":76561198060024585,"connected_time":3424000000000,"state":"active","ping":39},{"user_id":396,"name":"ElectGibbon","steam_id":76561198379243449,"connected_time":2624000000000,"state":"active","ping":54},{"user_id":440,"name":"Salty Dog","steam_id":76561198038713921,"connected_time":333000000000,"state":"active","ping":49},{"user_id":437,"name":"sSubtl🔱","steam_id":76561198102080207,"connected_time":1029000000000,"state":"active","ping":35},{"user_id":423,"name":"Glockenspe (She/Her)","steam_id":76561199184115241,"connected_time":1572000000000,"state":"active","ping":42},{"user_id":366,"name":"R4GLER","steam_id":76561198151027681,"connected_time":4610000000000,"state":"active","ping":55},{"user_id":434,"name":"Legion","steam_id":76561198054096076,"connected_time":1177000000000,"state":"active","ping":52},{"user_id":415,"name":"Oppa","steam_id":76561198008388855,"connected_time":1871000000000,"state":"active","ping":48},{"user_id":435,"name":"FreeBeers","steam_id":76561198095448607,"connected_time":1130000000000,"state":"active","ping":67},{"user_id":367,"name":"The_Green_Jelly","steam_id":76561198381061704,"connected_time":4581000000000,"state":"active","ping":83},{"user_id":430,"name":"russo","steam_id":76561198370273679,"connected_time":1388000000000,"state":"active","ping":58},{"user_id":441,"name":"Rev","steam_id":76561198076830267,"connected_time":256000000000,"state":"active","ping":37},{"user_id":416,"name":"FREAK NASTY","steam_id":76561198045797344,"connected_time":1864000000000,"state":"active","ping":62},{"user_id":427,"name":"58","steam_id":76561198045125531,"connected_time":1490000000000,"state":"active","ping":59},{"user_id":355,"name":"1ocalTechSuppor1","steam_id":76561198175547093,"connected_time":5786000000000,"state":"active","ping":93},{"user_id":382,"name":"emperor palpating","steam_id":76561198079351541,"connected_time":3701000000000,"state":"active","ping":45},{"user_id":442,"name":"1bean234","steam_id":76561198054698346,"connected_time":233000000000,"state":"active","ping":58},{"user_id":418,"name":"Enchanted Cat","steam_id":76561198866538028,"connected_time":1855000000000,"state":"active","ping":70},{"user_id":446,"name":"ree boy","steam_id":76561199024189820,"connected_time":57000000000,"state":"active","ping":107},{"user_id":447,"name":"Racecar Richards","steam_id":76561198066440524,"connected_time":33000000000,"state":"active","ping":108},{"user_id":431,"name":"Wake'n'Bake'n'Make'n'Bacon","steam_id":76561198061960926,"connected_time":1357000000000,"state":"active","ping":94},{"user_id":433,"name":"Nyda","steam_id":76561198152311904,"connected_time":1247000000000,"state":"active","ping":65}]},{"server_id":123,"name":"Uncletopia | Sydney | 2 | All Maps","name_short":"syd-2","host":"syd-1.au.uncletopia.com","port":27025,"enabled":true,"region":"au","cc":"au","latitude":-33.865143,"longitude":151.2099,"reserved":0,"last_update":"0001-01-01T00:00:00Z","name_a2s":"Uncletopia | Sydney | 2 | All Maps","protocol":17,"map":"pl_borneo","folder":"tf","game":"Team Fortress","app_id":440,"player_count":24,"max_players":24,"Bots":0,"server_type":"Dedicated","server_os":"Linux","password":true,"vac":true,"version":"7742253","steam_id":85568392924470002,"keywords":["nocrits","nodmgspread","payload","uncletopia"],"game_id":440,"stv_port":27026,"stv_name":"Uncletopia | Sydney | 2 | All Maps | STV","players":[{"user_id":175,"name":"Jagerfox","steam_id":76561197999134620,"connected_time":1305000000000,"state":"active","ping":45},{"user_id":200,"name":"Sentry Gun (DJ)","steam_id":76561198340730741,"connected_time":330000000000,"state":"active","ping":60},{"user_id":155,"name":"NewChris","steam_id":76561198254754182,"connected_time":2749000000000,"state":"active","ping":74},{"user_id":176,"name":"bleacj","steam_id":76561198854614195,"connected_time":1302000000000,"state":"active","ping":89},{"user_id":164,"name":"$TheMan$","steam_id":76561198134849763,"connected_time":2351000000000,"state":"active","ping":58},{"user_id":204,"name":"Joshua Graham","steam_id":76561198136604959,"connected_time":13000000000,"state":"spawning","ping":59},{"user_id":110,"name":"AcidOxidant","steam_id":76561198053504029,"connected_time":5660000000000,"state":"active","ping":51},{"user_id":184,"name":"Sinister80s","steam_id":76561198343540472,"connected_time":942000000000,"state":"active","ping":74},{"user_id":180,"name":"TurboVEVO","steam_id":76561198163694415,"connected_time":1110000000000,"state":"active","ping":67},{"user_id":188,"name":"NPC Pesticide","steam_id":76561199215877079,"connected_time":787000000000,"state":"active","ping":61},{"user_id":181,"name":"bluehat","steam_id":76561198355125370,"connected_time":1106000000000,"state":"active","ping":42},{"user_id":189,"name":"clout","steam_id":76561198073310502,"connected_time":785000000000,"state":"active","ping":74},{"user_id":134,"name":"zise lft pyro","steam_id":76561198079210881,"connected_time":3558000000000,"state":"active","ping":56},{"user_id":190,"name":"timothy timosno","steam_id":76561199151336024,"connected_time":673000000000,"state":"active","ping":61},{"user_id":191,"name":"Phantom Postman","steam_id":76561198075252643,"connected_time":653000000000,"state":"active","ping":70},{"user_id":151,"name":"LeoJoeD","steam_id":76561198161848749,"connected_time":2894000000000,"state":"active","ping":45},{"user_id":193,"name":"random.","steam_id":76561198848689967,"connected_time":508000000000,"state":"active","ping":45},{"user_id":194,"name":"BOT Gary","steam_id":76561198376950841,"connected_time":485000000000,"state":"active","ping":74},{"user_id":201,"name":"Flak","steam_id":76561198205833232,"connected_time":311000000000,"state":"active","ping":50},{"user_id":130,"name":"MikkyD","steam_id":76561198043452962,"connected_time":3879000000000,"state":"active","ping":61},{"user_id":202,"name":"covenofbats","steam_id":76561198152117315,"connected_time":228000000000,"state":"active","ping":41},{"user_id":197,"name":"Igapignontiosaurus","steam_id":76561198067199285,"connected_time":415000000000,"state":"active","ping":60},{"user_id":146,"name":"Snakeydookey","steam_id":76561198174782170,"connected_time":3092000000000,"state":"active","ping":76},{"user_id":203,"name":"Caleplayz22,i am human","steam_id":76561199242994339,"connected_time":43000000000,"state":"spawning","ping":326}]},{"server_id":395,"name":"Uncletopia | Sydney | 3 | All Maps","name_short":"syd-3","host":"syd-1.au.uncletopia.com","port":27035,"enabled":true,"region":"au","cc":"au","latitude":-33.865143,"longitude":151.2099,"reserved":0,"last_update":"0001-01-01T00:00:00Z","name_a2s":"Uncletopia | Sydney | 3 | All Maps","protocol":17,"map":"koth_viaduct","folder":"tf","game":"Team Fortress","app_id":440,"player_count":0,"max_players":24,"Bots":0,"server_type":"Dedicated","server_os":"Linux","password":true,"vac":true,"version":"7742253","steam_id":85568392925194467,"keywords":["cp","nocrits","nodmgspread","uncletopia"],"game_id":440,"stv_port":27036,"stv_name":"Uncletopia | Sydney | 3 | All Maps | STV","players":null},{"server_id":396,"name":"Uncletopia | Sydney | 4 | All Maps","name_short":"syd-4","host":"syd-1.au.uncletopia.com","port":27045,"enabled":true,"region":"au","cc":"au","latitude":-33.865143,"longitude":151.2099,"reserved":0,"last_update":"0001-01-01T00:00:00Z","name_a2s":"Uncletopia | Sydney | 4 | All Maps","protocol":17,"map":"cp_mountainlab","folder":"tf","game":"Team Fortress","app_id":440,"player_count":0,"max_players":24,"Bots":0,"server_type":"Dedicated","server_os":"Linux","password":true,"vac":true,"version":"7742253","steam_id":85568392925397958,"keywords":["cp","nocrits","nodmgspread","uncletopia"],"game_id":440,"stv_port":27046,"stv_name":"Uncletopia | Sydney | 4 | All Maps | STV","players":null},{"server_id":58,"name":"Uncletopia | Sydney | 5 | Stopwatch Beta","name_short":"syd-5","host":"syd-1.au.uncletopia.com","port":27055,"enabled":true,"region":"au","cc":"au","latitude":-33.865143,"longitude":151.2099,"reserved":0,"last_update":"0001-01-01T00:00:00Z","name_a2s":"Uncletopia | Sydney | 5 | Stopwatch Beta","protocol":17,"map":"workshop/koth_ramjam_rc1.ugc459778887","folder":"tf","game":"Team Fortress","app_id":440,"player_count":0,"max_players":24,"Bots":0,"server_type":"Dedicated","server_os":"Linux","password":true,"vac":true,"version":"7742253","steam_id":85568392925397959,"keywords":["cp","nocrits","nodmgspread","uncletopia"],"game_id":440,"stv_port":27056,"stv_name":"Uncletopia | Sydney | 5 | Stopwatch Beta | STV","players":null},{"server_id":59,"name":"Uncletopia | Sydney | 6 | Community","name_short":"syd-6","host":"syd-1.au.uncletopia.com","port":27065,"enabled":true,"region":"au","cc":"au","latitude":-33.865143,"longitude":151.2099,"reserved":0,"last_update":"0001-01-01T00:00:00Z","name_a2s":"Uncletopia | Sydney | 6 | Community","protocol":17,"map":"workshop/koth_bagel_rc5.ugc2514036946","folder":"tf","game":"Team Fortress","app_id":440,"player_count":0,"max_players":24,"Bots":0,"server_type":"Dedicated","server_os":"Linux","password":true,"vac":true,"version":"7742253","steam_id":85568392925397960,"keywords":["cp","nocrits","nodmgspread","uncletopia"],"game_id":440,"stv_port":27066,"stv_name":"Uncletopia | Sydney | 6 | Community | STV","players":null},{"server_id":49,"name":"Uncletopia | Warsaw | 1 | All Maps","name_short":"waw-1","host":"waw-1.pl.uncletopia.com","port":27015,"enabled":true,"region":"eu","cc":"pl","latitude":52.2297,"longitude":21.017532,"reserved":0,"last_update":"0001-01-01T00:00:00Z","name_a2s":"","protocol":0,"map":"","folder":"","game":"","app_id":0,"player_count":0,"max_players":0,"Bots":0,"server_type":"","server_os":"","password":false,"vac":false,"version":"","steam_id":0,"keywords":null,"game_id":0,"stv_port":0,"stv_name":"","players":null},{"server_id":50,"name":"Uncletopia | Warsaw | 2 | All Maps","name_short":"waw-2","host":"waw-1.pl.uncletopia.com","port":27025,"enabled":true,"region":"eu","cc":"pl","latitude":52.2297,"longitude":21.017532,"reserved":0,"last_update":"0001-01-01T00:00:00Z","name_a2s":"Uncletopia | Warsaw | 2 | All Maps","protocol":17,"map":"pl_upward","folder":"tf","game":"Team Fortress","app_id":440,"player_count":0,"max_players":24,"Bots":0,"server_type":"Dedicated","server_os":"Linux","password":true,"vac":true,"version":"7742253","steam_id":85568392925397851,"keywords":["nocrits","nodmgspread","payload","uncletopia"],"game_id":440,"stv_port":27026,"stv_name":"Uncletopia | Warsaw | 2 | All Maps | STV","players":null},{"server_id":51,"name":"Uncletopia | Warsaw | 3 | All Maps","name_short":"waw-3","host":"waw-1.pl.uncletopia.com","port":27035,"enabled":true,"region":"eu","cc":"pl","latitude":52.2297,"longitude":21.017532,"reserved":0,"last_update":"0001-01-01T00:00:00Z","name_a2s":"Uncletopia | Warsaw | 3 | All Maps","protocol":17,"map":"koth_lakeside_final","folder":"tf","game":"Team Fortress","app_id":440,"player_count":0,"max_players":24,"Bots":0,"server_type":"Dedicated","server_os":"Linux","password":true,"vac":true,"version":"7742253","steam_id":85568392925397852,"keywords":["cp","nocrits","nodmgspread","uncletopia"],"game_id":440,"stv_port":27036,"stv_name":"Uncletopia | Warsaw | 3 | All Maps | STV","players":null},{"server_id":52,"name":"Uncletopia | Warsaw | 4 | All Maps","name_short":"waw-4","host":"waw-1.pl.uncletopia.com","port":27045,"enabled":true,"region":"eu","cc":"pl","latitude":52.2297,"longitude":21.017532,"reserved":0,"last_update":"0001-01-01T00:00:00Z","name_a2s":"Uncletopia | Warsaw | 4 | All Maps","protocol":17,"map":"pl_upward","folder":"tf","game":"Team Fortress","app_id":440,"player_count":0,"max_players":24,"Bots":0,"server_type":"Dedicated","server_os":"Linux","password":true,"vac":true,"version":"7742253","steam_id":85568392925397853,"keywords":["nocrits","nodmgspread","payload","uncletopia"],"game_id":440,"stv_port":27046,"stv_name":"Uncletopia | Warsaw | 4 | All Maps | STV","players":null},{"server_id":53,"name":"Uncletopia | Warsaw | 5 | Stopwatch Beta","name_short":"waw-5","host":"waw-1.pl.uncletopia.com","port":27055,"enabled":true,"region":"eu","cc":"pl","latitude":52.2297,"longitude":21.017532,"reserved":0,"last_update":"0001-01-01T00:00:00Z","name_a2s":"Uncletopia | Warsaw | 5 | Stopwatch Beta","protocol":17,"map":"pl_swiftwater_final1","folder":"tf","game":"Team Fortress","app_id":440,"player_count":0,"max_players":24,"Bots":0,"server_type":"Dedicated","server_os":"Linux","password":true,"vac":true,"version":"7742253","steam_id":85568392925397854,"keywords":["nocrits","nodmgspread","payload","uncletopia"],"game_id":440,"stv_port":27056,"stv_name":"Uncletopia | Warsaw | 5 | Stopwatch Beta | STV","players":null},{"server_id":54,"name":"Uncletopia | Warsaw | 6 | Community","name_short":"waw-6","host":"waw-1.pl.uncletopia.com","port":27065,"enabled":true,"region":"eu","cc":"pl","latitude":52.2297,"longitude":21.017532,"reserved":0,"last_update":"0001-01-01T00:00:00Z","name_a2s":"Uncletopia | Warsaw | 6 | Community","protocol":17,"map":"koth_highpass","folder":"tf","game":"Team Fortress","app_id":440,"player_count":0,"max_players":24,"Bots":0,"server_type":"Dedicated","server_os":"Linux","password":true,"vac":true,"version":"7742253","steam_id":85568392925397856,"keywords":["cp","nocrits","nodmgspread","uncletopia"],"game_id":440,"stv_port":27066,"stv_name":"Uncletopia | Warsaw | 6 | Community | STV","players":null}]}