{"status":true,"message":"","result":[{"server_id":9,"name":"Uncletopia | Atlanta | 1 | All Maps","name_short":"atl-1","host":"atl-1.us.uncletopia.com","port":27015,"enabled":true,"region":"us-east","cc":"us","latitude":33.753746,"longitude":-84.38633,"reserved":0,"last_update":"0001-01-01T00:00:00Z","name_a2s":"Uncletopia | Atlanta | 1 | All Maps","protocol":17,"map":"pl_barnblitz","folder":"tf","game":"Team Fortress","app_id":440,"player_count":24,"max_players":24,"Bots":0,"server_type":"Dedicated","server_os":"Linux","password":true,"vac":true,"version":"7708610","steam_id":85568392924469982,"keywords":["nocrits","nodmgspread","payload","uncletopia"],"game_id":440,"stv_port":27016,"stv_name":"Uncletopia | Atlanta | 1 | All Maps | STV","players":[{"user_id":405,"name":"WillsJit","steam_id":76561198064191759,"connected_time":645000000000,"state":"active","ping":57},{"user_id":362,"name":"mommy grinch","steam_id":76561199230929836,"connected_time":4181000000000,"state":"active","ping":88},{"user_id":332,"name":"AALINI","steam_id":76561199135108952,"connected_time":6772000000000,"state":"active","ping":123},{"user_id":372,"name":"MOTORTREND TRUCK OF THE YEAR","steam_id":76561198077654131,"connected_time":3579000000000,"state":"active","ping":72},{"user_id":406,"name":"Jin","steam_id":76561198119873148,"connected_time":569000000000,"state":"active","ping":64},{"user_id":399,"name":"bogginwater","steam_id":76561198155547142,"connected_time":1032000000000,"state":"active","ping":59},{"user_id":396,"name":"Dragon_Spiced","steam_id":76561198097517957,"connected_time":1257000000000,"state":"active","ping":63},{"user_id":288,"name":"Wiggee","steam_id":76561197972792989,"connected_time":9861000000000,"state":"active","ping":63},{"user_id":404,"name":"Wan Shi Tong","steam_id":76561198076441225,"connected_time":710000000000,"state":"active","ping":70},{"user_id":328,"name":"-Enter Name Here-","steam_id":76561198040358938,"connected_time":7004000000000,"state":"active","ping":62},{"user_id":351,"name":"i have a gun","steam_id":76561198016121536,"connected_time":4627000000000,"state":"active","ping":99},{"user_id":400,"name":"ATL1 | Crystron","steam_id":76561198880437428,"connected_time":1009000000000,"state":"active","ping":81},{"user_id":382,"name":"Aniz","steam_id":76561199226665024,"connected_time":2595000000000,"state":"active","ping":159},{"user_id":388,"name":"HUGE HOG","steam_id":76561198079923652,"connected_time":1673000000000,"state":"active","ping":74},{"user_id":371,"name":"ford truck","steam_id":76561198051823844,"connected_time":3602000000000,"state":"active","ping":51},{"user_id":230,"name":"cola","steam_id":76561198374390458,"connected_time":15420000000000,"state":"active","ping":59},{"user_id":393,"name":"The Don","steam_id":76561198016807790,"connected_time":1432000000000,"state":"active","ping":72},{"user_id":381,"name":"sansa musa","steam_id":76561198163723555,"connected_time":2645000000000,"state":"active","ping":75},{"user_id":403,"name":"PROtagonist","steam_id":76561198120631837,"connected_time":816000000000,"state":"active","ping":64},{"user_id":397,"name":"surrender to the void","steam_id":76561198055494039,"connected_time":1239000000000,"state":"active","ping":71},{"user_id":383,"name":"ATL1 | on my hunting trip","steam_id":76561198315341646,"connected_time":2592000000000,"state":"active","ping":61},{"user_id":392,"name":"flatts","steam_id":76561198094127177,"connected_time":1462000000000,"state":"active","ping":59},{"user_id":401,"name":"Kine²","steam_id":76561198061505962,"connected_time":853000000000,"state":"active","ping":43},{"user_id":386,"name":"BotchyAlarm8","steam_id":76561198092682129,"connected_time":1962000000000,"state":"active","ping":59}]},{"server_id":400,"name":"Uncletopia | Atlanta | 3 | All Maps","name_short":"atl-3","host":"atl-1.us.uncletopia.com","port":27035,"enabled":true,"region":"us-east","cc":"us","latitude":33.753746,"longitude":-84.38633,"reserved":0,"last_update":"0001-01-01T00:00:00Z","name_a2s":"Uncletopia | Atlanta | 3 | All Maps","protocol":17,"map":"koth_cascade","folder":"tf","game":"Team Fortress","app_id":440,"player_count":10,"max_players":24,"Bots":0,"server_type":"Dedicated","server_os":"Linux","password":true,"vac":true,"version":"7708610","steam_id":85568392924515187,"keywords":["cp","nocrits","nodmgspread","uncletopia"],"game_id":440,"stv_port":27036,"stv_name":"Uncletopia | Atlanta | 3 | All Maps | STV","players":[{"user_id":444,"name":"Armpit!","steam_id":76561197978095727,"connected_time":164000000000,"state":"active","ping":124},{"user_id":440,"name":"chexo4","steam_id":76561198150532531,"connected_time":211000000000,"state":"active","ping":59},{"user_id":434,"name":"toco","steam_id":76561198081559669,"connected_time":681000000000,"state":"active","ping":168},{"user_id":435,"name":"pompom:3","steam_id":76561199057953617,"connected_time":675000000000,"state":"active","ping":150},{"user_id":436,"name":"pizzalero","steam_id":76561198074917015,"connected_time":662000000000,"state":"active","ping":173},{"user_id":437,"name":"ricky","steam_id":76561199104521318,"connected_time":606000000000,"state":"active","ping":66},{"user_id":441,"name":"\u003e:3 Muiramme εїз","steam_id":76561197994458543,"connected_time":209000000000,"state":"active","ping":121},{"user_id":442,"name":"Munky","steam_id":76561197993491054,"connected_time":167000000000,"state":"active","ping":111},{"user_id":445,"name":"Porygon2","steam_id":76561198393276400,"connected_time":9000000000,"state":"spawning","ping":87},{"user_id":430,"name":"SLOO","steam_id":76561199104823860,"connected_time":1354000000000,"state":"active","ping":63}]},{"server_id":401,"name":"Uncletopia | Atlanta | 4 | No Payload","name_short":"atl-4","host":"atl-1.us.uncletopia.com","port":27045,"enabled":true,"region":"us-east","cc":"us","latitude":33.753746,"longitude":-84.38633,"reserved":0,"last_update":"0001-01-01T00:00:00Z","name_a2s":"Uncletopia | Atlanta | 4 | No Payload","protocol":17,"map":"koth_nucleus","folder":"tf","game":"Team Fortress","app_id":440,"player_count":0,"max_players":24,"Bots":0,"server_type":"Dedicated","server_os":"Linux","password":true,"vac":true,"version":"7708610","steam_id":85568392924515188,"keywords":["cp","nocrits","nodmgspread","uncletopia"],"game_id":440,"stv_port":27046,"stv_name":"Uncletopia | Atlanta | 4 | No Payload | STV","players":null},{"server_id":2,"name":"Uncletopia | Chicago | 1 | All Maps","name_short":"chi-1","host":"chi-1.us.uncletopia.com","port":27015,"enabled":true,"region":"us-central","cc":"us","latitude":41.881832,"longitude":-87.62318,"reserved":0,"last_update":"0001-01-01T00:00:00Z","name_a2s":"Uncletopia | Chicago | 1 | All Maps","protocol":17,"map":"pl_barnblitz","folder":"tf","game":"Team Fortress","app_id":440,"player_count":24,"max_players":24,"Bots":0,"server_type":"Dedicated","server_os":"Linux","password":true,"vac":true,"version":"7708610","steam_id":85568392924469984,"keywords":["alltalk","nocrits","nodmgspread","payload","uncletopia"],"game_id":440,"stv_port":27016,"stv_name":"Uncletopia | Chicago | 1 | All Maps | STV","players":[{"user_id":604,"name":"Ecliptica","steam_id":76561198171951333,"connected_time":2205000000000,"state":"active","ping":104},{"user_id":598,"name":"Underwear Monster","steam_id":76561198175742775,"connected_time":3263000000000,"state":"active","ping":90},{"user_id":582,"name":"strawberry","steam_id":76561198101926397,"connected_time":4530000000000,"state":"active","ping":49},{"user_id":615,"name":"KingTinkerer","steam_id":76561198226856548,"connected_time":318000000000,"state":"active","ping":81},{"user_id":613,"name":"Wallish","steam_id":76561198057175636,"connected_time":854000000000,"state":"active","ping":115},{"user_id":564,"name":"Rendoas","steam_id":76561198002105259,"connected_time":5811000000000,"state":"active","ping":72},{"user_id":601,"name":"WikiThis","steam_id":76561198103209713,"connected_time":2773000000000,"state":"active","ping":72},{"user_id":603,"name":"Ye (I Love Hitler) West","steam_id":76561198068830312,"connected_time":2222000000000,"state":"active","ping":48},{"user_id":611,"name":"gabinator32","steam_id":76561198872467183,"connected_time":1264000000000,"state":"active","ping":53},{"user_id":540,"name":"Ras","steam_id":76561198123546775,"connected_time":9139000000000,"state":"active","ping":58},{"user_id":409,"name":"{[F.H]} Hydroida","steam_id":76561197999797274,"connected_time":20788000000000,"state":"active","ping":53},{"user_id":605,"name":"John Darksoul","steam_id":76561198031675881,"connected_time":2164000000000,"state":"active","ping":66},{"user_id":606,"name":"Definitely Not A Replicant.","steam_id":76561198087464370,"connected_time":2163000000000,"state":"active","ping":61},{"user_id":607,"name":"Avi","steam_id":76561198070098692,"connected_time":2150000000000,"state":"active","ping":63},{"user_id":617,"name":"Fudge_Cake","steam_id":76561198059218167,"connected_time":1000000000,"state":"spawning","ping":42},{"user_id":614,"name":"a sleepy weeb","steam_id":76561198118111687,"connected_time":492000000000,"state":"active","ping":99},{"user_id":581,"name":"CoconutRice","steam_id":76561198114909164,"connected_time":4693000000000,"state":"active","ping":52},{"user_id":560,"name":"jingle.JIFF","steam_id":76561198045181760,"connected_time":6199000000000,"state":"active","ping":59},{"user_id":610,"name":"Righteou5Dude","steam_id":76561198136291931,"connected_time":1265000000000,"state":"active","ping":66},{"user_id":555,"name":"Thatoneguybunchanumbers","steam_id":76561198028039160,"connected_time":7265000000000,"state":"active","ping":76},{"user_id":536,"name":"CAdaverOusPRophet","steam_id":76561198045304110,"connected_time":9385000000000,"state":"active","ping":45},{"user_id":616,"name":"ҽղѵվ","steam_id":76561198099470277,"connected_time":155000000000,"state":"active","ping":69},{"user_id":587,"name":"Dealyo","steam_id":76561198282395338,"connected_time":4254000000000,"state":"active","ping":74},{"user_id":602,"name":"Lia_Rein(deer)","steam_id":76561198151569597,"connected_time":2725000000000,"state":"active","ping":148}]},{"server_id":106,"name":"Uncletopia | Chicago | 2 | All Maps","name_short":"chi-2","host":"chi-1.us.uncletopia.com","port":27025,"enabled":true,"region":"us-central","cc":"us","latitude":41.881832,"longitude":-87.62318,"reserved":0,"last_update":"0001-01-01T00:00:00Z","name_a2s":"Uncletopia | Chicago | 2 | All Maps","protocol":17,"map":"koth_lakeside_final","folder":"tf","game":"Team Fortress","app_id":440,"player_count":24,"max_players":24,"Bots":0,"server_type":"Dedicated","server_os":"Linux","password":true,"vac":true,"version":"7708610","steam_id":85568392924469985,"keywords":["cp","nocrits","nodmgspread","uncletopia"],"game_id":440,"stv_port":27026,"stv_name":"Uncletopia | Chicago | 2 | All Maps | STV","players":[{"user_id":554,"name":"Assassinguy423","steam_id":76561198271947294,"connected_time":396000000000,"state":"active","ping":107},{"user_id":530,"name":"Inevitable","steam_id":76561198210050169,"connected_time":1623000000000,"state":"active","ping":65},{"user_id":534,"name":"XxX_Yung_XxX_Pr0d1gy_XxX","steam_id":76561198076367669,"connected_time":880000000000,"state":"active","ping":66},{"user_id":537,"name":"G-G-G-GAMERSHOT","steam_id":76561198798980951,"connected_time":848000000000,"state":"active","ping":60},{"user_id":548,"name":"Mexicola826","steam_id":76561198043804080,"connected_time":618000000000,"state":"active","ping":77},{"user_id":546,"name":"HanakoToast","steam_id":76561198045233131,"connected_time":668000000000,"state":"active","ping":97},{"user_id":510,"name":"wesker can hit it tbh","steam_id":76561197968351430,"connected_time":2682000000000,"state":"active","ping":99},{"user_id":551,"name":"❤ Ashley ❤","steam_id":76561198056428303,"connected_time":407000000000,"state":"active","ping":98},{"user_id":494,"name":"Merchants of Misery","steam_id":76561199188142396,"connected_time":3752000000000,"state":"active","ping":75},{"user_id":385,"name":"spaaaaace","steam_id":76561199085974120,"connected_time":12680000000000,"state":"active","ping":63},{"user_id":516,"name":"Gay Cake","steam_id":76561198004388831,"connected_time":2358000000000,"state":"active","ping":45},{"user_id":556,"name":"PzVIIIMaus","steam_id":76561198346559365,"connected_time":372000000000,"state":"active","ping":45},{"user_id":547,"name":"Rakk","steam_id":76561198855176174,"connected_time":651000000000,"state":"active","ping":106},{"user_id":513,"name":"snideink287","steam_id":76561198166055131,"connected_time":2628000000000,"state":"active","ping":52},{"user_id":524,"name":"potathooo","steam_id":76561198040638873,"connected_time":2220000000000,"state":"active","ping":82},{"user_id":545,"name":"ikercard","steam_id":76561198821297273,"connected_time":724000000000,"state":"active","ping":85},{"user_id":491,"name":"☼ champloo","steam_id":76561198074180953,"connected_time":3993000000000,"state":"active","ping":65},{"user_id":549,"name":"¿skitt1eS?","steam_id":76561198330093211,"connected_time":593000000000,"state":"active","ping":65},{"user_id":543,"name":"NANOBITES","steam_id":76561198186944363,"connected_time":798000000000,"state":"active","ping":50},{"user_id":532,"name":"TheOneTrueDev","steam_id":76561198107400823,"connected_time":1218000000000,"state":"active","ping":50},{"user_id":544,"name":"Smartest Dumbass","steam_id":76561198408747483,"connected_time":780000000000,"state":"active","ping":91},{"user_id":557,"name":"GooniOoni","steam_id":76561198102154561,"connected_time":84000000000,"state":"active","ping":43},{"user_id":527,"name":"doughboy","steam_id":76561198219012928,"connected_time":2212000000000,"state":"active","ping":105},{"user_id":531,"name":"KevCraft","steam_id":76561199000622939,"connected_time":1431000000000,"state":"active","ping":65}]},{"server_id":402,"name":"Uncletopia | Chicago | 3 | All Maps","name_short":"chi-3","host":"chi-1.us.uncletopia.com","port":27035,"enabled":true,"region":"us-central","cc":"us","latitude":41.881832,"longitude":-87.62318,"reserved":0,"last_update":"0001-01-01T00:00:00Z","name_a2s":"Uncletopia | Chicago | 3 | All Maps","protocol":17,"map":"cp_dustbowl","folder":"tf","game":"Team Fortress","app_id":440,"player_count":24,"max_players":24,"Bots":0,"server_type":"Dedicated","server_os":"Linux","password":true,"vac":true,"version":"7708610","steam_id":85568392924515191,"keywords":["cp","nocrits","nodmgspread","uncletopia"],"game_id":440,"stv_port":27036,"stv_name":"Uncletopia | Chicago | 3 | All Maps | STV","players":[{"user_id":292,"name":"treeCheezquest","steam_id":76561199066499328,"connected_time":3587000000000,"state":"active","ping":64},{"user_id":228,"name":"Hamz","steam_id":76561198107342893,"connected_time":8773000000000,"state":"active","ping":153},{"user_id":307,"name":"Ignalis","steam_id":76561198025662927,"connected_time":2805000000000,"state":"active","ping":60},{"user_id":315,"name":"FrostStorm","steam_id":76561198142685151,"connected_time":1797000000000,"state":"active","ping":60},{"user_id":299,"name":"footoftheday","steam_id":76561198052712449,"connected_time":3165000000000,"state":"active","ping":63},{"user_id":304,"name":"Halcyon","steam_id":76561197999409268,"connected_time":3037000000000,"state":"active","ping":75},{"user_id":321,"name":"Elytex","steam_id":76561199245042930,"connected_time":1285000000000,"state":"active","ping":73},{"user_id":334,"name":"TheFoolOnTheHill","steam_id":76561198088140076,"connected_time":532000000000,"state":"active","ping":132},{"user_id":332,"name":"count","steam_id":76561198330473831,"connected_time":771000000000,"state":"active","ping":62},{"user_id":333,"name":"looloopaa","steam_id":76561198048179242,"connected_time":617000000000,"state":"active","ping":52},{"user_id":335,"name":"FatCuddlyBear","steam_id":76561198133613253,"connected_time":510000000000,"state":"active","ping":60},{"user_id":329,"name":"GreekGoat_Coffee","steam_id":76561198129331088,"connected_time":909000000000,"state":"active","ping":44},{"user_id":310,"name":"jackskywalker10","steam_id":76561198176851907,"connected_time":2683000000000,"state":"active","ping":66},{"user_id":336,"name":"QuirkyNirvanaFan","steam_id":76561199163405931,"connected_time":441000000000,"state":"active","ping":67},{"user_id":282,"name":"HyperOrange|#SaveTF2","steam_id":76561198068071327,"connected_time":4946000000000,"state":"active","ping":67},{"user_id":323,"name":"Onyx","steam_id":76561199033592289,"connected_time":1267000000000,"state":"active","ping":64},{"user_id":251,"name":"Thilo","steam_id":76561197987278784,"connected_time":6977000000000,"state":"active","ping":77},{"user_id":295,"name":"SlimGrady","steam_id":76561198451231329,"connected_time":3456000000000,"state":"active","ping":61},{"user_id":325,"name":"President Ballsack O'Chungus","steam_id":76561198236109724,"connected_time":1229000000000,"state":"active","ping":62},{"user_id":337,"name":"upside down cat","steam_id":76561198028288349,"connected_time":436000000000,"state":"active","ping":89},{"user_id":328,"name":"Curdledwizard","steam_id":76561198020051289,"connected_time":1058000000000,"state":"active","ping":64},{"user_id":326,"name":"Tim'o","steam_id":76561198211100121,"connected_time":1220000000000,"state":"active","ping":59},{"user_id":318,"name":"Feel the bern","steam_id":76561198078824519,"connected_time":1500000000000,"state":"active","ping":114},{"user_id":338,"name":"Pork Tenderloin","steam_id":76561198138663842,"connected_time":270000000000,"state":"active","ping":68}]},{"server_id":403,"name":"Uncletopia | Chicago | 4 | All Maps","name_short":"chi-4","host":"chi-1.us.uncletopia.com","port":27045,"enabled":true,"region":"us-central","cc":"us","latitude":41.881832,"longitude":-87.62318,"reserved":0,"last_update":"0001-01-01T00:00:00Z","name_a2s":"Uncletopia | Chicago | 4 | All Maps","protocol":17,"map":"pl_thundermountain","folder":"tf","game":"Team Fortress","app_id":440,"player_count":24,"max_players":24,"Bots":0,"server_type":"Dedicated","server_os":"Linux","password":true,"vac":true,"version":"7708610","steam_id":85568392924515193,"keywords":["nocrits","nodmgspread","payload","uncletopia"],"game_id":440,"stv_port":27046,"stv_name":"Uncletopia | Chicago | 4 | All Maps | STV","players":[{"user_id":510,"name":"jambie!","steam_id":76561198296042477,"connected_time":1257000000000,"state":"active","ping":45},{"user_id":527,"name":"CFGU || RAWRWAFL","steam_id":76561198032118386,"connected_time":457000000000,"state":"active","ping":96},{"user_id":530,"name":"Jesus","steam_id":76561198018890911,"connected_time":27000000000,"state":"active","ping":71},{"user_id":489,"name":"dominix","steam_id":76561199045061504,"connected_time":3255000000000,"state":"active","ping":82},{"user_id":512,"name":"haxxorman","steam_id":76561199155156400,"connected_time":1241000000000,"state":"active","ping":55},{"user_id":511,"name":"Lawnmower","steam_id":76561198186680197,"connected_time":1257000000000,"state":"active","ping":101},{"user_id":513,"name":"coffee bagel","steam_id":76561198141198352,"connected_time":1166000000000,"state":"active","ping":46},{"user_id":446,"name":"Phroliax","steam_id":76561198207075529,"connected_time":5599000000000,"state":"active","ping":96},{"user_id":505,"name":"big sword","steam_id":76561198285264050,"connected_time":2351000000000,"state":"active","ping":61},{"user_id":506,"name":"Zubats |TAOZ|","steam_id":76561198041819445,"connected_time":2238000000000,"state":"active","ping":59},{"user_id":514,"name":"paradise","steam_id":76561198073361720,"connected_time":1127000000000,"state":"active","ping":48},{"user_id":529,"name":"GenericMaleGamer","steam_id":76561198257271858,"connected_time":247000000000,"state":"active","ping":107},{"user_id":508,"name":"Turbocat","steam_id":76561198145431353,"connected_time":2103000000000,"state":"active","ping":62},{"user_id":516,"name":"kiwiichie ₍ᐢᐢ₎","steam_id":76561198315449521,"connected_time":1117000000000,"state":"active","ping":87},{"user_id":523,"name":"Song_System","steam_id":76561199032245013,"connected_time":848000000000,"state":"active","ping":80},{"user_id":476,"name":"valtiel","steam_id":76561198165212575,"connected_time":3738000000000,"state":"active","ping":71},{"user_id":518,"name":"There must be those who remembe","steam_id":76561198286792807,"connected_time":1076000000000,"state":"active","ping":85},{"user_id":519,"name":"NotSoMewwo","steam_id":76561198130067099,"connected_time":1073000000000,"state":"active","ping":101},{"user_id":522,"name":"Carson","steam_id":76561198076771071,"connected_time":874000000000,"state":"active","ping":51},{"user_id":528,"name":"honja","steam_id":76561197999343534,"connected_time":271000000000,"state":"active","ping":72},{"user_id":478,"name":"tofu yum yum","steam_id":76561198026589960,"connected_time":3651000000000,"state":"active","ping":60},{"user_id":488,"name":"joethefool","steam_id":76561199015436319,"connected_time":3325000000000,"state":"active","ping":63},{"user_id":467,"name":"beats","steam_id":76561199245717718,"connected_time":3998000000000,"state":"active","ping":55},{"user_id":503,"name":"NerdCuddles","steam_id":76561198078915242,"connected_time":2410000000000,"state":"active","ping":61}]},{"server_id":36,"name":"Uncletopia | Chicago | 5 | All Maps","name_short":"chi-5","host":"chi-2.us.uncletopia.com","port":27015,"enabled":true,"region":"us-central","cc":"us","latitude":41.881832,"longitude":-87.62318,"reserved":0,"last_update":"0001-01-01T00:00:00Z","name_a2s":"Uncletopia | Chicago | 5 | All Maps","protocol":17,"map":"koth_lakeside_final","folder":"tf","game":"Team Fortress","app_id":440,"player_count":0,"max_players":24,"Bots":0,"server_type":"Dedicated","server_os":"Linux","password":true,"vac":true,"version":"7708610","steam_id":85568392924866362,"keywords":["cp","nocrits","nodmgspread","uncletopia"],"game_id":440,"stv_port":27016,"stv_name":"Uncletopia | Chicago | 5 | All Maps | STV","players":null},{"server_id":37,"name":"Uncletopia | Chicago | 6 | All Maps","name_short":"chi-6","host":"chi-2.us.uncletopia.com","port":27025,"enabled":true,"region":"us-central","cc":"us","latitude":41.881832,"longitude":-87.62318,"reserved":0,"last_update":"0001-01-01T00:00:00Z","name_a2s":"Uncletopia | Chicago | 6 | All Maps","protocol":17,"map":"pl_badwater","folder":"tf","game":"Team Fortress","app_id":440,"player_count":24,"max_players":24,"Bots":0,"server_type":"Dedicated","server_os":"Linux","password":true,"vac":true,"version":"7708610","steam_id":85568392924866363,"keywords":["nocrits","nodmgspread","payload","uncletopia"],"game_id":440,"stv_port":27026,"stv_name":"Uncletopia | Chicago | 6 | All Maps | STV","players":[{"user_id":60,"name":"tokemaster69","steam_id":76561198083996924,"connected_time":42000000000,"state":"active","ping":68},{"user_id":18,"name":"the wutville cryptid","steam_id":76561198257531708,"connected_time":2880000000000,"state":"active","ping":58},{"user_id":16,"name":"The Absolute P.O.B.E.","steam_id":76561198061130998,"connected_time":3717000000000,"state":"active","ping":61},{"user_id":19,"name":"wutville convicted slapper","steam_id":76561198255308126,"connected_time":2861000000000,"state":"active","ping":75},{"user_id":21,"name":"One Thing And I Dont Know Why","steam_id":76561198430721311,"connected_time":2700000000000,"state":"active","ping":77},{"user_id":51,"name":"bite of 87 (real NOT CLICKBAIT)","steam_id":76561198045832398,"connected_time":952000000000,"state":"active","ping":82},{"user_id":57,"name":"Stay SALTy bby","steam_id":76561198877590581,"connected_time":662000000000,"state":"active","ping":62},{"user_id":24,"name":"THE NUT","steam_id":76561198067813626,"connected_time":2584000000000,"state":"active","ping":96},{"user_id":25,"name":"SlipperyBiz","steam_id":76561198011132403,"connected_time":2362000000000,"state":"active","ping":94},{"user_id":50,"name":"nezzy","steam_id":76561198127115509,"connected_time":997000000000,"state":"active","ping":85},{"user_id":53,"name":"golbat","steam_id":76561198041601161,"connected_time":857000000000,"state":"active","ping":53},{"user_id":33,"name":"STrong Bomber","steam_id":76561198805051139,"connected_time":1881000000000,"state":"active","ping":70},{"user_id":29,"name":"SilentFootba11","steam_id":76561199006570947,"connected_time":2079000000000,"state":"active","ping":62},{"user_id":30,"name":"Gravy","steam_id":76561198087726095,"connected_time":2051000000000,"state":"active","ping":83},{"user_id":58,"name":"leumas","steam_id":76561198240408540,"connected_time":613000000000,"state":"active","ping":62},{"user_id":39,"name":"tacoodoom","steam_id":76561199123075248,"connected_time":1831000000000,"state":"active","ping":71},{"user_id":49,"name":"Egyptian amogus","steam_id":76561198320353510,"connected_time":1368000000000,"state":"active","ping":146},{"user_id":37,"name":"Boter","steam_id":76561198066994093,"connected_time":1851000000000,"state":"active","ping":62},{"user_id":59,"name":"Ace Chromatica","steam_id":76561198042211131,"connected_time":72000000000,"state":"active","ping":58},{"user_id":47,"name":"CyberZayne","steam_id":76561198002351356,"connected_time":1652000000000,"state":"active","ping":78},{"user_id":48,"name":"Wug","steam_id":76561198084112264,"connected_time":1645000000000,"state":"active","ping":87},{"user_id":43,"name":"boppetson","steam_id":76561198073529045,"connected_time":1777000000000,"state":"active","ping":75},{"user_id":44,"name":"papi Chulo","steam_id":76561198126274984,"connected_time":1775000000000,"state":"active","ping":115},{"user_id":56,"name":"wool ♠","steam_id":76561198332704108,"connected_time":799000000000,"state":"active","ping":53}]},{"server_id":38,"name":"Uncletopia | Chicago | 7 | No Payload","name_short":"chi-7","host":"chi-2.us.uncletopia.com","port":27035,"enabled":true,"region":"us-central","cc":"us","latitude":41.881832,"longitude":-87.62318,"reserved":0,"last_update":"0001-01-01T00:00:00Z","name_a2s":"Uncletopia | Chicago | 7 | No Payload","protocol":17,"map":"cp_altitude","folder":"tf","game":"Team Fortress","app_id":440,"player_count":24,"max_players":24,"Bots":0,"server_type":"Dedicated","server_os":"Linux","password":true,"vac":true,"version":"7708610","steam_id":85568392924866364,"keywords":["cp","nocrits","nodmgspread","uncletopia"],"game_id":440,"stv_port":27036,"stv_name":"Uncletopia | Chicago | 7 | No Payload | STV","players":[{"user_id":80,"name":"Sleepy Brady","steam_id":76561198867378129,"connected_time":4838000000000,"state":"active","ping":65},{"user_id":167,"name":"parsee","steam_id":76561198095139889,"connected_time":227000000000,"state":"active","ping":68},{"user_id":81,"name":"moe5x","steam_id":76561198316877833,"connected_time":4786000000000,"state":"active","ping":91},{"user_id":159,"name":"gonk","steam_id":76561198061206732,"connected_time":443000000000,"state":"active","ping":85},{"user_id":99,"name":"Mahogany Shrimptastic Beuford I","steam_id":76561198163525071,"connected_time":4053000000000,"state":"active","ping":70},{"user_id":162,"name":"Streetwise","steam_id":76561197971684268,"connected_time":302000000000,"state":"active","ping":87},{"user_id":152,"name":"Goldbug","steam_id":76561198025221202,"connected_time":1345000000000,"state":"active","ping":98},{"user_id":123,"name":"Somebody","steam_id":76561198146535845,"connected_time":2794000000000,"state":"active","ping":131},{"user_id":172,"name":"[ £Ÿ,Đ ] Not AirmanBlueJay","steam_id":76561198030901346,"connected_time":140000000000,"state":"active","ping":81},{"user_id":148,"name":"Goofball","steam_id":76561198074189084,"connected_time":1599000000000,"state":"active","ping":59},{"user_id":163,"name":"totally not a pile of beans","steam_id":76561198119851931,"connected_time":287000000000,"state":"active","ping":80},{"user_id":164,"name":"Nelson","steam_id":76561198036822957,"connected_time":279000000000,"state":"active","ping":92},{"user_id":130,"name":"Cthulwho?","steam_id":76561198165550810,"connected_time":2438000000000,"state":"active","ping":71},{"user_id":165,"name":"Dihsar","steam_id":76561198065169821,"connected_time":267000000000,"state":"active","ping":65},{"user_id":169,"name":"spobely","steam_id":76561197995539224,"connected_time":215000000000,"state":"active","ping":67},{"user_id":111,"name":"Caoticaos","steam_id":76561198114800227,"connected_time":3403000000000,"state":"active","ping":145},{"user_id":131,"name":"RumetCoke","steam_id":76561198125922681,"connected_time":2417000000000,"state":"active","ping":83},{"user_id":170,"name":"dave strider","steam_id":76561198065112186,"connected_time":214000000000,"state":"active","ping":69},{"user_id":132,"name":"PinkDizaster","steam_id":76561198112512523,"connected_time":2407000000000,"state":"active","ping":73},{"user_id":149,"name":"spaz_addict","steam_id":76561198084288186,"connected_time":1553000000000,"state":"active","ping":116},{"user_id":171,"name":"SE X","steam_id":76561198094525829,"connected_time":203000000000,"state":"active","ping":77},{"user_id":126,"name":"craf","steam_id":76561198163535075,"connected_time":2636000000000,"state":"active","ping":80},{"user_id":140,"name":"Silverio","steam_id":76561197999425381,"connected_time":2016000000000,"state":"active","ping":82},{"user_id":173,"name":"The IRS","steam_id":76561197998344127,"connected_time":139000000000,"state":"active","ping":85}]},{"server_id":39,"name":"Uncletopia | Chicago | 8 | Community","name_short":"chi-8","host":"chi-2.us.uncletopia.com","port":27045,"enabled":true,"region":"us-central","cc":"us","latitude":41.881832,"longitude":-87.62318,"reserved":0,"last_update":"0001-01-01T00:00:00Z","name_a2s":"Uncletopia | Chicago | 8 | Community","protocol":17,"map":"workshop/cp_villa_b19.ugc2113052569","folder":"tf","game":"Team Fortress","app_id":440,"player_count":0,"max_players":24,"Bots":0,"server_type":"Dedicated","server_os":"Linux","password":true,"vac":true,"version":"7708610","steam_id":85568392924866365,"keywords":["cp","nocrits","nodmgspread","uncletopia"],"game_id":440,"stv_port":27046,"stv_name":"Uncletopia | Chicago | 8 | Community | STV","players":null},{"server_id":8,"name":"Uncletopia | Dallas | 1 | All Maps","name_short":"dal-1","host":"dal-1.us.uncletopia.com","port":27015,"enabled":true,"region":"us-central","cc":"us","latitude":32.779167,"longitude":-96.80889,"reserved":0,"last_update":"0001-01-01T00:00:00Z","name_a2s":"Uncletopia | Dallas | 1 | All Maps","protocol":17,"map":"koth_lakeside_final","folder":"tf","game":"Team Fortress","app_id":440,"player_count":24,"max_players":24,"Bots":0,"server_type":"Dedicated","server_os":"Linux","password":true,"vac":true,"version":"7708610","steam_id":85568392924469986,"keywords":["cp","nocrits","nodmgspread","uncletopia"],"game_id":440,"stv_port":27016,"stv_name":"Uncletopia | Dallas | 1 | All Maps | STV","players":[{"user_id":308,"name":"Max Level Wizard (Goblin Gang)","steam_id":76561198971239299,"connected_time":335000000000,"state":"active","ping":82},{"user_id":307,"name":"bringer of claps","steam_id":76561198201745567,"connected_time":341000000000,"state":"active","ping":80},{"user_id":268,"name":"PootisPowHAHA","steam_id":76561199023536209,"connected_time":4183000000000,"state":"active","ping":82},{"user_id":309,"name":"Moonflower ✦","steam_id":76561198191782483,"connected_time":322000000000,"state":"active","ping":63},{"user_id":285,"name":"Xyvern","steam_id":76561198229576844,"connected_time":2972000000000,"state":"active","ping":81},{"user_id":315,"name":"mr ploobmeister","steam_id":76561198128908529,"connected_time":40000000000,"state":"active","ping":166},{"user_id":296,"name":"Goofball","steam_id":76561198061211537,"connected_time":1922000000000,"state":"active","ping":76},{"user_id":277,"name":"inzang","steam_id":76561198088318074,"connected_time":3123000000000,"state":"active","ping":47},{"user_id":289,"name":"JustSomeInternetGuy","steam_id":76561199066037843,"connected_time":2271000000000,"state":"active","ping":52},{"user_id":293,"name":"Ducking Mad","steam_id":76561198023126167,"connected_time":2092000000000,"state":"active","ping":78},{"user_id":305,"name":"Yukon Cornelius","steam_id":76561198261512781,"connected_time":767000000000,"state":"active","ping":61},{"user_id":295,"name":"Peter Griffin","steam_id":76561198119784475,"connected_time":2036000000000,"state":"active","ping":131},{"user_id":290,"name":"Pungabot","steam_id":76561198009088243,"connected_time":2188000000000,"state":"active","ping":84},{"user_id":291,"name":"MF","steam_id":76561199439734314,"connected_time":2165000000000,"state":"active","ping":72},{"user_id":306,"name":"Pipo","steam_id":76561198171466414,"connected_time":356000000000,"state":"active","ping":99},{"user_id":292,"name":"LORDMARF","steam_id":76561198143122675,"connected_time":2126000000000,"state":"active","ping":51},{"user_id":311,"name":"big guapo","steam_id":76561198103228695,"connected_time":311000000000,"state":"active","ping":79},{"user_id":303,"name":"???","steam_id":76561198200155343,"connected_time":982000000000,"state":"active","ping":51},{"user_id":314,"name":"BreadBug","steam_id":76561198797355574,"connected_time":197000000000,"state":"active","ping":77},{"user_id":301,"name":"kougar dragon","steam_id":76561199443478548,"connected_time":1286000000000,"state":"active","ping":79},{"user_id":313,"name":"fat tits haver","steam_id":76561198081681647,"connected_time":303000000000,"state":"active","ping":61},{"user_id":304,"name":"Chrimith777","steam_id":76561198075130050,"connected_time":982000000000,"state":"active","ping":76},{"user_id":299,"name":"Emma","steam_id":76561198318093783,"connected_time":1321000000000,"state":"active","ping":60}]},{"server_id":108,"name":"Uncletopia | Dallas | 2 | All Maps","name_short":"dal-2","host":"dal-1.us.uncletopia.com","port":27025,"enabled":true,"region":"us-central","cc":"us","latitude":32.779167,"longitude":-96.80889,"reserved":0,"last_update":"0001-01-01T00:00:00Z","name_a2s":"Uncletopia | Dallas | 2 | All Maps","protocol":17,"map":"cp_sunshine","folder":"tf","game":"Team Fortress","app_id":440,"player_count":24,"max_players":24,"Bots":0,"server_type":"Dedicated","server_os":"Linux","password":true,"vac":true,"version":"7708610","steam_id":85568392924469988,"keywords":["cp","nocrits","nodmgspread","uncletopia"],"game_id":440,"stv_port":27026,"stv_name":"Uncletopia | Dallas | 2 | All Maps | STV","players":[{"user_id":272,"name":"tim E","steam_id":76561198401800919,"connected_time":230000000000,"state":"active","ping":113},{"user_id":245,"name":"Cow","steam_id":76561199068097215,"connected_time":1465000000000,"state":"active","ping":64},{"user_id":258,"name":"TheRealFryingDutchMan!","steam_id":76561199193784099,"connected_time":1255000000000,"state":"active","ping":61},{"user_id":171,"name":"rot haus","steam_id":76561198106690989,"connected_time":6068000000000,"state":"active","ping":88},{"user_id":187,"name":"P. Sebs","steam_id":76561198112354627,"connected_time":4434000000000,"state":"active","ping":46},{"user_id":276,"name":"iluvtoust","steam_id":76561198869269207,"connected_time":112000000000,"state":"active","ping":46},{"user_id":243,"name":"Hawkborne","steam_id":76561198107249245,"connected_time":1471000000000,"state":"active","ping":66},{"user_id":247,"name":"King","steam_id":76561198010019214,"connected_time":1450000000000,"state":"active","ping":62},{"user_id":246,"name":"java","steam_id":76561198030276792,"connected_time":1452000000000,"state":"active","ping":60},{"user_id":264,"name":"+","steam_id":76561198262422184,"connected_time":546000000000,"state":"active","ping":56},{"user_id":248,"name":"plink","steam_id":76561198057829889,"connected_time":1431000000000,"state":"active","ping":113},{"user_id":275,"name":"Boop Master","steam_id":76561198091582046,"connected_time":163000000000,"state":"active","ping":123},{"user_id":267,"name":"yesterday once more","steam_id":76561198038486613,"connected_time":362000000000,"state":"active","ping":91},{"user_id":266,"name":"Daz","steam_id":76561198041431938,"connected_time":434000000000,"state":"active","ping":79},{"user_id":223,"name":"Wolbey","steam_id":76561198042148095,"connected_time":2567000000000,"state":"active","ping":68},{"user_id":204,"name":"AlecTheNefarious","steam_id":76561198035291230,"connected_time":3122000000000,"state":"active","ping":45},{"user_id":250,"name":"\u003c`)))))\u003c fish","steam_id":76561198410078962,"connected_time":1413000000000,"state":"active","ping":72},{"user_id":273,"name":"HexT","steam_id":76561199085359931,"connected_time":226000000000,"state":"active","ping":73},{"user_id":256,"name":"wizorb","steam_id":76561198002172674,"connected_time":1301000000000,"state":"active","ping":69},{"user_id":270,"name":"ryce","steam_id":76561198114572309,"connected_time":311000000000,"state":"active","ping":62},{"user_id":274,"name":"Habber The Quesomancer","steam_id":76561198049642751,"connected_time":213000000000,"state":"active","ping":44},{"user_id":259,"name":"Penis Man","steam_id":76561199079213911,"connected_time":1221000000000,"state":"active","ping":94},{"user_id":260,"name":"setch","steam_id":76561198252328518,"connected_time":1173000000000,"state":"active","ping":85},{"user_id":132,"name":"peter slideinher","steam_id":76561198000564263,"connected_time":8246000000000,"state":"active","ping":75}]},{"server_id":5,"name":"Uncletopia | Frankfurt | 1 | All Maps","name_short":"frk-1","host":"frk-1.de.uncletopia.com","port":27015,"enabled":true,"region":"eu","cc":"de","latitude":50.110924,"longitude":8.682127,"reserved":0,"last_update":"0001-01-01T00:00:00Z","name_a2s":"Uncletopia | Frankfurt | 1 | All Maps","protocol":17,"map":"cp_snakewater_final1","folder":"tf","game":"Team Fortress","app_id":440,"player_count":0,"max_players":24,"Bots":0,"server_type":"Dedicated","server_os":"Linux","password":true,"vac":true,"version":"7708610","steam_id":85568392924469989,"keywords":["cp","nocrits","nodmgspread","uncletopia"],"game_id":440,"stv_port":27016,"stv_name":"Uncletopia | Frankfurt | 1 | All Maps | STV","players":null},{"server_id":110,"name":"Uncletopia | Frankfurt | 2 | All Maps","name_short":"frk-2","host":"frk-1.de.uncletopia.com","port":27025,"enabled":true,"region":"eu","cc":"de","latitude":50.110924,"longitude":8.682127,"reserved":0,"last_update":"0001-01-01T00:00:00Z","name_a2s":"Uncletopia | Frankfurt | 2 | All Maps","protocol":17,"map":"cp_sunshine","folder":"tf","game":"Team Fortress","app_id":440,"player_count":0,"max_players":24,"Bots":0,"server_type":"Dedicated","server_os":"Linux","password":true,"vac":true,"version":"7708610","steam_id":85568392924469990,"keywords":["cp","nocrits","nodmgspread","uncletopia"],"game_id":440,"stv_port":27026,"stv_name":"Uncletopia | Frankfurt | 2 | All Maps | STV","players":null},{"server_id":308,"name":"Uncletopia | Frankfurt | 3 | All Maps","name_short":"frk-3","host":"frk-1.de.uncletopia.com","port":27035,"enabled":true,"region":"eu","cc":"de","latitude":50.110924,"longitude":8.682127,"reserved":0,"last_update":"0001-01-01T00:00:00Z","name_a2s":"Uncletopia | Frankfurt | 3 | All Maps","protocol":17,"map":"cp_snakewater_final1","folder":"tf","game":"Team Fortress","app_id":440,"player_count":0,"max_players":24,"Bots":0,"server_type":"Dedicated","server_os":"Linux","password":true,"vac":true,"version":"7708610","steam_id":85568392924504274,"keywords":["cp","nocrits","nodmgspread","uncletopia"],"game_id":440,"stv_port":27036,"stv_name":"Uncletopia | Frankfurt | 3 | All Maps | STV","players":null},{"server_id":309,"name":"Uncletopia | Frankfurt | 4 | All Maps","name_short":"frk-4","host":"frk-1.de.uncletopia.com","port":27045,"enabled":true,"region":"eu","cc":"de","latitude":50.110924,"longitude":8.682127,"reserved":0,"last_update":"0001-01-01T00:00:00Z","name_a2s":"Uncletopia | Frankfurt | 4 | All Maps","protocol":17,"map":"pl_snowycoast","folder":"tf","game":"Team Fortress","app_id":440,"player_count":0,"max_players":24,"Bots":0,"server_type":"Dedicated","server_os":"Linux","password":true,"vac":true,"version":"7708610","steam_id":85568392924504275,"keywords":["nocrits","nodmgspread","payload","uncletopia"],"game_id":440,"stv_port":27046,"stv_name":"Uncletopia | Frankfurt | 4 | All Maps | STV","players":null},{"server_id":310,"name":"Uncletopia | Frankfurt | 5 | All Maps","name_short":"frk-5","host":"frk-1.de.uncletopia.com","port":27055,"enabled":true,"region":"eu","cc":"de","latitude":50.110924,"longitude":8.682127,"reserved":0,"last_update":"0001-01-01T00:00:00Z","name_a2s":"Uncletopia | Frankfurt | 5 | All Maps","protocol":17,"map":"koth_cascade","folder":"tf","game":"Team Fortress","app_id":440,"player_count":0,"max_players":24,"Bots":0,"server_type":"Dedicated","server_os":"Linux","password":true,"vac":true,"version":"7708610","steam_id":85568392924504277,"keywords":["cp","nocrits","nodmgspread","uncletopia"],"game_id":440,"stv_port":27056,"stv_name":"Uncletopia | Frankfurt | 5 | All Maps | STV","players":null},{"server_id":311,"name":"Uncletopia | Frankfurt | 6 | All Maps","name_short":"frk-6","host":"frk-1.de.uncletopia.com","port":27065,"enabled":true,"region":"eu","cc":"de","latitude":50.110924,"longitude":8.682127,"reserved":0,"last_update":"0001-01-01T00:00:00Z","name_a2s":"Uncletopia | Frankfurt | 6 | All Maps","protocol":17,"map":"cp_sunshine","folder":"tf","game":"Team Fortress","app_id":440,"player_count":0,"max_players":24,"Bots":0,"server_type":"Dedicated","server_os":"Linux","password":true,"vac":true,"version":"7708610","steam_id":85568392924504278,"keywords":["cp","nocrits","nodmgspread","uncletopia"],"game_id":440,"stv_port":27066,"stv_name":"Uncletopia | Frankfurt | 6 | All Maps | STV","players":null},{"server_id":23,"name":"Uncletopia | Frankfurt | 7 | No Payload","name_short":"frk-7","host":"frk-1.de.uncletopia.com","port":27075,"enabled":true,"region":"eu","cc":"de","latitude":50.110924,"longitude":8.682127,"reserved":0,"last_update":"0001-01-01T00:00:00Z","name_a2s":"Uncletopia | Frankfurt | 7 | No Payload","protocol":17,"map":"plr_hightower","folder":"tf","game":"Team Fortress","app_id":440,"player_count":0,"max_players":24,"Bots":0,"server_type":"Dedicated","server_os":"Linux","password":true,"vac":true,"version":"7708610","steam_id":85568392924742827,"keywords":["nocrits","nodmgspread","payload","uncletopia"],"game_id":440,"stv_port":27076,"stv_name":"Uncletopia | Frankfurt | 7 | No Payload | STV","players":null},{"server_id":24,"name":"Uncletopia | Frankfurt | 8 | Community","name_short":"frk-8","host":"frk-1.de.uncletopia.com","port":27085,"enabled":true,"region":"eu","cc":"de","latitude":50.110924,"longitude":8.682127,"reserved":0,"last_update":"0001-01-01T00:00:00Z","name_a2s":"Uncletopia | Frankfurt | 8 | Community","protocol":17,"map":"workshop/koth_slaughter_rc1.ugc1712845210","folder":"tf","game":"Team Fortress","app_id":440,"player_count":0,"max_players":24,"Bots":0,"server_type":"Dedicated","server_os":"Linux","password":true,"vac":true,"version":"7708610","steam_id":85568392924742828,"keywords":["cp","nocrits","nodmgspread","uncletopia"],"game_id":440,"stv_port":27086,"stv_name":"Uncletopia | Frankfurt | 8 | Community | STV","players":null},{"server_id":202,"name":"Uncletopia | Hong Kong | 1 | All Maps","name_short":"hgk-1","host":"hgk-1.hk.uncletopia.com","port":27015,"enabled":true,"region":"asia","cc":"hk","latitude":22.302711,"longitude":114.177216,"reserved":0,"last_update":"0001-01-01T00:00:00Z","name_a2s":"Uncletopia | Hong Kong | 1 | All Maps","protocol":17,"map":"koth_highpass","folder":"tf","game":"Team Fortress","app_id":440,"player_count":0,"max_players":24,"Bots":0,"server_type":"Dedicated","server_os":"Linux","password":true,"vac":true,"version":"7708610","steam_id":85568392924494504,"keywords":["cp","nocrits","nodmgspread","uncletopia"],"game_id":440,"stv_port":27016,"stv_name":"Uncletopia | Hong Kong | 1 | All Maps | STV","players":null},{"server_id":1,"name":"Uncletopia | Los Angeles | 1 | All Maps","name_short":"lax-1","host":"lax-1.us.uncletopia.com","port":27015,"enabled":true,"region":"us-west","cc":"us","latitude":33.94279,"longitude":-118.41004,"reserved":0,"last_update":"0001-01-01T00:00:00Z","name_a2s":"Uncletopia | Los Angeles | 1 | All Maps","protocol":17,"map":"pl_borneo","folder":"tf","game":"Team Fortress","app_id":440,"player_count":0,"max_players":24,"Bots":0,"server_type":"Dedicated","server_os":"Linux","password":true,"vac":true,"version":"7708610","steam_id":85568392924469991,"keywords":["nocrits","nodmgspread","payload","uncletopia"],"game_id":440,"stv_port":27016,"stv_name":"Uncletopia | Los Angeles | 1 | All Maps | STV","players":null},{"server_id":112,"name":"Uncletopia | Los Angeles | 2 | All Maps","name_short":"lax-2","host":"lax-1.us.uncletopia.com","port":27025,"enabled":true,"region":"us-west","cc":"us","latitude":33.94279,"longitude":-118.41004,"reserved":0,"last_update":"0001-01-01T00:00:00Z","name_a2s":"Uncletopia | Los Angeles | 2 | All Maps","protocol":17,"map":"pl_pier","folder":"tf","game":"Team Fortress","app_id":440,"player_count":15,"max_players":24,"Bots":0,"server_type":"Dedicated","server_os":"Linux","password":true,"vac":true,"version":"7708610","steam_id":85568392924469992,"keywords":["nocrits","nodmgspread","payload","uncletopia"],"game_id":440,"stv_port":27026,"stv_name":"Uncletopia | Los Angeles | 2 | All Maps | STV","players":[{"user_id":277,"name":"Krow Lyngin (she/her)","steam_id":76561198085410622,"connected_time":377000000000,"state":"active","ping":76},{"user_id":258,"name":"Zenn","steam_id":76561198032618254,"connected_time":2490000000000,"state":"active","ping":73},{"user_id":223,"name":"ena - d","steam_id":76561198072329335,"connected_time":5737000000000,"state":"active","ping":85},{"user_id":282,"name":"ElShaggy","steam_id":76561198148870214,"connected_time":113000000000,"state":"active","ping":52},{"user_id":275,"name":"Frank","steam_id":76561198126681511,"connected_time":422000000000,"state":"active","ping":67},{"user_id":288,"name":"walrooos ✿","steam_id":76561198024521839,"connected_time":31000000000,"state":"active","ping":85},{"user_id":280,"name":"dame donny guy","steam_id":76561198447362227,"connected_time":176000000000,"state":"active","ping":127},{"user_id":284,"name":"mr.edderkopper","steam_id":76561198152614478,"connected_time":96000000000,"state":"active","ping":101},{"user_id":285,"name":"Thatoneguy","steam_id":76561199120268119,"connected_time":94000000000,"state":"active","ping":56},{"user_id":286,"name":"lukamine","steam_id":76561198166827208,"connected_time":60000000000,"state":"active","ping":75},{"user_id":260,"name":"Nez","steam_id":76561197963109059,"connected_time":1737000000000,"state":"active","ping":52},{"user_id":182,"name":"dj_Beanland","steam_id":76561198047500009,"connected_time":7608000000000,"state":"active","ping":47},{"user_id":265,"name":"mc ride gaming","steam_id":76561198275509919,"connected_time":1447000000000,"state":"active","ping":58},{"user_id":167,"name":"Super Mighty G","steam_id":76561198020932806,"connected_time":8166000000000,"state":"active","ping":45},{"user_id":262,"name":"Madvillain","steam_id":76561198037734204,"connected_time":1559000000000,"state":"active","ping":44}]},{"server_id":324,"name":"Uncletopia | Los Angeles | 3 | All Maps","name_short":"lax-3","host":"lax-1.us.uncletopia.com","port":27035,"enabled":true,"region":"us-west","cc":"us","latitude":33.94279,"longitude":-118.41004,"reserved":0,"last_update":"0001-01-01T00:00:00Z","name_a2s":"Uncletopia | Los Angeles | 3 | All Maps","protocol":17,"map":"koth_viaduct","folder":"tf","game":"Team Fortress","app_id":440,"player_count":0,"max_players":24,"Bots":0,"server_type":"Dedicated","server_os":"Linux","password":true,"vac":true,"version":"7708610","steam_id":85568392924510198,"keywords":["cp","nocrits","nodmgspread","uncletopia"],"game_id":440,"stv_port":27036,"stv_name":"Uncletopia | Los Angeles | 3 | All Maps | STV","players":null},{"server_id":25,"name":"Uncletopia | Los Angeles | 4 | No Payload","name_short":"lax-4","host":"lax-1.us.uncletopia.com","port":27045,"enabled":true,"region":"us-west","cc":"us","latitude":33.94279,"longitude":-118.41004,"reserved":0,"last_update":"0001-01-01T00:00:00Z","name_a2s":"Uncletopia | Los Angeles | 4 | No Payload","protocol":17,"map":"cp_snakewater_final1","folder":"tf","game":"Team Fortress","app_id":440,"player_count":0,"max_players":24,"Bots":0,"server_type":"Dedicated","server_os":"Linux","password":true,"vac":true,"version":"7708610","steam_id":85568392924510199,"keywords":["cp","nocrits","nodmgspread","uncletopia"],"game_id":440,"stv_port":27046,"stv_name":"Uncletopia | Los Angeles | 4 | No Payload | STV","players":null},{"server_id":11,"name":"Uncletopia | London | 1 | All Maps","name_short":"lon-1","host":"lon-1.uk.uncletopia.com","port":27015,"enabled":true,"region":"eu","cc":"gb","latitude":51.509865,"longitude":-0.118092,"reserved":0,"last_update":"0001-01-01T00:00:00Z","name_a2s":"Uncletopia | London | 1 | All Maps","protocol":17,"map":"cp_altitude","folder":"tf","game":"Team Fortress","app_id":440,"player_count":0,"max_players":24,"Bots":0,"server_type":"Dedicated","server_os":"Linux","password":true,"vac":true,"version":"7708610","steam_id":85568392924367362,"keywords":["cp","nocrits","nodmgspread","uncletopia"],"game_id":440,"stv_port":27016,"stv_name":"Uncletopia | London | 1 | All Maps | STV","players":null},{"server_id":114,"name":"Uncletopia | London | 2 | All Maps","name_short":"lon-2","host":"lon-1.uk.uncletopia.com","port":27025,"enabled":true,"region":"eu","cc":"gb","latitude":51.509865,"longitude":-0.118092,"reserved":0,"last_update":"0001-01-01T00:00:00Z","name_a2s":"Uncletopia | London | 2 | All Maps","protocol":17,"map":"cp_dustbowl","folder":"tf","game":"Team Fortress","app_id":440,"player_count":0,"max_players":24,"Bots":0,"server_type":"Dedicated","server_os":"Linux","password":true,"vac":true,"version":"7708610","steam_id":85568392924470941,"keywords":["cp","nocrits","nodmgspread","uncletopia"],"game_id":440,"stv_port":27026,"stv_name":"Uncletopia | London | 2 | All Maps | STV","players":null},{"server_id":320,"name":"Uncletopia | London | 3 | All Maps","name_short":"lon-3","host":"lon-1.uk.uncletopia.com","port":27035,"enabled":true,"region":"eu","cc":"gb","latitude":51.509865,"longitude":-0.118092,"reserved":0,"last_update":"0001-01-01T00:00:00Z","name_a2s":"Uncletopia | London | 3 | All Maps","protocol":17,"map":"koth_cascade","folder":"tf","game":"Team Fortress","app_id":440,"player_count":0,"max_players":24,"Bots":0,"server_type":"Dedicated","server_os":"Linux","password":true,"vac":true,"version":"7708610","steam_id":85568392924510192,"keywords":["cp","nocrits","nodmgspread","uncletopia"],"game_id":440,"stv_port":27036,"stv_name":"Uncletopia | London | 3 | All Maps | STV","players":null},{"server_id":321,"name":"Uncletopia | London | 4 | All Maps","name_short":"lon-4","host":"lon-1.uk.uncletopia.com","port":27045,"enabled":true,"region":"eu","cc":"gb","latitude":51.509865,"longitude":-0.118092,"reserved":0,"last_update":"0001-01-01T00:00:00Z","name_a2s":"Uncletopia | London | 4 | All Maps","protocol":17,"map":"koth_harvest_final","folder":"tf","game":"Team Fortress","app_id":440,"player_count":0,"max_players":24,"Bots":0,"server_type":"Dedicated","server_os":"Linux","password":true,"vac":true,"version":"7708610","steam_id":85568392924510193,"keywords":["cp","nocrits","nodmgspread","uncletopia"],"game_id":440,"stv_port":27046,"stv_name":"Uncletopia | London | 4 | All Maps | STV","players":null},{"server_id":21,"name":"Uncletopia | London | 5 | All Maps","name_short":"lon-5","host":"lon-1.uk.uncletopia.com","port":27055,"enabled":true,"region":"eu","cc":"gb","latitude":51.509865,"longitude":-0.118092,"reserved":0,"last_update":"0001-01-01T00:00:00Z","name_a2s":"Uncletopia | London | 5 | All Maps","protocol":17,"map":"koth_lakeside_final","folder":"tf","game":"Team Fortress","app_id":440,"player_count":0,"max_players":24,"Bots":0,"server_type":"Dedicated","server_os":"Linux","password":true,"vac":true,"version":"7708610","steam_id":85568392924742829,"keywords":["cp","nocrits","nodmgspread","uncletopia"],"game_id":440,"stv_port":27056,"stv_name":"Uncletopia | London | 5 | All Maps | STV","players":null},{"server_id":22,"name":"Uncletopia | London | 6 | All Maps","name_short":"lon-6","host":"lon-1.uk.uncletopia.com","port":27065,"enabled":true,"region":"eu","cc":"gb","latitude":51.509865,"longitude":-0.118092,"reserved":0,"last_update":"0001-01-01T00:00:00Z","name_a2s":"Uncletopia | London | 6 | All Maps","protocol":17,"map":"koth_highpass","folder":"tf","game":"Team Fortress","app_id":440,"player_count":0,"max_players":24,"Bots":0,"server_type":"Dedicated","server_os":"Linux","password":true,"vac":true,"version":"7708610","steam_id":85568392924742830,"keywords":["cp","nocrits","nodmgspread","uncletopia"],"game_id":440,"stv_port":27066,"stv_name":"Uncletopia | London | 6 | All Maps | STV","players":null},{"server_id":40,"name":"Uncletopia | London | 7 | No Payload","name_short":"lon-7","host":"lon-1.uk.uncletopia.com","port":27075,"enabled":true,"region":"eu","cc":"gb","latitude":51.509865,"longitude":-0.118092,"reserved":0,"last_update":"0001-01-01T00:00:00Z","name_a2s":"Uncletopia | London | 7 | No Payload","protocol":17,"map":"koth_highpass","folder":"tf","game":"Team Fortress","app_id":440,"player_count":0,"max_players":24,"Bots":0,"server_type":"Dedicated","server_os":"Linux","password":true,"vac":true,"version":"7708610","steam_id":85568392924964314,"keywords":["cp","nocrits","nodmgspread","uncletopia"],"game_id":440,"stv_port":27076,"stv_name":"Uncletopia | London | 7 | No Payload | STV","players":null},{"server_id":41,"name":"Uncletopia | London | 8 | Community","name_short":"lon-8","host":"lon-1.uk.uncletopia.com","port":27085,"enabled":true,"region":"eu","cc":"gb","latitude":51.509865,"longitude":-0.118092,"reserved":0,"last_update":"0001-01-01T00:00:00Z","name_a2s":"Uncletopia | London | 8 | Community","protocol":17,"map":"workshop/koth_synthetic_rc6a.ugc1549817316","folder":"tf","game":"Team Fortress","app_id":440,"player_count":0,"max_players":24,"Bots":0,"server_type":"Dedicated","server_os":"Linux","password":true,"vac":true,"version":"7708610","steam_id":85568392924964315,"keywords":["cp","nocrits","nodmgspread","uncletopia"],"game_id":440,"stv_port":27086,"stv_name":"Uncletopia | London | 8 | Community | STV","players":null},{"server_id":300,"name":"Uncletopia | Montréal | 1 | All Maps","name_short":"mtl-1","host":"mtl-1.ca.uncletopia.com","port":27015,"enabled":true,"region":"us-east","cc":"ca","latitude":45.50889,"longitude":-73.56167,"reserved":0,"last_update":"0001-01-01T00:00:00Z","name_a2s":"Uncletopia | Montréal | 1 | All Maps","protocol":17,"map":"pl_frontier_final","folder":"tf","game":"Team Fortress","app_id":440,"player_count":0,"max_players":24,"Bots":0,"server_type":"Dedicated","server_os":"Linux","password":true,"vac":true,"version":"7708610","steam_id":85568392924500087,"keywords":["nocrits","nodmgspread","payload","uncletopia"],"game_id":440,"stv_port":27016,"stv_name":"Uncletopia | Montréal | 1 | All Maps | STV","players":null},{"server_id":301,"name":"Uncletopia | Montréal | 2 | All Maps","name_short":"mtl-2","host":"mtl-1.ca.uncletopia.com","port":27025,"enabled":true,"region":"us-east","cc":"ca","latitude":45.50889,"longitude":-73.56167,"reserved":0,"last_update":"0001-01-01T00:00:00Z","name_a2s":"Uncletopia | Montréal | 2 | All Maps","protocol":17,"map":"pl_swiftwater_final1","folder":"tf","game":"Team Fortress","app_id":440,"player_count":0,"max_players":24,"Bots":0,"server_type":"Dedicated","server_os":"Linux","password":true,"vac":true,"version":"7708610","steam_id":85568392924500088,"keywords":["nocrits","nodmgspread","payload","uncletopia"],"game_id":440,"stv_port":27026,"stv_name":"Uncletopia | Montréal | 2 | All Maps | STV","players":null},{"server_id":302,"name":"Uncletopia | Montréal | 3 | All Maps","name_short":"mtl-3","host":"mtl-1.ca.uncletopia.com","port":27035,"enabled":true,"region":"us-east","cc":"ca","latitude":45.50889,"longitude":-73.56167,"reserved":0,"last_update":"0001-01-01T00:00:00Z","name_a2s":"Uncletopia | Montréal | 3 | All Maps","protocol":17,"map":"cp_mountainlab","folder":"tf","game":"Team Fortress","app_id":440,"player_count":0,"max_players":24,"Bots":0,"server_type":"Dedicated","server_os":"Linux","password":true,"vac":true,"version":"7708610","steam_id":85568392924500089,"keywords":["cp","nocrits","nodmgspread","uncletopia"],"game_id":440,"stv_port":27036,"stv_name":"Uncletopia | Montréal | 3 | All Maps | STV","players":null},{"server_id":303,"name":"Uncletopia | Montréal | 4 | No Payload","name_short":"mtl-4","host":"mtl-1.ca.uncletopia.com","port":27045,"enabled":true,"region":"us-east","cc":"ca","latitude":45.50889,"longitude":-73.56167,"reserved":0,"last_update":"0001-01-01T00:00:00Z","name_a2s":"Uncletopia | Montréal | 4 | No Payload","protocol":17,"map":"koth_cascade","folder":"tf","game":"Team Fortress","app_id":440,"player_count":2,"max_players":24,"Bots":0,"server_type":"Dedicated","server_os":"Linux","password":true,"vac":true,"version":"7708610","steam_id":85568392924500090,"keywords":["cp","nocrits","nodmgspread","uncletopia"],"game_id":440,"stv_port":27046,"stv_name":"Uncletopia | Montréal | 4 | No Payload | STV","players":[{"user_id":75,"name":"Addonia Sugarhoof","steam_id":76561198084637451,"connected_time":447000000000,"state":"active","ping":83},{"user_id":76,"name":"Kurzaen","steam_id":76561198103765480,"connected_time":428000000000,"state":"active","ping":108}]},{"server_id":13,"name":"Uncletopia | New York City | 1 | All Maps","name_short":"nyc-1","host":"nyc-1.us.uncletopia.com","port":27015,"enabled":true,"region":"us-east","cc":"us","latitude":40.73061,"longitude":-73.93524,"reserved":0,"last_update":"0001-01-01T00:00:00Z","name_a2s":"Uncletopia | New York City | 1 | All Maps","protocol":17,"map":"koth_lakeside_final","folder":"tf","game":"Team Fortress","app_id":440,"player_count":0,"max_players":24,"Bots":0,"server_type":"Dedicated","server_os":"Linux","password":true,"vac":true,"version":"7708610","steam_id":85568392924469993,"keywords":["cp","nocrits","nodmgspread","uncletopia"],"game_id":440,"stv_port":27016,"stv_name":"Uncletopia | New York City | 1 | All Maps | STV","players":null},{"server_id":14,"name":"Uncletopia | New York City | 2 | All Maps","name_short":"nyc-2","host":"nyc-1.us.uncletopia.com","port":27025,"enabled":true,"region":"us-east","cc":"us","latitude":40.73061,"longitude":-73.93524,"reserved":0,"last_update":"0001-01-01T00:00:00Z","name_a2s":"Uncletopia | New York City | 2 | All Maps","protocol":17,"map":"cp_gorge","folder":"tf","game":"Team Fortress","app_id":440,"player_count":24,"max_players":24,"Bots":0,"server_type":"Dedicated","server_os":"Linux","password":true,"vac":true,"version":"7708610","steam_id":85568392924469994,"keywords":["cp","nocrits","nodmgspread","uncletopia"],"game_id":440,"stv_port":27026,"stv_name":"Uncletopia | New York City | 2 | All Maps | STV","players":[{"user_id":316,"name":"Strange Festive Femboy","steam_id":76561198050385093,"connected_time":2010000000000,"state":"active","ping":58},{"user_id":313,"name":"SaucyAlfredo","steam_id":76561198814854234,"connected_time":2479000000000,"state":"active","ping":59},{"user_id":192,"name":"A Puppy","steam_id":76561198828184456,"connected_time":11595000000000,"state":"active","ping":47},{"user_id":320,"name":"Shipmunk","steam_id":76561198063062670,"connected_time":1784000000000,"state":"active","ping":43},{"user_id":302,"name":"BD[PL]","steam_id":76561198115995871,"connected_time":3873000000000,"state":"active","ping":156},{"user_id":298,"name":"Firefantom","steam_id":76561198968703260,"connected_time":3900000000000,"state":"active","ping":48},{"user_id":321,"name":"Parth Makeo","steam_id":76561198002516581,"connected_time":1768000000000,"state":"active","ping":49},{"user_id":317,"name":"tooth","steam_id":76561197986437643,"connected_time":1979000000000,"state":"active","ping":54},{"user_id":333,"name":"Pandamonium","steam_id":76561198149358001,"connected_time":837000000000,"state":"active","ping":41},{"user_id":340,"name":"Alexidoodles","steam_id":76561198414487405,"connected_time":487000000000,"state":"active","ping":74},{"user_id":334,"name":"Fish Fisherman","steam_id":76561198018656022,"connected_time":787000000000,"state":"active","ping":50},{"user_id":257,"name":"Slondermin","steam_id":76561198320301349,"connected_time":7253000000000,"state":"active","ping":64},{"user_id":345,"name":"○","steam_id":76561198034560063,"connected_time":123000000000,"state":"active","ping":55},{"user_id":336,"name":"Pomegranate88","steam_id":76561198056385456,"connected_time":726000000000,"state":"active","ping":59},{"user_id":339,"name":"u juan gain","steam_id":76561198096753679,"connected_time":618000000000,"state":"active","ping":42},{"user_id":324,"name":"st3shk4a","steam_id":76561198025322638,"connected_time":1742000000000,"state":"active","ping":72},{"user_id":337,"name":"dan","steam_id":76561198061589465,"connected_time":717000000000,"state":"active","ping":44},{"user_id":342,"name":"Silly Scientist","steam_id":76561199199886079,"connected_time":225000000000,"state":"active","ping":53},{"user_id":325,"name":"jose.gonzales3848","steam_id":76561198109077451,"connected_time":1682000000000,"state":"active","ping":44},{"user_id":326,"name":"Caruso","steam_id":76561198053340414,"connected_time":1675000000000,"state":"active","ping":67},{"user_id":343,"name":"four","steam_id":76561198374227766,"connected_time":178000000000,"state":"active","ping":64},{"user_id":329,"name":"Cresty","steam_id":76561199118643461,"connected_time":1501000000000,"state":"active","ping":115},{"user_id":304,"name":"Monkey","steam_id":76561198031015186,"connected_time":3868000000000,"state":"active","ping":58},{"user_id":338,"name":"Mr.Indian Jokar","steam_id":76561198381343086,"connected_time":717000000000,"state":"active","ping":115}]},{"server_id":15,"name":"Uncletopia | New York City | 3 | All Maps","name_short":"nyc-3","host":"nyc-1.us.uncletopia.com","port":27035,"enabled":true,"region":"us-east","cc":"us","latitude":40.73061,"longitude":-73.93524,"reserved":0,"last_update":"0001-01-01T00:00:00Z","name_a2s":"Uncletopia | New York City | 3 | All Maps","protocol":17,"map":"cp_dustbowl","folder":"tf","game":"Team Fortress","app_id":440,"player_count":24,"max_players":24,"Bots":0,"server_type":"Dedicated","server_os":"Linux","password":true,"vac":true,"version":"7708610","steam_id":85568392924742820,"keywords":["cp","nocrits","nodmgspread","uncletopia"],"game_id":440,"stv_port":27036,"stv_name":"Uncletopia | New York City | 3 | All Maps | STV","players":[{"user_id":363,"name":"crabbykiwi","steam_id":76561199066448466,"connected_time":2980000000000,"state":"active","ping":47},{"user_id":370,"name":"bitmappu","steam_id":76561199000786530,"connected_time":2614000000000,"state":"active","ping":91},{"user_id":369,"name":"sasharudzik","steam_id":76561199126617781,"connected_time":2625000000000,"state":"active","ping":68},{"user_id":354,"name":"Fishman_200","steam_id":76561198152455167,"connected_time":3600000000000,"state":"active","ping":57},{"user_id":353,"name":"Draconic Ballad","steam_id":76561198027191515,"connected_time":3836000000000,"state":"active","ping":65},{"user_id":395,"name":"Ghost","steam_id":76561198110914180,"connected_time":1768000000000,"state":"active","ping":163},{"user_id":372,"name":"larsvik","steam_id":76561198077948794,"connected_time":2573000000000,"state":"active","ping":59},{"user_id":392,"name":"zesdeath1","steam_id":76561198818660736,"connected_time":2018000000000,"state":"active","ping":68},{"user_id":386,"name":"hop","steam_id":76561198039914843,"connected_time":2185000000000,"state":"active","ping":47},{"user_id":406,"name":"Smuggs","steam_id":76561197999456003,"connected_time":441000000000,"state":"active","ping":114},{"user_id":377,"name":"Smiles","steam_id":76561198107197973,"connected_time":2469000000000,"state":"active","ping":80},{"user_id":398,"name":"Clouudy","steam_id":76561198272978882,"connected_time":1520000000000,"state":"active","ping":52},{"user_id":359,"name":"CrunchCisco","steam_id":76561199162724832,"connected_time":3482000000000,"state":"active","ping":90},{"user_id":376,"name":"wassa","steam_id":76561198040493947,"connected_time":2494000000000,"state":"active","ping":104},{"user_id":297,"name":"Heropon","steam_id":76561198105224481,"connected_time":9084000000000,"state":"active","ping":60},{"user_id":402,"name":"fumo","steam_id":76561199089453214,"connected_time":1145000000000,"state":"active","ping":54},{"user_id":407,"name":"arcade","steam_id":76561198093925622,"connected_time":364000000000,"state":"active","ping":58},{"user_id":389,"name":"len e","steam_id":76561198128123733,"connected_time":2093000000000,"state":"active","ping":47},{"user_id":408,"name":"A Solo","steam_id":76561198075484746,"connected_time":119000000000,"state":"active","ping":151},{"user_id":331,"name":"lili.winters","steam_id":76561199391478575,"connected_time":5887000000000,"state":"active","ping":130},{"user_id":382,"name":"Backstab me if gay","steam_id":76561199139182003,"connected_time":2362000000000,"state":"active","ping":47},{"user_id":396,"name":"Probably_Luke","steam_id":76561198180891187,"connected_time":1661000000000,"state":"active","ping":60},{"user_id":405,"name":"Continue?]","steam_id":76561199174579733,"connected_time":483000000000,"state":"active","ping":96}]},{"server_id":16,"name":"Uncletopia | New York City | 4 | Community","name_short":"nyc-4","host":"nyc-1.us.uncletopia.com","port":27045,"enabled":true,"region":"us-east","cc":"us","latitude":40.73061,"longitude":-73.93524,"reserved":0,"last_update":"0001-01-01T00:00:00Z","name_a2s":"Uncletopia | New York City | 4 | Community","protocol":17,"map":"workshop/cp_villa_b19.ugc2113052569","folder":"tf","game":"Team Fortress","app_id":440,"player_count":0,"max_players":24,"Bots":0,"server_type":"Dedicated","server_os":"Linux","password":true,"vac":true,"version":"7708610","steam_id":85568392924742821,"keywords":["cp","nocrits","nodmgspread","uncletopia"],"game_id":440,"stv_port":27046,"stv_name":"Uncletopia | New York City | 4 | Community | STV","players":null},{"server_id":142,"name":"Uncletopia | São Paulo | 1 | All Maps","name_short":"sao-1","host":"sao-1.br.uncletopia.com","port":27015,"enabled":true,"region":"sa","cc":"br","latitude":-23.533773,"longitude":-46.62529,"reserved":0,"last_update":"0001-01-01T00:00:00Z","name_a2s":"Uncletopia | São Paulo | 1 | All Maps","protocol":17,"map":"pl_barnblitz","folder":"tf","game":"Team Fortress","app_id":440,"player_count":0,"max_players":24,"Bots":0,"server_type":"Dedicated","server_os":"Linux","password":true,"vac":true,"version":"7708610","steam_id":85568392924469996,"keywords":["nocrits","nodmgspread","payload","uncletopia"],"game_id":440,"stv_port":27016,"stv_name":"Uncletopia | São Paulo | 1 | All Maps | STV","players":null},{"server_id":143,"name":"Uncletopia | São Paulo | 2 | All Maps","name_short":"sao-2","host":"sao-2.br.uncletopia.com","port":27015,"enabled":true,"region":"sa","cc":"br","latitude":-23.533773,"longitude":-46.62529,"reserved":0,"last_update":"0001-01-01T00:00:00Z","name_a2s":"Uncletopia | São Paulo | 2 | All Maps","protocol":17,"map":"pl_frontier_final","folder":"tf","game":"Team Fortress","app_id":440,"player_count":0,"max_players":24,"Bots":0,"server_type":"Dedicated","server_os":"Linux","password":true,"vac":true,"version":"7708610","steam_id":85568392924485349,"keywords":["nocrits","nodmgspread","payload","uncletopia"],"game_id":440,"stv_port":27016,"stv_name":"Uncletopia | São Paulo | 2 | All Maps | STV","players":null},{"server_id":7,"name":"Uncletopia | Seattle | 1 | All Maps","name_short":"sea-1","host":"sea-1.us.uncletopia.com","port":27015,"enabled":true,"region":"us-west","cc":"us","latitude":47.608013,"longitude":-122.33517,"reserved":0,"last_update":"0001-01-01T00:00:00Z","name_a2s":"Uncletopia | Seattle | 1 | All Maps","protocol":17,"map":"pl_swiftwater_final1","folder":"tf","game":"Team Fortress","app_id":440,"player_count":24,"max_players":24,"Bots":0,"server_type":"Dedicated","server_os":"Linux","password":true,"vac":true,"version":"7708610","steam_id":85568392924469997,"keywords":["nocrits","nodmgspread","payload","uncletopia"],"game_id":440,"stv_port":27016,"stv_name":"Uncletopia | Seattle | 1 | All Maps | STV","players":[{"user_id":321,"name":"Wrench","steam_id":76561198137242573,"connected_time":2043000000000,"state":"active","ping":51},{"user_id":325,"name":"pasta b0i","steam_id":76561198088131563,"connected_time":1153000000000,"state":"active","ping":80},{"user_id":326,"name":"DJHyper777","steam_id":76561198304548526,"connected_time":1147000000000,"state":"active","ping":69},{"user_id":336,"name":"SHADOW","steam_id":76561198207768148,"connected_time":843000000000,"state":"active","ping":83},{"user_id":328,"name":"doordash addiction","steam_id":76561198115816025,"connected_time":1069000000000,"state":"active","ping":45},{"user_id":330,"name":"oh god i'm gonna CHUM","steam_id":76561198019210187,"connected_time":1021000000000,"state":"active","ping":103},{"user_id":312,"name":"Phil McKracken","steam_id":76561198085244878,"connected_time":2901000000000,"state":"active","ping":128},{"user_id":319,"name":"ඞ","steam_id":76561198212111977,"connected_time":2237000000000,"state":"active","ping":55},{"user_id":303,"name":"hot cha","steam_id":76561198170083101,"connected_time":3891000000000,"state":"active","ping":132},{"user_id":331,"name":"BigNickTheThiccc","steam_id":76561198851478816,"connected_time":1011000000000,"state":"active","ping":117},{"user_id":257,"name":"Luca","steam_id":76561198125087140,"connected_time":7274000000000,"state":"active","ping":45},{"user_id":332,"name":"mac_cheese","steam_id":76561198071334162,"connected_time":1000000000000,"state":"active","ping":45},{"user_id":333,"name":"gaminbacon","steam_id":76561199411651596,"connected_time":971000000000,"state":"active","ping":66},{"user_id":313,"name":"blinkerton city","steam_id":76561198054270410,"connected_time":2876000000000,"state":"active","ping":58},{"user_id":337,"name":"uzr","steam_id":76561198799343084,"connected_time":792000000000,"state":"active","ping":85},{"user_id":335,"name":"General French","steam_id":76561198321617148,"connected_time":951000000000,"state":"active","ping":106},{"user_id":262,"name":"Sweets","steam_id":76561198998446307,"connected_time":6333000000000,"state":"active","ping":83},{"user_id":320,"name":"Crake","steam_id":76561198001959071,"connected_time":2047000000000,"state":"active","ping":53},{"user_id":341,"name":"dust","steam_id":76561198045218909,"connected_time":43000000000,"state":"active","ping":45},{"user_id":317,"name":"Arsonist Goose","steam_id":76561198147441830,"connected_time":2555000000000,"state":"active","ping":75},{"user_id":318,"name":"Lambchop","steam_id":76561198043900363,"connected_time":2515000000000,"state":"active","ping":83},{"user_id":339,"name":"Shooon","steam_id":76561198006107947,"connected_time":341000000000,"state":"active","ping":66},{"user_id":338,"name":"Scrumpy Main","steam_id":76561198146302597,"connected_time":603000000000,"state":"active","ping":96},{"user_id":324,"name":"NickoDeeBz","steam_id":76561198294657867,"connected_time":1155000000000,"state":"active","ping":99}]},{"server_id":119,"name":"Uncletopia | Seattle | 2 | All Maps","name_short":"sea-2","host":"sea-1.us.uncletopia.com","port":27025,"enabled":true,"region":"us-west","cc":"us","latitude":47.608013,"longitude":-122.33517,"reserved":0,"last_update":"0001-01-01T00:00:00Z","name_a2s":"Uncletopia | Seattle | 2 | All Maps","protocol":17,"map":"cp_dustbowl","folder":"tf","game":"Team Fortress","app_id":440,"player_count":23,"max_players":24,"Bots":0,"server_type":"Dedicated","server_os":"Linux","password":true,"vac":true,"version":"7708610","steam_id":85568392924469998,"keywords":["cp","nocrits","nodmgspread","uncletopia"],"game_id":440,"stv_port":27026,"stv_name":"Uncletopia | Seattle | 2 | All Maps | STV","players":[{"user_id":212,"name":"Strength!!","steam_id":76561198001241984,"connected_time":724000000000,"state":"active","ping":50},{"user_id":155,"name":"KellyKapoor","steam_id":76561198040828123,"connected_time":3916000000000,"state":"active","ping":51},{"user_id":192,"name":"Croxsbow","steam_id":76561198893327481,"connected_time":1430000000000,"state":"active","ping":48},{"user_id":187,"name":"jacix3 [gay wolfgirl]{she/it}","steam_id":76561198205004165,"connected_time":1682000000000,"state":"active","ping":59},{"user_id":204,"name":"Laxoloni","steam_id":76561199197045700,"connected_time":1038000000000,"state":"active","ping":82},{"user_id":64,"name":"DeckofDragons","steam_id":76561198057398213,"connected_time":8571000000000,"state":"active","ping":72},{"user_id":205,"name":"jordanddean2016","steam_id":76561198323772677,"connected_time":1032000000000,"state":"active","ping":48},{"user_id":206,"name":"RaixaR","steam_id":76561198025289430,"connected_time":951000000000,"state":"active","ping":81},{"user_id":173,"name":"REALLINUSJEWTIP.","steam_id":76561198056647983,"connected_time":3142000000000,"state":"active","ping":107},{"user_id":190,"name":"EatSomeBEES","steam_id":76561198047334307,"connected_time":1630000000000,"state":"active","ping":85},{"user_id":215,"name":"Screwwie","steam_id":76561198006892781,"connected_time":39000000000,"state":"active","ping":57},{"user_id":160,"name":"Luis wid a mic","steam_id":76561198349570006,"connected_time":3734000000000,"state":"active","ping":117},{"user_id":201,"name":"brian griffin","steam_id":76561198846480611,"connected_time":1214000000000,"state":"active","ping":49},{"user_id":148,"name":"Jumkin","steam_id":76561198136887468,"connected_time":4557000000000,"state":"active","ping":66},{"user_id":179,"name":"Psych03","steam_id":76561198061753667,"connected_time":2272000000000,"state":"active","ping":77},{"user_id":141,"name":"Raian","steam_id":76561199138048671,"connected_time":5099000000000,"state":"active","ping":65},{"user_id":211,"name":"Speedy⚡","steam_id":76561198272006500,"connected_time":805000000000,"state":"active","ping":61},{"user_id":208,"name":"Lets dance to the real thing","steam_id":76561198175955138,"connected_time":911000000000,"state":"active","ping":80},{"user_id":183,"name":"Dogg wader","steam_id":76561199090314340,"connected_time":2134000000000,"state":"active","ping":63},{"user_id":197,"name":"uskthedwarf","steam_id":76561199076096095,"connected_time":1288000000000,"state":"active","ping":91},{"user_id":214,"name":"Eye","steam_id":76561198065844668,"connected_time":706000000000,"state":"active","ping":114},{"user_id":189,"name":"Toaster WiFi","steam_id":76561198378832479,"connected_time":1659000000000,"state":"active","ping":125},{"user_id":145,"name":"a smidgen of shenanigans","steam_id":76561198094158829,"connected_time":4840000000000,"state":"active","ping":54}]},{"server_id":17,"name":"Uncletopia | San Francisco | 1 | All Maps","name_short":"sfo-1","host":"sfo-1.us.uncletopia.com","port":27015,"enabled":true,"region":"us-west","cc":"us","latitude":37.77397,"longitude":-122.4313,"reserved":0,"last_update":"0001-01-01T00:00:00Z","name_a2s":"Uncletopia | San Francisco | 1 | All Maps","protocol":17,"map":"pl_pier","folder":"tf","game":"Team Fortress","app_id":440,"player_count":24,"max_players":24,"Bots":0,"server_type":"Dedicated","server_os":"Linux","password":true,"vac":true,"version":"7708610","steam_id":85568392924469999,"keywords":["nocrits","nodmgspread","payload","uncletopia"],"game_id":440,"stv_port":27016,"stv_name":"Uncletopia | San Francisco | 1 | All Maps | STV","players":[{"user_id":187,"name":"Divine Mountain of Heaven","steam_id":76561198196793754,"connected_time":2245000000000,"state":"active","ping":74},{"user_id":204,"name":"The_Pacific_gamer","steam_id":76561198089491446,"connected_time":671000000000,"state":"active","ping":70},{"user_id":177,"name":"God (Fr Tho)","steam_id":76561198834309773,"connected_time":3142000000000,"state":"active","ping":71},{"user_id":194,"name":"elfy","steam_id":76561198061637177,"connected_time":1422000000000,"state":"active","ping":60},{"user_id":213,"name":"Zeemii","steam_id":76561198809299581,"connected_time":409000000000,"state":"active","ping":95},{"user_id":215,"name":"Mish","steam_id":76561198042287075,"connected_time":276000000000,"state":"active","ping":84},{"user_id":200,"name":"The Glizzanator","steam_id":76561198115355451,"connected_time":1105000000000,"state":"active","ping":49},{"user_id":214,"name":"Eden","steam_id":76561198081284664,"connected_time":309000000000,"state":"active","ping":53},{"user_id":190,"name":"the","steam_id":76561198198207794,"connected_time":2007000000000,"state":"active","ping":61},{"user_id":212,"name":"Breadskate","steam_id":76561198087730803,"connected_time":431000000000,"state":"active","ping":60},{"user_id":207,"name":"Tmiracle","steam_id":76561198052375275,"connected_time":656000000000,"state":"active","ping":50},{"user_id":192,"name":"Porkchop","steam_id":76561198047654421,"connected_time":1654000000000,"state":"active","ping":118},{"user_id":201,"name":"darkness.danny3481","steam_id":76561198132808002,"connected_time":1035000000000,"state":"active","ping":59},{"user_id":216,"name":"MG","steam_id":76561197980131846,"connected_time":203000000000,"state":"active","ping":57},{"user_id":164,"name":"Matt","steam_id":76561199122703238,"connected_time":3942000000000,"state":"active","ping":56},{"user_id":198,"name":"Flowerbear","steam_id":76561198165311559,"connected_time":1271000000000,"state":"active","ping":124},{"user_id":193,"name":"GeneWilder","steam_id":76561198014424411,"connected_time":1620000000000,"state":"active","ping":66},{"user_id":182,"name":"MORE BOUNCE TO THE OUNCE","steam_id":76561198243399336,"connected_time":2977000000000,"state":"active","ping":61},{"user_id":183,"name":"Cute Gatito","steam_id":76561198351147780,"connected_time":2930000000000,"state":"active","ping":66},{"user_id":208,"name":"wubber","steam_id":76561198286627157,"connected_time":582000000000,"state":"active","ping":68},{"user_id":68,"name":"radio","steam_id":76561198010226481,"connected_time":11341000000000,"state":"active","ping":60},{"user_id":209,"name":"urine trouble","steam_id":76561199013266640,"connected_time":572000000000,"state":"active","ping":121},{"user_id":210,"name":"dewey","steam_id":76561198132791511,"connected_time":510000000000,"state":"active","ping":55},{"user_id":199,"name":"El Gato Paranoico","steam_id":76561198116567116,"connected_time":1268000000000,"state":"active","ping":109}]},{"server_id":18,"name":"Uncletopia | San Francisco | 2 | All Maps","name_short":"sfo-2","host":"sfo-1.us.uncletopia.com","port":27025,"enabled":true,"region":"us-west","cc":"us","latitude":37.77397,"longitude":-122.4313,"reserved":0,"last_update":"0001-01-01T00:00:00Z","name_a2s":"Uncletopia | San Francisco | 2 | All Maps","protocol":17,"map":"koth_highpass","folder":"tf","game":"Team Fortress","app_id":440,"player_count":0,"max_players":24,"Bots":0,"server_type":"Dedicated","server_os":"Linux","password":true,"vac":true,"version":"7708610","steam_id":85568392924470000,"keywords":["cp","nocrits","nodmgspread","uncletopia"],"game_id":440,"stv_port":27026,"stv_name":"Uncletopia | San Francisco | 2 | All Maps | STV","players":null},{"server_id":19,"name":"Uncletopia | San Francisco | 3 | No Payload","name_short":"sfo-3","host":"sfo-1.us.uncletopia.com","port":27035,"enabled":true,"region":"us-west","cc":"us","latitude":37.77397,"longitude":-122.4313,"reserved":0,"last_update":"0001-01-01T00:00:00Z","name_a2s":"Uncletopia | San Francisco | 3 | No Payload","protocol":17,"map":"cp_sunshine","folder":"tf","game":"Team Fortress","app_id":440,"player_count":17,"max_players":24,"Bots":0,"server_type":"Dedicated","server_os":"Linux","password":true,"vac":true,"version":"7708610","steam_id":85568392924742824,"keywords":["cp","nocrits","nodmgspread","uncletopia"],"game_id":440,"stv_port":27036,"stv_name":"Uncletopia | San Francisco | 3 | No Payload | STV","players":[{"user_id":87,"name":"raduski","steam_id":76561198795699119,"connected_time":240000000000,"state":"active","ping":89},{"user_id":66,"name":"CrackedSanity","steam_id":76561198279841251,"connected_time":1307000000000,"state":"active","ping":46},{"user_id":77,"name":"Todouw","steam_id":76561199197628378,"connected_time":625000000000,"state":"active","ping":177},{"user_id":30,"name":"PoltergussyLordoftheAsstralVoid","steam_id":76561199195004708,"connected_time":3534000000000,"state":"active","ping":60},{"user_id":89,"name":"tanner","steam_id":76561198079734519,"connected_time":172000000000,"state":"active","ping":67},{"user_id":70,"name":"Susan","steam_id":76561198045705049,"connected_time":1029000000000,"state":"active","ping":61},{"user_id":90,"name":"Soap Man","steam_id":76561198000490235,"connected_time":100000000000,"state":"spawning","ping":182},{"user_id":91,"name":"Captain Olimar Balancer of team","steam_id":76561198141737300,"connected_time":95000000000,"state":"active","ping":52},{"user_id":25,"name":"dapper","steam_id":76561198088132948,"connected_time":3667000000000,"state":"active","ping":70},{"user_id":92,"name":"johngaming220","steam_id":76561199119202785,"connected_time":27000000000,"state":"spawning","ping":119},{"user_id":34,"name":"Noodlebox","steam_id":76561197993846770,"connected_time":3178000000000,"state":"active","ping":86},{"user_id":83,"name":"The Demoman","steam_id":76561198209881263,"connected_time":414000000000,"state":"active","ping":66},{"user_id":73,"name":"Skippies","steam_id":76561198131280715,"connected_time":793000000000,"state":"active","ping":121},{"user_id":43,"name":"sky","steam_id":76561198198093438,"connected_time":2830000000000,"state":"active","ping":121},{"user_id":44,"name":"Jemini","steam_id":76561198304399637,"connected_time":2810000000000,"state":"active","ping":109},{"user_id":79,"name":"filthycasual","steam_id":76561199138226238,"connected_time":537000000000,"state":"active","ping":62},{"user_id":47,"name":"The Backstabbing Bastard","steam_id":76561198112635823,"connected_time":2686000000000,"state":"active","ping":71}]},{"server_id":20,"name":"Uncletopia | San Francisco | 4 | Community","name_short":"sfo-4","host":"sfo-1.us.uncletopia.com","port":27045,"enabled":true,"region":"us-west","cc":"us","latitude":37.77397,"longitude":-122.4313,"reserved":0,"last_update":"0001-01-01T00:00:00Z","name_a2s":"Uncletopia | San Francisco | 4 | Community","protocol":17,"map":"workshop/koth_ramjam_v2_b2.ugc2865676487","folder":"tf","game":"Team Fortress","app_id":440,"player_count":0,"max_players":24,"Bots":0,"server_type":"Dedicated","server_os":"Linux","password":true,"vac":true,"version":"7708610","steam_id":85568392924742826,"keywords":["cp","nocrits","nodmgspread","uncletopia"],"game_id":440,"stv_port":27046,"stv_name":"Uncletopia | San Francisco | 4 | Community | STV","players":null},{"server_id":141,"name":"Uncletopia | Sydney | 1 | All Maps","name_short":"syd-1","host":"syd-1.au.uncletopia.com","port":27015,"enabled":true,"region":"au","cc":"au","latitude":-33.865143,"longitude":151.2099,"reserved":0,"last_update":"0001-01-01T00:00:00Z","name_a2s":"Uncletopia | Sydney | 1 | All Maps","protocol":17,"map":"pl_barnblitz","folder":"tf","game":"Team Fortress","app_id":440,"player_count":24,"max_players":24,"Bots":0,"server_type":"Dedicated","server_os":"Linux","password":true,"vac":true,"version":"7708610","steam_id":85568392924470001,"keywords":["nocrits","nodmgspread","payload","uncletopia"],"game_id":440,"stv_port":27016,"stv_name":"Uncletopia | Sydney | 1 | All Maps | STV","players":[{"user_id":123,"name":"twitch.tv/xtswagg","steam_id":76561199009912335,"connected_time":873000000000,"state":"active","ping":60},{"user_id":82,"name":"Q","steam_id":76561198055600105,"connected_time":2850000000000,"state":"active","ping":70},{"user_id":124,"name":"Pixley","steam_id":76561198107806702,"connected_time":871000000000,"state":"active","ping":58},{"user_id":139,"name":"Ashes","steam_id":76561198105820742,"connected_time":148000000000,"state":"active","ping":64},{"user_id":133,"name":"Jackanapes","steam_id":76561197960914911,"connected_time":466000000000,"state":"active","ping":43},{"user_id":130,"name":"highschool audio monster","steam_id":76561198836003115,"connected_time":510000000000,"state":"active","ping":62},{"user_id":107,"name":"Tim","steam_id":76561198216730925,"connected_time":1642000000000,"state":"active","ping":56},{"user_id":131,"name":"KOOLjoE70","steam_id":76561198817005742,"connected_time":509000000000,"state":"active","ping":57},{"user_id":137,"name":"Wet Wizard","steam_id":76561198277879991,"connected_time":248000000000,"state":"active","ping":50},{"user_id":75,"name":"squrrel","steam_id":76561198083429611,"connected_time":3510000000000,"state":"active","ping":78},{"user_id":120,"name":"that guy","steam_id":76561198354434981,"connected_time":1031000000000,"state":"active","ping":64},{"user_id":112,"name":"xip","steam_id":76561198067871876,"connected_time":1430000000000,"state":"active","ping":91},{"user_id":31,"name":"Gurnie_dingo","steam_id":76561198041639674,"connected_time":6537000000000,"state":"active","ping":108},{"user_id":135,"name":"This Guy","steam_id":76561198082944097,"connected_time":304000000000,"state":"active","ping":84},{"user_id":113,"name":"Kouroboros","steam_id":76561198141283669,"connected_time":1427000000000,"state":"active","ping":67},{"user_id":136,"name":"Milk Man","steam_id":76561198882677157,"connected_time":271000000000,"state":"active","ping":47},{"user_id":117,"name":"Brassy Jazzhole","steam_id":76561198122962755,"connected_time":1098000000000,"state":"active","ping":35},{"user_id":138,"name":"KumbyaKumbyaKumbyaKumbyaKumbya","steam_id":76561198117979249,"connected_time":210000000000,"state":"active","ping":81},{"user_id":144,"name":"BigLadBoyga","steam_id":76561198985263763,"connected_time":3000000000,"state":"spawning","ping":82},{"user_id":103,"name":"Tofu","steam_id":76561198025637573,"connected_time":1777000000000,"state":"active","ping":40},{"user_id":141,"name":"bumbly flowr","steam_id":76561198108688516,"connected_time":38000000000,"state":"spawning","ping":74},{"user_id":142,"name":"Styxsツ","steam_id":76561198165903221,"connected_time":23000000000,"state":"spawning","ping":86},{"user_id":143,"name":"KOOLjoE69","steam_id":76561198108193623,"connected_time":9000000000,"state":"spawning","ping":67},{"user_id":49,"name":"LightningBlock","steam_id":76561198289997742,"connected_time":5377000000000,"state":"active","ping":37}]},{"server_id":123,"name":"Uncletopia | Sydney | 2 | All Maps","name_short":"syd-2","host":"syd-1.au.uncletopia.com","port":27025,"enabled":true,"region":"au","cc":"au","latitude":-33.865143,"longitude":151.2099,"reserved":0,"last_update":"0001-01-01T00:00:00Z","name_a2s":"Uncletopia | Sydney | 2 | All Maps","protocol":17,"map":"pl_barnblitz","folder":"tf","game":"Team Fortress","app_id":440,"player_count":24,"max_players":24,"Bots":0,"server_type":"Dedicated","server_os":"Linux","password":true,"vac":true,"version":"7708610","steam_id":85568392924470002,"keywords":["nocrits","nodmgspread","payload","uncletopia"],"game_id":440,"stv_port":27026,"stv_name":"Uncletopia | Sydney | 2 | All Maps | STV","players":[{"user_id":128,"name":"No comment","steam_id":76561199305879202,"connected_time":5444000000000,"state":"active","ping":93},{"user_id":168,"name":"Blueberry Rat","steam_id":76561198149219455,"connected_time":3151000000000,"state":"active","ping":53},{"user_id":193,"name":"The Goodnight Kiwi","steam_id":76561198866433807,"connected_time":1814000000000,"state":"active","ping":61},{"user_id":191,"name":"Akunébíokwudigbo","steam_id":76561198197777382,"connected_time":1992000000000,"state":"active","ping":49},{"user_id":194,"name":"inqui","steam_id":76561199390458741,"connected_time":1795000000000,"state":"active","ping":53},{"user_id":204,"name":"crispychips","steam_id":76561198054248035,"connected_time":1476000000000,"state":"active","ping":74},{"user_id":196,"name":"HollowNaught","steam_id":76561198197382111,"connected_time":1700000000000,"state":"active","ping":60},{"user_id":216,"name":"Stics","steam_id":76561199003047300,"connected_time":923000000000,"state":"active","ping":65},{"user_id":197,"name":"Tas","steam_id":76561198041224384,"connected_time":1683000000000,"state":"active","ping":40},{"user_id":206,"name":"phuoainfheaus","steam_id":76561198798919520,"connected_time":1251000000000,"state":"active","ping":95},{"user_id":219,"name":"TheDoctor30","steam_id":76561198433686866,"connected_time":679000000000,"state":"active","ping":96},{"user_id":202,"name":"FosterClown","steam_id":76561199010621257,"connected_time":1620000000000,"state":"active","ping":41},{"user_id":218,"name":"Performance Issues","steam_id":76561198202341454,"connected_time":807000000000,"state":"active","ping":68},{"user_id":205,"name":"Biskuit","steam_id":76561198817606439,"connected_time":1379000000000,"state":"active","ping":46},{"user_id":220,"name":"Hyojin","steam_id":76561199277317248,"connected_time":663000000000,"state":"active","ping":172},{"user_id":207,"name":"Bingting","steam_id":76561198983038721,"connected_time":1107000000000,"state":"active","ping":46},{"user_id":200,"name":"Marzell","steam_id":76561198151276153,"connected_time":1637000000000,"state":"active","ping":88},{"user_id":222,"name":"cimpact","steam_id":76561198452258917,"connected_time":558000000000,"state":"active","ping":160},{"user_id":188,"name":"B)","steam_id":76561198998333490,"connected_time":2175000000000,"state":"active","ping":68},{"user_id":201,"name":"wse.","steam_id":76561198272148020,"connected_time":1631000000000,"state":"active","ping":51},{"user_id":214,"name":"Plastic_Wrapp","steam_id":76561198817560659,"connected_time":974000000000,"state":"active","ping":69},{"user_id":213,"name":"toots","steam_id":76561198094589768,"connected_time":990000000000,"state":"active","ping":69},{"user_id":215,"name":"Unhappy Phos","steam_id":76561198294018801,"connected_time":962000000000,"state":"active","ping":71},{"user_id":223,"name":"iliana","steam_id":76561198304080170,"connected_time":470000000000,"state":"active","ping":47}]},{"server_id":395,"name":"Uncletopia | Sydney | 3 | All Maps","name_short":"syd-3","host":"syd-1.au.uncletopia.com","port":27035,"enabled":true,"region":"au","cc":"au","latitude":-33.865143,"longitude":151.2099,"reserved":0,"last_update":"0001-01-01T00:00:00Z","name_a2s":"Uncletopia | Sydney | 3 | All Maps","protocol":17,"map":"cp_altitude","folder":"tf","game":"Team Fortress","app_id":440,"player_count":0,"max_players":24,"Bots":0,"server_type":"Dedicated","server_os":"Linux","password":true,"vac":true,"version":"7708610","steam_id":85568392925194467,"keywords":["cp","nocrits","nodmgspread","uncletopia"],"game_id":440,"stv_port":27036,"stv_name":"Uncletopia | Sydney | 3 | All Maps | STV","players":null},{"server_id":396,"name":"Uncletopia | Sydney | 4 | All Maps","name_short":"syd-4","host":"syd-1.au.uncletopia.com","port":27045,"enabled":true,"region":"au","cc":"au","latitude":-33.865143,"longitude":151.2099,"reserved":0,"last_update":"0001-01-01T00:00:00Z","name_a2s":"Uncletopia | Sydney | 4 | All Maps","protocol":17,"map":"pl_frontier_final","folder":"tf","game":"Team Fortress","app_id":440,"player_count":0,"max_players":24,"Bots":0,"server_type":"Dedicated","server_os":"Linux","password":true,"vac":true,"version":"7708610","steam_id":85568392925397958,"keywords":["nocrits","nodmgspread","payload","uncletopia"],"game_id":440,"stv_port":27046,"stv_name":"Uncletopia | Sydney | 4 | All Maps | STV","players":null},{"server_id":58,"name":"Uncletopia | Sydney | 5 | No Payload","name_short":"syd-5","host":"syd-1.au.uncletopia.com","port":27055,"enabled":true,"region":"au","cc":"au","latitude":-33.865143,"longitude":151.2099,"reserved":0,"last_update":"0001-01-01T00:00:00Z","name_a2s":"Uncletopia | Sydney | 5 | No Payload","protocol":17,"map":"pl_pier","folder":"tf","game":"Team Fortress","app_id":440,"player_count":0,"max_players":24,"Bots":0,"server_type":"Dedicated","server_os":"Linux","password":true,"vac":true,"version":"7708610","steam_id":85568392925397959,"keywords":["nocrits","nodmgspread","payload","uncletopia"],"game_id":440,"stv_port":27056,"stv_name":"Uncletopia | Sydney | 5 | No Payload | STV","players":null},{"server_id":59,"name":"Uncletopia | Sydney | 6 | Community","name_short":"syd-6","host":"syd-1.au.uncletopia.com","port":27065,"enabled":true,"region":"au","cc":"au","latitude":-33.865143,"longitude":151.2099,"reserved":0,"last_update":"0001-01-01T00:00:00Z","name_a2s":"Uncletopia | Sydney | 6 | Community","protocol":17,"map":"workshop/pl_cactuscanyon_redux_rc4b.ugc2579644293","folder":"tf","game":"Team Fortress","app_id":440,"player_count":0,"max_players":24,"Bots":0,"server_type":"Dedicated","server_os":"Linux","password":true,"vac":true,"version":"7708610","steam_id":85568392925397960,"keywords":["nocrits","nodmgspread","payload","uncletopia"],"game_id":440,"stv_port":27066,"stv_name":"Uncletopia | Sydney | 6 | Community | STV","players":null},{"server_id":49,"name":"Uncletopia | Warsaw | 1 | All Maps","name_short":"waw-1","host":"waw-1.pl.uncletopia.com","port":27015,"enabled":true,"region":"eu","cc":"pl","latitude":52.2297,"longitude":21.017532,"reserved":0,"last_update":"0001-01-01T00:00:00Z","name_a2s":"Uncletopia | Warsaw | 1 | All Maps","protocol":17,"map":"koth_cascade","folder":"tf","game":"Team Fortress","app_id":440,"player_count":0,"max_players":24,"Bots":0,"server_type":"Dedicated","server_os":"Linux","password":true,"vac":true,"version":"7708610","steam_id":85568392925397850,"keywords":["cp","nocrits","nodmgspread","uncletopia"],"game_id":440,"stv_port":27016,"stv_name":"Uncletopia | Warsaw | 1 | All Maps | STV","players":null},{"server_id":50,"name":"Uncletopia | Warsaw | 2 | All Maps","name_short":"waw-2","host":"waw-1.pl.uncletopia.com","port":27025,"enabled":true,"region":"eu","cc":"pl","latitude":52.2297,"longitude":21.017532,"reserved":0,"last_update":"0001-01-01T00:00:00Z","name_a2s":"Uncletopia | Warsaw | 2 | All Maps","protocol":17,"map":"koth_lakeside_final","folder":"tf","game":"Team Fortress","app_id":440,"player_count":2,"max_players":24,"Bots":0,"server_type":"Dedicated","server_os":"Linux","password":true,"vac":true,"version":"7708610","steam_id":85568392925397851,"keywords":["cp","nocrits","nodmgspread","uncletopia"],"game_id":440,"stv_port":27026,"stv_name":"Uncletopia | Warsaw | 2 | All Maps | STV","players":[{"user_id":13,"name":"grammerca2","steam_id":76561198993241319,"connected_time":2960000000000,"state":"active","ping":167},{"user_id":15,"name":"LadyVodka","steam_id":76561198934740864,"connected_time":704000000000,"state":"active","ping":186}]},{"server_id":51,"name":"Uncletopia | Warsaw | 3 | All Maps","name_short":"waw-3","host":"waw-1.pl.uncletopia.com","port":27035,"enabled":true,"region":"eu","cc":"pl","latitude":52.2297,"longitude":21.017532,"reserved":0,"last_update":"0001-01-01T00:00:00Z","name_a2s":"Uncletopia | Warsaw | 3 | All Maps","protocol":17,"map":"pl_borneo","folder":"tf","game":"Team Fortress","app_id":440,"player_count":0,"max_players":24,"Bots":0,"server_type":"Dedicated","server_os":"Linux","password":true,"vac":true,"version":"7708610","steam_id":85568392925397852,"keywords":["nocrits","nodmgspread","payload","uncletopia"],"game_id":440,"stv_port":27036,"stv_name":"Uncletopia | Warsaw | 3 | All Maps | STV","players":null},{"server_id":52,"name":"Uncletopia | Warsaw | 4 | All Maps","name_short":"waw-4","host":"waw-1.pl.uncletopia.com","port":27045,"enabled":true,"region":"eu","cc":"pl","latitude":52.2297,"longitude":21.017532,"reserved":0,"last_update":"0001-01-01T00:00:00Z","name_a2s":"Uncletopia | Warsaw | 4 | All Maps","protocol":17,"map":"pl_pier","folder":"tf","game":"Team Fortress","app_id":440,"player_count":0,"max_players":24,"Bots":0,"server_type":"Dedicated","server_os":"Linux","password":true,"vac":true,"version":"7708610","steam_id":85568392925397853,"keywords":["nocrits","nodmgspread","payload","uncletopia"],"game_id":440,"stv_port":27046,"stv_name":"Uncletopia | Warsaw | 4 | All Maps | STV","players":null},{"server_id":53,"name":"Uncletopia | Warsaw | 5 | No Payload","name_short":"waw-5","host":"waw-1.pl.uncletopia.com","port":27055,"enabled":true,"region":"eu","cc":"pl","latitude":52.2297,"longitude":21.017532,"reserved":0,"last_update":"0001-01-01T00:00:00Z","name_a2s":"Uncletopia | Warsaw | 5 | No Payload","protocol":17,"map":"cp_yukon_final","folder":"tf","game":"Team Fortress","app_id":440,"player_count":0,"max_players":24,"Bots":0,"server_type":"Dedicated","server_os":"Linux","password":true,"vac":true,"version":"7708610","steam_id":85568392925397854,"keywords":["cp","nocrits","nodmgspread","uncletopia"],"game_id":440,"stv_port":27056,"stv_name":"Uncletopia | Warsaw | 5 | No Payload | STV","players":null},{"server_id":54,"name":"Uncletopia | Warsaw | 6 | Community","name_short":"waw-6","host":"waw-1.pl.uncletopia.com","port":27065,"enabled":true,"region":"eu","cc":"pl","latitude":52.2297,"longitude":21.017532,"reserved":0,"last_update":"0001-01-01T00:00:00Z","name_a2s":"Uncletopia | Warsaw | 6 | Community","protocol":17,"map":"workshop/pl_eruption_b8c.ugc2865677281","folder":"tf","game":"Team Fortress","app_id":440,"player_count":0,"max_players":24,"Bots":0,"server_type":"Dedicated","server_os":"Linux","password":true,"vac":true,"version":"7708610","steam_id":85568392925397856,"keywords":["nocrits","nodmgspread","payload","uncletopia"],"game_id":440,"stv_port":27066,"stv_name":"Uncletopia | Warsaw | 6 | Community | STV","players":null}]}