{"status":true,"message":"","result":[{"server_id":9,"name":"Uncletopia | Atlanta | 1 | All Maps","name_short":"atl-1","host":"atl-1.us.uncletopia.com","port":27015,"enabled":true,"region":"us-east","cc":"us","latitude":33.753746,"longitude":-84.38633,"reserved":0,"last_update":"0001-01-01T00:00:00Z","name_a2s":"Uncletopia | Atlanta | 1 | All Maps","protocol":17,"map":"pl_upward","folder":"tf","game":"Team Fortress","app_id":440,"player_count":24,"max_players":24,"Bots":0,"server_type":"Dedicated","server_os":"Linux","password":true,"vac":true,"version":"7757534","steam_id":85568392924469982,"keywords":["nocrits","nodmgspread","payload","uncletopia"],"game_id":440,"stv_port":27016,"stv_name":"Uncletopia | Atlanta | 1 | All Maps | STV","players":[{"user_id":299,"name":"Femcel Fornicator","steam_id":76561198336584447,"connected_time":1135000000000,"state":"active","ping":64},{"user_id":304,"name":"nikzera","steam_id":76561198068025863,"connected_time":736000000000,"state":"active","ping":180},{"user_id":300,"name":"Uncle Hog","steam_id":76561198253181773,"connected_time":946000000000,"state":"active","ping":51},{"user_id":302,"name":"ATLS1 | SparkStorm","steam_id":76561198095817025,"connected_time":875000000000,"state":"active","ping":31},{"user_id":278,"name":"lil hog","steam_id":76561199230929836,"connected_time":3436000000000,"state":"active","ping":78},{"user_id":280,"name":"BIG HOG","steam_id":76561198079923652,"connected_time":3412000000000,"state":"active","ping":66},{"user_id":285,"name":"GailusTerran","steam_id":76561198319509387,"connected_time":2275000000000,"state":"active","ping":60},{"user_id":281,"name":"Soy Blaster","steam_id":76561197971948876,"connected_time":3399000000000,"state":"active","ping":67},{"user_id":272,"name":"thomasdee725","steam_id":76561199189526173,"connected_time":3450000000000,"state":"active","ping":76},{"user_id":301,"name":"ATL1| icyy","steam_id":76561198968001329,"connected_time":899000000000,"state":"active","ping":47},{"user_id":296,"name":"FemboyNate","steam_id":76561198146636410,"connected_time":1157000000000,"state":"active","ping":56},{"user_id":306,"name":"sam1521","steam_id":76561198027264163,"connected_time":703000000000,"state":"active","ping":85},{"user_id":265,"name":"Massive Hog","steam_id":76561198079224101,"connected_time":4906000000000,"state":"active","ping":33},{"user_id":303,"name":"El Chapo","steam_id":76561198018182763,"connected_time":743000000000,"state":"active","ping":86},{"user_id":305,"name":"Tyrone","steam_id":76561198189429665,"connected_time":715000000000,"state":"active","ping":56},{"user_id":249,"name":"[txc] garf","steam_id":76561198083078030,"connected_time":5698000000000,"state":"active","ping":47},{"user_id":307,"name":"JacripspyVulcano","steam_id":76561198966980576,"connected_time":700000000000,"state":"active","ping":70},{"user_id":295,"name":"Bottom Trans Cowgirl","steam_id":76561198304239680,"connected_time":1483000000000,"state":"active","ping":75},{"user_id":288,"name":"SeaBass","steam_id":76561198278914206,"connected_time":2179000000000,"state":"active","ping":67},{"user_id":309,"name":"hypochondriac","steam_id":76561198262231733,"connected_time":637000000000,"state":"active","ping":165},{"user_id":263,"name":"RED1 | Avo","steam_id":76561197993340494,"connected_time":5025000000000,"state":"active","ping":66},{"user_id":273,"name":"RED1 | Mug","steam_id":76561199282207802,"connected_time":3450000000000,"state":"active","ping":97},{"user_id":312,"name":"battle clown","steam_id":76561198045788371,"connected_time":593000000000,"state":"active","ping":77},{"user_id":294,"name":"Biggest Hog","steam_id":76561198055879094,"connected_time":1770000000000,"state":"active","ping":68}]},{"server_id":400,"name":"Uncletopia | Atlanta | 3 | Community","name_short":"atl-3","host":"atl-1.us.uncletopia.com","port":27035,"enabled":true,"region":"us-east","cc":"us","latitude":33.753746,"longitude":-84.38633,"reserved":0,"last_update":"0001-01-01T00:00:00Z","name_a2s":"Uncletopia | Atlanta | 3 | Community","protocol":17,"map":"workshop/rd_asteroid_redux_b1.ugc2154902912","folder":"tf","game":"Team Fortress","app_id":440,"player_count":0,"max_players":32,"Bots":0,"server_type":"Dedicated","server_os":"Linux","password":true,"vac":true,"version":"7757534","steam_id":85568392924515187,"keywords":["beta","increased_maxplayers","nocrits","nodmgspread","rd","uncletopia"],"game_id":440,"stv_port":27036,"stv_name":"Uncletopia | Atlanta | 3 | Community | STV","players":null},{"server_id":401,"name":"Uncletopia | Atlanta | 4 | No Payload","name_short":"atl-4","host":"atl-1.us.uncletopia.com","port":27045,"enabled":true,"region":"us-east","cc":"us","latitude":33.753746,"longitude":-84.38633,"reserved":0,"last_update":"0001-01-01T00:00:00Z","name_a2s":"","protocol":0,"map":"","folder":"","game":"","app_id":0,"player_count":0,"max_players":0,"Bots":0,"server_type":"","server_os":"","password":false,"vac":false,"version":"","steam_id":0,"keywords":null,"game_id":0,"stv_port":0,"stv_name":"","players":null},{"server_id":2,"name":"Uncletopia | Chicago | 1 | All Maps","name_short":"chi-1","host":"chi-1.us.uncletopia.com","port":27015,"enabled":true,"region":"us-central","cc":"us","latitude":41.881832,"longitude":-87.62318,"reserved":0,"last_update":"0001-01-01T00:00:00Z","name_a2s":"Uncletopia | Chicago | 1 | All Maps","protocol":17,"map":"pl_upward","folder":"tf","game":"Team Fortress","app_id":440,"player_count":24,"max_players":24,"Bots":0,"server_type":"Dedicated","server_os":"Linux","password":true,"vac":true,"version":"7757534","steam_id":85568392924469984,"keywords":["nocrits","nodmgspread","payload","uncletopia"],"game_id":440,"stv_port":27016,"stv_name":"Uncletopia | Chicago | 1 | All Maps | STV","players":[{"user_id":344,"name":"Rifter","steam_id":76561198077430698,"connected_time":2280000000000,"state":"active","ping":61},{"user_id":358,"name":"zzz","steam_id":76561198038486613,"connected_time":781000000000,"state":"active","ping":62},{"user_id":345,"name":"Bozanimal","steam_id":76561198044096897,"connected_time":1956000000000,"state":"active","ping":64},{"user_id":331,"name":"spare coochie madam?","steam_id":76561198111259720,"connected_time":3593000000000,"state":"active","ping":66},{"user_id":341,"name":"pigeoncup","steam_id":76561198964926838,"connected_time":2507000000000,"state":"active","ping":60},{"user_id":311,"name":"SoothingMotherlyAura","steam_id":76561198132068284,"connected_time":4449000000000,"state":"active","ping":70},{"user_id":322,"name":"Fudgely","steam_id":76561198039425862,"connected_time":4121000000000,"state":"active","ping":79},{"user_id":352,"name":"shield shekel","steam_id":76561198174428289,"connected_time":1027000000000,"state":"active","ping":69},{"user_id":346,"name":"DunJerUn","steam_id":76561199385041733,"connected_time":1935000000000,"state":"active","ping":85},{"user_id":347,"name":"Morgster","steam_id":76561198131697761,"connected_time":1931000000000,"state":"active","ping":76},{"user_id":348,"name":"Huge","steam_id":76561199030987614,"connected_time":1930000000000,"state":"active","ping":85},{"user_id":365,"name":"·≤º·≤º·≤º·≤º·≤º·≤º·≤º·≤º·≤ºjao","steam_id":76561198408082822,"connected_time":145000000000,"state":"active","ping":196},{"user_id":363,"name":"your bitch uncrustable","steam_id":76561198059921781,"connected_time":213000000000,"state":"active","ping":100},{"user_id":351,"name":"MintyPawz","steam_id":76561198111430103,"connected_time":1483000000000,"state":"active","ping":95},{"user_id":334,"name":"Pawn Cushman","steam_id":76561198221635676,"connected_time":3011000000000,"state":"active","ping":67},{"user_id":366,"name":"Bronze Age GRINDSET","steam_id":76561198859118263,"connected_time":111000000000,"state":"active","ping":66},{"user_id":364,"name":"Yamata-No-Orochi","steam_id":76561199242892949,"connected_time":203000000000,"state":"active","ping":66},{"user_id":357,"name":"chloe","steam_id":76561198369849908,"connected_time":984000000000,"state":"active","ping":142},{"user_id":313,"name":"Ainz Ooal Gown","steam_id":76561198849229108,"connected_time":4312000000000,"state":"active","ping":63},{"user_id":339,"name":"murderous deer","steam_id":76561198350832152,"connected_time":2693000000000,"state":"active","ping":71},{"user_id":354,"name":"the lesbianist pyroshark","steam_id":76561198374227766,"connected_time":1026000000000,"state":"active","ping":75},{"user_id":361,"name":"zero .","steam_id":76561198880290310,"connected_time":362000000000,"state":"active","ping":84},{"user_id":327,"name":"Detonator Dave","steam_id":76561198138221795,"connected_time":3800000000000,"state":"active","ping":75},{"user_id":333,"name":"Captain Brunch","steam_id":76561199097050224,"connected_time":3029000000000,"state":"active","ping":89}]},{"server_id":106,"name":"Uncletopia | Chicago | 2 | All Maps","name_short":"chi-2","host":"chi-1.us.uncletopia.com","port":27025,"enabled":true,"region":"us-central","cc":"us","latitude":41.881832,"longitude":-87.62318,"reserved":0,"last_update":"0001-01-01T00:00:00Z","name_a2s":"Uncletopia | Chicago | 2 | All Maps","protocol":17,"map":"cp_dustbowl","folder":"tf","game":"Team Fortress","app_id":440,"player_count":24,"max_players":24,"Bots":0,"server_type":"Dedicated","server_os":"Linux","password":true,"vac":true,"version":"7757534","steam_id":85568392924469985,"keywords":["cp","nocrits","nodmgspread","uncletopia"],"game_id":440,"stv_port":27026,"stv_name":"Uncletopia | Chicago | 2 | All Maps | STV","players":[{"user_id":232,"name":"Legendary Fro","steam_id":76561198099981980,"connected_time":2134000000000,"state":"active","ping":130},{"user_id":231,"name":"Bobbn","steam_id":76561198876124683,"connected_time":2469000000000,"state":"active","ping":70},{"user_id":236,"name":"David.Smith.2009","steam_id":76561198309760791,"connected_time":1500000000000,"state":"active","ping":130},{"user_id":261,"name":"Scumble","steam_id":76561198356634471,"connected_time":311000000000,"state":"active","ping":73},{"user_id":259,"name":"hearthian","steam_id":76561198113235260,"connected_time":348000000000,"state":"active","ping":95},{"user_id":224,"name":"Drac0c4t","steam_id":76561199073871583,"connected_time":2658000000000,"state":"active","ping":65},{"user_id":260,"name":"kametro4","steam_id":76561198835430429,"connected_time":336000000000,"state":"active","ping":87},{"user_id":248,"name":"Dum_Potat","steam_id":76561199017026622,"connected_time":1168000000000,"state":"active","ping":177},{"user_id":241,"name":"gnome (wanted felon)","steam_id":76561199229771413,"connected_time":1407000000000,"state":"active","ping":85},{"user_id":246,"name":"ShiGuyGamer","steam_id":76561198231305664,"connected_time":1191000000000,"state":"active","ping":112},{"user_id":242,"name":"Please take me seriously","steam_id":76561198156746320,"connected_time":1401000000000,"state":"active","ping":44},{"user_id":243,"name":"Vanilla","steam_id":76561199106847859,"connected_time":1382000000000,"state":"active","ping":62},{"user_id":247,"name":"kingeibon","steam_id":76561198056238702,"connected_time":1169000000000,"state":"active","ping":69},{"user_id":233,"name":"*SHIKI ÂøóË≤¥","steam_id":76561198009208968,"connected_time":1781000000000,"state":"active","ping":51},{"user_id":244,"name":"Furry Saul Goodman","steam_id":76561198069580305,"connected_time":1331000000000,"state":"active","ping":46},{"user_id":256,"name":"rlty","steam_id":76561198009395055,"connected_time":673000000000,"state":"active","ping":60},{"user_id":250,"name":"[BBW] Justario","steam_id":76561198016095410,"connected_time":1165000000000,"state":"active","ping":71},{"user_id":99,"name":"bary","steam_id":76561197988317087,"connected_time":11133000000000,"state":"active","ping":60},{"user_id":251,"name":"The Power","steam_id":76561198060566884,"connected_time":1121000000000,"state":"active","ping":142},{"user_id":197,"name":"spimtmot733","steam_id":76561199029189825,"connected_time":4601000000000,"state":"active","ping":67},{"user_id":255,"name":"drottle","steam_id":76561198072244644,"connected_time":751000000000,"state":"active","ping":67},{"user_id":198,"name":"h","steam_id":76561198092186935,"connected_time":4571000000000,"state":"active","ping":133},{"user_id":257,"name":"st","steam_id":76561198107213976,"connected_time":417000000000,"state":"active","ping":76},{"user_id":252,"name":"98","steam_id":76561198134813102,"connected_time":1107000000000,"state":"active","ping":60}]},{"server_id":402,"name":"Uncletopia | Chicago | 3 | All Maps","name_short":"chi-3","host":"chi-1.us.uncletopia.com","port":27035,"enabled":true,"region":"us-central","cc":"us","latitude":41.881832,"longitude":-87.62318,"reserved":0,"last_update":"0001-01-01T00:00:00Z","name_a2s":"Uncletopia | Chicago | 3 | All Maps","protocol":17,"map":"koth_king","folder":"tf","game":"Team Fortress","app_id":440,"player_count":24,"max_players":24,"Bots":0,"server_type":"Dedicated","server_os":"Linux","password":true,"vac":true,"version":"7757534","steam_id":85568392924515191,"keywords":["cp","nocrits","nodmgspread","uncletopia"],"game_id":440,"stv_port":27036,"stv_name":"Uncletopia | Chicago | 3 | All Maps | STV","players":[{"user_id":287,"name":"b√ºddeh","steam_id":76561198070735936,"connected_time":373000000000,"state":"active","ping":58},{"user_id":259,"name":"Depresso Amber","steam_id":76561198074209737,"connected_time":1655000000000,"state":"active","ping":60},{"user_id":198,"name":"Big kahuna","steam_id":76561198142024812,"connected_time":8099000000000,"state":"active","ping":79},{"user_id":294,"name":"MisterMac193","steam_id":76561199024428088,"connected_time":180000000000,"state":"active","ping":60},{"user_id":272,"name":"EvilCoopz","steam_id":76561198080014161,"connected_time":943000000000,"state":"active","ping":69},{"user_id":194,"name":"Kaluka","steam_id":76561198036861445,"connected_time":8131000000000,"state":"active","ping":67},{"user_id":283,"name":"Jak(i)","steam_id":76561198076823144,"connected_time":598000000000,"state":"active","ping":61},{"user_id":289,"name":"bingus my beloved","steam_id":76561198122136539,"connected_time":317000000000,"state":"active","ping":75},{"user_id":260,"name":"Decs","steam_id":76561198825197974,"connected_time":1602000000000,"state":"active","ping":131},{"user_id":280,"name":"AshMouse","steam_id":76561198151145819,"connected_time":675000000000,"state":"active","ping":67},{"user_id":295,"name":"Bluedime","steam_id":76561198123181025,"connected_time":177000000000,"state":"active","ping":55},{"user_id":246,"name":"ttv/muenstier","steam_id":76561198312153623,"connected_time":2570000000000,"state":"active","ping":59},{"user_id":291,"name":"Doodoo feces üòÅ","steam_id":76561198049784197,"connected_time":282000000000,"state":"active","ping":90},{"user_id":292,"name":"shart","steam_id":76561198039002838,"connected_time":273000000000,"state":"active","ping":85},{"user_id":281,"name":"Shrymp","steam_id":76561198130165656,"connected_time":652000000000,"state":"active","ping":55},{"user_id":286,"name":"Rec","steam_id":76561198022813906,"connected_time":458000000000,"state":"active","ping":50},{"user_id":269,"name":"Kit Carson","steam_id":76561198115691546,"connected_time":1061000000000,"state":"active","ping":103},{"user_id":255,"name":"Not_Douglas","steam_id":76561199024184136,"connected_time":1842000000000,"state":"active","ping":62},{"user_id":275,"name":"JazzMuted","steam_id":76561197974184265,"connected_time":807000000000,"state":"active","ping":52},{"user_id":278,"name":"Snimca","steam_id":76561198453519709,"connected_time":737000000000,"state":"active","ping":70},{"user_id":296,"name":"Buswolley","steam_id":76561197995205571,"connected_time":1000000000,"state":"spawning","ping":75},{"user_id":241,"name":"bulk//Dinkolaw","steam_id":76561198154072948,"connected_time":3256000000000,"state":"active","ping":62},{"user_id":279,"name":"Toottoot","steam_id":76561197992404836,"connected_time":709000000000,"state":"active","ping":46},{"user_id":293,"name":"SkeechBox 1.1.3","steam_id":76561198119215388,"connected_time":270000000000,"state":"active","ping":76}]},{"server_id":403,"name":"Uncletopia | Chicago | 4 | All Maps","name_short":"chi-4","host":"chi-1.us.uncletopia.com","port":27045,"enabled":true,"region":"us-central","cc":"us","latitude":41.881832,"longitude":-87.62318,"reserved":0,"last_update":"0001-01-01T00:00:00Z","name_a2s":"Uncletopia | Chicago | 4 | All Maps","protocol":17,"map":"cp_dustbowl","folder":"tf","game":"Team Fortress","app_id":440,"player_count":24,"max_players":24,"Bots":0,"server_type":"Dedicated","server_os":"Linux","password":true,"vac":true,"version":"7757534","steam_id":85568392924515193,"keywords":["cp","nocrits","nodmgspread","uncletopia"],"game_id":440,"stv_port":27046,"stv_name":"Uncletopia | Chicago | 4 | All Maps | STV","players":[{"user_id":125,"name":"redindy","steam_id":76561198070154445,"connected_time":2367000000000,"state":"active","ping":76},{"user_id":152,"name":"Ursus Ludius","steam_id":76561198025470722,"connected_time":908000000000,"state":"active","ping":83},{"user_id":126,"name":"Soju","steam_id":76561198044130442,"connected_time":2349000000000,"state":"active","ping":91},{"user_id":167,"name":"Dr. Dr.","steam_id":76561198418983698,"connected_time":202000000000,"state":"active","ping":80},{"user_id":162,"name":"onionbagel4","steam_id":76561199134895220,"connected_time":705000000000,"state":"active","ping":80},{"user_id":119,"name":"gasparmx","steam_id":76561197998611994,"connected_time":2664000000000,"state":"active","ping":103},{"user_id":107,"name":"captainskullet","steam_id":76561198314597170,"connected_time":3317000000000,"state":"active","ping":68},{"user_id":155,"name":"Larry from Pokemon SV","steam_id":76561198095245223,"connected_time":886000000000,"state":"active","ping":102},{"user_id":156,"name":"TOOL fan","steam_id":76561198272021214,"connected_time":882000000000,"state":"active","ping":98},{"user_id":157,"name":"Dragon","steam_id":76561198216456640,"connected_time":881000000000,"state":"active","ping":115},{"user_id":145,"name":"PileofPolygons","steam_id":76561199321343460,"connected_time":1301000000000,"state":"active","ping":67},{"user_id":129,"name":"CamSoup","steam_id":76561198202483168,"connected_time":2270000000000,"state":"active","ping":67},{"user_id":160,"name":"Neon","steam_id":76561198315452125,"connected_time":872000000000,"state":"active","ping":113},{"user_id":139,"name":"Emails","steam_id":76561198836919458,"connected_time":1891000000000,"state":"active","ping":74},{"user_id":97,"name":"Uncle Majic the Hip Hop Magicia","steam_id":76561198107924303,"connected_time":3588000000000,"state":"active","ping":59},{"user_id":109,"name":"BUNGACOWA","steam_id":76561198979176018,"connected_time":3230000000000,"state":"active","ping":85},{"user_id":165,"name":"Dr. Anime07","steam_id":76561199285435663,"connected_time":644000000000,"state":"active","ping":82},{"user_id":131,"name":"Siless","steam_id":76561198040803878,"connected_time":2222000000000,"state":"active","ping":56},{"user_id":137,"name":"future milf manor contestant","steam_id":76561198081220016,"connected_time":2067000000000,"state":"active","ping":48},{"user_id":150,"name":"Akira","steam_id":76561198294601519,"connected_time":921000000000,"state":"active","ping":90},{"user_id":133,"name":"Nukem","steam_id":76561198166236574,"connected_time":2188000000000,"state":"active","ping":82},{"user_id":166,"name":"Coolshroomish","steam_id":76561199109440924,"connected_time":477000000000,"state":"active","ping":100},{"user_id":116,"name":"Booz Lityar","steam_id":76561199056842761,"connected_time":2864000000000,"state":"active","ping":105},{"user_id":146,"name":"John Darksoul","steam_id":76561198999712284,"connected_time":1274000000000,"state":"active","ping":72}]},{"server_id":36,"name":"Uncletopia | Chicago | 5 | All Maps","name_short":"chi-5","host":"chi-2.us.uncletopia.com","port":27015,"enabled":true,"region":"us-central","cc":"us","latitude":41.881832,"longitude":-87.62318,"reserved":0,"last_update":"0001-01-01T00:00:00Z","name_a2s":"Uncletopia | Chicago | 5 | All Maps","protocol":17,"map":"pl_snowycoast","folder":"tf","game":"Team Fortress","app_id":440,"player_count":1,"max_players":24,"Bots":0,"server_type":"Dedicated","server_os":"Linux","password":true,"vac":true,"version":"7757534","steam_id":85568392924866362,"keywords":["nocrits","nodmgspread","payload","uncletopia"],"game_id":440,"stv_port":27016,"stv_name":"Uncletopia | Chicago | 5 | All Maps | STV","players":[{"user_id":13,"name":"volta","steam_id":76561199214283884,"connected_time":577000000000,"state":"active","ping":90}]},{"server_id":37,"name":"Uncletopia | Chicago | 6 | All Maps","name_short":"chi-6","host":"chi-2.us.uncletopia.com","port":27025,"enabled":true,"region":"us-central","cc":"us","latitude":41.881832,"longitude":-87.62318,"reserved":0,"last_update":"0001-01-01T00:00:00Z","name_a2s":"Uncletopia | Chicago | 6 | All Maps","protocol":17,"map":"pl_pier","folder":"tf","game":"Team Fortress","app_id":440,"player_count":24,"max_players":24,"Bots":0,"server_type":"Dedicated","server_os":"Linux","password":true,"vac":true,"version":"7757534","steam_id":85568392924866363,"keywords":["nocrits","nodmgspread","payload","uncletopia"],"game_id":440,"stv_port":27026,"stv_name":"Uncletopia | Chicago | 6 | All Maps | STV","players":[{"user_id":90,"name":"magotago","steam_id":76561198013650292,"connected_time":384000000000,"state":"active","ping":110},{"user_id":82,"name":"desu gaming","steam_id":76561198167861457,"connected_time":584000000000,"state":"active","ping":89},{"user_id":94,"name":"Fresh0c0","steam_id":76561198271933283,"connected_time":141000000000,"state":"active","ping":62},{"user_id":10,"name":"48","steam_id":76561198156422760,"connected_time":4246000000000,"state":"active","ping":60},{"user_id":11,"name":"Chris is Bliss","steam_id":76561198253919037,"connected_time":4243000000000,"state":"active","ping":87},{"user_id":12,"name":"Sweet","steam_id":76561198140456369,"connected_time":4240000000000,"state":"active","ping":52},{"user_id":13,"name":"TrashyAnimal","steam_id":76561199210739171,"connected_time":4226000000000,"state":"active","ping":58},{"user_id":93,"name":"Potion seller (They/Them)","steam_id":76561199078306687,"connected_time":229000000000,"state":"active","ping":67},{"user_id":95,"name":"An Erect Penis :)","steam_id":76561198086477485,"connected_time":139000000000,"state":"active","ping":39},{"user_id":96,"name":"floppy muppet","steam_id":76561198003076261,"connected_time":137000000000,"state":"active","ping":91},{"user_id":70,"name":"segway cop","steam_id":76561198225609936,"connected_time":955000000000,"state":"active","ping":57},{"user_id":86,"name":"dlrry","steam_id":76561198336561279,"connected_time":457000000000,"state":"active","ping":72},{"user_id":76,"name":"Amazingamerhawk","steam_id":76561199064935924,"connected_time":835000000000,"state":"active","ping":61},{"user_id":49,"name":"ZofoJackson","steam_id":76561197998366861,"connected_time":2245000000000,"state":"active","ping":48},{"user_id":79,"name":"Quark","steam_id":76561198328155605,"connected_time":763000000000,"state":"active","ping":56},{"user_id":74,"name":"wool.","steam_id":76561198332704108,"connected_time":863000000000,"state":"active","ping":51},{"user_id":77,"name":"Astrocircuit","steam_id":76561198014437544,"connected_time":795000000000,"state":"active","ping":62},{"user_id":87,"name":"Sir Issac WheatThins","steam_id":76561198341544792,"connected_time":457000000000,"state":"active","ping":67},{"user_id":88,"name":"Coupon","steam_id":76561198111947598,"connected_time":440000000000,"state":"active","ping":75},{"user_id":75,"name":"SPACE COUP","steam_id":76561198081123470,"connected_time":845000000000,"state":"active","ping":75},{"user_id":89,"name":"BlueJay","steam_id":76561198879858391,"connected_time":434000000000,"state":"active","ping":802},{"user_id":97,"name":"gabagool","steam_id":76561198012131766,"connected_time":137000000000,"state":"active","ping":59},{"user_id":98,"name":"swan","steam_id":76561198012569200,"connected_time":85000000000,"state":"active","ping":71},{"user_id":53,"name":"GlitchGame","steam_id":76561198935134697,"connected_time":2064000000000,"state":"active","ping":53}]},{"server_id":38,"name":"Uncletopia | Chicago | 7 | Stopwatch Beta","name_short":"chi-7","host":"chi-2.us.uncletopia.com","port":27035,"enabled":true,"region":"us-central","cc":"us","latitude":41.881832,"longitude":-87.62318,"reserved":0,"last_update":"0001-01-01T00:00:00Z","name_a2s":"Uncletopia | Chicago | 7 | Stopwatch Beta","protocol":17,"map":"pl_upward","folder":"tf","game":"Team Fortress","app_id":440,"player_count":0,"max_players":24,"Bots":0,"server_type":"Dedicated","server_os":"Linux","password":true,"vac":true,"version":"7757534","steam_id":85568392924866364,"keywords":["nocrits","nodmgspread","payload","uncletopia"],"game_id":440,"stv_port":27036,"stv_name":"Uncletopia | Chicago | 7 | Stopwatch Beta | STV","players":null},{"server_id":39,"name":"Uncletopia | Chicago | 8 | Community","name_short":"chi-8","host":"chi-2.us.uncletopia.com","port":27045,"enabled":true,"region":"us-central","cc":"us","latitude":41.881832,"longitude":-87.62318,"reserved":0,"last_update":"0001-01-01T00:00:00Z","name_a2s":"Uncletopia | Chicago | 8 | Community","protocol":17,"map":"pl_barnblitz","folder":"tf","game":"Team Fortress","app_id":440,"player_count":0,"max_players":24,"Bots":0,"server_type":"Dedicated","server_os":"Linux","password":true,"vac":true,"version":"7757534","steam_id":85568392924866365,"keywords":["nocrits","nodmgspread","payload","uncletopia"],"game_id":440,"stv_port":27046,"stv_name":"Uncletopia | Chicago | 8 | Community | STV","players":null},{"server_id":8,"name":"Uncletopia | Dallas | 1 | All Maps","name_short":"dal-1","host":"dal-1.us.uncletopia.com","port":27015,"enabled":true,"region":"us-central","cc":"us","latitude":32.779167,"longitude":-96.80889,"reserved":0,"last_update":"0001-01-01T00:00:00Z","name_a2s":"Uncletopia | Dallas | 1 | All Maps","protocol":17,"map":"koth_cascade","folder":"tf","game":"Team Fortress","app_id":440,"player_count":0,"max_players":24,"Bots":0,"server_type":"Dedicated","server_os":"Linux","password":true,"vac":true,"version":"7757534","steam_id":85568392924469986,"keywords":["cp","nocrits","nodmgspread","uncletopia"],"game_id":440,"stv_port":27016,"stv_name":"Uncletopia | Dallas | 1 | All Maps | STV","players":null},{"server_id":108,"name":"Uncletopia | Dallas | 2 | All Maps","name_short":"dal-2","host":"dal-1.us.uncletopia.com","port":27025,"enabled":true,"region":"us-central","cc":"us","latitude":32.779167,"longitude":-96.80889,"reserved":0,"last_update":"0001-01-01T00:00:00Z","name_a2s":"Uncletopia | Dallas | 2 | All Maps","protocol":17,"map":"cp_sunshine","folder":"tf","game":"Team Fortress","app_id":440,"player_count":23,"max_players":24,"Bots":0,"server_type":"Dedicated","server_os":"Linux","password":true,"vac":true,"version":"7757534","steam_id":85568392924469988,"keywords":["cp","nocrits","nodmgspread","uncletopia"],"game_id":440,"stv_port":27026,"stv_name":"Uncletopia | Dallas | 2 | All Maps | STV","players":[{"user_id":249,"name":"EmptyB33R","steam_id":76561198993166528,"connected_time":2298000000000,"state":"active","ping":138},{"user_id":218,"name":"Kraftlos","steam_id":76561198074350350,"connected_time":4183000000000,"state":"active","ping":93},{"user_id":279,"name":"LOVERBOY","steam_id":76561198018142545,"connected_time":71000000000,"state":"active","ping":56},{"user_id":270,"name":"Indicative","steam_id":76561199076612537,"connected_time":667000000000,"state":"active","ping":57},{"user_id":269,"name":"sumo dumplings","steam_id":76561198115553314,"connected_time":865000000000,"state":"active","ping":81},{"user_id":259,"name":"Foomfa","steam_id":76561198007033616,"connected_time":1359000000000,"state":"active","ping":67},{"user_id":246,"name":"DrBenjas","steam_id":76561198345883103,"connected_time":2504000000000,"state":"active","ping":103},{"user_id":226,"name":"ttv/meow4389","steam_id":76561198851731574,"connected_time":3381000000000,"state":"active","ping":120},{"user_id":258,"name":"Fishstall","steam_id":76561198038126034,"connected_time":1400000000000,"state":"active","ping":59},{"user_id":280,"name":"A Gas Salesman!","steam_id":76561198081877626,"connected_time":36000000000,"state":"active","ping":97},{"user_id":273,"name":"Dictator Noodle","steam_id":76561198277243768,"connected_time":467000000000,"state":"active","ping":77},{"user_id":276,"name":"chikin.sauce","steam_id":76561198042464635,"connected_time":111000000000,"state":"active","ping":50},{"user_id":260,"name":"drdoofus123","steam_id":76561198016826181,"connected_time":1351000000000,"state":"active","ping":70},{"user_id":220,"name":"_JohnnyFiveAces_","steam_id":76561199433571219,"connected_time":4092000000000,"state":"active","ping":39},{"user_id":272,"name":"AleXandriX","steam_id":76561198035203950,"connected_time":541000000000,"state":"active","ping":170},{"user_id":281,"name":"Br0gon","steam_id":76561199434773987,"connected_time":35000000000,"state":"active","ping":111},{"user_id":254,"name":"ANiceGuy","steam_id":76561199386745066,"connected_time":1636000000000,"state":"active","ping":95},{"user_id":261,"name":"Osix","steam_id":76561198008288376,"connected_time":1336000000000,"state":"active","ping":91},{"user_id":262,"name":"BigBubble42","steam_id":76561198136286123,"connected_time":1336000000000,"state":"active","ping":29},{"user_id":282,"name":"Œª","steam_id":76561198120426683,"connected_time":14000000000,"state":"active","ping":103},{"user_id":227,"name":"|-[LINUX]-| Purple Pybro","steam_id":76561198093538786,"connected_time":3246000000000,"state":"active","ping":40},{"user_id":265,"name":"FUNKY TOWN SLAYER","steam_id":76561198119489292,"connected_time":1084000000000,"state":"active","ping":118},{"user_id":267,"name":"a Hippobottomus","steam_id":76561198126853441,"connected_time":1035000000000,"state":"active","ping":36}]},{"server_id":5,"name":"Uncletopia | Frankfurt | 1 | All Maps","name_short":"frk-1","host":"frk-1.de.uncletopia.com","port":27015,"enabled":true,"region":"eu","cc":"de","latitude":50.110924,"longitude":8.682127,"reserved":0,"last_update":"0001-01-01T00:00:00Z","name_a2s":"Uncletopia | Frankfurt | 1 | All Maps","protocol":17,"map":"pl_borneo","folder":"tf","game":"Team Fortress","app_id":440,"player_count":24,"max_players":24,"Bots":0,"server_type":"Dedicated","server_os":"Linux","password":true,"vac":true,"version":"7757534","steam_id":85568392924469989,"keywords":["nocrits","nodmgspread","payload","uncletopia"],"game_id":440,"stv_port":27016,"stv_name":"Uncletopia | Frankfurt | 1 | All Maps | STV","players":[{"user_id":687,"name":"Rythillian","steam_id":76561198099651920,"connected_time":2430000000000,"state":"active","ping":130},{"user_id":709,"name":"I have 9 fingersch","steam_id":76561198366759496,"connected_time":1554000000000,"state":"active","ping":88},{"user_id":681,"name":"Potat Master |Potato Industries","steam_id":76561199112380553,"connected_time":2945000000000,"state":"active","ping":86},{"user_id":663,"name":"Pepperonipizza","steam_id":76561198044471610,"connected_time":3861000000000,"state":"active","ping":65},{"user_id":683,"name":"Bobo","steam_id":76561198052308399,"connected_time":2823000000000,"state":"active","ping":58},{"user_id":717,"name":"Pagey2911","steam_id":76561198018465350,"connected_time":1191000000000,"state":"active","ping":83},{"user_id":710,"name":"Oxer","steam_id":76561198055942412,"connected_time":1534000000000,"state":"active","ping":75},{"user_id":691,"name":"kiki","steam_id":76561198838277022,"connected_time":2315000000000,"state":"active","ping":61},{"user_id":634,"name":"ChesseKnight","steam_id":76561198102476339,"connected_time":5999000000000,"state":"active","ping":84},{"user_id":704,"name":"H-say","steam_id":76561198177400362,"connected_time":1986000000000,"state":"active","ping":84},{"user_id":673,"name":"¬¨¬∞Nice","steam_id":76561198387871867,"connected_time":3573000000000,"state":"active","ping":75},{"user_id":679,"name":"syms","steam_id":76561198066679812,"connected_time":2966000000000,"state":"active","ping":78},{"user_id":711,"name":"Prison Mike","steam_id":76561198014221596,"connected_time":1493000000000,"state":"active","ping":69},{"user_id":725,"name":"The Green Uncle","steam_id":76561198257163156,"connected_time":248000000000,"state":"active","ping":67},{"user_id":695,"name":"Agro | KritzKast","steam_id":76561197970498549,"connected_time":2165000000000,"state":"active","ping":59},{"user_id":708,"name":"Sultan Mohammad S√ºleyman II.","steam_id":76561198124568025,"connected_time":1574000000000,"state":"active","ping":51},{"user_id":698,"name":"paguro","steam_id":76561198119560871,"connected_time":2151000000000,"state":"active","ping":68},{"user_id":712,"name":"kactus","steam_id":76561198154630875,"connected_time":1480000000000,"state":"active","ping":69},{"user_id":726,"name":"Uncle Moomin","steam_id":76561198011628656,"connected_time":236000000000,"state":"active","ping":82},{"user_id":700,"name":"KillerQueen (he/they/she)","steam_id":76561199019399725,"connected_time":2147000000000,"state":"active","ping":63},{"user_id":713,"name":"N0clipZ","steam_id":76561198365489036,"connected_time":1466000000000,"state":"active","ping":85},{"user_id":703,"name":"sbren sbeve","steam_id":76561198116530769,"connected_time":2069000000000,"state":"active","ping":78},{"user_id":720,"name":"Volcyy","steam_id":76561198063979124,"connected_time":733000000000,"state":"active","ping":42},{"user_id":723,"name":"Zozo","steam_id":76561198156006870,"connected_time":402000000000,"state":"active","ping":100}]},{"server_id":110,"name":"Uncletopia | Frankfurt | 2 | All Maps","name_short":"frk-2","host":"frk-1.de.uncletopia.com","port":27025,"enabled":true,"region":"eu","cc":"de","latitude":50.110924,"longitude":8.682127,"reserved":0,"last_update":"0001-01-01T00:00:00Z","name_a2s":"Uncletopia | Frankfurt | 2 | All Maps","protocol":17,"map":"cp_process_final","folder":"tf","game":"Team Fortress","app_id":440,"player_count":24,"max_players":24,"Bots":0,"server_type":"Dedicated","server_os":"Linux","password":true,"vac":true,"version":"7757534","steam_id":85568392924469990,"keywords":["cp","nocrits","nodmgspread","uncletopia"],"game_id":440,"stv_port":27026,"stv_name":"Uncletopia | Frankfurt | 2 | All Maps | STV","players":[{"user_id":576,"name":"Krea_tor","steam_id":76561199049663197,"connected_time":407000000000,"state":"active","ping":66},{"user_id":549,"name":"KILL HER, KILL HER.","steam_id":76561199042470246,"connected_time":2997000000000,"state":"active","ping":60},{"user_id":573,"name":"kotamine","steam_id":76561198068907991,"connected_time":882000000000,"state":"active","ping":68},{"user_id":563,"name":"Knez","steam_id":76561198043806388,"connected_time":1245000000000,"state":"active","ping":58},{"user_id":538,"name":"Baki ‡∂û","steam_id":76561198193615529,"connected_time":4105000000000,"state":"active","ping":56},{"user_id":566,"name":"Laiker","steam_id":76561198163560309,"connected_time":1142000000000,"state":"active","ping":54},{"user_id":562,"name":"Rarky","steam_id":76561198054398642,"connected_time":1636000000000,"state":"active","ping":59},{"user_id":533,"name":"Vershal Smershal","steam_id":76561198116223995,"connected_time":4448000000000,"state":"active","ping":60},{"user_id":535,"name":"Dogdigger","steam_id":76561198032893130,"connected_time":4439000000000,"state":"active","ping":82},{"user_id":569,"name":"Stu","steam_id":76561198131449281,"connected_time":1087000000000,"state":"active","ping":46},{"user_id":463,"name":"Mussolini","steam_id":76561198218384865,"connected_time":9415000000000,"state":"active","ping":90},{"user_id":561,"name":"The Masterplan","steam_id":76561198158631465,"connected_time":2023000000000,"state":"active","ping":65},{"user_id":568,"name":"o_o","steam_id":76561198113045011,"connected_time":1114000000000,"state":"active","ping":90},{"user_id":570,"name":"glyphoglossus molossus","steam_id":76561198191291749,"connected_time":1076000000000,"state":"active","ping":73},{"user_id":571,"name":"true","steam_id":76561198031145243,"connected_time":1029000000000,"state":"active","ping":84},{"user_id":572,"name":"akakez","steam_id":76561198095432821,"connected_time":972000000000,"state":"active","ping":119},{"user_id":519,"name":"smtms i chew on a pic of jerma","steam_id":76561198058012525,"connected_time":5148000000000,"state":"active","ping":70},{"user_id":552,"name":"Joseph Joestar","steam_id":76561198865424276,"connected_time":2877000000000,"state":"active","ping":93},{"user_id":574,"name":"enesven","steam_id":76561199466839845,"connected_time":864000000000,"state":"active","ping":91},{"user_id":537,"name":"Udinese Dion","steam_id":76561198067931573,"connected_time":4398000000000,"state":"active","ping":49},{"user_id":575,"name":"Akiron","steam_id":76561199267799044,"connected_time":797000000000,"state":"active","ping":92},{"user_id":539,"name":"Cosmetic brain","steam_id":76561198055936410,"connected_time":4021000000000,"state":"active","ping":90},{"user_id":558,"name":"Kvicha Kvaratskhelia","steam_id":76561198179339326,"connected_time":2207000000000,"state":"active","ping":75},{"user_id":490,"name":"jo bidn' | ETLARTORM","steam_id":76561198869576262,"connected_time":7439000000000,"state":"active","ping":104}]},{"server_id":308,"name":"Uncletopia | Frankfurt | 3 | All Maps","name_short":"frk-3","host":"frk-1.de.uncletopia.com","port":27035,"enabled":true,"region":"eu","cc":"de","latitude":50.110924,"longitude":8.682127,"reserved":0,"last_update":"0001-01-01T00:00:00Z","name_a2s":"Uncletopia | Frankfurt | 3 | All Maps","protocol":17,"map":"pl_frontier_final","folder":"tf","game":"Team Fortress","app_id":440,"player_count":24,"max_players":24,"Bots":0,"server_type":"Dedicated","server_os":"Linux","password":true,"vac":true,"version":"7757534","steam_id":85568392924504274,"keywords":["nocrits","nodmgspread","payload","uncletopia"],"game_id":440,"stv_port":27036,"stv_name":"Uncletopia | Frankfurt | 3 | All Maps | STV","players":[{"user_id":300,"name":"maKU","steam_id":76561198073943958,"connected_time":4251000000000,"state":"active","ping":54},{"user_id":305,"name":"Nickbro101","steam_id":76561198044271692,"connected_time":3891000000000,"state":"active","ping":60},{"user_id":355,"name":"Bilaterial Newt","steam_id":76561198074655679,"connected_time":371000000000,"state":"active","ping":74},{"user_id":348,"name":"heavy sings (real)","steam_id":76561199023804405,"connected_time":1118000000000,"state":"active","ping":76},{"user_id":307,"name":"Nugget","steam_id":76561198338916407,"connected_time":3794000000000,"state":"active","ping":77},{"user_id":154,"name":"Arturias","steam_id":76561198188720263,"connected_time":7870000000000,"state":"active","ping":56},{"user_id":330,"name":"Warped","steam_id":76561197989916494,"connected_time":2084000000000,"state":"active","ping":48},{"user_id":309,"name":"eeeeee","steam_id":76561198017786875,"connected_time":3718000000000,"state":"active","ping":46},{"user_id":313,"name":"zak","steam_id":76561197998895428,"connected_time":3600000000000,"state":"active","ping":54},{"user_id":356,"name":"Zedifo","steam_id":76561198044032070,"connected_time":179000000000,"state":"active","ping":48},{"user_id":332,"name":"dolo","steam_id":76561198206672297,"connected_time":2074000000000,"state":"active","ping":54},{"user_id":357,"name":"Victoria NyaNya","steam_id":76561198386462300,"connected_time":175000000000,"state":"active","ping":103},{"user_id":328,"name":"Bonca","steam_id":76561198137503531,"connected_time":2426000000000,"state":"active","ping":75},{"user_id":311,"name":"Carrotcracker","steam_id":76561198034862396,"connected_time":3668000000000,"state":"active","ping":68},{"user_id":338,"name":"‚ô• ‚ô• Sp3ll soo SeXy ÊÆ∫Êâã#1","steam_id":76561197970593737,"connected_time":1883000000000,"state":"active","ping":66},{"user_id":350,"name":"many thanks","steam_id":76561198089003514,"connected_time":1012000000000,"state":"active","ping":44},{"user_id":341,"name":"TiredOcean","steam_id":76561198177747195,"connected_time":1628000000000,"state":"active","ping":52},{"user_id":272,"name":"Mario3ghj","steam_id":76561198069804561,"connected_time":5387000000000,"state":"active","ping":95},{"user_id":358,"name":"Juiceydough","steam_id":76561197997323419,"connected_time":172000000000,"state":"active","ping":92},{"user_id":318,"name":"Orochi","steam_id":76561198265192382,"connected_time":3293000000000,"state":"active","ping":60},{"user_id":353,"name":"let me cook","steam_id":76561198010380786,"connected_time":875000000000,"state":"active","ping":59},{"user_id":354,"name":"Behind you","steam_id":76561198102420849,"connected_time":794000000000,"state":"active","ping":59},{"user_id":298,"name":"Milo≈°","steam_id":76561198129684105,"connected_time":4327000000000,"state":"active","ping":58},{"user_id":340,"name":"Ghorkin","steam_id":76561198070923312,"connected_time":1792000000000,"state":"active","ping":86}]},{"server_id":309,"name":"Uncletopia | Frankfurt | 4 | All Maps","name_short":"frk-4","host":"frk-1.de.uncletopia.com","port":27045,"enabled":true,"region":"eu","cc":"de","latitude":50.110924,"longitude":8.682127,"reserved":0,"last_update":"0001-01-01T00:00:00Z","name_a2s":"Uncletopia | Frankfurt | 4 | All Maps","protocol":17,"map":"pl_badwater","folder":"tf","game":"Team Fortress","app_id":440,"player_count":0,"max_players":24,"Bots":0,"server_type":"Dedicated","server_os":"Linux","password":true,"vac":true,"version":"7757534","steam_id":85568392924504275,"keywords":["nocrits","nodmgspread","payload","uncletopia"],"game_id":440,"stv_port":27046,"stv_name":"Uncletopia | Frankfurt | 4 | All Maps | STV","players":null},{"server_id":310,"name":"Uncletopia | Frankfurt | 5 | All Maps","name_short":"frk-5","host":"frk-1.de.uncletopia.com","port":27055,"enabled":true,"region":"eu","cc":"de","latitude":50.110924,"longitude":8.682127,"reserved":0,"last_update":"0001-01-01T00:00:00Z","name_a2s":"Uncletopia | Frankfurt | 5 | All Maps","protocol":17,"map":"pl_upward","folder":"tf","game":"Team Fortress","app_id":440,"player_count":23,"max_players":24,"Bots":0,"server_type":"Dedicated","server_os":"Linux","password":true,"vac":true,"version":"7757534","steam_id":85568392924504277,"keywords":["nocrits","nodmgspread","payload","uncletopia"],"game_id":440,"stv_port":27056,"stv_name":"Uncletopia | Frankfurt | 5 | All Maps | STV","players":[{"user_id":252,"name":"lenovo","steam_id":76561198049872496,"connected_time":548000000000,"state":"active","ping":90},{"user_id":243,"name":"Robzy","steam_id":76561198082387972,"connected_time":755000000000,"state":"active","ping":71},{"user_id":260,"name":"Ches is into Cro-Cro","steam_id":76561198067204908,"connected_time":282000000000,"state":"active","ping":68},{"user_id":246,"name":"TOG II*","steam_id":76561197993906091,"connected_time":681000000000,"state":"active","ping":54},{"user_id":197,"name":"Penis Contortionist","steam_id":76561198073663784,"connected_time":4479000000000,"state":"active","ping":53},{"user_id":242,"name":"LEGEND FUMO.","steam_id":76561198061033903,"connected_time":1116000000000,"state":"active","ping":45},{"user_id":247,"name":"Guuse","steam_id":76561198030956814,"connected_time":673000000000,"state":"active","ping":91},{"user_id":266,"name":"spl .davi","steam_id":76561198029015952,"connected_time":131000000000,"state":"active","ping":70},{"user_id":219,"name":"pezza","steam_id":76561197995173247,"connected_time":2767000000000,"state":"active","ping":74},{"user_id":168,"name":"RubyTheUnicorn","steam_id":76561198091772218,"connected_time":6000000000000,"state":"active","ping":60},{"user_id":262,"name":"Daniel Day-Lewis","steam_id":76561198147249160,"connected_time":244000000000,"state":"active","ping":101},{"user_id":265,"name":"PluNgBe","steam_id":76561198131100420,"connected_time":156000000000,"state":"active","ping":65},{"user_id":259,"name":"iki","steam_id":76561198119607160,"connected_time":359000000000,"state":"active","ping":71},{"user_id":227,"name":"Silent Person","steam_id":76561198107763537,"connected_time":2369000000000,"state":"active","ping":69},{"user_id":256,"name":"Holden A. Grenade","steam_id":76561199079279686,"connected_time":411000000000,"state":"active","ping":149},{"user_id":250,"name":"Dewotter","steam_id":76561198007653168,"connected_time":606000000000,"state":"active","ping":73},{"user_id":209,"name":"GuyWithoutAPie","steam_id":76561198054512149,"connected_time":3777000000000,"state":"active","ping":61},{"user_id":254,"name":"KittyKate ‚ù§","steam_id":76561198116340817,"connected_time":490000000000,"state":"active","ping":64},{"user_id":255,"name":"NRC","steam_id":76561198136403335,"connected_time":478000000000,"state":"active","ping":68},{"user_id":211,"name":"Manslayer","steam_id":76561198063956707,"connected_time":3730000000000,"state":"active","ping":57},{"user_id":138,"name":"--","steam_id":76561198837706438,"connected_time":7539000000000,"state":"active","ping":75},{"user_id":257,"name":"Harpenden, Harpenden, Harpenden","steam_id":76561198118138546,"connected_time":406000000000,"state":"active","ping":59},{"user_id":258,"name":"Aesthetic Alcoholism","steam_id":76561198044418968,"connected_time":379000000000,"state":"active","ping":51}]},{"server_id":311,"name":"Uncletopia | Frankfurt | 6 | All Maps","name_short":"frk-6","host":"frk-1.de.uncletopia.com","port":27065,"enabled":true,"region":"eu","cc":"de","latitude":50.110924,"longitude":8.682127,"reserved":0,"last_update":"0001-01-01T00:00:00Z","name_a2s":"Uncletopia | Frankfurt | 6 | All Maps","protocol":17,"map":"pl_thundermountain","folder":"tf","game":"Team Fortress","app_id":440,"player_count":14,"max_players":24,"Bots":0,"server_type":"Dedicated","server_os":"Linux","password":true,"vac":true,"version":"7757534","steam_id":85568392924504278,"keywords":["nocrits","nodmgspread","payload","uncletopia"],"game_id":440,"stv_port":27066,"stv_name":"Uncletopia | Frankfurt | 6 | All Maps | STV","players":[{"user_id":797,"name":"randompixel","steam_id":76561198003941207,"connected_time":133000000000,"state":"active","ping":69},{"user_id":785,"name":"MikeyMoo","steam_id":76561198106748328,"connected_time":1386000000000,"state":"active","ping":69},{"user_id":790,"name":"Alarmed Felix","steam_id":76561198167208311,"connected_time":1200000000000,"state":"active","ping":39},{"user_id":739,"name":"beurgeur","steam_id":76561198872426314,"connected_time":5538000000000,"state":"active","ping":45},{"user_id":781,"name":"Silverdarlin","steam_id":76561198118540970,"connected_time":1728000000000,"state":"active","ping":60},{"user_id":800,"name":"‚òÜ","steam_id":76561198206810997,"connected_time":41000000000,"state":"active","ping":75},{"user_id":799,"name":"ArikMor","steam_id":76561199124472513,"connected_time":91000000000,"state":"active","ping":123},{"user_id":792,"name":"Videogamer","steam_id":76561198106012909,"connected_time":961000000000,"state":"active","ping":68},{"user_id":801,"name":"Zod","steam_id":76561198384630002,"connected_time":16000000000,"state":"spawning","ping":135},{"user_id":796,"name":"WHUSSKEY","steam_id":76561198137827441,"connected_time":299000000000,"state":"active","ping":63},{"user_id":802,"name":"Tryrn","steam_id":76561198075487436,"connected_time":2000000000,"state":"spawning","ping":92},{"user_id":784,"name":"ScarredPixel123","steam_id":76561199165112703,"connected_time":1439000000000,"state":"active","ping":76},{"user_id":729,"name":"Seb, Comrade","steam_id":76561198040279587,"connected_time":5789000000000,"state":"active","ping":100},{"user_id":736,"name":"Floyd","steam_id":76561198125333672,"connected_time":5583000000000,"state":"active","ping":102}]},{"server_id":23,"name":"Uncletopia | Frankfurt | 7 | Stopwatch Beta","name_short":"frk-7","host":"frk-1.de.uncletopia.com","port":27075,"enabled":true,"region":"eu","cc":"de","latitude":50.110924,"longitude":8.682127,"reserved":0,"last_update":"0001-01-01T00:00:00Z","name_a2s":"Uncletopia | Frankfurt | 7 | Stopwatch Beta","protocol":17,"map":"cp_sunshine","folder":"tf","game":"Team Fortress","app_id":440,"player_count":0,"max_players":24,"Bots":0,"server_type":"Dedicated","server_os":"Linux","password":true,"vac":true,"version":"7757534","steam_id":85568392924742827,"keywords":["cp","nocrits","nodmgspread","uncletopia"],"game_id":440,"stv_port":27076,"stv_name":"Uncletopia | Frankfurt | 7 | Stopwatch Beta | STV","players":null},{"server_id":24,"name":"Uncletopia | Frankfurt | 8 | Community","name_short":"frk-8","host":"frk-1.de.uncletopia.com","port":27085,"enabled":true,"region":"eu","cc":"de","latitude":50.110924,"longitude":8.682127,"reserved":0,"last_update":"0001-01-01T00:00:00Z","name_a2s":"Uncletopia | Frankfurt | 8 | Community","protocol":17,"map":"workshop/koth_ashville_final.ugc2130459942","folder":"tf","game":"Team Fortress","app_id":440,"player_count":0,"max_players":24,"Bots":0,"server_type":"Dedicated","server_os":"Linux","password":true,"vac":true,"version":"7757534","steam_id":85568392924742828,"keywords":["cp","nocrits","nodmgspread","uncletopia"],"game_id":440,"stv_port":27086,"stv_name":"Uncletopia | Frankfurt | 8 | Community | STV","players":null},{"server_id":202,"name":"Uncletopia | Hong Kong | 1 | All Maps","name_short":"hgk-1","host":"hgk-1.hk.uncletopia.com","port":27015,"enabled":true,"region":"asia","cc":"hk","latitude":22.302711,"longitude":114.177216,"reserved":0,"last_update":"0001-01-01T00:00:00Z","name_a2s":"Uncletopia | Hong Kong | 1 | All Maps","protocol":17,"map":"cp_dustbowl","folder":"tf","game":"Team Fortress","app_id":440,"player_count":0,"max_players":24,"Bots":0,"server_type":"Dedicated","server_os":"Linux","password":true,"vac":true,"version":"7757534","steam_id":85568392924494504,"keywords":["cp","nocrits","nodmgspread","uncletopia"],"game_id":440,"stv_port":27016,"stv_name":"Uncletopia | Hong Kong | 1 | All Maps | STV","players":null},{"server_id":1,"name":"Uncletopia | Los Angeles | 1 | All Maps","name_short":"lax-1","host":"lax-1.us.uncletopia.com","port":27015,"enabled":true,"region":"us-west","cc":"us","latitude":33.94279,"longitude":-118.41004,"reserved":0,"last_update":"0001-01-01T00:00:00Z","name_a2s":"Uncletopia | Los Angeles | 1 | All Maps","protocol":17,"map":"pl_upward","folder":"tf","game":"Team Fortress","app_id":440,"player_count":24,"max_players":24,"Bots":0,"server_type":"Dedicated","server_os":"Linux","password":true,"vac":true,"version":"7757534","steam_id":85568392924469991,"keywords":["nocrits","nodmgspread","payload","uncletopia"],"game_id":440,"stv_port":27016,"stv_name":"Uncletopia | Los Angeles | 1 | All Maps | STV","players":[{"user_id":109,"name":"ORANGE","steam_id":76561198000401769,"connected_time":1863000000000,"state":"active","ping":75},{"user_id":111,"name":"DaBeatGoOff?","steam_id":76561198106507400,"connected_time":1703000000000,"state":"active","ping":49},{"user_id":110,"name":"Baldcoin","steam_id":76561198079193722,"connected_time":1768000000000,"state":"active","ping":44},{"user_id":127,"name":"the doo doo man","steam_id":76561198057076267,"connected_time":404000000000,"state":"active","ping":106},{"user_id":117,"name":"gamer_hater","steam_id":76561198973306314,"connected_time":1354000000000,"state":"active","ping":48},{"user_id":128,"name":"Minerkid2004","steam_id":76561198044262827,"connected_time":346000000000,"state":"active","ping":54},{"user_id":63,"name":"Anthid","steam_id":76561198074493797,"connected_time":5769000000000,"state":"active","ping":75},{"user_id":68,"name":"CaptainPikachu","steam_id":76561198075667401,"connected_time":5527000000000,"state":"active","ping":89},{"user_id":135,"name":"Quon Grene for Vice Prez","steam_id":76561198127545817,"connected_time":25000000000,"state":"active","ping":72},{"user_id":114,"name":"nexus","steam_id":76561198795914625,"connected_time":1543000000000,"state":"active","ping":98},{"user_id":130,"name":"Skip","steam_id":76561199014240063,"connected_time":236000000000,"state":"active","ping":105},{"user_id":123,"name":"Nibotshooter","steam_id":76561199284825579,"connected_time":1085000000000,"state":"active","ping":76},{"user_id":100,"name":"Gooner Witch","steam_id":76561198305488625,"connected_time":3163000000000,"state":"active","ping":89},{"user_id":98,"name":"CJDGuy","steam_id":76561198213009545,"connected_time":3284000000000,"state":"active","ping":116},{"user_id":134,"name":"Mythical Lag","steam_id":76561198347031281,"connected_time":61000000000,"state":"active","ping":76},{"user_id":31,"name":"üÖúüÖîüÖîüÖöüÖ¢üÖ£üÖî\ufffd\ufffd\ufffd","steam_id":76561197999748343,"connected_time":7832000000000,"state":"active","ping":64},{"user_id":90,"name":"AlyOop","steam_id":76561198990950767,"connected_time":4065000000000,"state":"active","ping":105},{"user_id":23,"name":"Blitzy","steam_id":76561198149472890,"connected_time":8445000000000,"state":"active","ping":90},{"user_id":66,"name":"flo rida","steam_id":76561198226169704,"connected_time":5581000000000,"state":"active","ping":54},{"user_id":101,"name":"Unban Level Eater (She/They)","steam_id":76561198823616667,"connected_time":3154000000000,"state":"active","ping":86},{"user_id":125,"name":"Wackydavo","steam_id":76561197990094209,"connected_time":858000000000,"state":"active","ping":113},{"user_id":108,"name":"Juanelo","steam_id":76561199096390505,"connected_time":2208000000000,"state":"active","ping":83},{"user_id":136,"name":"dP | I'm in a Wookie Suit","steam_id":76561198083307644,"connected_time":22000000000,"state":"active","ping":78},{"user_id":137,"name":"Shamrock Shake Oct.10.2020 @8pm","steam_id":76561198833313201,"connected_time":19000000000,"state":"active","ping":53}]},{"server_id":112,"name":"Uncletopia | Los Angeles | 2 | All Maps","name_short":"lax-2","host":"lax-1.us.uncletopia.com","port":27025,"enabled":true,"region":"us-west","cc":"us","latitude":33.94279,"longitude":-118.41004,"reserved":0,"last_update":"0001-01-01T00:00:00Z","name_a2s":"Uncletopia | Los Angeles | 2 | All Maps","protocol":17,"map":"koth_cascade","folder":"tf","game":"Team Fortress","app_id":440,"player_count":0,"max_players":24,"Bots":0,"server_type":"Dedicated","server_os":"Linux","password":true,"vac":true,"version":"7757534","steam_id":85568392924469992,"keywords":["cp","nocrits","nodmgspread","uncletopia"],"game_id":440,"stv_port":27026,"stv_name":"Uncletopia | Los Angeles | 2 | All Maps | STV","players":null},{"server_id":324,"name":"Uncletopia | Los Angeles | 3 | All Maps","name_short":"lax-3","host":"lax-1.us.uncletopia.com","port":27035,"enabled":true,"region":"us-west","cc":"us","latitude":33.94279,"longitude":-118.41004,"reserved":0,"last_update":"0001-01-01T00:00:00Z","name_a2s":"Uncletopia | Los Angeles | 3 | All Maps","protocol":17,"map":"pl_barnblitz","folder":"tf","game":"Team Fortress","app_id":440,"player_count":0,"max_players":24,"Bots":0,"server_type":"Dedicated","server_os":"Linux","password":true,"vac":true,"version":"7757534","steam_id":85568392924510198,"keywords":["nocrits","nodmgspread","payload","uncletopia"],"game_id":440,"stv_port":27036,"stv_name":"Uncletopia | Los Angeles | 3 | All Maps | STV","players":null},{"server_id":25,"name":"Uncletopia | Los Angeles | 4 | Stopwatch Beta","name_short":"lax-4","host":"lax-1.us.uncletopia.com","port":27045,"enabled":true,"region":"us-west","cc":"us","latitude":33.94279,"longitude":-118.41004,"reserved":0,"last_update":"0001-01-01T00:00:00Z","name_a2s":"Uncletopia | Los Angeles | 4 | Stopwatch Beta","protocol":17,"map":"pl_frontier_final","folder":"tf","game":"Team Fortress","app_id":440,"player_count":0,"max_players":24,"Bots":0,"server_type":"Dedicated","server_os":"Linux","password":true,"vac":true,"version":"7757534","steam_id":85568392924510199,"keywords":["nocrits","nodmgspread","payload","uncletopia"],"game_id":440,"stv_port":27046,"stv_name":"Uncletopia | Los Angeles | 4 | Stopwatch Beta | STV","players":null},{"server_id":11,"name":"Uncletopia | London | 1 | All Maps","name_short":"lon-1","host":"lon-1.uk.uncletopia.com","port":27015,"enabled":true,"region":"eu","cc":"gb","latitude":51.509865,"longitude":-0.118092,"reserved":0,"last_update":"0001-01-01T00:00:00Z","name_a2s":"Uncletopia | London | 1 | All Maps","protocol":17,"map":"pl_frontier_final","folder":"tf","game":"Team Fortress","app_id":440,"player_count":24,"max_players":24,"Bots":0,"server_type":"Dedicated","server_os":"Linux","password":true,"vac":true,"version":"7757534","steam_id":85568392924367362,"keywords":["nocrits","nodmgspread","payload","uncletopia"],"game_id":440,"stv_port":27016,"stv_name":"Uncletopia | London | 1 | All Maps | STV","players":[{"user_id":671,"name":"she will be ballin'","steam_id":76561198334042273,"connected_time":1227000000000,"state":"active","ping":83},{"user_id":651,"name":"Baron","steam_id":76561198021901783,"connected_time":2953000000000,"state":"active","ping":57},{"user_id":673,"name":"Benzo Fury","steam_id":76561198025259336,"connected_time":609000000000,"state":"active","ping":40},{"user_id":647,"name":"Meki","steam_id":76561198108279631,"connected_time":3074000000000,"state":"active","ping":84},{"user_id":660,"name":"SuperBob103","steam_id":76561199175360012,"connected_time":2438000000000,"state":"active","ping":46},{"user_id":598,"name":"Night Fury","steam_id":76561197995207032,"connected_time":3992000000000,"state":"active","ping":76},{"user_id":259,"name":"Joseph Stalin","steam_id":76561198033199746,"connected_time":8141000000000,"state":"active","ping":50},{"user_id":653,"name":"Teecho","steam_id":76561197995269610,"connected_time":2814000000000,"state":"active","ping":56},{"user_id":670,"name":"homeinvasion$","steam_id":76561199111905021,"connected_time":1254000000000,"state":"active","ping":114},{"user_id":668,"name":"Laru","steam_id":76561197998838438,"connected_time":1425000000000,"state":"active","ping":76},{"user_id":652,"name":"Kwizine","steam_id":76561198147999400,"connected_time":2852000000000,"state":"active","ping":58},{"user_id":661,"name":"hananamanna","steam_id":76561198006570285,"connected_time":2423000000000,"state":"active","ping":115},{"user_id":666,"name":"jim","steam_id":76561198172003783,"connected_time":1866000000000,"state":"active","ping":83},{"user_id":662,"name":"triangle","steam_id":76561198046838168,"connected_time":2421000000000,"state":"active","ping":59},{"user_id":675,"name":"Morpheus","steam_id":76561198208349835,"connected_time":595000000000,"state":"active","ping":68},{"user_id":678,"name":"Soloman","steam_id":76561199212054667,"connected_time":547000000000,"state":"active","ping":49},{"user_id":674,"name":"Frazzle","steam_id":76561198262577951,"connected_time":607000000000,"state":"active","ping":66},{"user_id":679,"name":"Aeglos","steam_id":76561198248698294,"connected_time":377000000000,"state":"active","ping":49},{"user_id":667,"name":"Jon (alt)","steam_id":76561199380849468,"connected_time":1841000000000,"state":"active","ping":61},{"user_id":546,"name":"dec","steam_id":76561198009660168,"connected_time":4634000000000,"state":"active","ping":51},{"user_id":669,"name":"tonedude","steam_id":76561198280837376,"connected_time":1394000000000,"state":"active","ping":44},{"user_id":633,"name":"NightyKnight","steam_id":76561198146549416,"connected_time":3417000000000,"state":"active","ping":56},{"user_id":677,"name":"poy","steam_id":76561198114063534,"connected_time":566000000000,"state":"active","ping":45},{"user_id":664,"name":"Tomau5","steam_id":76561198027409468,"connected_time":2239000000000,"state":"active","ping":52}]},{"server_id":114,"name":"Uncletopia | London | 2 | All Maps","name_short":"lon-2","host":"lon-1.uk.uncletopia.com","port":27025,"enabled":true,"region":"eu","cc":"gb","latitude":51.509865,"longitude":-0.118092,"reserved":0,"last_update":"0001-01-01T00:00:00Z","name_a2s":"Uncletopia | London | 2 | All Maps","protocol":17,"map":"koth_viaduct","folder":"tf","game":"Team Fortress","app_id":440,"player_count":0,"max_players":24,"Bots":0,"server_type":"Dedicated","server_os":"Linux","password":true,"vac":true,"version":"7757534","steam_id":85568392924470941,"keywords":["cp","nocrits","nodmgspread","uncletopia"],"game_id":440,"stv_port":27026,"stv_name":"Uncletopia | London | 2 | All Maps | STV","players":null},{"server_id":320,"name":"Uncletopia | London | 3 | All Maps","name_short":"lon-3","host":"lon-1.uk.uncletopia.com","port":27035,"enabled":true,"region":"eu","cc":"gb","latitude":51.509865,"longitude":-0.118092,"reserved":0,"last_update":"0001-01-01T00:00:00Z","name_a2s":"Uncletopia | London | 3 | All Maps","protocol":17,"map":"pl_barnblitz","folder":"tf","game":"Team Fortress","app_id":440,"player_count":24,"max_players":24,"Bots":0,"server_type":"Dedicated","server_os":"Linux","password":true,"vac":true,"version":"7757534","steam_id":85568392924510192,"keywords":["nocrits","nodmgspread","payload","uncletopia"],"game_id":440,"stv_port":27036,"stv_name":"Uncletopia | London | 3 | All Maps | STV","players":[{"user_id":523,"name":"majora's boostio","steam_id":76561198392628642,"connected_time":799000000000,"state":"active","ping":49},{"user_id":529,"name":"Forgetful","steam_id":76561198147445965,"connected_time":607000000000,"state":"active","ping":54},{"user_id":532,"name":"C0d3s","steam_id":76561198093907544,"connected_time":329000000000,"state":"active","ping":100},{"user_id":528,"name":"degu","steam_id":76561198180823942,"connected_time":621000000000,"state":"active","ping":63},{"user_id":527,"name":"jazzyapple","steam_id":76561198323392285,"connected_time":673000000000,"state":"active","ping":54},{"user_id":437,"name":"Anri Okita's Massive Milkers","steam_id":76561199186352720,"connected_time":6394000000000,"state":"active","ping":51},{"user_id":500,"name":"meriones","steam_id":76561198034234373,"connected_time":3228000000000,"state":"active","ping":44},{"user_id":530,"name":"Saken","steam_id":76561198049075295,"connected_time":390000000000,"state":"active","ping":61},{"user_id":519,"name":"Cocteau Twins - Heaven or Las V","steam_id":76561198119470669,"connected_time":1074000000000,"state":"active","ping":58},{"user_id":490,"name":"Lyell","steam_id":76561198350329389,"connected_time":4022000000000,"state":"active","ping":78},{"user_id":397,"name":"Fat Pigeon","steam_id":76561198817940142,"connected_time":9261000000000,"state":"active","ping":46},{"user_id":511,"name":"Uncle Owen","steam_id":76561198157999291,"connected_time":1832000000000,"state":"active","ping":91},{"user_id":509,"name":"Gorgeous George","steam_id":76561198144256544,"connected_time":2022000000000,"state":"active","ping":49},{"user_id":501,"name":"nutlube","steam_id":76561198128831131,"connected_time":3221000000000,"state":"active","ping":65},{"user_id":520,"name":"fuktperkusiv_","steam_id":76561199231232981,"connected_time":1057000000000,"state":"active","ping":59},{"user_id":512,"name":"Archer","steam_id":76561198132860299,"connected_time":1697000000000,"state":"active","ping":59},{"user_id":521,"name":"Puck :))","steam_id":76561198378295653,"connected_time":1048000000000,"state":"active","ping":72},{"user_id":525,"name":"phoque","steam_id":76561197962156536,"connected_time":759000000000,"state":"active","ping":41},{"user_id":526,"name":"Autumnsky","steam_id":76561198055161203,"connected_time":726000000000,"state":"active","ping":56},{"user_id":533,"name":"Red","steam_id":76561198081676772,"connected_time":220000000000,"state":"active","ping":49},{"user_id":505,"name":"Miss Bari","steam_id":76561198365286092,"connected_time":3117000000000,"state":"active","ping":38},{"user_id":469,"name":"Economic crisis","steam_id":76561198063562843,"connected_time":5330000000000,"state":"active","ping":63},{"user_id":531,"name":"lark","steam_id":76561198091724522,"connected_time":387000000000,"state":"active","ping":56},{"user_id":506,"name":"Relix18144","steam_id":76561199202454318,"connected_time":2983000000000,"state":"active","ping":89}]},{"server_id":321,"name":"Uncletopia | London | 4 | All Maps","name_short":"lon-4","host":"lon-1.uk.uncletopia.com","port":27045,"enabled":true,"region":"eu","cc":"gb","latitude":51.509865,"longitude":-0.118092,"reserved":0,"last_update":"0001-01-01T00:00:00Z","name_a2s":"Uncletopia | London | 4 | All Maps","protocol":17,"map":"koth_viaduct","folder":"tf","game":"Team Fortress","app_id":440,"player_count":0,"max_players":24,"Bots":0,"server_type":"Dedicated","server_os":"Linux","password":true,"vac":true,"version":"7757534","steam_id":85568392924510193,"keywords":["cp","nocrits","nodmgspread","uncletopia"],"game_id":440,"stv_port":27046,"stv_name":"Uncletopia | London | 4 | All Maps | STV","players":null},{"server_id":21,"name":"Uncletopia | London | 5 | All Maps","name_short":"lon-5","host":"lon-1.uk.uncletopia.com","port":27055,"enabled":true,"region":"eu","cc":"gb","latitude":51.509865,"longitude":-0.118092,"reserved":0,"last_update":"0001-01-01T00:00:00Z","name_a2s":"Uncletopia | London | 5 | All Maps","protocol":17,"map":"pl_badwater","folder":"tf","game":"Team Fortress","app_id":440,"player_count":24,"max_players":24,"Bots":0,"server_type":"Dedicated","server_os":"Linux","password":true,"vac":true,"version":"7757534","steam_id":85568392924742829,"keywords":["nocrits","nodmgspread","payload","uncletopia"],"game_id":440,"stv_port":27056,"stv_name":"Uncletopia | London | 5 | All Maps | STV","players":[{"user_id":173,"name":"armadillo","steam_id":76561198324656652,"connected_time":2821000000000,"state":"active","ping":46},{"user_id":198,"name":"Rubi","steam_id":76561198139410003,"connected_time":1379000000000,"state":"active","ping":75},{"user_id":192,"name":"Dag!","steam_id":76561198030147941,"connected_time":2158000000000,"state":"active","ping":71},{"user_id":157,"name":"Pablo","steam_id":76561198160394046,"connected_time":3449000000000,"state":"active","ping":113},{"user_id":175,"name":"Xeronuclear","steam_id":76561198167712775,"connected_time":2780000000000,"state":"active","ping":71},{"user_id":212,"name":"Jamon","steam_id":76561198393024383,"connected_time":1167000000000,"state":"active","ping":34},{"user_id":113,"name":"doopsuiker","steam_id":76561198025916703,"connected_time":7550000000000,"state":"active","ping":68},{"user_id":220,"name":"Skagzilla| trade.tf","steam_id":76561198260114743,"connected_time":489000000000,"state":"active","ping":52},{"user_id":197,"name":"risco1bolota","steam_id":76561198323074603,"connected_time":1497000000000,"state":"active","ping":82},{"user_id":160,"name":"waffle toaster","steam_id":76561198799089628,"connected_time":3332000000000,"state":"active","ping":44},{"user_id":201,"name":"Archos","steam_id":76561198181820631,"connected_time":1361000000000,"state":"active","ping":50},{"user_id":177,"name":"UndercoverFurbyHunter","steam_id":76561198265722644,"connected_time":2775000000000,"state":"active","ping":100},{"user_id":193,"name":"whatever","steam_id":76561198095943461,"connected_time":2142000000000,"state":"active","ping":68},{"user_id":214,"name":"Mad_Scientist","steam_id":76561198121431854,"connected_time":985000000000,"state":"active","ping":60},{"user_id":207,"name":"SilverSV","steam_id":76561198164579830,"connected_time":1275000000000,"state":"active","ping":53},{"user_id":219,"name":"beheading video from 2009","steam_id":76561198834897089,"connected_time":594000000000,"state":"active","ping":79},{"user_id":171,"name":"torn","steam_id":76561198223003236,"connected_time":3109000000000,"state":"active","ping":50},{"user_id":203,"name":"BIGGERDANGO","steam_id":76561198247876394,"connected_time":1351000000000,"state":"active","ping":49},{"user_id":213,"name":"Grillem Dafoe","steam_id":76561198306874574,"connected_time":1102000000000,"state":"active","ping":59},{"user_id":215,"name":"that fat croc from donkey kong","steam_id":76561198159172495,"connected_time":883000000000,"state":"active","ping":75},{"user_id":221,"name":"Limb","steam_id":76561198064852619,"connected_time":443000000000,"state":"active","ping":59},{"user_id":209,"name":"Valoxi","steam_id":76561197995042938,"connected_time":1233000000000,"state":"active","ping":70},{"user_id":222,"name":"Nathan","steam_id":76561198040069336,"connected_time":259000000000,"state":"active","ping":77},{"user_id":211,"name":"less than tryhard more than bot","steam_id":76561198051852765,"connected_time":1224000000000,"state":"active","ping":73}]},{"server_id":22,"name":"Uncletopia | London | 6 | All Maps","name_short":"lon-6","host":"lon-1.uk.uncletopia.com","port":27065,"enabled":true,"region":"eu","cc":"gb","latitude":51.509865,"longitude":-0.118092,"reserved":0,"last_update":"0001-01-01T00:00:00Z","name_a2s":"Uncletopia | London | 6 | All Maps","protocol":17,"map":"koth_cascade","folder":"tf","game":"Team Fortress","app_id":440,"player_count":0,"max_players":24,"Bots":0,"server_type":"Dedicated","server_os":"Linux","password":true,"vac":true,"version":"7757534","steam_id":85568392924742830,"keywords":["cp","nocrits","nodmgspread","uncletopia"],"game_id":440,"stv_port":27066,"stv_name":"Uncletopia | London | 6 | All Maps | STV","players":null},{"server_id":40,"name":"Uncletopia | London | 7 | No Payload","name_short":"lon-7","host":"lon-1.uk.uncletopia.com","port":27075,"enabled":true,"region":"eu","cc":"gb","latitude":51.509865,"longitude":-0.118092,"reserved":0,"last_update":"0001-01-01T00:00:00Z","name_a2s":"Uncletopia | London | 7 | No Payload","protocol":17,"map":"cp_mercenarypark","folder":"tf","game":"Team Fortress","app_id":440,"player_count":2,"max_players":24,"Bots":0,"server_type":"Dedicated","server_os":"Linux","password":true,"vac":true,"version":"7757534","steam_id":85568392924964314,"keywords":["cp","nocrits","nodmgspread","uncletopia"],"game_id":440,"stv_port":27076,"stv_name":"Uncletopia | London | 7 | No Payload | STV","players":[{"user_id":199,"name":"Bast The Cat","steam_id":76561198370217342,"connected_time":4208000000000,"state":"active","ping":46},{"user_id":198,"name":"for_the_cat","steam_id":76561199258813149,"connected_time":4508000000000,"state":"active","ping":146}]},{"server_id":41,"name":"Uncletopia | London | 8 | Community","name_short":"lon-8","host":"lon-1.uk.uncletopia.com","port":27085,"enabled":true,"region":"eu","cc":"gb","latitude":51.509865,"longitude":-0.118092,"reserved":0,"last_update":"0001-01-01T00:00:00Z","name_a2s":"Uncletopia | London | 8 | Community","protocol":17,"map":"workshop/cp_sulfur_rc2.ugc619869471","folder":"tf","game":"Team Fortress","app_id":440,"player_count":0,"max_players":24,"Bots":0,"server_type":"Dedicated","server_os":"Linux","password":true,"vac":true,"version":"7757534","steam_id":85568392924964315,"keywords":["cp","nocrits","nodmgspread","uncletopia"],"game_id":440,"stv_port":27086,"stv_name":"Uncletopia | London | 8 | Community | STV","players":null},{"server_id":300,"name":"Uncletopia | Montr√©al | 1 | All Maps","name_short":"mtl-1","host":"mtl-1.ca.uncletopia.com","port":27015,"enabled":true,"region":"us-east","cc":"ca","latitude":45.50889,"longitude":-73.56167,"reserved":0,"last_update":"0001-01-01T00:00:00Z","name_a2s":"Uncletopia | Montr√©al | 1 | All Maps","protocol":17,"map":"pl_snowycoast","folder":"tf","game":"Team Fortress","app_id":440,"player_count":0,"max_players":24,"Bots":0,"server_type":"Dedicated","server_os":"Linux","password":true,"vac":true,"version":"7757534","steam_id":85568392924500087,"keywords":["nocrits","nodmgspread","payload","uncletopia"],"game_id":440,"stv_port":27016,"stv_name":"Uncletopia | Montr√©al | 1 | All Maps | STV","players":null},{"server_id":301,"name":"Uncletopia | Montr√©al | 2 | All Maps","name_short":"mtl-2","host":"mtl-1.ca.uncletopia.com","port":27025,"enabled":true,"region":"us-east","cc":"ca","latitude":45.50889,"longitude":-73.56167,"reserved":0,"last_update":"0001-01-01T00:00:00Z","name_a2s":"Uncletopia | Montr√©al | 2 | All Maps","protocol":17,"map":"pl_snowycoast","folder":"tf","game":"Team Fortress","app_id":440,"player_count":0,"max_players":24,"Bots":0,"server_type":"Dedicated","server_os":"Linux","password":true,"vac":true,"version":"7757534","steam_id":85568392924500088,"keywords":["nocrits","nodmgspread","payload","uncletopia"],"game_id":440,"stv_port":27026,"stv_name":"Uncletopia | Montr√©al | 2 | All Maps | STV","players":null},{"server_id":302,"name":"Uncletopia | Montr√©al | 3 | All Maps","name_short":"mtl-3","host":"mtl-1.ca.uncletopia.com","port":27035,"enabled":true,"region":"us-east","cc":"ca","latitude":45.50889,"longitude":-73.56167,"reserved":0,"last_update":"0001-01-01T00:00:00Z","name_a2s":"Uncletopia | Montr√©al | 3 | All Maps","protocol":17,"map":"pl_swiftwater_final1","folder":"tf","game":"Team Fortress","app_id":440,"player_count":0,"max_players":24,"Bots":0,"server_type":"Dedicated","server_os":"Linux","password":true,"vac":true,"version":"7757534","steam_id":85568392924500089,"keywords":["nocrits","nodmgspread","payload","uncletopia"],"game_id":440,"stv_port":27036,"stv_name":"Uncletopia | Montr√©al | 3 | All Maps | STV","players":null},{"server_id":303,"name":"Uncletopia | Montr√©al | 4 | No Payload","name_short":"mtl-4","host":"mtl-1.ca.uncletopia.com","port":27045,"enabled":true,"region":"us-east","cc":"ca","latitude":45.50889,"longitude":-73.56167,"reserved":0,"last_update":"0001-01-01T00:00:00Z","name_a2s":"Uncletopia | Montr√©al | 4 | No Payload","protocol":17,"map":"cp_gullywash_final1","folder":"tf","game":"Team Fortress","app_id":440,"player_count":0,"max_players":24,"Bots":0,"server_type":"Dedicated","server_os":"Linux","password":true,"vac":true,"version":"7757534","steam_id":85568392924500090,"keywords":["cp","nocrits","nodmgspread","uncletopia"],"game_id":440,"stv_port":27046,"stv_name":"Uncletopia | Montr√©al | 4 | No Payload | STV","players":null},{"server_id":13,"name":"Uncletopia | New York City | 1 | All Maps","name_short":"nyc-1","host":"nyc-1.us.uncletopia.com","port":27015,"enabled":true,"region":"us-east","cc":"us","latitude":40.73061,"longitude":-73.93524,"reserved":0,"last_update":"0001-01-01T00:00:00Z","name_a2s":"Uncletopia | New York City | 1 | All Maps","protocol":17,"map":"koth_lakeside_final","folder":"tf","game":"Team Fortress","app_id":440,"player_count":0,"max_players":24,"Bots":0,"server_type":"Dedicated","server_os":"Linux","password":true,"vac":true,"version":"7757534","steam_id":85568392924469993,"keywords":["cp","nocrits","nodmgspread","uncletopia"],"game_id":440,"stv_port":27016,"stv_name":"Uncletopia | New York City | 1 | All Maps | STV","players":null},{"server_id":14,"name":"Uncletopia | New York City | 2 | All Maps","name_short":"nyc-2","host":"nyc-1.us.uncletopia.com","port":27025,"enabled":true,"region":"us-east","cc":"us","latitude":40.73061,"longitude":-73.93524,"reserved":0,"last_update":"0001-01-01T00:00:00Z","name_a2s":"Uncletopia | New York City | 2 | All Maps","protocol":17,"map":"cp_sunshine","folder":"tf","game":"Team Fortress","app_id":440,"player_count":19,"max_players":24,"Bots":0,"server_type":"Dedicated","server_os":"Linux","password":true,"vac":true,"version":"7757534","steam_id":85568392924469994,"keywords":["cp","nocrits","nodmgspread","uncletopia"],"game_id":440,"stv_port":27026,"stv_name":"Uncletopia | New York City | 2 | All Maps | STV","players":[{"user_id":87,"name":"transgender is like ferrari","steam_id":76561199023017383,"connected_time":1000000000,"state":"spawning","ping":34},{"user_id":81,"name":"Normalux","steam_id":76561198293891426,"connected_time":189000000000,"state":"active","ping":78},{"user_id":86,"name":"what","steam_id":76561198082336619,"connected_time":41000000000,"state":"active","ping":57},{"user_id":22,"name":"rip muhammad ali","steam_id":76561198072640720,"connected_time":3492000000000,"state":"active","ping":46},{"user_id":69,"name":"13 INCH TGIRL SCHLONG","steam_id":76561198122059018,"connected_time":571000000000,"state":"active","ping":73},{"user_id":76,"name":"6Dnine","steam_id":76561198955884070,"connected_time":315000000000,"state":"active","ping":118},{"user_id":64,"name":"casanovacris06","steam_id":76561199229178245,"connected_time":761000000000,"state":"active","ping":154},{"user_id":59,"name":"Draco6257","steam_id":76561199147322448,"connected_time":956000000000,"state":"active","ping":28},{"user_id":57,"name":"new to tf2","steam_id":76561198362318243,"connected_time":1176000000000,"state":"active","ping":95},{"user_id":72,"name":"PinkLemonade","steam_id":76561198799286228,"connected_time":464000000000,"state":"active","ping":52},{"user_id":77,"name":"Carbonated McDonalds Sweet Tea","steam_id":76561198169500112,"connected_time":267000000000,"state":"active","ping":70},{"user_id":83,"name":"Gary Budussy","steam_id":76561197969793969,"connected_time":151000000000,"state":"active","ping":83},{"user_id":79,"name":"yeyoi","steam_id":76561198069821885,"connected_time":216000000000,"state":"active","ping":54},{"user_id":82,"name":"Yesterday's Grouse's Son","steam_id":76561198259873083,"connected_time":188000000000,"state":"active","ping":132},{"user_id":84,"name":"evegioyidechadab","steam_id":76561198075991626,"connected_time":94000000000,"state":"active","ping":161},{"user_id":85,"name":"Chemo","steam_id":76561197961308370,"connected_time":64000000000,"state":"active","ping":57},{"user_id":62,"name":"Nic0","steam_id":76561198305690218,"connected_time":857000000000,"state":"active","ping":54},{"user_id":66,"name":"dirty dank","steam_id":76561198360904432,"connected_time":712000000000,"state":"active","ping":53},{"user_id":75,"name":"Seinfeld's Chosen","steam_id":76561198067556825,"connected_time":345000000000,"state":"active","ping":88}]},{"server_id":15,"name":"Uncletopia | New York City | 3 | Stopwatch Beta","name_short":"nyc-3","host":"nyc-1.us.uncletopia.com","port":27035,"enabled":true,"region":"us-east","cc":"us","latitude":40.73061,"longitude":-73.93524,"reserved":0,"last_update":"0001-01-01T00:00:00Z","name_a2s":"Uncletopia | New York City | 3 | Stopwatch Beta","protocol":17,"map":"pl_borneo","folder":"tf","game":"Team Fortress","app_id":440,"player_count":0,"max_players":24,"Bots":0,"server_type":"Dedicated","server_os":"Linux","password":true,"vac":true,"version":"7757534","steam_id":85568392924742820,"keywords":["nocrits","nodmgspread","payload","uncletopia"],"game_id":440,"stv_port":27036,"stv_name":"Uncletopia | New York City | 3 | Stopwatch Beta | STV","players":null},{"server_id":16,"name":"Uncletopia | New York City | 4 | Community","name_short":"nyc-4","host":"nyc-1.us.uncletopia.com","port":27045,"enabled":true,"region":"us-east","cc":"us","latitude":40.73061,"longitude":-73.93524,"reserved":0,"last_update":"0001-01-01T00:00:00Z","name_a2s":"Uncletopia | New York City | 4 | Community","protocol":17,"map":"workshop/koth_kemptown_rc1.ugc767410655","folder":"tf","game":"Team Fortress","app_id":440,"player_count":0,"max_players":24,"Bots":0,"server_type":"Dedicated","server_os":"Linux","password":true,"vac":true,"version":"7757534","steam_id":85568392924742821,"keywords":["cp","nocrits","nodmgspread","uncletopia"],"game_id":440,"stv_port":27046,"stv_name":"Uncletopia | New York City | 4 | Community | STV","players":null},{"server_id":142,"name":"Uncletopia | S√£o Paulo | 1 | All Maps","name_short":"sao-1","host":"sao-1.br.uncletopia.com","port":27015,"enabled":true,"region":"sa","cc":"br","latitude":-23.533773,"longitude":-46.62529,"reserved":0,"last_update":"0001-01-01T00:00:00Z","name_a2s":"Uncletopia | S√£o Paulo | 1 | All Maps","protocol":17,"map":"cp_snakewater_final1","folder":"tf","game":"Team Fortress","app_id":440,"player_count":0,"max_players":24,"Bots":0,"server_type":"Dedicated","server_os":"Linux","password":true,"vac":true,"version":"7757534","steam_id":85568392924469996,"keywords":["cp","nocrits","nodmgspread","uncletopia"],"game_id":440,"stv_port":27016,"stv_name":"Uncletopia | S√£o Paulo | 1 | All Maps | STV","players":null},{"server_id":143,"name":"Uncletopia | S√£o Paulo | 2 | All Maps","name_short":"sao-2","host":"sao-2.br.uncletopia.com","port":27015,"enabled":true,"region":"sa","cc":"br","latitude":-23.533773,"longitude":-46.62529,"reserved":0,"last_update":"0001-01-01T00:00:00Z","name_a2s":"Uncletopia | S√£o Paulo | 2 | All Maps","protocol":17,"map":"pl_frontier_final","folder":"tf","game":"Team Fortress","app_id":440,"player_count":9,"max_players":24,"Bots":0,"server_type":"Dedicated","server_os":"Linux","password":true,"vac":true,"version":"7757534","steam_id":85568392924485349,"keywords":["nocrits","nodmgspread","payload","uncletopia"],"game_id":440,"stv_port":27016,"stv_name":"Uncletopia | S√£o Paulo | 2 | All Maps | STV","players":[{"user_id":53,"name":"StarGold284","steam_id":76561198360354972,"connected_time":2299000000000,"state":"active","ping":50},{"user_id":48,"name":"-=X8X=- XZDX #BBSandman #TF3","steam_id":76561198032141246,"connected_time":3025000000000,"state":"active","ping":183},{"user_id":54,"name":"KamiJoJo","steam_id":76561198085284013,"connected_time":2254000000000,"state":"active","ping":60},{"user_id":72,"name":"LT-25","steam_id":76561198140598278,"connected_time":68000000000,"state":"spawning","ping":63},{"user_id":49,"name":"Anders575","steam_id":76561198220386384,"connected_time":3003000000000,"state":"active","ping":44},{"user_id":66,"name":"chichobar123","steam_id":76561199068669066,"connected_time":364000000000,"state":"active","ping":93},{"user_id":67,"name":"in-game","steam_id":76561198309404084,"connected_time":362000000000,"state":"active","ping":50},{"user_id":68,"name":"Teorack","steam_id":76561198019054735,"connected_time":312000000000,"state":"active","ping":91},{"user_id":71,"name":"kate ‚ùÄ","steam_id":76561198805567120,"connected_time":173000000000,"state":"active","ping":44}]},{"server_id":7,"name":"Uncletopia | Seattle | 1 | All Maps","name_short":"sea-1","host":"sea-1.us.uncletopia.com","port":27015,"enabled":true,"region":"us-west","cc":"us","latitude":47.608013,"longitude":-122.33517,"reserved":0,"last_update":"0001-01-01T00:00:00Z","name_a2s":"Uncletopia | Seattle | 1 | All Maps","protocol":17,"map":"pl_upward","folder":"tf","game":"Team Fortress","app_id":440,"player_count":24,"max_players":24,"Bots":0,"server_type":"Dedicated","server_os":"Linux","password":true,"vac":true,"version":"7757534","steam_id":85568392924469997,"keywords":["nocrits","nodmgspread","payload","uncletopia"],"game_id":440,"stv_port":27016,"stv_name":"Uncletopia | Seattle | 1 | All Maps | STV","players":[{"user_id":414,"name":"Confirmed Bachelor","steam_id":76561198441041496,"connected_time":1206000000000,"state":"active","ping":52},{"user_id":415,"name":"Milkf porn","steam_id":76561198152601497,"connected_time":1194000000000,"state":"active","ping":84},{"user_id":406,"name":"mega","steam_id":76561198089520959,"connected_time":2170000000000,"state":"active","ping":98},{"user_id":422,"name":"fireaxle278","steam_id":76561198998614357,"connected_time":673000000000,"state":"active","ping":55},{"user_id":409,"name":"Cobalt-60","steam_id":76561199121908507,"connected_time":1829000000000,"state":"active","ping":119},{"user_id":393,"name":"EchoHunter","steam_id":76561199165491231,"connected_time":2975000000000,"state":"active","ping":99},{"user_id":421,"name":"„Ä£dust„Ä£ -she/her-","steam_id":76561198045218909,"connected_time":851000000000,"state":"active","ping":43},{"user_id":419,"name":"Truffles","steam_id":76561198095868800,"connected_time":1023000000000,"state":"active","ping":110},{"user_id":426,"name":"Nathang238","steam_id":76561199190787886,"connected_time":585000000000,"state":"active","ping":278},{"user_id":360,"name":"johnny karate","steam_id":76561198165847261,"connected_time":5200000000000,"state":"active","ping":45},{"user_id":376,"name":"Little Linguine","steam_id":76561198816986370,"connected_time":4518000000000,"state":"active","ping":56},{"user_id":420,"name":"Frostyfaucet","steam_id":76561198060524722,"connected_time":884000000000,"state":"active","ping":43},{"user_id":395,"name":"S1B0RG2","steam_id":76561198103951211,"connected_time":2937000000000,"state":"active","ping":100},{"user_id":423,"name":"giant_dork","steam_id":76561199105606956,"connected_time":635000000000,"state":"active","ping":118},{"user_id":410,"name":"Varrick","steam_id":76561198018461983,"connected_time":1582000000000,"state":"active","ping":81},{"user_id":427,"name":"Sweatpants","steam_id":76561198097188001,"connected_time":72000000000,"state":"active","ping":53},{"user_id":424,"name":"uberslak","steam_id":76561198064715241,"connected_time":632000000000,"state":"active","ping":151},{"user_id":397,"name":"Eris","steam_id":76561199471434875,"connected_time":2900000000000,"state":"active","ping":38},{"user_id":425,"name":"town.midi","steam_id":76561198059041027,"connected_time":632000000000,"state":"active","ping":57},{"user_id":402,"name":"Chief","steam_id":76561198155699202,"connected_time":2713000000000,"state":"active","ping":95},{"user_id":104,"name":"THE NUT","steam_id":76561198067813626,"connected_time":23306000000000,"state":"active","ping":49},{"user_id":386,"name":"Reposas","steam_id":76561198058803197,"connected_time":3485000000000,"state":"active","ping":102},{"user_id":418,"name":"Oldengie","steam_id":76561199074712665,"connected_time":1140000000000,"state":"active","ping":132},{"user_id":357,"name":"Hassium","steam_id":76561198162541373,"connected_time":5383000000000,"state":"active","ping":50}]},{"server_id":119,"name":"Uncletopia | Seattle | 2 | All Maps","name_short":"sea-2","host":"sea-1.us.uncletopia.com","port":27025,"enabled":true,"region":"us-west","cc":"us","latitude":47.608013,"longitude":-122.33517,"reserved":0,"last_update":"0001-01-01T00:00:00Z","name_a2s":"Uncletopia | Seattle | 2 | All Maps","protocol":17,"map":"pl_pier","folder":"tf","game":"Team Fortress","app_id":440,"player_count":24,"max_players":24,"Bots":0,"server_type":"Dedicated","server_os":"Linux","password":true,"vac":true,"version":"7757534","steam_id":85568392924469998,"keywords":["nocrits","nodmgspread","payload","uncletopia"],"game_id":440,"stv_port":27026,"stv_name":"Uncletopia | Seattle | 2 | All Maps | STV","players":[{"user_id":449,"name":"MammothCat","steam_id":76561198060987456,"connected_time":462000000000,"state":"active","ping":92},{"user_id":447,"name":"gromit","steam_id":76561198037746805,"connected_time":524000000000,"state":"active","ping":118},{"user_id":438,"name":"exephur","steam_id":76561198135763234,"connected_time":1097000000000,"state":"active","ping":75},{"user_id":443,"name":"i cannot speak in pubs","steam_id":76561199468766232,"connected_time":576000000000,"state":"active","ping":124},{"user_id":392,"name":"Hi, I'm Jesus","steam_id":76561198015327152,"connected_time":3972000000000,"state":"active","ping":131},{"user_id":440,"name":"Thanks Medic","steam_id":76561198384098648,"connected_time":852000000000,"state":"active","ping":120},{"user_id":452,"name":"HymnLee","steam_id":76561198218495305,"connected_time":195000000000,"state":"active","ping":101},{"user_id":429,"name":"Duck","steam_id":76561199236708672,"connected_time":2030000000000,"state":"active","ping":80},{"user_id":448,"name":"gritty 2024","steam_id":76561198165567310,"connected_time":515000000000,"state":"active","ping":132},{"user_id":441,"name":"Cloud","steam_id":76561198272454184,"connected_time":792000000000,"state":"active","ping":178},{"user_id":428,"name":"bopy","steam_id":76561198845789946,"connected_time":2062000000000,"state":"active","ping":148},{"user_id":436,"name":"Void","steam_id":76561198308290211,"connected_time":1136000000000,"state":"active","ping":98},{"user_id":421,"name":"Mac_Rat","steam_id":76561199227104228,"connected_time":2160000000000,"state":"active","ping":125},{"user_id":417,"name":"trackpad gaming | f2p","steam_id":76561198840414371,"connected_time":2366000000000,"state":"active","ping":49},{"user_id":418,"name":"Futa Lover","steam_id":76561198056775795,"connected_time":2296000000000,"state":"active","ping":127},{"user_id":442,"name":"CAR","steam_id":76561198091152798,"connected_time":718000000000,"state":"active","ping":59},{"user_id":445,"name":"goldhed","steam_id":76561198051751133,"connected_time":557000000000,"state":"active","ping":54},{"user_id":446,"name":"BIG RANDY SEXLORD","steam_id":76561198143546937,"connected_time":554000000000,"state":"active","ping":89},{"user_id":420,"name":"meatBALL sub lova 38 (meatball)","steam_id":76561198965781031,"connected_time":2209000000000,"state":"active","ping":128},{"user_id":407,"name":"rock gaming","steam_id":76561199402868311,"connected_time":3612000000000,"state":"active","ping":88},{"user_id":422,"name":"MEEPking","steam_id":76561198277668880,"connected_time":2151000000000,"state":"active","ping":80},{"user_id":432,"name":"TheGreatCatsby","steam_id":76561198358757709,"connected_time":1974000000000,"state":"active","ping":145},{"user_id":424,"name":"oil","steam_id":76561198099980149,"connected_time":2142000000000,"state":"active","ping":82},{"user_id":444,"name":"Lo-Pan","steam_id":76561198085670133,"connected_time":569000000000,"state":"active","ping":114}]},{"server_id":406,"name":"Uncletopia | Seattle | 3 | Stopwatch Beta","name_short":"sea-3","host":"sea-1.us.uncletopia.com","port":27035,"enabled":true,"region":"us-west","cc":"us","latitude":47.608013,"longitude":-122.33517,"reserved":0,"last_update":"0001-01-01T00:00:00Z","name_a2s":"Uncletopia | Seattle | 3 | Stopwatch Beta","protocol":17,"map":"pl_barnblitz","folder":"tf","game":"Team Fortress","app_id":440,"player_count":0,"max_players":24,"Bots":0,"server_type":"Dedicated","server_os":"Linux","password":true,"vac":true,"version":"7757534","steam_id":85568392924515217,"keywords":["nocrits","nodmgspread","payload","uncletopia"],"game_id":440,"stv_port":27036,"stv_name":"Uncletopia | Seattle | 3 | Stopwatch Beta | STV","players":null},{"server_id":17,"name":"Uncletopia | San Francisco | 1 | All Maps","name_short":"sfo-1","host":"sfo-1.us.uncletopia.com","port":27015,"enabled":true,"region":"us-west","cc":"us","latitude":37.77397,"longitude":-122.4313,"reserved":0,"last_update":"0001-01-01T00:00:00Z","name_a2s":"Uncletopia | San Francisco | 1 | All Maps","protocol":17,"map":"cp_sunshine","folder":"tf","game":"Team Fortress","app_id":440,"player_count":0,"max_players":24,"Bots":0,"server_type":"Dedicated","server_os":"Linux","password":true,"vac":true,"version":"7757534","steam_id":85568392924469999,"keywords":["cp","nocrits","nodmgspread","uncletopia"],"game_id":440,"stv_port":27016,"stv_name":"Uncletopia | San Francisco | 1 | All Maps | STV","players":null},{"server_id":18,"name":"Uncletopia | San Francisco | 2 | All Maps","name_short":"sfo-2","host":"sfo-1.us.uncletopia.com","port":27025,"enabled":true,"region":"us-west","cc":"us","latitude":37.77397,"longitude":-122.4313,"reserved":0,"last_update":"0001-01-01T00:00:00Z","name_a2s":"Uncletopia | San Francisco | 2 | All Maps","protocol":17,"map":"koth_lakeside_final","folder":"tf","game":"Team Fortress","app_id":440,"player_count":0,"max_players":24,"Bots":0,"server_type":"Dedicated","server_os":"Linux","password":true,"vac":true,"version":"7757534","steam_id":85568392924470000,"keywords":["cp","nocrits","nodmgspread","uncletopia"],"game_id":440,"stv_port":27026,"stv_name":"Uncletopia | San Francisco | 2 | All Maps | STV","players":null},{"server_id":19,"name":"Uncletopia | San Francisco | 3 | Stopwatch Beta","name_short":"sfo-3","host":"sfo-1.us.uncletopia.com","port":27035,"enabled":true,"region":"us-west","cc":"us","latitude":37.77397,"longitude":-122.4313,"reserved":0,"last_update":"0001-01-01T00:00:00Z","name_a2s":"Uncletopia | San Francisco | 3 | Stopwatch Beta","protocol":17,"map":"pl_borneo","folder":"tf","game":"Team Fortress","app_id":440,"player_count":0,"max_players":24,"Bots":0,"server_type":"Dedicated","server_os":"Linux","password":true,"vac":true,"version":"7757534","steam_id":85568392924742824,"keywords":["nocrits","nodmgspread","payload","uncletopia"],"game_id":440,"stv_port":27036,"stv_name":"Uncletopia | San Francisco | 3 | Stopwatch Beta | STV","players":null},{"server_id":20,"name":"Uncletopia | San Francisco | 4 | Community","name_short":"sfo-4","host":"sfo-1.us.uncletopia.com","port":27045,"enabled":true,"region":"us-west","cc":"us","latitude":37.77397,"longitude":-122.4313,"reserved":0,"last_update":"0001-01-01T00:00:00Z","name_a2s":"Uncletopia | San Francisco | 4 | Community","protocol":17,"map":"koth_highpass","folder":"tf","game":"Team Fortress","app_id":440,"player_count":0,"max_players":24,"Bots":0,"server_type":"Dedicated","server_os":"Linux","password":true,"vac":true,"version":"7757534","steam_id":85568392924742826,"keywords":["cp","nocrits","nodmgspread","uncletopia"],"game_id":440,"stv_port":27046,"stv_name":"Uncletopia | San Francisco | 4 | Community | STV","players":null},{"server_id":141,"name":"Uncletopia | Sydney | 1 | All Maps","name_short":"syd-1","host":"syd-1.au.uncletopia.com","port":27015,"enabled":true,"region":"au","cc":"au","latitude":-33.865143,"longitude":151.2099,"reserved":0,"last_update":"0001-01-01T00:00:00Z","name_a2s":"Uncletopia | Sydney | 1 | All Maps","protocol":17,"map":"koth_viaduct","folder":"tf","game":"Team Fortress","app_id":440,"player_count":0,"max_players":24,"Bots":0,"server_type":"Dedicated","server_os":"Linux","password":true,"vac":true,"version":"7757534","steam_id":85568392924470001,"keywords":["cp","nocrits","nodmgspread","uncletopia"],"game_id":440,"stv_port":27016,"stv_name":"Uncletopia | Sydney | 1 | All Maps | STV","players":null},{"server_id":123,"name":"Uncletopia | Sydney | 2 | All Maps","name_short":"syd-2","host":"syd-1.au.uncletopia.com","port":27025,"enabled":true,"region":"au","cc":"au","latitude":-33.865143,"longitude":151.2099,"reserved":0,"last_update":"0001-01-01T00:00:00Z","name_a2s":"Uncletopia | Sydney | 2 | All Maps","protocol":17,"map":"koth_viaduct","folder":"tf","game":"Team Fortress","app_id":440,"player_count":0,"max_players":24,"Bots":0,"server_type":"Dedicated","server_os":"Linux","password":true,"vac":true,"version":"7757534","steam_id":85568392924470002,"keywords":["cp","nocrits","nodmgspread","uncletopia"],"game_id":440,"stv_port":27026,"stv_name":"Uncletopia | Sydney | 2 | All Maps | STV","players":null},{"server_id":395,"name":"Uncletopia | Sydney | 3 | All Maps","name_short":"syd-3","host":"syd-1.au.uncletopia.com","port":27035,"enabled":true,"region":"au","cc":"au","latitude":-33.865143,"longitude":151.2099,"reserved":0,"last_update":"0001-01-01T00:00:00Z","name_a2s":"Uncletopia | Sydney | 3 | All Maps","protocol":17,"map":"pl_barnblitz","folder":"tf","game":"Team Fortress","app_id":440,"player_count":0,"max_players":24,"Bots":0,"server_type":"Dedicated","server_os":"Linux","password":true,"vac":true,"version":"7757534","steam_id":85568392925194467,"keywords":["nocrits","nodmgspread","payload","uncletopia"],"game_id":440,"stv_port":27036,"stv_name":"Uncletopia | Sydney | 3 | All Maps | STV","players":null},{"server_id":396,"name":"Uncletopia | Sydney | 4 | All Maps","name_short":"syd-4","host":"syd-1.au.uncletopia.com","port":27045,"enabled":true,"region":"au","cc":"au","latitude":-33.865143,"longitude":151.2099,"reserved":0,"last_update":"0001-01-01T00:00:00Z","name_a2s":"Uncletopia | Sydney | 4 | All Maps","protocol":17,"map":"koth_lakeside_final","folder":"tf","game":"Team Fortress","app_id":440,"player_count":0,"max_players":24,"Bots":0,"server_type":"Dedicated","server_os":"Linux","password":true,"vac":true,"version":"7757534","steam_id":85568392925397958,"keywords":["cp","nocrits","nodmgspread","uncletopia"],"game_id":440,"stv_port":27046,"stv_name":"Uncletopia | Sydney | 4 | All Maps | STV","players":null},{"server_id":58,"name":"Uncletopia | Sydney | 5 | Stopwatch Beta","name_short":"syd-5","host":"syd-1.au.uncletopia.com","port":27055,"enabled":true,"region":"au","cc":"au","latitude":-33.865143,"longitude":151.2099,"reserved":0,"last_update":"0001-01-01T00:00:00Z","name_a2s":"Uncletopia | Sydney | 5 | Stopwatch Beta","protocol":17,"map":"koth_highpass","folder":"tf","game":"Team Fortress","app_id":440,"player_count":0,"max_players":24,"Bots":0,"server_type":"Dedicated","server_os":"Linux","password":true,"vac":true,"version":"7757534","steam_id":85568392925397959,"keywords":["cp","nocrits","nodmgspread","uncletopia"],"game_id":440,"stv_port":27056,"stv_name":"Uncletopia | Sydney | 5 | Stopwatch Beta | STV","players":null},{"server_id":59,"name":"Uncletopia | Sydney | 6 | Community","name_short":"syd-6","host":"syd-1.au.uncletopia.com","port":27065,"enabled":true,"region":"au","cc":"au","latitude":-33.865143,"longitude":151.2099,"reserved":0,"last_update":"0001-01-01T00:00:00Z","name_a2s":"Uncletopia | Sydney | 6 | Community","protocol":17,"map":"cp_sunshine","folder":"tf","game":"Team Fortress","app_id":440,"player_count":0,"max_players":24,"Bots":0,"server_type":"Dedicated","server_os":"Linux","password":true,"vac":true,"version":"7757534","steam_id":85568392925397960,"keywords":["cp","nocrits","nodmgspread","uncletopia"],"game_id":440,"stv_port":27066,"stv_name":"Uncletopia | Sydney | 6 | Community | STV","players":null},{"server_id":49,"name":"Uncletopia | Warsaw | 1 | All Maps","name_short":"waw-1","host":"waw-1.pl.uncletopia.com","port":27015,"enabled":true,"region":"eu","cc":"pl","latitude":52.2297,"longitude":21.017532,"reserved":0,"last_update":"0001-01-01T00:00:00Z","name_a2s":"","protocol":0,"map":"","folder":"","game":"","app_id":0,"player_count":0,"max_players":0,"Bots":0,"server_type":"","server_os":"","password":false,"vac":false,"version":"","steam_id":0,"keywords":null,"game_id":0,"stv_port":0,"stv_name":"","players":null},{"server_id":50,"name":"Uncletopia | Warsaw | 2 | All Maps","name_short":"waw-2","host":"waw-1.pl.uncletopia.com","port":27025,"enabled":true,"region":"eu","cc":"pl","latitude":52.2297,"longitude":21.017532,"reserved":0,"last_update":"0001-01-01T00:00:00Z","name_a2s":"Uncletopia | Warsaw | 2 | All Maps","protocol":17,"map":"cp_altitude","folder":"tf","game":"Team Fortress","app_id":440,"player_count":0,"max_players":24,"Bots":0,"server_type":"Dedicated","server_os":"Linux","password":true,"vac":true,"version":"7757534","steam_id":85568392925397851,"keywords":["cp","nocrits","nodmgspread","uncletopia"],"game_id":440,"stv_port":27026,"stv_name":"Uncletopia | Warsaw | 2 | All Maps | STV","players":null},{"server_id":51,"name":"Uncletopia | Warsaw | 3 | All Maps","name_short":"waw-3","host":"waw-1.pl.uncletopia.com","port":27035,"enabled":true,"region":"eu","cc":"pl","latitude":52.2297,"longitude":21.017532,"reserved":0,"last_update":"0001-01-01T00:00:00Z","name_a2s":"Uncletopia | Warsaw | 3 | All Maps","protocol":17,"map":"cp_dustbowl","folder":"tf","game":"Team Fortress","app_id":440,"player_count":0,"max_players":24,"Bots":0,"server_type":"Dedicated","server_os":"Linux","password":true,"vac":true,"version":"7757534","steam_id":85568392925397852,"keywords":["cp","nocrits","nodmgspread","uncletopia"],"game_id":440,"stv_port":27036,"stv_name":"Uncletopia | Warsaw | 3 | All Maps | STV","players":null},{"server_id":52,"name":"Uncletopia | Warsaw | 4 | All Maps","name_short":"waw-4","host":"waw-1.pl.uncletopia.com","port":27045,"enabled":true,"region":"eu","cc":"pl","latitude":52.2297,"longitude":21.017532,"reserved":0,"last_update":"0001-01-01T00:00:00Z","name_a2s":"Uncletopia | Warsaw | 4 | All Maps","protocol":17,"map":"cp_process_final","folder":"tf","game":"Team Fortress","app_id":440,"player_count":0,"max_players":24,"Bots":0,"server_type":"Dedicated","server_os":"Linux","password":true,"vac":true,"version":"7757534","steam_id":85568392925397853,"keywords":["cp","nocrits","nodmgspread","uncletopia"],"game_id":440,"stv_port":27046,"stv_name":"Uncletopia | Warsaw | 4 | All Maps | STV","players":null},{"server_id":53,"name":"Uncletopia | Warsaw | 5 | Stopwatch Beta","name_short":"waw-5","host":"waw-1.pl.uncletopia.com","port":27055,"enabled":true,"region":"eu","cc":"pl","latitude":52.2297,"longitude":21.017532,"reserved":0,"last_update":"0001-01-01T00:00:00Z","name_a2s":"Uncletopia | Warsaw | 5 | Stopwatch Beta","protocol":17,"map":"pl_barnblitz","folder":"tf","game":"Team Fortress","app_id":440,"player_count":0,"max_players":24,"Bots":0,"server_type":"Dedicated","server_os":"Linux","password":true,"vac":true,"version":"7757534","steam_id":85568392925397854,"keywords":["nocrits","nodmgspread","payload","uncletopia"],"game_id":440,"stv_port":27056,"stv_name":"Uncletopia | Warsaw | 5 | Stopwatch Beta | STV","players":null},{"server_id":54,"name":"Uncletopia | Warsaw | 6 | Community","name_short":"waw-6","host":"waw-1.pl.uncletopia.com","port":27065,"enabled":true,"region":"eu","cc":"pl","latitude":52.2297,"longitude":21.017532,"reserved":0,"last_update":"0001-01-01T00:00:00Z","name_a2s":"Uncletopia | Warsaw | 6 | Community","protocol":17,"map":"pl_swiftwater_final1","folder":"tf","game":"Team Fortress","app_id":440,"player_count":0,"max_players":24,"Bots":0,"server_type":"Dedicated","server_os":"Linux","password":true,"vac":true,"version":"7757534","steam_id":85568392925397856,"keywords":["nocrits","nodmgspread","payload","uncletopia"],"game_id":440,"stv_port":27066,"stv_name":"Uncletopia | Warsaw | 6 | Community | STV","players":null}]}