{"status":true,"message":"","result":[{"server_id":2,"name":"Uncletopia | Chicago | 1 | All Maps","name_short":"chi-1","host":"chi-1.us.uncletopia.com","port":27015,"enabled":true,"region":"us-central","cc":"us","latitude":41.881832,"longitude":-87.62318,"reserved":0,"last_update":"0001-01-01T00:00:00Z","name_a2s":"Uncletopia | Chicago | 1 | All Maps","protocol":17,"map":"pl_swiftwater_final1","folder":"tf","game":"Team Fortress","app_id":440,"player_count":22,"max_players":24,"Bots":0,"server_type":"Dedicated","server_os":"Linux","password":true,"vac":true,"version":"7932396","steam_id":85568392924469984,"keywords":["nocrits","nodmgspread","payload","uncletopia"],"game_id":440,"stv_port":27016,"stv_name":"Uncletopia | Chicago | 1 | All Maps | STV","players":[{"user_id":598,"name":"Bodhi","steam_id":76561198103230995,"connected_time":2156000000000,"state":"active","ping":82},{"user_id":570,"name":"Scorpion","steam_id":76561198325651066,"connected_time":4463000000000,"state":"active","ping":92},{"user_id":610,"name":"18 pounds","steam_id":76561198025804838,"connected_time":1088000000000,"state":"active","ping":61},{"user_id":543,"name":"Thundermonkey (SMOKE)","steam_id":76561198017631728,"connected_time":7755000000000,"state":"active","ping":59},{"user_id":590,"name":"Jomdac","steam_id":76561198150447896,"connected_time":2292000000000,"state":"active","ping":105},{"user_id":616,"name":"MrNom","steam_id":76561198053550969,"connected_time":315000000000,"state":"active","ping":78},{"user_id":617,"name":"werecat","steam_id":76561198005091213,"connected_time":229000000000,"state":"active","ping":58},{"user_id":588,"name":"á“€â€¸á“‚","steam_id":76561198046055673,"connected_time":2513000000000,"state":"active","ping":75},{"user_id":607,"name":"Doctor no.","steam_id":76561198109624821,"connected_time":1425000000000,"state":"active","ping":74},{"user_id":618,"name":"Jazz2T","steam_id":76561198154418867,"connected_time":225000000000,"state":"active","ping":91},{"user_id":580,"name":"NotSharky","steam_id":76561198078910436,"connected_time":3636000000000,"state":"active","ping":106},{"user_id":619,"name":"shoxidizer","steam_id":76561198981983698,"connected_time":82000000000,"state":"active","ping":78},{"user_id":613,"name":"sweaterfan","steam_id":76561199389567214,"connected_time":867000000000,"state":"active","ping":68},{"user_id":579,"name":"Raglo The Laminator","steam_id":76561198166494493,"connected_time":3682000000000,"state":"active","ping":56},{"user_id":620,"name":"axalotly-gaming","steam_id":76561199131971501,"connected_time":16000000000,"state":"active","ping":190},{"user_id":584,"name":"raya","steam_id":76561198051504581,"connected_time":2620000000000,"state":"active","ping":74},{"user_id":585,"name":"L + Ratio","steam_id":76561198263786953,"connected_time":2587000000000,"state":"active","ping":88},{"user_id":597,"name":"Isotope","steam_id":76561199480883504,"connected_time":2207000000000,"state":"active","ping":58},{"user_id":599,"name":"cat","steam_id":76561198096347625,"connected_time":2142000000000,"state":"active","ping":75},{"user_id":604,"name":"Gungan","steam_id":76561198307588458,"connected_time":2001000000000,"state":"active","ping":87},{"user_id":614,"name":"swag obliterator","steam_id":76561199229428003,"connected_time":430000000000,"state":"active","ping":105},{"user_id":602,"name":"Proxy-mo","steam_id":76561198221741428,"connected_time":2108000000000,"state":"active","ping":78}]},{"server_id":106,"name":"Uncletopia | Chicago | 2 | All Maps","name_short":"chi-2","host":"chi-1.us.uncletopia.com","port":27025,"enabled":true,"region":"us-central","cc":"us","latitude":41.881832,"longitude":-87.62318,"reserved":0,"last_update":"0001-01-01T00:00:00Z","name_a2s":"Uncletopia | Chicago | 2 | All Maps","protocol":17,"map":"cp_snakewater_final1","folder":"tf","game":"Team Fortress","app_id":440,"player_count":0,"max_players":24,"Bots":0,"server_type":"Dedicated","server_os":"Linux","password":true,"vac":true,"version":"7932396","steam_id":85568392924469985,"keywords":["cp","nocrits","nodmgspread","uncletopia"],"game_id":440,"stv_port":27026,"stv_name":"Uncletopia | Chicago | 2 | All Maps | STV","players":null},{"server_id":402,"name":"Uncletopia | Chicago | 3 | All Maps","name_short":"chi-3","host":"chi-1.us.uncletopia.com","port":27035,"enabled":true,"region":"us-central","cc":"us","latitude":41.881832,"longitude":-87.62318,"reserved":0,"last_update":"0001-01-01T00:00:00Z","name_a2s":"Uncletopia | Chicago | 3 | All Maps","protocol":17,"map":"pl_swiftwater_final1","folder":"tf","game":"Team Fortress","app_id":440,"player_count":24,"max_players":24,"Bots":0,"server_type":"Dedicated","server_os":"Linux","password":true,"vac":true,"version":"7932396","steam_id":85568392924515191,"keywords":["nocrits","nodmgspread","payload","uncletopia"],"game_id":440,"stv_port":27036,"stv_name":"Uncletopia | Chicago | 3 | All Maps | STV","players":[{"user_id":506,"name":"Milkmur","steam_id":76561198210043821,"connected_time":764000000000,"state":"active","ping":66},{"user_id":390,"name":"just call me joe","steam_id":76561198043911582,"connected_time":6327000000000,"state":"active","ping":61},{"user_id":517,"name":"Mr. Chi City","steam_id":76561198131467867,"connected_time":70000000000,"state":"active","ping":89},{"user_id":430,"name":"cass","steam_id":76561198074502046,"connected_time":4960000000000,"state":"active","ping":95},{"user_id":391,"name":"phrogelf","steam_id":76561198207601548,"connected_time":6255000000000,"state":"active","ping":61},{"user_id":495,"name":"Crutch","steam_id":76561198079048965,"connected_time":1223000000000,"state":"active","ping":60},{"user_id":480,"name":"Larkaldi","steam_id":76561198029668456,"connected_time":1618000000000,"state":"active","ping":50},{"user_id":470,"name":"Yoshimelon","steam_id":76561198253054325,"connected_time":2725000000000,"state":"active","ping":61},{"user_id":497,"name":"Shrep","steam_id":76561198127341481,"connected_time":1182000000000,"state":"active","ping":59},{"user_id":493,"name":"gromit","steam_id":76561198037746805,"connected_time":1280000000000,"state":"active","ping":72},{"user_id":507,"name":"Qliphoth dweller","steam_id":76561198195517770,"connected_time":726000000000,"state":"active","ping":70},{"user_id":489,"name":"Osteo-Oligarch","steam_id":76561198164731896,"connected_time":1388000000000,"state":"active","ping":79},{"user_id":488,"name":"quasar","steam_id":76561198864400935,"connected_time":1421000000000,"state":"active","ping":127},{"user_id":516,"name":"dunk","steam_id":76561198132476501,"connected_time":118000000000,"state":"active","ping":41},{"user_id":500,"name":"ewor","steam_id":76561198235027808,"connected_time":1083000000000,"state":"active","ping":68},{"user_id":491,"name":"hotguy6pack","steam_id":76561198881665250,"connected_time":1320000000000,"state":"active","ping":103},{"user_id":499,"name":"erf","steam_id":76561198078203677,"connected_time":1105000000000,"state":"active","ping":66},{"user_id":458,"name":"vulcan nightclub pon farr night","steam_id":76561197974283797,"connected_time":3462000000000,"state":"active","ping":45},{"user_id":511,"name":"eish","steam_id":76561198089463603,"connected_time":521000000000,"state":"active","ping":132},{"user_id":501,"name":"TDOB","steam_id":76561198062701904,"connected_time":1061000000000,"state":"active","ping":77},{"user_id":503,"name":"bear","steam_id":76561198909415646,"connected_time":1034000000000,"state":"active","ping":84},{"user_id":508,"name":"hisoka","steam_id":76561198277979851,"connected_time":723000000000,"state":"active","ping":90},{"user_id":509,"name":"Matches_","steam_id":76561198048925904,"connected_time":716000000000,"state":"active","ping":111},{"user_id":513,"name":"gas station vitamins","steam_id":76561198812174876,"connected_time":258000000000,"state":"active","ping":104}]},{"server_id":403,"name":"Uncletopia | Chicago | 4 | All Maps","name_short":"chi-4","host":"chi-1.us.uncletopia.com","port":27045,"enabled":true,"region":"us-central","cc":"us","latitude":41.881832,"longitude":-87.62318,"reserved":0,"last_update":"0001-01-01T00:00:00Z","name_a2s":"Uncletopia | Chicago | 4 | All Maps","protocol":17,"map":"pl_badwater","folder":"tf","game":"Team Fortress","app_id":440,"player_count":24,"max_players":24,"Bots":0,"server_type":"Dedicated","server_os":"Linux","password":true,"vac":true,"version":"7932396","steam_id":85568392924515193,"keywords":["nocrits","nodmgspread","payload","uncletopia"],"game_id":440,"stv_port":27046,"stv_name":"Uncletopia | Chicago | 4 | All Maps | STV","players":[{"user_id":586,"name":"*","steam_id":76561198173047169,"connected_time":3465000000000,"state":"active","ping":60},{"user_id":575,"name":"Rambly Dambly","steam_id":76561198844496567,"connected_time":4333000000000,"state":"active","ping":57},{"user_id":606,"name":"joe","steam_id":76561198045781320,"connected_time":2037000000000,"state":"active","ping":65},{"user_id":619,"name":"RaixaR","steam_id":76561198025289430,"connected_time":477000000000,"state":"active","ping":74},{"user_id":617,"name":"heck","steam_id":76561198308547958,"connected_time":653000000000,"state":"active","ping":54},{"user_id":574,"name":"faxxy","steam_id":76561198079621240,"connected_time":4550000000000,"state":"active","ping":67},{"user_id":623,"name":"A Shiny Meat Bicycle","steam_id":76561198358757709,"connected_time":122000000000,"state":"active","ping":89},{"user_id":618,"name":"DSM-IVCE","steam_id":76561199438515797,"connected_time":543000000000,"state":"active","ping":127},{"user_id":530,"name":"Dot.","steam_id":76561198149463984,"connected_time":8830000000000,"state":"active","ping":47},{"user_id":605,"name":"23 leg parlay","steam_id":76561198143132686,"connected_time":2098000000000,"state":"active","ping":80},{"user_id":567,"name":"EmytheMage","steam_id":76561198319800202,"connected_time":4984000000000,"state":"active","ping":71},{"user_id":607,"name":"sabdychan","steam_id":76561198973078784,"connected_time":2025000000000,"state":"active","ping":64},{"user_id":624,"name":"doug demodome","steam_id":76561198048882285,"connected_time":122000000000,"state":"active","ping":60},{"user_id":584,"name":"Danmar33","steam_id":76561198056453091,"connected_time":3636000000000,"state":"active","ping":47},{"user_id":625,"name":"daslukas23","steam_id":76561199229528500,"connected_time":101000000000,"state":"active","ping":120},{"user_id":609,"name":"ðŸ…œðŸ…”ðŸ…”ðŸ…šðŸ…¢ðŸ…£ðŸ…”\ufffd\ufffd\ufffd","steam_id":76561197999748343,"connected_time":1967000000000,"state":"active","ping":61},{"user_id":616,"name":"chronos","steam_id":76561199077776159,"connected_time":1000000000000,"state":"active","ping":195},{"user_id":626,"name":"chlo","steam_id":76561198927668009,"connected_time":58000000000,"state":"active","ping":49},{"user_id":611,"name":"Neo Kojiro","steam_id":76561198000967076,"connected_time":1872000000000,"state":"active","ping":79},{"user_id":621,"name":"Big Oil","steam_id":76561199238964574,"connected_time":359000000000,"state":"active","ping":70},{"user_id":604,"name":"i use a 360 controller","steam_id":76561198353456379,"connected_time":2269000000000,"state":"active","ping":73},{"user_id":622,"name":"Nilantive","steam_id":76561198177565082,"connected_time":315000000000,"state":"active","ping":59},{"user_id":598,"name":"FSC Fattest of Sailors","steam_id":76561198308073456,"connected_time":2794000000000,"state":"active","ping":86},{"user_id":627,"name":"WanderEase","steam_id":76561198068654078,"connected_time":26000000000,"state":"active","ping":94}]},{"server_id":36,"name":"Uncletopia | Chicago | 5 | All Maps","name_short":"chi-5","host":"chi-2.us.uncletopia.com","port":27015,"enabled":true,"region":"us-central","cc":"us","latitude":41.881832,"longitude":-87.62318,"reserved":0,"last_update":"0001-01-01T00:00:00Z","name_a2s":"Uncletopia | Chicago | 5 | All Maps","protocol":17,"map":"pl_pier","folder":"tf","game":"Team Fortress","app_id":440,"player_count":2,"max_players":24,"Bots":0,"server_type":"Dedicated","server_os":"Linux","password":true,"vac":true,"version":"7932396","steam_id":85568392924866362,"keywords":["nocrits","nodmgspread","payload","uncletopia"],"game_id":440,"stv_port":27016,"stv_name":"Uncletopia | Chicago | 5 | All Maps | STV","players":[{"user_id":905,"name":"Drez47","steam_id":76561198380714058,"connected_time":1005000000000,"state":"active","ping":74},{"user_id":882,"name":"Akornical","steam_id":76561199171025092,"connected_time":3666000000000,"state":"active","ping":67}]},{"server_id":37,"name":"Uncletopia | Chicago | 6 | All Maps","name_short":"chi-6","host":"chi-2.us.uncletopia.com","port":27025,"enabled":true,"region":"us-central","cc":"us","latitude":41.881832,"longitude":-87.62318,"reserved":0,"last_update":"0001-01-01T00:00:00Z","name_a2s":"Uncletopia | Chicago | 6 | All Maps","protocol":17,"map":"koth_cascade","folder":"tf","game":"Team Fortress","app_id":440,"player_count":0,"max_players":24,"Bots":0,"server_type":"Dedicated","server_os":"Linux","password":true,"vac":true,"version":"7932396","steam_id":85568392924866363,"keywords":["cp","nocrits","nodmgspread","uncletopia"],"game_id":440,"stv_port":27026,"stv_name":"Uncletopia | Chicago | 6 | All Maps | STV","players":null},{"server_id":38,"name":"Uncletopia | Chicago | 7 | Stopwatch Beta","name_short":"chi-7","host":"chi-2.us.uncletopia.com","port":27035,"enabled":true,"region":"us-central","cc":"us","latitude":41.881832,"longitude":-87.62318,"reserved":0,"last_update":"0001-01-01T00:00:00Z","name_a2s":"Uncletopia | Chicago | 7 | Stopwatch Beta","protocol":17,"map":"workshop/pl_summercoast_rc8e.ugc1761528829","folder":"tf","game":"Team Fortress","app_id":440,"player_count":0,"max_players":24,"Bots":0,"server_type":"Dedicated","server_os":"Linux","password":true,"vac":true,"version":"7932396","steam_id":85568392924866364,"keywords":["nocrits","nodmgspread","payload","uncletopia"],"game_id":440,"stv_port":27036,"stv_name":"Uncletopia | Chicago | 7 | Stopwatch Beta | STV","players":null},{"server_id":39,"name":"Uncletopia | Chicago | 8 | Community","name_short":"chi-8","host":"chi-2.us.uncletopia.com","port":27045,"enabled":true,"region":"us-central","cc":"us","latitude":41.881832,"longitude":-87.62318,"reserved":0,"last_update":"0001-01-01T00:00:00Z","name_a2s":"Uncletopia | Chicago | 8 | Community","protocol":17,"map":"workshop/koth_slaughter_rc1.ugc1712845210","folder":"tf","game":"Team Fortress","app_id":440,"player_count":0,"max_players":24,"Bots":0,"server_type":"Dedicated","server_os":"Linux","password":true,"vac":true,"version":"7932396","steam_id":85568392924866365,"keywords":["cp","nocrits","nodmgspread","uncletopia"],"game_id":440,"stv_port":27046,"stv_name":"Uncletopia | Chicago | 8 | Community | STV","players":null},{"server_id":8,"name":"Uncletopia | Dallas | 1 | All Maps","name_short":"dal-1","host":"dal-1.us.uncletopia.com","port":27015,"enabled":true,"region":"us-central","cc":"us","latitude":32.779167,"longitude":-96.80889,"reserved":0,"last_update":"0001-01-01T00:00:00Z","name_a2s":"Uncletopia | Dallas | 1 | All Maps","protocol":17,"map":"pl_upward","folder":"tf","game":"Team Fortress","app_id":440,"player_count":24,"max_players":24,"Bots":0,"server_type":"Dedicated","server_os":"Linux","password":true,"vac":true,"version":"7932396","steam_id":85568392924469986,"keywords":["nocrits","nodmgspread","payload","uncletopia"],"game_id":440,"stv_port":27016,"stv_name":"Uncletopia | Dallas | 1 | All Maps | STV","players":[{"user_id":985,"name":"Shadoe","steam_id":76561198218577281,"connected_time":544000000000,"state":"active","ping":99},{"user_id":924,"name":"Bird","steam_id":76561198231624620,"connected_time":3172000000000,"state":"active","ping":59},{"user_id":988,"name":"Random Civic Ek9","steam_id":76561198817302192,"connected_time":320000000000,"state":"active","ping":95},{"user_id":991,"name":"Space Magic","steam_id":76561199006292310,"connected_time":21000000000,"state":"active","ping":68},{"user_id":984,"name":"Jesse","steam_id":76561198157305426,"connected_time":689000000000,"state":"active","ping":51},{"user_id":981,"name":"NewerCoke","steam_id":76561198042911847,"connected_time":1129000000000,"state":"active","ping":101},{"user_id":926,"name":"aVO","steam_id":76561198161429389,"connected_time":3071000000000,"state":"active","ping":49},{"user_id":927,"name":"Tri_Hunter","steam_id":76561198108176706,"connected_time":3033000000000,"state":"active","ping":88},{"user_id":928,"name":"King of Ping","steam_id":76561198278737470,"connected_time":3002000000000,"state":"active","ping":85},{"user_id":969,"name":"Malevolo Cucaracho","steam_id":76561198055822497,"connected_time":1892000000000,"state":"active","ping":138},{"user_id":910,"name":"AlcoholicDad454","steam_id":76561198157414556,"connected_time":5242000000000,"state":"active","ping":81},{"user_id":989,"name":"The Assistant Regional Manager","steam_id":76561199221484936,"connected_time":318000000000,"state":"active","ping":92},{"user_id":971,"name":"jarrettconsult","steam_id":76561198249998262,"connected_time":1737000000000,"state":"active","ping":109},{"user_id":953,"name":"The Horselords and Animal Gods","steam_id":76561197975094050,"connected_time":2531000000000,"state":"active","ping":82},{"user_id":954,"name":"DRLdestroyer","steam_id":76561198085803893,"connected_time":2505000000000,"state":"active","ping":82},{"user_id":936,"name":"Narlax","steam_id":76561198852832741,"connected_time":2917000000000,"state":"active","ping":93},{"user_id":987,"name":"bluefoxx118","steam_id":76561198182884975,"connected_time":529000000000,"state":"active","ping":84},{"user_id":921,"name":"andydandyrew","steam_id":76561198327138508,"connected_time":3282000000000,"state":"active","ping":70},{"user_id":957,"name":"Kng","steam_id":76561198993248203,"connected_time":2420000000000,"state":"active","ping":75},{"user_id":983,"name":"LarryOfAllTrades","steam_id":76561198325492137,"connected_time":753000000000,"state":"active","ping":89},{"user_id":975,"name":"loser","steam_id":76561198259380127,"connected_time":1513000000000,"state":"active","ping":75},{"user_id":976,"name":"Gaming on my Orb rn","steam_id":76561198004702936,"connected_time":1504000000000,"state":"active","ping":82},{"user_id":990,"name":"TheIdiotMuffin","steam_id":76561198197311327,"connected_time":313000000000,"state":"active","ping":67},{"user_id":979,"name":"Swerv3","steam_id":76561198068487365,"connected_time":1342000000000,"state":"active","ping":51}]},{"server_id":108,"name":"Uncletopia | Dallas | 2 | All Maps","name_short":"dal-2","host":"dal-1.us.uncletopia.com","port":27025,"enabled":true,"region":"us-central","cc":"us","latitude":32.779167,"longitude":-96.80889,"reserved":0,"last_update":"0001-01-01T00:00:00Z","name_a2s":"Uncletopia | Dallas | 2 | All Maps","protocol":17,"map":"pl_frontier_final","folder":"tf","game":"Team Fortress","app_id":440,"player_count":24,"max_players":24,"Bots":0,"server_type":"Dedicated","server_os":"Linux","password":true,"vac":true,"version":"7932396","steam_id":85568392924469988,"keywords":["nocrits","nodmgspread","payload","uncletopia"],"game_id":440,"stv_port":27026,"stv_name":"Uncletopia | Dallas | 2 | All Maps | STV","players":[{"user_id":562,"name":"Chimi","steam_id":76561198067800540,"connected_time":6572000000000,"state":"active","ping":49},{"user_id":625,"name":"Kurt_CobainImSoHorny .:MEGGIE:.","steam_id":76561198038291026,"connected_time":1571000000000,"state":"active","ping":35},{"user_id":609,"name":"Terrazzle","steam_id":76561197999850393,"connected_time":3200000000000,"state":"active","ping":66},{"user_id":612,"name":"cryingbaby23","steam_id":76561198130413260,"connected_time":2683000000000,"state":"active","ping":78},{"user_id":627,"name":"Swiggs","steam_id":76561198135015291,"connected_time":1465000000000,"state":"active","ping":62},{"user_id":628,"name":"sapphoroth","steam_id":76561198062263639,"connected_time":1464000000000,"state":"active","ping":53},{"user_id":639,"name":"friendly on uncletopia","steam_id":76561198064194222,"connected_time":236000000000,"state":"active","ping":57},{"user_id":616,"name":"swike","steam_id":76561198025898570,"connected_time":2381000000000,"state":"active","ping":90},{"user_id":618,"name":"PsyKe","steam_id":76561198055486345,"connected_time":2310000000000,"state":"active","ping":72},{"user_id":638,"name":"Testosterone Dan","steam_id":76561197995058890,"connected_time":572000000000,"state":"active","ping":105},{"user_id":640,"name":"Based Department","steam_id":76561198068060871,"connected_time":201000000000,"state":"active","ping":106},{"user_id":617,"name":"Clubs","steam_id":76561198271133942,"connected_time":2369000000000,"state":"active","ping":59},{"user_id":635,"name":"Slippin' Jimmy","steam_id":76561198324749126,"connected_time":906000000000,"state":"active","ping":112},{"user_id":606,"name":"Sonic Mania 2 [100 Real Leaked","steam_id":76561198062764039,"connected_time":3287000000000,"state":"active","ping":69},{"user_id":607,"name":"sand eater","steam_id":76561198215275267,"connected_time":3252000000000,"state":"active","ping":64},{"user_id":632,"name":"Pop_Tarts","steam_id":76561199037187808,"connected_time":1288000000000,"state":"active","ping":87},{"user_id":620,"name":"Full Moon","steam_id":76561198089898720,"connected_time":2256000000000,"state":"active","ping":60},{"user_id":623,"name":"butters","steam_id":76561198396432029,"connected_time":1751000000000,"state":"active","ping":111},{"user_id":631,"name":"Jarryl97","steam_id":76561198055451373,"connected_time":1289000000000,"state":"active","ping":68},{"user_id":633,"name":"CptFluffyBunny","steam_id":76561198809349474,"connected_time":1282000000000,"state":"active","ping":106},{"user_id":634,"name":"Scorch","steam_id":76561198014861902,"connected_time":1196000000000,"state":"active","ping":64},{"user_id":621,"name":"STAROID","steam_id":76561198069740897,"connected_time":2226000000000,"state":"active","ping":81},{"user_id":613,"name":"Panig","steam_id":76561198372424311,"connected_time":2681000000000,"state":"active","ping":68},{"user_id":636,"name":"Jopi (They/Them)","steam_id":76561198055534922,"connected_time":890000000000,"state":"active","ping":44}]},{"server_id":5,"name":"Uncletopia | Frankfurt | 1 | All Maps","name_short":"frk-1","host":"frk-1.de.uncletopia.com","port":27015,"enabled":true,"region":"eu","cc":"de","latitude":50.110924,"longitude":8.682127,"reserved":0,"last_update":"0001-01-01T00:00:00Z","name_a2s":"Uncletopia | Frankfurt | 1 | All Maps","protocol":17,"map":"pl_badwater","folder":"tf","game":"Team Fortress","app_id":440,"player_count":0,"max_players":24,"Bots":0,"server_type":"Dedicated","server_os":"Linux","password":true,"vac":true,"version":"7932396","steam_id":85568392924469989,"keywords":["nocrits","nodmgspread","payload","uncletopia"],"game_id":440,"stv_port":27016,"stv_name":"Uncletopia | Frankfurt | 1 | All Maps | STV","players":null},{"server_id":110,"name":"Uncletopia | Frankfurt | 2 | All Maps","name_short":"frk-2","host":"frk-1.de.uncletopia.com","port":27025,"enabled":true,"region":"eu","cc":"de","latitude":50.110924,"longitude":8.682127,"reserved":0,"last_update":"0001-01-01T00:00:00Z","name_a2s":"Uncletopia | Frankfurt | 2 | All Maps","protocol":17,"map":"pl_borneo","folder":"tf","game":"Team Fortress","app_id":440,"player_count":0,"max_players":24,"Bots":0,"server_type":"Dedicated","server_os":"Linux","password":true,"vac":true,"version":"7932396","steam_id":85568392924469990,"keywords":["nocrits","nodmgspread","payload","uncletopia"],"game_id":440,"stv_port":27026,"stv_name":"Uncletopia | Frankfurt | 2 | All Maps | STV","players":null},{"server_id":308,"name":"Uncletopia | Frankfurt | 3 | All Maps","name_short":"frk-3","host":"frk-1.de.uncletopia.com","port":27035,"enabled":true,"region":"eu","cc":"de","latitude":50.110924,"longitude":8.682127,"reserved":0,"last_update":"0001-01-01T00:00:00Z","name_a2s":"Uncletopia | Frankfurt | 3 | All Maps","protocol":17,"map":"pl_badwater","folder":"tf","game":"Team Fortress","app_id":440,"player_count":0,"max_players":24,"Bots":0,"server_type":"Dedicated","server_os":"Linux","password":true,"vac":true,"version":"7932396","steam_id":85568392924504274,"keywords":["nocrits","nodmgspread","payload","uncletopia"],"game_id":440,"stv_port":27036,"stv_name":"Uncletopia | Frankfurt | 3 | All Maps | STV","players":null},{"server_id":309,"name":"Uncletopia | Frankfurt | 4 | All Maps","name_short":"frk-4","host":"frk-1.de.uncletopia.com","port":27045,"enabled":true,"region":"eu","cc":"de","latitude":50.110924,"longitude":8.682127,"reserved":0,"last_update":"0001-01-01T00:00:00Z","name_a2s":"Uncletopia | Frankfurt | 4 | All Maps","protocol":17,"map":"pl_upward","folder":"tf","game":"Team Fortress","app_id":440,"player_count":0,"max_players":24,"Bots":0,"server_type":"Dedicated","server_os":"Linux","password":true,"vac":true,"version":"7932396","steam_id":85568392924504275,"keywords":["nocrits","nodmgspread","payload","uncletopia"],"game_id":440,"stv_port":27046,"stv_name":"Uncletopia | Frankfurt | 4 | All Maps | STV","players":null},{"server_id":310,"name":"Uncletopia | Frankfurt | 5 | All Maps","name_short":"frk-5","host":"frk-1.de.uncletopia.com","port":27055,"enabled":true,"region":"eu","cc":"de","latitude":50.110924,"longitude":8.682127,"reserved":0,"last_update":"0001-01-01T00:00:00Z","name_a2s":"Uncletopia | Frankfurt | 5 | All Maps","protocol":17,"map":"pl_badwater","folder":"tf","game":"Team Fortress","app_id":440,"player_count":0,"max_players":24,"Bots":0,"server_type":"Dedicated","server_os":"Linux","password":true,"vac":true,"version":"7932396","steam_id":85568392924504277,"keywords":["nocrits","nodmgspread","payload","uncletopia"],"game_id":440,"stv_port":27056,"stv_name":"Uncletopia | Frankfurt | 5 | All Maps | STV","players":null},{"server_id":311,"name":"Uncletopia | Frankfurt | 6 | All Maps","name_short":"frk-6","host":"frk-1.de.uncletopia.com","port":27065,"enabled":true,"region":"eu","cc":"de","latitude":50.110924,"longitude":8.682127,"reserved":0,"last_update":"0001-01-01T00:00:00Z","name_a2s":"Uncletopia | Frankfurt | 6 | All Maps","protocol":17,"map":"koth_viaduct","folder":"tf","game":"Team Fortress","app_id":440,"player_count":0,"max_players":24,"Bots":0,"server_type":"Dedicated","server_os":"Linux","password":true,"vac":true,"version":"7932396","steam_id":85568392924504278,"keywords":["cp","nocrits","nodmgspread","uncletopia"],"game_id":440,"stv_port":27066,"stv_name":"Uncletopia | Frankfurt | 6 | All Maps | STV","players":null},{"server_id":23,"name":"Uncletopia | Frankfurt | 7 | Stopwatch Beta","name_short":"frk-7","host":"frk-1.de.uncletopia.com","port":27075,"enabled":true,"region":"eu","cc":"de","latitude":50.110924,"longitude":8.682127,"reserved":0,"last_update":"0001-01-01T00:00:00Z","name_a2s":"Uncletopia | Frankfurt | 7 | Stopwatch Beta","protocol":17,"map":"pl_snowycoast","folder":"tf","game":"Team Fortress","app_id":440,"player_count":0,"max_players":24,"Bots":0,"server_type":"Dedicated","server_os":"Linux","password":true,"vac":true,"version":"7932396","steam_id":85568392924742827,"keywords":["nocrits","nodmgspread","payload","uncletopia"],"game_id":440,"stv_port":27076,"stv_name":"Uncletopia | Frankfurt | 7 | Stopwatch Beta | STV","players":null},{"server_id":24,"name":"Uncletopia | Frankfurt | 8 | Community","name_short":"frk-8","host":"frk-1.de.uncletopia.com","port":27085,"enabled":true,"region":"eu","cc":"de","latitude":50.110924,"longitude":8.682127,"reserved":0,"last_update":"0001-01-01T00:00:00Z","name_a2s":"Uncletopia | Frankfurt | 8 | Community","protocol":17,"map":"pl_barnblitz","folder":"tf","game":"Team Fortress","app_id":440,"player_count":0,"max_players":24,"Bots":0,"server_type":"Dedicated","server_os":"Linux","password":true,"vac":true,"version":"7932396","steam_id":85568392924742828,"keywords":["nocrits","nodmgspread","payload","uncletopia"],"game_id":440,"stv_port":27086,"stv_name":"Uncletopia | Frankfurt | 8 | Community | STV","players":null},{"server_id":202,"name":"Uncletopia | Hong Kong | 1 | All Maps","name_short":"hgk-1","host":"hgk-1.hk.uncletopia.com","port":27015,"enabled":true,"region":"asia","cc":"hk","latitude":22.302711,"longitude":114.177216,"reserved":0,"last_update":"0001-01-01T00:00:00Z","name_a2s":"Uncletopia | Hong Kong | 1 | All Maps","protocol":17,"map":"pl_snowycoast","folder":"tf","game":"Team Fortress","app_id":440,"player_count":10,"max_players":24,"Bots":0,"server_type":"Dedicated","server_os":"Linux","password":true,"vac":true,"version":"7932396","steam_id":85568392924494504,"keywords":["nocrits","nodmgspread","payload","uncletopia"],"game_id":440,"stv_port":27016,"stv_name":"Uncletopia | Hong Kong | 1 | All Maps | STV","players":[{"user_id":7,"name":"hotgamerth","steam_id":76561199026418153,"connected_time":7336000000000,"state":"active","ping":90},{"user_id":44,"name":"gholed","steam_id":76561198131167834,"connected_time":50000000000,"state":"spawning","ping":62},{"user_id":42,"name":"Galaxy'S","steam_id":76561198250904422,"connected_time":495000000000,"state":"active","ping":64},{"user_id":15,"name":"KHMaster","steam_id":76561199198453345,"connected_time":6300000000000,"state":"active","ping":78},{"user_id":36,"name":":weed:","steam_id":76561198386626651,"connected_time":1821000000000,"state":"active","ping":60},{"user_id":38,"name":"Med1c","steam_id":76561199000423415,"connected_time":1562000000000,"state":"active","ping":101},{"user_id":34,"name":"tr_walkway","steam_id":76561199107683007,"connected_time":3278000000000,"state":"active","ping":53},{"user_id":43,"name":"TomProPlayer","steam_id":76561199223292521,"connected_time":465000000000,"state":"active","ping":72},{"user_id":41,"name":"Box Standard","steam_id":76561198312001455,"connected_time":1040000000000,"state":"active","ping":108},{"user_id":45,"name":"killswitch | trade.tf","steam_id":76561198370671106,"connected_time":24000000000,"state":"spawning","ping":390}]},{"server_id":1,"name":"Uncletopia | Los Angeles | 1 | All Maps","name_short":"lax-1","host":"lax-1.us.uncletopia.com","port":27015,"enabled":true,"region":"us-west","cc":"us","latitude":33.94279,"longitude":-118.41004,"reserved":0,"last_update":"0001-01-01T00:00:00Z","name_a2s":"Uncletopia | Los Angeles | 1 | All Maps","protocol":17,"map":"cp_dustbowl","folder":"tf","game":"Team Fortress","app_id":440,"player_count":21,"max_players":24,"Bots":0,"server_type":"Dedicated","server_os":"Linux","password":true,"vac":true,"version":"7932396","steam_id":85568392924469991,"keywords":["cp","nocrits","nodmgspread","uncletopia"],"game_id":440,"stv_port":27016,"stv_name":"Uncletopia | Los Angeles | 1 | All Maps | STV","players":[{"user_id":516,"name":"Tony Tony Choppa","steam_id":76561198926443232,"connected_time":3578000000000,"state":"active","ping":76},{"user_id":539,"name":"Semeka","steam_id":76561198405404117,"connected_time":683000000000,"state":"active","ping":72},{"user_id":538,"name":"Viktor Ludwig","steam_id":76561198973370004,"connected_time":779000000000,"state":"active","ping":57},{"user_id":540,"name":"Alice Marga","steam_id":76561198178885223,"connected_time":604000000000,"state":"active","ping":110},{"user_id":437,"name":"vioxynteris","steam_id":76561198161428666,"connected_time":9237000000000,"state":"active","ping":32},{"user_id":541,"name":"weckingball?","steam_id":76561198880557329,"connected_time":600000000000,"state":"active","ping":49},{"user_id":550,"name":"Goblin","steam_id":76561198310448447,"connected_time":63000000000,"state":"active","ping":53},{"user_id":544,"name":"SUICIDEBOMBER","steam_id":76561198990902905,"connected_time":349000000000,"state":"active","ping":54},{"user_id":518,"name":"Whisper!","steam_id":76561198119609795,"connected_time":3575000000000,"state":"active","ping":46},{"user_id":545,"name":"Gavin Newsom feet pics","steam_id":76561198349908268,"connected_time":348000000000,"state":"active","ping":60},{"user_id":531,"name":"Your pocket medic","steam_id":76561198243527636,"connected_time":1401000000000,"state":"active","ping":47},{"user_id":546,"name":"sunny","steam_id":76561198069380992,"connected_time":287000000000,"state":"active","ping":80},{"user_id":450,"name":"Hindmost","steam_id":76561199081837220,"connected_time":7823000000000,"state":"active","ping":91},{"user_id":512,"name":"Brook","steam_id":76561198066617702,"connected_time":4321000000000,"state":"active","ping":75},{"user_id":547,"name":"raven","steam_id":76561198354068131,"connected_time":222000000000,"state":"active","ping":79},{"user_id":497,"name":"xbox record that","steam_id":76561198150117455,"connected_time":4866000000000,"state":"active","ping":56},{"user_id":551,"name":"jc71777","steam_id":76561199124210364,"connected_time":63000000000,"state":"active","ping":60},{"user_id":552,"name":"Tocha","steam_id":76561198119725400,"connected_time":41000000000,"state":"active","ping":103},{"user_id":553,"name":"astroLC","steam_id":76561199040914098,"connected_time":3000000000,"state":"spawning","ping":64},{"user_id":532,"name":"bottle","steam_id":76561198451812135,"connected_time":1303000000000,"state":"active","ping":105},{"user_id":509,"name":"Gundam Guy","steam_id":76561198178453993,"connected_time":4498000000000,"state":"active","ping":69}]},{"server_id":112,"name":"Uncletopia | Los Angeles | 2 | All Maps","name_short":"lax-2","host":"lax-1.us.uncletopia.com","port":27025,"enabled":true,"region":"us-west","cc":"us","latitude":33.94279,"longitude":-118.41004,"reserved":0,"last_update":"0001-01-01T00:00:00Z","name_a2s":"Uncletopia | Los Angeles | 2 | All Maps","protocol":17,"map":"pl_barnblitz","folder":"tf","game":"Team Fortress","app_id":440,"player_count":24,"max_players":24,"Bots":0,"server_type":"Dedicated","server_os":"Linux","password":true,"vac":true,"version":"7932396","steam_id":85568392924469992,"keywords":["nocrits","nodmgspread","payload","uncletopia"],"game_id":440,"stv_port":27026,"stv_name":"Uncletopia | Los Angeles | 2 | All Maps | STV","players":[{"user_id":682,"name":"Defeat","steam_id":76561198065203818,"connected_time":1926000000000,"state":"active","ping":71},{"user_id":698,"name":"Talulah","steam_id":76561198348354629,"connected_time":730000000000,"state":"active","ping":49},{"user_id":694,"name":"Raian","steam_id":76561199138048671,"connected_time":1189000000000,"state":"active","ping":46},{"user_id":701,"name":"Dragon New Warm Mountain","steam_id":76561198055626638,"connected_time":595000000000,"state":"active","ping":138},{"user_id":705,"name":"Nitro","steam_id":76561198044877244,"connected_time":431000000000,"state":"active","ping":93},{"user_id":702,"name":"SHADOW (he/him)","steam_id":76561198207768148,"connected_time":572000000000,"state":"active","ping":66},{"user_id":703,"name":"Subject Delta","steam_id":76561199109118980,"connected_time":553000000000,"state":"active","ping":56},{"user_id":597,"name":"sobaka","steam_id":76561198116008934,"connected_time":9877000000000,"state":"active","ping":60},{"user_id":668,"name":"Bubblegum Bitch","steam_id":76561198043307965,"connected_time":2941000000000,"state":"active","ping":84},{"user_id":704,"name":"Billy Yank","steam_id":76561199059733640,"connected_time":549000000000,"state":"active","ping":67},{"user_id":696,"name":"fonz!E","steam_id":76561197987165510,"connected_time":1113000000000,"state":"active","ping":52},{"user_id":641,"name":"AimBÃ¼tter","steam_id":76561198060108739,"connected_time":5566000000000,"state":"active","ping":50},{"user_id":690,"name":"S O U N D W A V E","steam_id":76561198093417449,"connected_time":1623000000000,"state":"active","ping":45},{"user_id":686,"name":"dougrocks421","steam_id":76561198165063918,"connected_time":1708000000000,"state":"active","ping":88},{"user_id":707,"name":"shakoiwa","steam_id":76561199059441773,"connected_time":46000000000,"state":"active","ping":81},{"user_id":706,"name":"Electric Owl","steam_id":76561198318126190,"connected_time":431000000000,"state":"active","ping":168},{"user_id":580,"name":"Zaiah","steam_id":76561198377588247,"connected_time":10377000000000,"state":"active","ping":83},{"user_id":680,"name":"Wackoghost0722","steam_id":76561198359017849,"connected_time":1973000000000,"state":"active","ping":86},{"user_id":671,"name":"rocketgreentea","steam_id":76561198081241988,"connected_time":2825000000000,"state":"active","ping":45},{"user_id":679,"name":"dAiLyGrInD","steam_id":76561198163531915,"connected_time":2363000000000,"state":"active","ping":95},{"user_id":673,"name":"DesuKyoryokuna","steam_id":76561198059739788,"connected_time":2736000000000,"state":"active","ping":58},{"user_id":692,"name":"cajili","steam_id":76561198797339812,"connected_time":1399000000000,"state":"active","ping":51},{"user_id":633,"name":"Joe ELO From Progressive","steam_id":76561198336597038,"connected_time":6644000000000,"state":"active","ping":62},{"user_id":678,"name":"two egg sandwhiches","steam_id":76561199084877166,"connected_time":2523000000000,"state":"active","ping":114}]},{"server_id":324,"name":"Uncletopia | Los Angeles | 3 | All Maps","name_short":"lax-3","host":"lax-1.us.uncletopia.com","port":27035,"enabled":true,"region":"us-west","cc":"us","latitude":33.94279,"longitude":-118.41004,"reserved":0,"last_update":"0001-01-01T00:00:00Z","name_a2s":"Uncletopia | Los Angeles | 3 | All Maps","protocol":17,"map":"koth_lakeside_final","folder":"tf","game":"Team Fortress","app_id":440,"player_count":0,"max_players":24,"Bots":0,"server_type":"Dedicated","server_os":"Linux","password":true,"vac":true,"version":"7932396","steam_id":85568392924510198,"keywords":["cp","nocrits","nodmgspread","uncletopia"],"game_id":440,"stv_port":27036,"stv_name":"Uncletopia | Los Angeles | 3 | All Maps | STV","players":null},{"server_id":25,"name":"Uncletopia | Los Angeles | 4 | Stopwatch Beta","name_short":"lax-4","host":"lax-1.us.uncletopia.com","port":27045,"enabled":true,"region":"us-west","cc":"us","latitude":33.94279,"longitude":-118.41004,"reserved":0,"last_update":"0001-01-01T00:00:00Z","name_a2s":"Uncletopia | Los Angeles | 4 | Stopwatch Beta","protocol":17,"map":"workshop/koth_clearcut_b15.ugc2107050255","folder":"tf","game":"Team Fortress","app_id":440,"player_count":0,"max_players":24,"Bots":0,"server_type":"Dedicated","server_os":"Linux","password":true,"vac":true,"version":"7932396","steam_id":85568392924510199,"keywords":["cp","nocrits","nodmgspread","uncletopia"],"game_id":440,"stv_port":27046,"stv_name":"Uncletopia | Los Angeles | 4 | Stopwatch Beta | STV","players":null},{"server_id":11,"name":"Uncletopia | London | 1 | All Maps","name_short":"lon-1","host":"lon-1.uk.uncletopia.com","port":27015,"enabled":true,"region":"eu","cc":"gb","latitude":51.509865,"longitude":-0.118092,"reserved":0,"last_update":"0001-01-01T00:00:00Z","name_a2s":"Uncletopia | London | 1 | All Maps","protocol":17,"map":"cp_snakewater_final1","folder":"tf","game":"Team Fortress","app_id":440,"player_count":0,"max_players":24,"Bots":0,"server_type":"Dedicated","server_os":"Linux","password":true,"vac":true,"version":"7932396","steam_id":85568392924367362,"keywords":["cp","nocrits","nodmgspread","uncletopia"],"game_id":440,"stv_port":27016,"stv_name":"Uncletopia | London | 1 | All Maps | STV","players":null},{"server_id":114,"name":"Uncletopia | London | 2 | All Maps","name_short":"lon-2","host":"lon-1.uk.uncletopia.com","port":27025,"enabled":true,"region":"eu","cc":"gb","latitude":51.509865,"longitude":-0.118092,"reserved":0,"last_update":"0001-01-01T00:00:00Z","name_a2s":"Uncletopia | London | 2 | All Maps","protocol":17,"map":"koth_highpass","folder":"tf","game":"Team Fortress","app_id":440,"player_count":0,"max_players":24,"Bots":0,"server_type":"Dedicated","server_os":"Linux","password":true,"vac":true,"version":"7932396","steam_id":85568392924470941,"keywords":["cp","nocrits","nodmgspread","uncletopia"],"game_id":440,"stv_port":27026,"stv_name":"Uncletopia | London | 2 | All Maps | STV","players":null},{"server_id":320,"name":"Uncletopia | London | 3 | All Maps","name_short":"lon-3","host":"lon-1.uk.uncletopia.com","port":27035,"enabled":true,"region":"eu","cc":"gb","latitude":51.509865,"longitude":-0.118092,"reserved":0,"last_update":"0001-01-01T00:00:00Z","name_a2s":"Uncletopia | London | 3 | All Maps","protocol":17,"map":"cp_altitude","folder":"tf","game":"Team Fortress","app_id":440,"player_count":0,"max_players":24,"Bots":0,"server_type":"Dedicated","server_os":"Linux","password":true,"vac":true,"version":"7932396","steam_id":85568392924510192,"keywords":["cp","nocrits","nodmgspread","uncletopia"],"game_id":440,"stv_port":27036,"stv_name":"Uncletopia | London | 3 | All Maps | STV","players":null},{"server_id":321,"name":"Uncletopia | London | 4 | All Maps","name_short":"lon-4","host":"lon-1.uk.uncletopia.com","port":27045,"enabled":true,"region":"eu","cc":"gb","latitude":51.509865,"longitude":-0.118092,"reserved":0,"last_update":"0001-01-01T00:00:00Z","name_a2s":"Uncletopia | London | 4 | All Maps","protocol":17,"map":"cp_snakewater_final1","folder":"tf","game":"Team Fortress","app_id":440,"player_count":0,"max_players":24,"Bots":0,"server_type":"Dedicated","server_os":"Linux","password":true,"vac":true,"version":"7932396","steam_id":85568392924510193,"keywords":["cp","nocrits","nodmgspread","uncletopia"],"game_id":440,"stv_port":27046,"stv_name":"Uncletopia | London | 4 | All Maps | STV","players":null},{"server_id":21,"name":"Uncletopia | London | 5 | All Maps","name_short":"lon-5","host":"lon-1.uk.uncletopia.com","port":27055,"enabled":true,"region":"eu","cc":"gb","latitude":51.509865,"longitude":-0.118092,"reserved":0,"last_update":"0001-01-01T00:00:00Z","name_a2s":"Uncletopia | London | 5 | All Maps","protocol":17,"map":"pl_borneo","folder":"tf","game":"Team Fortress","app_id":440,"player_count":0,"max_players":24,"Bots":0,"server_type":"Dedicated","server_os":"Linux","password":true,"vac":true,"version":"7932396","steam_id":85568392924742829,"keywords":["nocrits","nodmgspread","payload","uncletopia"],"game_id":440,"stv_port":27056,"stv_name":"Uncletopia | London | 5 | All Maps | STV","players":null},{"server_id":22,"name":"Uncletopia | London | 6 | All Maps","name_short":"lon-6","host":"lon-1.uk.uncletopia.com","port":27065,"enabled":true,"region":"eu","cc":"gb","latitude":51.509865,"longitude":-0.118092,"reserved":0,"last_update":"0001-01-01T00:00:00Z","name_a2s":"Uncletopia | London | 6 | All Maps","protocol":17,"map":"cp_process_final","folder":"tf","game":"Team Fortress","app_id":440,"player_count":20,"max_players":24,"Bots":0,"server_type":"Dedicated","server_os":"Linux","password":true,"vac":true,"version":"7932396","steam_id":85568392924742830,"keywords":["cp","nocrits","nodmgspread","uncletopia"],"game_id":440,"stv_port":27066,"stv_name":"Uncletopia | London | 6 | All Maps | STV","players":[{"user_id":57,"name":"Penis Contortionist","steam_id":76561198073663784,"connected_time":2750000000000,"state":"active","ping":32},{"user_id":4,"name":"beebo","steam_id":76561199120277007,"connected_time":6145000000000,"state":"active","ping":37},{"user_id":82,"name":"krazybenco (#savetf2)","steam_id":76561199251118761,"connected_time":45000000000,"state":"active","ping":306},{"user_id":76,"name":"Incomus","steam_id":76561198058342600,"connected_time":795000000000,"state":"active","ping":89},{"user_id":80,"name":"Bosch PSB 1800 Drill","steam_id":76561198300653059,"connected_time":300000000000,"state":"active","ping":89},{"user_id":61,"name":"-Kost1xx","steam_id":76561198160062258,"connected_time":2519000000000,"state":"active","ping":105},{"user_id":62,"name":"Julmuri","steam_id":76561198284843949,"connected_time":2344000000000,"state":"active","ping":125},{"user_id":49,"name":"in the house like carpet","steam_id":76561199480942903,"connected_time":3508000000000,"state":"active","ping":73},{"user_id":81,"name":"matthes","steam_id":76561198145465595,"connected_time":238000000000,"state":"active","ping":31},{"user_id":70,"name":"Perpetual Pub Push","steam_id":76561198256714846,"connected_time":1597000000000,"state":"active","ping":36},{"user_id":31,"name":"big naked bruh","steam_id":76561199179040672,"connected_time":5005000000000,"state":"active","ping":58},{"user_id":51,"name":"TuRnIp Maybe?","steam_id":76561199103094723,"connected_time":3164000000000,"state":"active","ping":174},{"user_id":56,"name":"AmssoBador Spacelot","steam_id":76561197993444617,"connected_time":2829000000000,"state":"active","ping":80},{"user_id":73,"name":"JonTurn","steam_id":76561198128323383,"connected_time":1023000000000,"state":"active","ping":36},{"user_id":71,"name":"Green","steam_id":76561198063046552,"connected_time":1403000000000,"state":"active","ping":84},{"user_id":22,"name":"Kaz","steam_id":76561198044844041,"connected_time":5612000000000,"state":"active","ping":95},{"user_id":64,"name":"Paladin","steam_id":76561198042593027,"connected_time":2248000000000,"state":"active","ping":95},{"user_id":41,"name":"regimiro","steam_id":76561198120457008,"connected_time":4513000000000,"state":"active","ping":53},{"user_id":66,"name":"Nodoka","steam_id":76561197992138411,"connected_time":2117000000000,"state":"active","ping":56},{"user_id":30,"name":"Bun","steam_id":76561197989239999,"connected_time":5154000000000,"state":"active","ping":56}]},{"server_id":40,"name":"Uncletopia | London | 7 | No Payload","name_short":"lon-7","host":"lon-1.uk.uncletopia.com","port":27075,"enabled":true,"region":"eu","cc":"gb","latitude":51.509865,"longitude":-0.118092,"reserved":0,"last_update":"0001-01-01T00:00:00Z","name_a2s":"Uncletopia | London | 7 | No Payload","protocol":17,"map":"pl_snowycoast","folder":"tf","game":"Team Fortress","app_id":440,"player_count":0,"max_players":24,"Bots":0,"server_type":"Dedicated","server_os":"Linux","password":true,"vac":true,"version":"7932396","steam_id":85568392924964314,"keywords":["nocrits","nodmgspread","payload","uncletopia"],"game_id":440,"stv_port":27076,"stv_name":"Uncletopia | London | 7 | No Payload | STV","players":null},{"server_id":41,"name":"Uncletopia | London | 8 | Community","name_short":"lon-8","host":"lon-1.uk.uncletopia.com","port":27085,"enabled":true,"region":"eu","cc":"gb","latitude":51.509865,"longitude":-0.118092,"reserved":0,"last_update":"0001-01-01T00:00:00Z","name_a2s":"Uncletopia | London | 8 | Community","protocol":17,"map":"pl_barnblitz","folder":"tf","game":"Team Fortress","app_id":440,"player_count":0,"max_players":24,"Bots":0,"server_type":"Dedicated","server_os":"Linux","password":true,"vac":true,"version":"7932396","steam_id":85568392924964315,"keywords":["nocrits","nodmgspread","payload","uncletopia"],"game_id":440,"stv_port":27086,"stv_name":"Uncletopia | London | 8 | Community | STV","players":null},{"server_id":300,"name":"Uncletopia | MontrÃ©al | 1 | All Maps","name_short":"mtl-1","host":"mtl-1.ca.uncletopia.com","port":27015,"enabled":true,"region":"us-east","cc":"ca","latitude":45.50889,"longitude":-73.56167,"reserved":0,"last_update":"0001-01-01T00:00:00Z","name_a2s":"Uncletopia | MontrÃ©al | 1 | All Maps","protocol":17,"map":"cp_altitude","folder":"tf","game":"Team Fortress","app_id":440,"player_count":0,"max_players":24,"Bots":0,"server_type":"Dedicated","server_os":"Linux","password":true,"vac":true,"version":"7932396","steam_id":85568392924500087,"keywords":["cp","nocrits","nodmgspread","uncletopia"],"game_id":440,"stv_port":27016,"stv_name":"Uncletopia | MontrÃ©al | 1 | All Maps | STV","players":null},{"server_id":301,"name":"Uncletopia | MontrÃ©al | 2 | All Maps","name_short":"mtl-2","host":"mtl-1.ca.uncletopia.com","port":27025,"enabled":true,"region":"us-east","cc":"ca","latitude":45.50889,"longitude":-73.56167,"reserved":0,"last_update":"0001-01-01T00:00:00Z","name_a2s":"Uncletopia | MontrÃ©al | 2 | All Maps","protocol":17,"map":"koth_king","folder":"tf","game":"Team Fortress","app_id":440,"player_count":0,"max_players":24,"Bots":0,"server_type":"Dedicated","server_os":"Linux","password":true,"vac":true,"version":"7932396","steam_id":85568392924500088,"keywords":["cp","nocrits","nodmgspread","uncletopia"],"game_id":440,"stv_port":27026,"stv_name":"Uncletopia | MontrÃ©al | 2 | All Maps | STV","players":null},{"server_id":302,"name":"Uncletopia | MontrÃ©al | 3 | All Maps","name_short":"mtl-3","host":"mtl-1.ca.uncletopia.com","port":27035,"enabled":true,"region":"us-east","cc":"ca","latitude":45.50889,"longitude":-73.56167,"reserved":0,"last_update":"0001-01-01T00:00:00Z","name_a2s":"Uncletopia | MontrÃ©al | 3 | All Maps","protocol":17,"map":"pl_snowycoast","folder":"tf","game":"Team Fortress","app_id":440,"player_count":0,"max_players":24,"Bots":0,"server_type":"Dedicated","server_os":"Linux","password":true,"vac":true,"version":"7932396","steam_id":85568392924500089,"keywords":["nocrits","nodmgspread","payload","uncletopia"],"game_id":440,"stv_port":27036,"stv_name":"Uncletopia | MontrÃ©al | 3 | All Maps | STV","players":null},{"server_id":303,"name":"Uncletopia | MontrÃ©al | 4 | No Payload","name_short":"mtl-4","host":"mtl-1.ca.uncletopia.com","port":27045,"enabled":true,"region":"us-east","cc":"ca","latitude":45.50889,"longitude":-73.56167,"reserved":0,"last_update":"0001-01-01T00:00:00Z","name_a2s":"Uncletopia | MontrÃ©al | 4 | No Payload","protocol":17,"map":"koth_king","folder":"tf","game":"Team Fortress","app_id":440,"player_count":0,"max_players":24,"Bots":0,"server_type":"Dedicated","server_os":"Linux","password":true,"vac":true,"version":"7932396","steam_id":85568392924500090,"keywords":["cp","nocrits","nodmgspread","uncletopia"],"game_id":440,"stv_port":27046,"stv_name":"Uncletopia | MontrÃ©al | 4 | No Payload | STV","players":null},{"server_id":13,"name":"Uncletopia | New York City | 1 | All Maps","name_short":"nyc-1","host":"nyc-1.us.uncletopia.com","port":27015,"enabled":true,"region":"us-east","cc":"us","latitude":40.73061,"longitude":-73.93524,"reserved":0,"last_update":"0001-01-01T00:00:00Z","name_a2s":"Uncletopia | New York City | 1 | All Maps","protocol":17,"map":"pl_barnblitz","folder":"tf","game":"Team Fortress","app_id":440,"player_count":22,"max_players":24,"Bots":0,"server_type":"Dedicated","server_os":"Linux","password":true,"vac":true,"version":"7932396","steam_id":85568392924469993,"keywords":["nocrits","nodmgspread","payload","uncletopia"],"game_id":440,"stv_port":27016,"stv_name":"Uncletopia | New York City | 1 | All Maps | STV","players":[{"user_id":734,"name":"littlesack","steam_id":76561197960270526,"connected_time":139000000000,"state":"active","ping":75},{"user_id":735,"name":"sevner","steam_id":76561198274210409,"connected_time":85000000000,"state":"active","ping":43},{"user_id":717,"name":"Virtual Zorua","steam_id":76561198196180302,"connected_time":1791000000000,"state":"active","ping":61},{"user_id":736,"name":"ChozoChorizo","steam_id":76561198272609196,"connected_time":73000000000,"state":"active","ping":73},{"user_id":682,"name":"xFactr","steam_id":76561198129007422,"connected_time":4362000000000,"state":"active","ping":39},{"user_id":709,"name":"American Dad","steam_id":76561198059711448,"connected_time":2308000000000,"state":"active","ping":80},{"user_id":723,"name":"Gentoo Linux Gaming","steam_id":76561197999657118,"connected_time":976000000000,"state":"active","ping":61},{"user_id":737,"name":"hatsune miku","steam_id":76561199445009981,"connected_time":24000000000,"state":"active","ping":117},{"user_id":674,"name":"Dan","steam_id":76561198205054883,"connected_time":5123000000000,"state":"active","ping":126},{"user_id":711,"name":"QWERTY","steam_id":76561198211430420,"connected_time":2217000000000,"state":"active","ping":76},{"user_id":712,"name":"Bee","steam_id":76561198074681324,"connected_time":2199000000000,"state":"active","ping":47},{"user_id":728,"name":"Paradox","steam_id":76561198284164847,"connected_time":697000000000,"state":"active","ping":58},{"user_id":707,"name":"Gason Homoa","steam_id":76561199000180522,"connected_time":2726000000000,"state":"active","ping":74},{"user_id":685,"name":"Wique","steam_id":76561198071217597,"connected_time":4184000000000,"state":"active","ping":68},{"user_id":732,"name":"joethefool","steam_id":76561199015436319,"connected_time":461000000000,"state":"active","ping":55},{"user_id":713,"name":"Daisy Le Nerd","steam_id":76561198149350087,"connected_time":2162000000000,"state":"active","ping":160},{"user_id":714,"name":"DededeMain | trade.tf","steam_id":76561198310951632,"connected_time":2139000000000,"state":"active","ping":57},{"user_id":729,"name":"oomper","steam_id":76561199189982701,"connected_time":668000000000,"state":"active","ping":69},{"user_id":730,"name":"8bitw0rld","steam_id":76561198092788818,"connected_time":606000000000,"state":"active","ping":115},{"user_id":715,"name":"Ludcmorais","steam_id":76561198359217809,"connected_time":2110000000000,"state":"active","ping":168},{"user_id":733,"name":"DoggyStyle","steam_id":76561198387780073,"connected_time":255000000000,"state":"active","ping":138},{"user_id":716,"name":"Rumi_killer","steam_id":76561198077439866,"connected_time":2070000000000,"state":"active","ping":131}]},{"server_id":14,"name":"Uncletopia | New York City | 2 | All Maps","name_short":"nyc-2","host":"nyc-1.us.uncletopia.com","port":27025,"enabled":true,"region":"us-east","cc":"us","latitude":40.73061,"longitude":-73.93524,"reserved":0,"last_update":"0001-01-01T00:00:00Z","name_a2s":"Uncletopia | New York City | 2 | All Maps","protocol":17,"map":"cp_mountainlab","folder":"tf","game":"Team Fortress","app_id":440,"player_count":0,"max_players":24,"Bots":0,"server_type":"Dedicated","server_os":"Linux","password":true,"vac":true,"version":"7932396","steam_id":85568392924469994,"keywords":["cp","nocrits","nodmgspread","uncletopia"],"game_id":440,"stv_port":27026,"stv_name":"Uncletopia | New York City | 2 | All Maps | STV","players":null},{"server_id":15,"name":"Uncletopia | New York City | 3 | Stopwatch Beta","name_short":"nyc-3","host":"nyc-1.us.uncletopia.com","port":27035,"enabled":true,"region":"us-east","cc":"us","latitude":40.73061,"longitude":-73.93524,"reserved":0,"last_update":"0001-01-01T00:00:00Z","name_a2s":"Uncletopia | New York City | 3 | Stopwatch Beta","protocol":17,"map":"koth_lakeside_final","folder":"tf","game":"Team Fortress","app_id":440,"player_count":0,"max_players":24,"Bots":0,"server_type":"Dedicated","server_os":"Linux","password":true,"vac":true,"version":"7932396","steam_id":85568392924742820,"keywords":["cp","nocrits","nodmgspread","uncletopia"],"game_id":440,"stv_port":27036,"stv_name":"Uncletopia | New York City | 3 | Stopwatch Beta | STV","players":null},{"server_id":16,"name":"Uncletopia | New York City | 4 | Community","name_short":"nyc-4","host":"nyc-1.us.uncletopia.com","port":27045,"enabled":true,"region":"us-east","cc":"us","latitude":40.73061,"longitude":-73.93524,"reserved":0,"last_update":"0001-01-01T00:00:00Z","name_a2s":"Uncletopia | New York City | 4 | Community","protocol":17,"map":"workshop/cp_indulge.ugc528106646","folder":"tf","game":"Team Fortress","app_id":440,"player_count":0,"max_players":24,"Bots":0,"server_type":"Dedicated","server_os":"Linux","password":true,"vac":true,"version":"7932396","steam_id":85568392924742821,"keywords":["cp","nocrits","nodmgspread","uncletopia"],"game_id":440,"stv_port":27046,"stv_name":"Uncletopia | New York City | 4 | Community | STV","players":null},{"server_id":142,"name":"Uncletopia | SÃ£o Paulo | 1 | All Maps","name_short":"sao-1","host":"sao-1.br.uncletopia.com","port":27015,"enabled":true,"region":"sa","cc":"br","latitude":-23.533773,"longitude":-46.62529,"reserved":0,"last_update":"0001-01-01T00:00:00Z","name_a2s":"Uncletopia | SÃ£o Paulo | 1 | All Maps","protocol":17,"map":"pl_barnblitz","folder":"tf","game":"Team Fortress","app_id":440,"player_count":0,"max_players":24,"Bots":0,"server_type":"Dedicated","server_os":"Linux","password":true,"vac":true,"version":"7932396","steam_id":85568392924469996,"keywords":["nocrits","nodmgspread","payload","uncletopia"],"game_id":440,"stv_port":27016,"stv_name":"Uncletopia | SÃ£o Paulo | 1 | All Maps | STV","players":null},{"server_id":143,"name":"Uncletopia | SÃ£o Paulo | 2 | All Maps","name_short":"sao-2","host":"sao-2.br.uncletopia.com","port":27015,"enabled":true,"region":"sa","cc":"br","latitude":-23.533773,"longitude":-46.62529,"reserved":0,"last_update":"0001-01-01T00:00:00Z","name_a2s":"Uncletopia | SÃ£o Paulo | 2 | All Maps","protocol":17,"map":"koth_cascade","folder":"tf","game":"Team Fortress","app_id":440,"player_count":0,"max_players":24,"Bots":0,"server_type":"Dedicated","server_os":"Linux","password":true,"vac":true,"version":"7932396","steam_id":85568392924485349,"keywords":["cp","nocrits","nodmgspread","uncletopia"],"game_id":440,"stv_port":27016,"stv_name":"Uncletopia | SÃ£o Paulo | 2 | All Maps | STV","players":null},{"server_id":7,"name":"Uncletopia | Seattle | 1 | All Maps","name_short":"sea-1","host":"sea-1.us.uncletopia.com","port":27015,"enabled":true,"region":"us-west","cc":"us","latitude":47.608013,"longitude":-122.33517,"reserved":0,"last_update":"0001-01-01T00:00:00Z","name_a2s":"Uncletopia | Seattle | 1 | All Maps","protocol":17,"map":"cp_mountainlab","folder":"tf","game":"Team Fortress","app_id":440,"player_count":24,"max_players":24,"Bots":0,"server_type":"Dedicated","server_os":"Linux","password":true,"vac":true,"version":"7932396","steam_id":85568392924469997,"keywords":["cp","nocrits","nodmgspread","uncletopia"],"game_id":440,"stv_port":27016,"stv_name":"Uncletopia | Seattle | 1 | All Maps | STV","players":[{"user_id":602,"name":"mub","steam_id":76561197961943948,"connected_time":69000000000,"state":"active","ping":45},{"user_id":583,"name":"delight","steam_id":76561197980280272,"connected_time":2153000000000,"state":"active","ping":45},{"user_id":542,"name":"oil","steam_id":76561198099980149,"connected_time":5420000000000,"state":"active","ping":75},{"user_id":500,"name":"ophiocordyceps","steam_id":76561198169755734,"connected_time":10043000000000,"state":"active","ping":60},{"user_id":593,"name":"Chocc-_-","steam_id":76561198068070211,"connected_time":1238000000000,"state":"active","ping":84},{"user_id":601,"name":"im mr ____hed look at me","steam_id":76561198051751133,"connected_time":136000000000,"state":"active","ping":51},{"user_id":578,"name":"Doctorâ„¢","steam_id":76561198134309750,"connected_time":2629000000000,"state":"active","ping":118},{"user_id":534,"name":"The King of Piss World","steam_id":76561198082806956,"connected_time":6534000000000,"state":"active","ping":146},{"user_id":594,"name":"Stev the Prurient Oxymoron","steam_id":76561197999442625,"connected_time":1238000000000,"state":"active","ping":64},{"user_id":570,"name":"rat gets the cheese","steam_id":76561198031234032,"connected_time":3209000000000,"state":"active","ping":96},{"user_id":589,"name":":(){ :|:\u0026 };:","steam_id":76561198115242460,"connected_time":1260000000000,"state":"active","ping":54},{"user_id":537,"name":"lasky","steam_id":76561198017030029,"connected_time":6492000000000,"state":"active","ping":72},{"user_id":585,"name":"squash","steam_id":76561198150281353,"connected_time":1277000000000,"state":"active","ping":56},{"user_id":600,"name":"Sniff","steam_id":76561198010270922,"connected_time":241000000000,"state":"active","ping":60},{"user_id":563,"name":"lusty","steam_id":76561198138478947,"connected_time":4511000000000,"state":"active","ping":45},{"user_id":587,"name":"mike, 2.4 GPA","steam_id":76561198225411004,"connected_time":1269000000000,"state":"active","ping":74},{"user_id":544,"name":"NEBULA","steam_id":76561198086878595,"connected_time":5416000000000,"state":"active","ping":75},{"user_id":545,"name":"ed","steam_id":76561198080475712,"connected_time":5405000000000,"state":"active","ping":71},{"user_id":572,"name":"Meso","steam_id":76561199088153190,"connected_time":3159000000000,"state":"active","ping":57},{"user_id":576,"name":"Evolved Equinox","steam_id":76561198129832568,"connected_time":2804000000000,"state":"active","ping":83},{"user_id":598,"name":"jorts","steam_id":76561199041179985,"connected_time":1104000000000,"state":"active","ping":57},{"user_id":557,"name":"Arsonist Goose","steam_id":76561198147441830,"connected_time":4680000000000,"state":"active","ping":72},{"user_id":590,"name":"Sleuth","steam_id":76561198418288939,"connected_time":1259000000000,"state":"active","ping":75},{"user_id":599,"name":"rorywashere /á  - Ë• -ãƒž â³Š","steam_id":76561198065825165,"connected_time":1058000000000,"state":"active","ping":110}]},{"server_id":119,"name":"Uncletopia | Seattle | 2 | All Maps","name_short":"sea-2","host":"sea-1.us.uncletopia.com","port":27025,"enabled":true,"region":"us-west","cc":"us","latitude":47.608013,"longitude":-122.33517,"reserved":0,"last_update":"0001-01-01T00:00:00Z","name_a2s":"Uncletopia | Seattle | 2 | All Maps","protocol":17,"map":"pl_upward","folder":"tf","game":"Team Fortress","app_id":440,"player_count":24,"max_players":24,"Bots":0,"server_type":"Dedicated","server_os":"Linux","password":true,"vac":true,"version":"7932396","steam_id":85568392924469998,"keywords":["nocrits","nodmgspread","payload","uncletopia"],"game_id":440,"stv_port":27026,"stv_name":"Uncletopia | Seattle | 2 | All Maps | STV","players":[{"user_id":939,"name":"skosgo -eg","steam_id":76561197996403345,"connected_time":1229000000000,"state":"active","ping":81},{"user_id":932,"name":"UnReLinked","steam_id":76561199366044663,"connected_time":1609000000000,"state":"active","ping":52},{"user_id":949,"name":"hedahman","steam_id":76561198052398134,"connected_time":645000000000,"state":"active","ping":40},{"user_id":956,"name":"KAWAII.SK!TZO","steam_id":76561198355290984,"connected_time":342000000000,"state":"active","ping":55},{"user_id":931,"name":"Doesn't Care","steam_id":76561198047419014,"connected_time":1751000000000,"state":"active","ping":110},{"user_id":950,"name":"dshim í•˜í•˜í•˜í•˜í•˜","steam_id":76561197987547840,"connected_time":602000000000,"state":"active","ping":58},{"user_id":974,"name":"Urist McDwarf","steam_id":76561198164004939,"connected_time":45000000000,"state":"active","ping":87},{"user_id":935,"name":"10 FPS Gaymer","steam_id":76561199200969139,"connected_time":1492000000000,"state":"active","ping":123},{"user_id":910,"name":"â˜†ShinyMew112","steam_id":76561198042820161,"connected_time":3842000000000,"state":"active","ping":89},{"user_id":970,"name":"StayFrosty","steam_id":76561198343553078,"connected_time":136000000000,"state":"active","ping":118},{"user_id":944,"name":"Japanese Pizza Girlfriend","steam_id":76561198044855147,"connected_time":928000000000,"state":"active","ping":43},{"user_id":969,"name":"ShapedSky0","steam_id":76561199486555735,"connected_time":159000000000,"state":"active","ping":111},{"user_id":971,"name":"t2h","steam_id":76561198057944303,"connected_time":133000000000,"state":"active","ping":75},{"user_id":951,"name":"Monarch of Glass","steam_id":76561198165638237,"connected_time":599000000000,"state":"active","ping":44},{"user_id":957,"name":"Tommy da bird","steam_id":76561198136340711,"connected_time":329000000000,"state":"active","ping":103},{"user_id":954,"name":"medd","steam_id":76561198078238722,"connected_time":427000000000,"state":"active","ping":42},{"user_id":955,"name":"Domino's App ft. Hatsune Miku","steam_id":76561198073853955,"connected_time":369000000000,"state":"active","ping":70},{"user_id":958,"name":"I dont know what to write","steam_id":76561198350994978,"connected_time":275000000000,"state":"active","ping":67},{"user_id":959,"name":"type \"bad med\" to remove","steam_id":76561198076402476,"connected_time":269000000000,"state":"active","ping":100},{"user_id":960,"name":"spiders n snakes","steam_id":76561198102681457,"connected_time":266000000000,"state":"active","ping":123},{"user_id":961,"name":"âŽâ§¹MythicalTwinkieâ§¸âŽ ","steam_id":76561198167969738,"connected_time":255000000000,"state":"active","ping":61},{"user_id":962,"name":"Jimbo","steam_id":76561198082238388,"connected_time":253000000000,"state":"active","ping":79},{"user_id":973,"name":"trans susie my beloved \u003c3","steam_id":76561199183686977,"connected_time":63000000000,"state":"active","ping":65},{"user_id":968,"name":"kaede","steam_id":76561198345528370,"connected_time":182000000000,"state":"active","ping":57}]},{"server_id":406,"name":"Uncletopia | Seattle | 3 | Stopwatch Beta","name_short":"sea-3","host":"sea-1.us.uncletopia.com","port":27035,"enabled":true,"region":"us-west","cc":"us","latitude":47.608013,"longitude":-122.33517,"reserved":0,"last_update":"0001-01-01T00:00:00Z","name_a2s":"Uncletopia | Seattle | 3 | Stopwatch Beta","protocol":17,"map":"workshop/koth_clearcut_b15.ugc2107050255","folder":"tf","game":"Team Fortress","app_id":440,"player_count":0,"max_players":24,"Bots":0,"server_type":"Dedicated","server_os":"Linux","password":true,"vac":true,"version":"7932396","steam_id":85568392924515217,"keywords":["cp","nocrits","nodmgspread","uncletopia"],"game_id":440,"stv_port":27036,"stv_name":"Uncletopia | Seattle | 3 | Stopwatch Beta | STV","players":null},{"server_id":17,"name":"Uncletopia | San Francisco | 1 | All Maps","name_short":"sfo-1","host":"sfo-1.us.uncletopia.com","port":27015,"enabled":true,"region":"us-west","cc":"us","latitude":37.77397,"longitude":-122.4313,"reserved":0,"last_update":"0001-01-01T00:00:00Z","name_a2s":"Uncletopia | San Francisco | 1 | All Maps","protocol":17,"map":"cp_dustbowl","folder":"tf","game":"Team Fortress","app_id":440,"player_count":9,"max_players":24,"Bots":0,"server_type":"Dedicated","server_os":"Linux","password":true,"vac":true,"version":"7932396","steam_id":85568392924469999,"keywords":["cp","nocrits","nodmgspread","uncletopia"],"game_id":440,"stv_port":27016,"stv_name":"Uncletopia | San Francisco | 1 | All Maps | STV","players":[{"user_id":306,"name":"Pan Enthusiast","steam_id":76561199062953996,"connected_time":1015000000000,"state":"active","ping":46},{"user_id":319,"name":"Green Icicle","steam_id":76561198069624529,"connected_time":83000000000,"state":"active","ping":60},{"user_id":320,"name":"aegic0la","steam_id":76561198120284650,"connected_time":47000000000,"state":"active","ping":85},{"user_id":321,"name":"SCARED THE HOES.","steam_id":76561198198583633,"connected_time":37000000000,"state":"active","ping":111},{"user_id":322,"name":"Bonk, Gifter of Steroids","steam_id":76561198378821621,"connected_time":5000000000,"state":"spawning","ping":81},{"user_id":307,"name":"LennyDaLemon","steam_id":76561198855962735,"connected_time":1011000000000,"state":"active","ping":68},{"user_id":287,"name":"DMJanitor","steam_id":76561198058929753,"connected_time":1968000000000,"state":"active","ping":57},{"user_id":317,"name":"Sir Nope (TSS)","steam_id":76561198035935649,"connected_time":537000000000,"state":"active","ping":60},{"user_id":292,"name":"OrangeSodaMachine","steam_id":76561198079230156,"connected_time":1597000000000,"state":"active","ping":107}]},{"server_id":18,"name":"Uncletopia | San Francisco | 2 | All Maps","name_short":"sfo-2","host":"sfo-1.us.uncletopia.com","port":27025,"enabled":true,"region":"us-west","cc":"us","latitude":37.77397,"longitude":-122.4313,"reserved":0,"last_update":"0001-01-01T00:00:00Z","name_a2s":"Uncletopia | San Francisco | 2 | All Maps","protocol":17,"map":"pl_upward","folder":"tf","game":"Team Fortress","app_id":440,"player_count":20,"max_players":24,"Bots":0,"server_type":"Dedicated","server_os":"Linux","password":true,"vac":true,"version":"7932396","steam_id":85568392924470000,"keywords":["nocrits","nodmgspread","payload","uncletopia"],"game_id":440,"stv_port":27026,"stv_name":"Uncletopia | San Francisco | 2 | All Maps | STV","players":[{"user_id":308,"name":"Wavelengths","steam_id":76561197997621320,"connected_time":529000000000,"state":"active","ping":95},{"user_id":293,"name":"Lenoty","steam_id":76561198028714068,"connected_time":1362000000000,"state":"active","ping":89},{"user_id":315,"name":"TEAM WIMPY BIG L0SER","steam_id":76561198392514273,"connected_time":45000000000,"state":"active","ping":61},{"user_id":277,"name":"Grand","steam_id":76561198290143399,"connected_time":2743000000000,"state":"active","ping":74},{"user_id":311,"name":"Puskinti","steam_id":76561198032120688,"connected_time":452000000000,"state":"active","ping":76},{"user_id":309,"name":"UltShuip","steam_id":76561198074339262,"connected_time":492000000000,"state":"active","ping":46},{"user_id":229,"name":"Truffles","steam_id":76561198095868800,"connected_time":5948000000000,"state":"active","ping":119},{"user_id":197,"name":"ant5678910","steam_id":76561199036142684,"connected_time":8159000000000,"state":"active","ping":53},{"user_id":271,"name":"JustaTroll","steam_id":76561198351004116,"connected_time":3139000000000,"state":"active","ping":59},{"user_id":310,"name":"OneMisguidedSlyGuy","steam_id":76561198372243261,"connected_time":476000000000,"state":"active","ping":50},{"user_id":291,"name":"Landogg","steam_id":76561198049000586,"connected_time":1549000000000,"state":"active","ping":60},{"user_id":299,"name":"HeavenHearst","steam_id":76561198066083947,"connected_time":1135000000000,"state":"active","ping":109},{"user_id":306,"name":"Donut_Dom","steam_id":76561198058434230,"connected_time":852000000000,"state":"active","ping":76},{"user_id":312,"name":"bengineer","steam_id":76561198171912174,"connected_time":379000000000,"state":"active","ping":69},{"user_id":302,"name":"kuwumi tokisucky","steam_id":76561198151244565,"connected_time":1068000000000,"state":"active","ping":53},{"user_id":313,"name":"CreativeName","steam_id":76561198853344895,"connected_time":306000000000,"state":"active","ping":54},{"user_id":314,"name":"Kylek1133","steam_id":76561198277595899,"connected_time":225000000000,"state":"active","ping":70},{"user_id":307,"name":"huh","steam_id":76561198272057200,"connected_time":842000000000,"state":"active","ping":46},{"user_id":77,"name":"riSygneD","steam_id":76561198331618687,"connected_time":18212000000000,"state":"active","ping":43},{"user_id":304,"name":"Galactamarx","steam_id":76561198028065755,"connected_time":1003000000000,"state":"active","ping":102}]},{"server_id":19,"name":"Uncletopia | San Francisco | 3 | Stopwatch Beta","name_short":"sfo-3","host":"sfo-1.us.uncletopia.com","port":27035,"enabled":true,"region":"us-west","cc":"us","latitude":37.77397,"longitude":-122.4313,"reserved":0,"last_update":"0001-01-01T00:00:00Z","name_a2s":"Uncletopia | San Francisco | 3 | Stopwatch Beta","protocol":17,"map":"workshop/pl_badwater_pro_v12.ugc2142942074","folder":"tf","game":"Team Fortress","app_id":440,"player_count":0,"max_players":24,"Bots":0,"server_type":"Dedicated","server_os":"Linux","password":true,"vac":true,"version":"7932396","steam_id":85568392924742824,"keywords":["nocrits","nodmgspread","payload","uncletopia"],"game_id":440,"stv_port":27036,"stv_name":"Uncletopia | San Francisco | 3 | Stopwatch Beta | STV","players":null},{"server_id":20,"name":"Uncletopia | San Francisco | 4 | Community","name_short":"sfo-4","host":"sfo-1.us.uncletopia.com","port":27045,"enabled":true,"region":"us-west","cc":"us","latitude":37.77397,"longitude":-122.4313,"reserved":0,"last_update":"0001-01-01T00:00:00Z","name_a2s":"Uncletopia | San Francisco | 4 | Community","protocol":17,"map":"workshop/koth_trenchfoot_b1a.ugc731436616","folder":"tf","game":"Team Fortress","app_id":440,"player_count":0,"max_players":24,"Bots":0,"server_type":"Dedicated","server_os":"Linux","password":true,"vac":true,"version":"7932396","steam_id":85568392924742826,"keywords":["cp","nocrits","nodmgspread","uncletopia"],"game_id":440,"stv_port":27046,"stv_name":"Uncletopia | San Francisco | 4 | Community | STV","players":null},{"server_id":141,"name":"Uncletopia | Sydney | 1 | All Maps","name_short":"syd-1","host":"syd-1.au.uncletopia.com","port":27015,"enabled":true,"region":"au","cc":"au","latitude":-33.865143,"longitude":151.2099,"reserved":0,"last_update":"0001-01-01T00:00:00Z","name_a2s":"Uncletopia | Sydney | 1 | All Maps","protocol":17,"map":"pl_barnblitz","folder":"tf","game":"Team Fortress","app_id":440,"player_count":24,"max_players":24,"Bots":0,"server_type":"Dedicated","server_os":"Linux","password":true,"vac":true,"version":"7932396","steam_id":85568392924470001,"keywords":["nocrits","nodmgspread","payload","uncletopia"],"game_id":440,"stv_port":27016,"stv_name":"Uncletopia | Sydney | 1 | All Maps | STV","players":[{"user_id":13,"name":"Gallamellow","steam_id":76561198069046033,"connected_time":5178000000000,"state":"active","ping":32},{"user_id":51,"name":"Tees","steam_id":76561199174602317,"connected_time":2932000000000,"state":"active","ping":54},{"user_id":15,"name":"Morshu the Shopkeep","steam_id":76561198077196776,"connected_time":5036000000000,"state":"active","ping":52},{"user_id":71,"name":"1337kmSQUARED of brandon rampto","steam_id":76561198836003115,"connected_time":1758000000000,"state":"active","ping":60},{"user_id":19,"name":"uven","steam_id":76561198080981482,"connected_time":4743000000000,"state":"active","ping":42},{"user_id":66,"name":"R4V3-0N","steam_id":76561198103044000,"connected_time":2052000000000,"state":"active","ping":75},{"user_id":22,"name":"Rashid Of The Dank Memes","steam_id":76561198281398078,"connected_time":4589000000000,"state":"active","ping":77},{"user_id":23,"name":"Hungry for thumbtacks","steam_id":76561198059129270,"connected_time":4424000000000,"state":"active","ping":70},{"user_id":24,"name":"Zebadar","steam_id":76561198121318474,"connected_time":4384000000000,"state":"active","ping":56},{"user_id":53,"name":"actions speak louder than Merv","steam_id":76561198301282416,"connected_time":2825000000000,"state":"active","ping":57},{"user_id":82,"name":"OverTasked ãƒƒ","steam_id":76561198829465540,"connected_time":5000000000,"state":"spawning","ping":72},{"user_id":69,"name":"sf/k","steam_id":76561198047758776,"connected_time":1912000000000,"state":"active","ping":42},{"user_id":30,"name":"JeshÄ«","steam_id":76561198105982416,"connected_time":3948000000000,"state":"active","ping":52},{"user_id":32,"name":"jim :)","steam_id":76561198127508905,"connected_time":3793000000000,"state":"active","ping":37},{"user_id":57,"name":"â±£ðŒ„Å¤ðŒ„Ò°","steam_id":76561199140764838,"connected_time":2572000000000,"state":"active","ping":74},{"user_id":80,"name":"weezer","steam_id":76561199439508788,"connected_time":317000000000,"state":"active","ping":66},{"user_id":76,"name":"garnish master","steam_id":76561197996551827,"connected_time":1600000000000,"state":"active","ping":49},{"user_id":63,"name":"Sinister80s","steam_id":76561198343540472,"connected_time":2274000000000,"state":"active","ping":71},{"user_id":81,"name":"Mr_random_pants","steam_id":76561198123732123,"connected_time":159000000000,"state":"active","ping":62},{"user_id":43,"name":"horrid webbon á˜›âÌ¤á•á·","steam_id":76561198061998379,"connected_time":3409000000000,"state":"active","ping":49},{"user_id":75,"name":"RickDog","steam_id":76561198160382607,"connected_time":1632000000000,"state":"active","ping":62},{"user_id":78,"name":"ELITE","steam_id":76561198442911462,"connected_time":959000000000,"state":"active","ping":83},{"user_id":48,"name":"steezus christ","steam_id":76561198048064049,"connected_time":3152000000000,"state":"active","ping":84},{"user_id":79,"name":"you will be boiled","steam_id":76561198079351541,"connected_time":322000000000,"state":"active","ping":45}]},{"server_id":123,"name":"Uncletopia | Sydney | 2 | All Maps","name_short":"syd-2","host":"syd-1.au.uncletopia.com","port":27025,"enabled":true,"region":"au","cc":"au","latitude":-33.865143,"longitude":151.2099,"reserved":0,"last_update":"0001-01-01T00:00:00Z","name_a2s":"Uncletopia | Sydney | 2 | All Maps","protocol":17,"map":"cp_snakewater_final1","folder":"tf","game":"Team Fortress","app_id":440,"player_count":0,"max_players":24,"Bots":0,"server_type":"Dedicated","server_os":"Linux","password":true,"vac":true,"version":"7932396","steam_id":85568392924470002,"keywords":["cp","nocrits","nodmgspread","uncletopia"],"game_id":440,"stv_port":27026,"stv_name":"Uncletopia | Sydney | 2 | All Maps | STV","players":null},{"server_id":395,"name":"Uncletopia | Sydney | 3 | All Maps","name_short":"syd-3","host":"syd-1.au.uncletopia.com","port":27035,"enabled":true,"region":"au","cc":"au","latitude":-33.865143,"longitude":151.2099,"reserved":0,"last_update":"0001-01-01T00:00:00Z","name_a2s":"Uncletopia | Sydney | 3 | All Maps","protocol":17,"map":"pl_badwater","folder":"tf","game":"Team Fortress","app_id":440,"player_count":24,"max_players":24,"Bots":0,"server_type":"Dedicated","server_os":"Linux","password":true,"vac":true,"version":"7932396","steam_id":85568392925194467,"keywords":["nocrits","nodmgspread","payload","uncletopia"],"game_id":440,"stv_port":27036,"stv_name":"Uncletopia | Sydney | 3 | All Maps | STV","players":[{"user_id":5,"name":"EmpolÃ©","steam_id":76561198363939040,"connected_time":5805000000000,"state":"active","ping":73},{"user_id":53,"name":"your tf2 items are better on ou","steam_id":76561198027629227,"connected_time":123000000000,"state":"active","ping":37},{"user_id":8,"name":"Sterlingpace","steam_id":76561198217945053,"connected_time":2544000000000,"state":"active","ping":100},{"user_id":44,"name":"james16","steam_id":76561198362678073,"connected_time":535000000000,"state":"active","ping":43},{"user_id":10,"name":"astatine.deposit","steam_id":76561199106742327,"connected_time":1916000000000,"state":"active","ping":72},{"user_id":13,"name":"tenten","steam_id":76561198402822072,"connected_time":1642000000000,"state":"active","ping":91},{"user_id":29,"name":"gabe","steam_id":76561198088170040,"connected_time":948000000000,"state":"active","ping":54},{"user_id":19,"name":"tom :D","steam_id":76561198073393715,"connected_time":1326000000000,"state":"active","ping":99},{"user_id":17,"name":"nightmare2503","steam_id":76561199100642588,"connected_time":1480000000000,"state":"active","ping":65},{"user_id":18,"name":"Enchantress","steam_id":76561199212747967,"connected_time":1474000000000,"state":"active","ping":72},{"user_id":20,"name":"infinite toast","steam_id":76561198808826338,"connected_time":1286000000000,"state":"active","ping":103},{"user_id":21,"name":"The Lad","steam_id":76561198865537226,"connected_time":1286000000000,"state":"active","ping":84},{"user_id":55,"name":"Mass Debator","steam_id":76561198405227476,"connected_time":17000000000,"state":"spawning","ping":45},{"user_id":30,"name":"yilli_","steam_id":76561198210960700,"connected_time":920000000000,"state":"active","ping":53},{"user_id":54,"name":"Luc","steam_id":76561198081511347,"connected_time":30000000000,"state":"active","ping":68},{"user_id":51,"name":"we stay silly :3","steam_id":76561198132937542,"connected_time":375000000000,"state":"active","ping":60},{"user_id":32,"name":"asasasuop","steam_id":76561199166893972,"connected_time":899000000000,"state":"active","ping":95},{"user_id":27,"name":"Diionzo","steam_id":76561198314222747,"connected_time":1092000000000,"state":"active","ping":91},{"user_id":33,"name":"I'm using a controller","steam_id":76561198152210509,"connected_time":892000000000,"state":"active","ping":44},{"user_id":35,"name":"Owlensteinâ„¢","steam_id":76561198093983826,"connected_time":845000000000,"state":"active","ping":117},{"user_id":36,"name":"MindlessTie","steam_id":76561198107844324,"connected_time":815000000000,"state":"active","ping":61},{"user_id":37,"name":"stamm","steam_id":76561198041993019,"connected_time":741000000000,"state":"active","ping":68},{"user_id":49,"name":"Lumalee â¤","steam_id":76561198157613299,"connected_time":452000000000,"state":"active","ping":60},{"user_id":52,"name":"irradiated by dick particles","steam_id":76561198025225448,"connected_time":308000000000,"state":"active","ping":82}]},{"server_id":396,"name":"Uncletopia | Sydney | 4 | All Maps","name_short":"syd-4","host":"syd-1.au.uncletopia.com","port":27045,"enabled":true,"region":"au","cc":"au","latitude":-33.865143,"longitude":151.2099,"reserved":0,"last_update":"0001-01-01T00:00:00Z","name_a2s":"Uncletopia | Sydney | 4 | All Maps","protocol":17,"map":"pl_frontier_final","folder":"tf","game":"Team Fortress","app_id":440,"player_count":0,"max_players":24,"Bots":0,"server_type":"Dedicated","server_os":"Linux","password":true,"vac":true,"version":"7932396","steam_id":85568392925397958,"keywords":["nocrits","nodmgspread","payload","uncletopia"],"game_id":440,"stv_port":27046,"stv_name":"Uncletopia | Sydney | 4 | All Maps | STV","players":null},{"server_id":58,"name":"Uncletopia | Sydney | 5 | Stopwatch Beta","name_short":"syd-5","host":"syd-1.au.uncletopia.com","port":27055,"enabled":true,"region":"au","cc":"au","latitude":-33.865143,"longitude":151.2099,"reserved":0,"last_update":"0001-01-01T00:00:00Z","name_a2s":"Uncletopia | Sydney | 5 | Stopwatch Beta","protocol":17,"map":"pl_borneo","folder":"tf","game":"Team Fortress","app_id":440,"player_count":0,"max_players":24,"Bots":0,"server_type":"Dedicated","server_os":"Linux","password":true,"vac":true,"version":"7932396","steam_id":85568392925397959,"keywords":["nocrits","nodmgspread","payload","uncletopia"],"game_id":440,"stv_port":27056,"stv_name":"Uncletopia | Sydney | 5 | Stopwatch Beta | STV","players":null},{"server_id":59,"name":"Uncletopia | Sydney | 6 | Community","name_short":"syd-6","host":"syd-1.au.uncletopia.com","port":27065,"enabled":true,"region":"au","cc":"au","latitude":-33.865143,"longitude":151.2099,"reserved":0,"last_update":"0001-01-01T00:00:00Z","name_a2s":"Uncletopia | Sydney | 6 | Community","protocol":17,"map":"workshop/pl_divulgence_b4b.ugc2884808746","folder":"tf","game":"Team Fortress","app_id":440,"player_count":0,"max_players":24,"Bots":0,"server_type":"Dedicated","server_os":"Linux","password":true,"vac":true,"version":"7932396","steam_id":85568392925397960,"keywords":["nocrits","nodmgspread","payload","uncletopia"],"game_id":440,"stv_port":27066,"stv_name":"Uncletopia | Sydney | 6 | Community | STV","players":null},{"server_id":49,"name":"Uncletopia | Warsaw | 1 | All Maps","name_short":"waw-1","host":"waw-1.pl.uncletopia.com","port":27015,"enabled":true,"region":"eu","cc":"pl","latitude":52.2297,"longitude":21.017532,"reserved":0,"last_update":"0001-01-01T00:00:00Z","name_a2s":"","protocol":0,"map":"","folder":"","game":"","app_id":0,"player_count":0,"max_players":0,"Bots":0,"server_type":"","server_os":"","password":false,"vac":false,"version":"","steam_id":0,"keywords":null,"game_id":0,"stv_port":0,"stv_name":"","players":null},{"server_id":50,"name":"Uncletopia | Warsaw | 2 | All Maps","name_short":"waw-2","host":"waw-1.pl.uncletopia.com","port":27025,"enabled":true,"region":"eu","cc":"pl","latitude":52.2297,"longitude":21.017532,"reserved":0,"last_update":"0001-01-01T00:00:00Z","name_a2s":"Uncletopia | Warsaw | 2 | All Maps","protocol":17,"map":"koth_cascade","folder":"tf","game":"Team Fortress","app_id":440,"player_count":0,"max_players":24,"Bots":0,"server_type":"Dedicated","server_os":"Linux","password":true,"vac":true,"version":"7932396","steam_id":85568392925397851,"keywords":["cp","nocrits","nodmgspread","uncletopia"],"game_id":440,"stv_port":27026,"stv_name":"Uncletopia | Warsaw | 2 | All Maps | STV","players":null},{"server_id":51,"name":"Uncletopia | Warsaw | 3 | All Maps","name_short":"waw-3","host":"waw-1.pl.uncletopia.com","port":27035,"enabled":true,"region":"eu","cc":"pl","latitude":52.2297,"longitude":21.017532,"reserved":0,"last_update":"0001-01-01T00:00:00Z","name_a2s":"Uncletopia | Warsaw | 3 | All Maps","protocol":17,"map":"koth_lakeside_final","folder":"tf","game":"Team Fortress","app_id":440,"player_count":0,"max_players":24,"Bots":0,"server_type":"Dedicated","server_os":"Linux","password":true,"vac":true,"version":"7932396","steam_id":85568392925397852,"keywords":["cp","nocrits","nodmgspread","uncletopia"],"game_id":440,"stv_port":27036,"stv_name":"Uncletopia | Warsaw | 3 | All Maps | STV","players":null},{"server_id":52,"name":"Uncletopia | Warsaw | 4 | All Maps","name_short":"waw-4","host":"waw-1.pl.uncletopia.com","port":27045,"enabled":true,"region":"eu","cc":"pl","latitude":52.2297,"longitude":21.017532,"reserved":0,"last_update":"0001-01-01T00:00:00Z","name_a2s":"Uncletopia | Warsaw | 4 | All Maps","protocol":17,"map":"pl_swiftwater_final1","folder":"tf","game":"Team Fortress","app_id":440,"player_count":0,"max_players":24,"Bots":0,"server_type":"Dedicated","server_os":"Linux","password":true,"vac":true,"version":"7932396","steam_id":85568392925397853,"keywords":["nocrits","nodmgspread","payload","uncletopia"],"game_id":440,"stv_port":27046,"stv_name":"Uncletopia | Warsaw | 4 | All Maps | STV","players":null},{"server_id":53,"name":"Uncletopia | Warsaw | 5 | Stopwatch Beta","name_short":"waw-5","host":"waw-1.pl.uncletopia.com","port":27055,"enabled":true,"region":"eu","cc":"pl","latitude":52.2297,"longitude":21.017532,"reserved":0,"last_update":"0001-01-01T00:00:00Z","name_a2s":"Uncletopia | Warsaw | 5 | Stopwatch Beta","protocol":17,"map":"koth_highpass","folder":"tf","game":"Team Fortress","app_id":440,"player_count":0,"max_players":24,"Bots":0,"server_type":"Dedicated","server_os":"Linux","password":true,"vac":true,"version":"7932396","steam_id":85568392925397854,"keywords":["cp","nocrits","nodmgspread","uncletopia"],"game_id":440,"stv_port":27056,"stv_name":"Uncletopia | Warsaw | 5 | Stopwatch Beta | STV","players":null},{"server_id":54,"name":"Uncletopia | Warsaw | 6 | Community","name_short":"waw-6","host":"waw-1.pl.uncletopia.com","port":27065,"enabled":true,"region":"eu","cc":"pl","latitude":52.2297,"longitude":21.017532,"reserved":0,"last_update":"0001-01-01T00:00:00Z","name_a2s":"Uncletopia | Warsaw | 6 | Community","protocol":17,"map":"pl_upward","folder":"tf","game":"Team Fortress","app_id":440,"player_count":0,"max_players":24,"Bots":0,"server_type":"Dedicated","server_os":"Linux","password":true,"vac":true,"version":"7932396","steam_id":85568392925397856,"keywords":["nocrits","nodmgspread","payload","uncletopia"],"game_id":440,"stv_port":27066,"stv_name":"Uncletopia | Warsaw | 6 | Community | STV","players":null}]}