{"status":true,"message":"","result":[{"server_id":9,"name":"Uncletopia | Atlanta | 1 | All Maps","name_short":"atl-1","host":"atl-1.us.uncletopia.com","port":27015,"enabled":true,"region":"us-east","cc":"us","latitude":33.753746,"longitude":-84.38633,"reserved":0,"last_update":"0001-01-01T00:00:00Z","name_a2s":"Uncletopia | Atlanta | 1 | All Maps","protocol":17,"map":"pl_pier","folder":"tf","game":"Team Fortress","app_id":440,"player_count":24,"max_players":24,"Bots":0,"server_type":"Dedicated","server_os":"Linux","password":true,"vac":true,"version":"7961495","steam_id":85568392924469982,"keywords":["nocrits","nodmgspread","payload","uncletopia"],"game_id":440,"stv_port":27016,"stv_name":"Uncletopia | Atlanta | 1 | All Maps | STV","players":[{"user_id":270,"name":"DarkLink909","steam_id":76561198084139172,"connected_time":1116000000000,"state":"active","ping":64},{"user_id":280,"name":"The Cleveland Creamer","steam_id":76561198000468344,"connected_time":643000000000,"state":"active","ping":64},{"user_id":268,"name":"1st place love live fan","steam_id":76561198037951506,"connected_time":1678000000000,"state":"active","ping":57},{"user_id":273,"name":"lu","steam_id":76561198080731872,"connected_time":877000000000,"state":"active","ping":88},{"user_id":269,"name":"gallowsCalibrator","steam_id":76561198404707578,"connected_time":1566000000000,"state":"active","ping":59},{"user_id":247,"name":"Shmoopy","steam_id":76561198030459152,"connected_time":4086000000000,"state":"active","ping":60},{"user_id":239,"name":"tgirl swag","steam_id":76561198128164970,"connected_time":5561000000000,"state":"active","ping":104},{"user_id":274,"name":"Emprial","steam_id":76561198195574594,"connected_time":757000000000,"state":"active","ping":76},{"user_id":253,"name":"Pharaxer™","steam_id":76561198051236069,"connected_time":2826000000000,"state":"active","ping":151},{"user_id":243,"name":"Eridani","steam_id":76561198037289982,"connected_time":5232000000000,"state":"active","ping":82},{"user_id":281,"name":"YolkOnYou","steam_id":76561198088760655,"connected_time":584000000000,"state":"active","ping":164},{"user_id":275,"name":"BlackJosh","steam_id":76561198109102651,"connected_time":687000000000,"state":"active","ping":69},{"user_id":282,"name":"rose","steam_id":76561198048882285,"connected_time":582000000000,"state":"active","ping":62},{"user_id":129,"name":"awak","steam_id":76561198092135570,"connected_time":7684000000000,"state":"active","ping":60},{"user_id":131,"name":"eish","steam_id":76561198089463603,"connected_time":7602000000000,"state":"active","ping":124},{"user_id":286,"name":"juanjoesc","steam_id":76561198186368430,"connected_time":40000000000,"state":"active","ping":118},{"user_id":277,"name":"Douglas.","steam_id":76561198055974478,"connected_time":658000000000,"state":"active","ping":86},{"user_id":80,"name":"ATL1 | to4st","steam_id":76561198981009008,"connected_time":9909000000000,"state":"active","ping":72},{"user_id":278,"name":"Mayhem","steam_id":76561198063465337,"connected_time":656000000000,"state":"active","ping":77},{"user_id":261,"name":"Smooth, Refreshing Bleach™","steam_id":76561197981060504,"connected_time":2238000000000,"state":"active","ping":62},{"user_id":279,"name":"Darth","steam_id":76561198027621265,"connected_time":654000000000,"state":"active","ping":49},{"user_id":285,"name":"Octogawa","steam_id":76561198077724808,"connected_time":163000000000,"state":"active","ping":67},{"user_id":252,"name":"Tay1Qr","steam_id":76561198082809935,"connected_time":2883000000000,"state":"active","ping":64},{"user_id":257,"name":"Rat","steam_id":76561198137925582,"connected_time":2292000000000,"state":"active","ping":66}]},{"server_id":104,"name":"Uncletopia | Atlanta | 2 | All Maps","name_short":"atl-2","host":"atl-1.us.uncletopia.com","port":27025,"enabled":true,"region":"us-east","cc":"us","latitude":33.753746,"longitude":-84.38633,"reserved":0,"last_update":"0001-01-01T00:00:00Z","name_a2s":"Uncletopia | Atlanta | 2 | All Maps","protocol":17,"map":"pl_upward","folder":"tf","game":"Team Fortress","app_id":440,"player_count":24,"max_players":24,"Bots":0,"server_type":"Dedicated","server_os":"Linux","password":true,"vac":true,"version":"7961495","steam_id":85568392924469983,"keywords":["nocrits","nodmgspread","payload","uncletopia"],"game_id":440,"stv_port":27026,"stv_name":"Uncletopia | Atlanta | 2 | All Maps | STV","players":[{"user_id":111,"name":"♡ pepsi ♡","steam_id":76561198114655857,"connected_time":4653000000000,"state":"active","ping":115},{"user_id":140,"name":"STANLEY","steam_id":76561198812086921,"connected_time":2086000000000,"state":"active","ping":62},{"user_id":155,"name":"Brawns","steam_id":76561198045190199,"connected_time":647000000000,"state":"active","ping":84},{"user_id":127,"name":"CreateADebate","steam_id":76561198115760035,"connected_time":3016000000000,"state":"active","ping":46},{"user_id":150,"name":"EliteSpartan","steam_id":76561198174023582,"connected_time":1112000000000,"state":"active","ping":61},{"user_id":70,"name":"confield","steam_id":76561198004322265,"connected_time":7711000000000,"state":"active","ping":51},{"user_id":131,"name":"squirt","steam_id":76561199169486012,"connected_time":2415000000000,"state":"active","ping":52},{"user_id":145,"name":"Chumster","steam_id":76561199120624891,"connected_time":1438000000000,"state":"active","ping":115},{"user_id":147,"name":"Wey","steam_id":76561198089235065,"connected_time":1378000000000,"state":"active","ping":99},{"user_id":132,"name":"ncc_42","steam_id":76561198066377700,"connected_time":2412000000000,"state":"active","ping":60},{"user_id":129,"name":"B0B_Bobson","steam_id":76561198400694217,"connected_time":2707000000000,"state":"active","ping":65},{"user_id":89,"name":"Nibelsnarf (She/They)","steam_id":76561198137642054,"connected_time":6002000000000,"state":"active","ping":44},{"user_id":133,"name":"GreenHam","steam_id":76561198094319270,"connected_time":2380000000000,"state":"active","ping":70},{"user_id":152,"name":"MacawAbalone","steam_id":76561198015127948,"connected_time":832000000000,"state":"active","ping":68},{"user_id":159,"name":"La()VaJ()86","steam_id":76561198247547042,"connected_time":420000000000,"state":"active","ping":110},{"user_id":154,"name":"UnkownGamerLOL","steam_id":76561198225902368,"connected_time":665000000000,"state":"active","ping":92},{"user_id":142,"name":"Vroooooooooooooooom","steam_id":76561198139913628,"connected_time":1749000000000,"state":"active","ping":73},{"user_id":128,"name":"Phoenix","steam_id":76561198068722818,"connected_time":2849000000000,"state":"active","ping":86},{"user_id":151,"name":"mootier","steam_id":76561198030365192,"connected_time":853000000000,"state":"active","ping":60},{"user_id":117,"name":"A Powerful Rat","steam_id":76561198010496776,"connected_time":4262000000000,"state":"active","ping":105},{"user_id":157,"name":"magamum!","steam_id":76561198880304614,"connected_time":600000000000,"state":"active","ping":59},{"user_id":158,"name":"adolf tickler","steam_id":76561198163120788,"connected_time":577000000000,"state":"active","ping":111},{"user_id":137,"name":"my monitor is off","steam_id":76561198148905570,"connected_time":2299000000000,"state":"active","ping":65},{"user_id":143,"name":"Mullz","steam_id":76561199124721324,"connected_time":1738000000000,"state":"active","ping":87}]},{"server_id":400,"name":"Uncletopia | Atlanta | 3 | Stopwatch","name_short":"atl-3","host":"atl-1.us.uncletopia.com","port":27035,"enabled":true,"region":"us-east","cc":"us","latitude":33.753746,"longitude":-84.38633,"reserved":0,"last_update":"0001-01-01T00:00:00Z","name_a2s":"Uncletopia | Atlanta | 3 | Stopwatch","protocol":17,"map":"workshop/pl_summercoast_rc8e.ugc1761528829","folder":"tf","game":"Team Fortress","app_id":440,"player_count":0,"max_players":24,"Bots":0,"server_type":"Dedicated","server_os":"Linux","password":true,"vac":true,"version":"7961495","steam_id":85568392924515187,"keywords":["nocrits","nodmgspread","payload","uncletopia"],"game_id":440,"stv_port":27036,"stv_name":"Uncletopia | Atlanta | 3 | Stopwatch | STV","players":null},{"server_id":401,"name":"Uncletopia | Atlanta | 4 | Community","name_short":"atl-4","host":"atl-1.us.uncletopia.com","port":27045,"enabled":true,"region":"us-east","cc":"us","latitude":33.753746,"longitude":-84.38633,"reserved":0,"last_update":"0001-01-01T00:00:00Z","name_a2s":"Uncletopia | Atlanta | 4 | Community","protocol":17,"map":"workshop/koth_ramjam_rc1.ugc459778887","folder":"tf","game":"Team Fortress","app_id":440,"player_count":0,"max_players":24,"Bots":0,"server_type":"Dedicated","server_os":"Linux","password":true,"vac":true,"version":"7961495","steam_id":85568392924515188,"keywords":["cp","nocrits","nodmgspread","uncletopia"],"game_id":440,"stv_port":27046,"stv_name":"Uncletopia | Atlanta | 4 | Community | STV","players":null},{"server_id":2,"name":"Uncletopia | Chicago | 1 | All Maps","name_short":"chi-1","host":"chi-1.us.uncletopia.com","port":27015,"enabled":true,"region":"us-central","cc":"us","latitude":41.881832,"longitude":-87.62318,"reserved":0,"last_update":"0001-01-01T00:00:00Z","name_a2s":"Uncletopia | Chicago | 1 | All Maps","protocol":17,"map":"pl_frontier_final","folder":"tf","game":"Team Fortress","app_id":440,"player_count":0,"max_players":24,"Bots":0,"server_type":"Dedicated","server_os":"Linux","password":true,"vac":true,"version":"7961495","steam_id":85568392924469984,"keywords":["nocrits","nodmgspread","payload","uncletopia"],"game_id":440,"stv_port":27016,"stv_name":"Uncletopia | Chicago | 1 | All Maps | STV","players":null},{"server_id":106,"name":"Uncletopia | Chicago | 2 | All Maps","name_short":"chi-2","host":"chi-1.us.uncletopia.com","port":27025,"enabled":true,"region":"us-central","cc":"us","latitude":41.881832,"longitude":-87.62318,"reserved":0,"last_update":"0001-01-01T00:00:00Z","name_a2s":"Uncletopia | Chicago | 2 | All Maps","protocol":17,"map":"ctf_well","folder":"tf","game":"Team Fortress","app_id":440,"player_count":13,"max_players":24,"Bots":0,"server_type":"Dedicated","server_os":"Linux","password":true,"vac":true,"version":"7961495","steam_id":85568392924469985,"keywords":["ctf","nocrits","nodmgspread","uncletopia"],"game_id":440,"stv_port":27026,"stv_name":"Uncletopia | Chicago | 2 | All Maps | STV","players":[{"user_id":666,"name":"gotten","steam_id":76561198033033884,"connected_time":18000000000,"state":"active","ping":61},{"user_id":633,"name":"CabezaGrande","steam_id":76561197972555502,"connected_time":2840000000000,"state":"active","ping":56},{"user_id":657,"name":"Monte","steam_id":76561198097499917,"connected_time":540000000000,"state":"active","ping":93},{"user_id":641,"name":"illious","steam_id":76561198169925494,"connected_time":2020000000000,"state":"active","ping":67},{"user_id":656,"name":"meow","steam_id":76561198104537058,"connected_time":563000000000,"state":"active","ping":70},{"user_id":654,"name":"viedoamges","steam_id":76561198025295263,"connected_time":631000000000,"state":"active","ping":74},{"user_id":634,"name":"Skeptical","steam_id":76561198038261789,"connected_time":2809000000000,"state":"active","ping":105},{"user_id":653,"name":"Austin","steam_id":76561198150077063,"connected_time":974000000000,"state":"active","ping":82},{"user_id":661,"name":"DeckofDragons","steam_id":76561198057398213,"connected_time":506000000000,"state":"active","ping":70},{"user_id":651,"name":"Heavy Main Gaming","steam_id":76561199062949963,"connected_time":1276000000000,"state":"active","ping":61},{"user_id":642,"name":"sheep","steam_id":76561198172943006,"connected_time":1787000000000,"state":"active","ping":48},{"user_id":663,"name":"Raccoon Wizard","steam_id":76561198072562591,"connected_time":236000000000,"state":"active","ping":80},{"user_id":655,"name":"Brastion","steam_id":76561198257707303,"connected_time":576000000000,"state":"active","ping":83}]},{"server_id":402,"name":"Uncletopia | Chicago | 3 | All Maps","name_short":"chi-3","host":"chi-1.us.uncletopia.com","port":27035,"enabled":true,"region":"us-central","cc":"us","latitude":41.881832,"longitude":-87.62318,"reserved":0,"last_update":"0001-01-01T00:00:00Z","name_a2s":"Uncletopia | Chicago | 3 | All Maps","protocol":17,"map":"cp_5gorge","folder":"tf","game":"Team Fortress","app_id":440,"player_count":20,"max_players":24,"Bots":0,"server_type":"Dedicated","server_os":"Linux","password":true,"vac":true,"version":"7961495","steam_id":85568392924515191,"keywords":["cp","nocrits","nodmgspread","uncletopia"],"game_id":440,"stv_port":27036,"stv_name":"Uncletopia | Chicago | 3 | All Maps | STV","players":[{"user_id":377,"name":"Robert","steam_id":76561198133200895,"connected_time":110000000000,"state":"active","ping":89},{"user_id":378,"name":"Flyinglab","steam_id":76561198042161408,"connected_time":82000000000,"state":"active","ping":74},{"user_id":371,"name":"Scruga","steam_id":76561197993476998,"connected_time":1105000000000,"state":"active","ping":134},{"user_id":379,"name":"Ghost","steam_id":76561198426370628,"connected_time":59000000000,"state":"active","ping":64},{"user_id":376,"name":"eBay","steam_id":76561198061214569,"connected_time":249000000000,"state":"active","ping":88},{"user_id":346,"name":"Moderatelycrispy","steam_id":76561198208119620,"connected_time":2249000000000,"state":"active","ping":56},{"user_id":358,"name":"Feet Bandit","steam_id":76561199152252878,"connected_time":1612000000000,"state":"active","ping":86},{"user_id":336,"name":"Snoopist","steam_id":76561198144023761,"connected_time":2835000000000,"state":"active","ping":30},{"user_id":335,"name":"Arcane Flame","steam_id":76561198360024422,"connected_time":2904000000000,"state":"active","ping":114},{"user_id":359,"name":"Funny Moment #4","steam_id":76561198271907916,"connected_time":1603000000000,"state":"active","ping":58},{"user_id":348,"name":"SuperRPGgamer","steam_id":76561198288017834,"connected_time":2080000000000,"state":"active","ping":108},{"user_id":380,"name":"story","steam_id":76561199088496817,"connected_time":49000000000,"state":"active","ping":82},{"user_id":362,"name":"Scooter O'Boyl","steam_id":76561197971687069,"connected_time":1517000000000,"state":"active","ping":69},{"user_id":368,"name":"CheeseLikeSubstance","steam_id":76561197977170646,"connected_time":1268000000000,"state":"active","ping":43},{"user_id":374,"name":"Snom","steam_id":76561198333827920,"connected_time":943000000000,"state":"active","ping":93},{"user_id":372,"name":"TTV Wayan Vistar","steam_id":76561198354695464,"connected_time":1064000000000,"state":"active","ping":70},{"user_id":369,"name":"TheBrocklobster","steam_id":76561198039682984,"connected_time":1267000000000,"state":"active","ping":110},{"user_id":373,"name":"Orb","steam_id":76561198353963523,"connected_time":1022000000000,"state":"active","ping":110},{"user_id":370,"name":"Big Bill Haywood","steam_id":76561198142290733,"connected_time":1218000000000,"state":"active","ping":65},{"user_id":317,"name":"theoreminegaming","steam_id":76561198175573917,"connected_time":3646000000000,"state":"active","ping":86}]},{"server_id":403,"name":"Uncletopia | Chicago | 4 | All Maps","name_short":"chi-4","host":"chi-1.us.uncletopia.com","port":27045,"enabled":true,"region":"us-central","cc":"us","latitude":41.881832,"longitude":-87.62318,"reserved":0,"last_update":"0001-01-01T00:00:00Z","name_a2s":"Uncletopia | Chicago | 4 | All Maps","protocol":17,"map":"cp_process_final","folder":"tf","game":"Team Fortress","app_id":440,"player_count":24,"max_players":24,"Bots":0,"server_type":"Dedicated","server_os":"Linux","password":true,"vac":true,"version":"7961495","steam_id":85568392924515193,"keywords":["cp","nocrits","nodmgspread","uncletopia"],"game_id":440,"stv_port":27046,"stv_name":"Uncletopia | Chicago | 4 | All Maps | STV","players":[{"user_id":861,"name":"Spare(8)Ball","steam_id":76561197982432995,"connected_time":1357000000000,"state":"active","ping":98},{"user_id":857,"name":"dr. chungy","steam_id":76561198215559840,"connected_time":1484000000000,"state":"active","ping":76},{"user_id":874,"name":"atlas","steam_id":76561198398383076,"connected_time":581000000000,"state":"active","ping":89},{"user_id":862,"name":"Enfield","steam_id":76561197961097111,"connected_time":1354000000000,"state":"active","ping":72},{"user_id":796,"name":"java","steam_id":76561198030276792,"connected_time":4721000000000,"state":"active","ping":63},{"user_id":867,"name":"Rock Kickass","steam_id":76561198450510841,"connected_time":1063000000000,"state":"active","ping":120},{"user_id":792,"name":"sithreis","steam_id":76561198000564263,"connected_time":4735000000000,"state":"active","ping":75},{"user_id":860,"name":"Jesse Bear","steam_id":76561198217075305,"connected_time":1400000000000,"state":"active","ping":82},{"user_id":855,"name":"BigBubble42","steam_id":76561198136286123,"connected_time":1538000000000,"state":"active","ping":60},{"user_id":864,"name":"Durrvish","steam_id":76561198143276741,"connected_time":1095000000000,"state":"active","ping":62},{"user_id":859,"name":"RAWRWAFL","steam_id":76561198032118386,"connected_time":1418000000000,"state":"active","ping":92},{"user_id":793,"name":"lanoc","steam_id":76561198055415367,"connected_time":4731000000000,"state":"active","ping":73},{"user_id":865,"name":"sheeesh","steam_id":76561198038080028,"connected_time":1093000000000,"state":"active","ping":103},{"user_id":794,"name":"AlecTheNefarious","steam_id":76561198035291230,"connected_time":4731000000000,"state":"active","ping":71},{"user_id":876,"name":"heck","steam_id":76561198308547958,"connected_time":229000000000,"state":"active","ping":59},{"user_id":869,"name":"Anime Racist","steam_id":76561198100775015,"connected_time":991000000000,"state":"active","ping":116},{"user_id":836,"name":"$3.99 shrimps","steam_id":76561198077272494,"connected_time":2832000000000,"state":"active","ping":54},{"user_id":854,"name":"Maj","steam_id":76561198154203415,"connected_time":1597000000000,"state":"active","ping":77},{"user_id":870,"name":"aero","steam_id":76561198297202459,"connected_time":878000000000,"state":"active","ping":70},{"user_id":871,"name":"nines","steam_id":76561198078992548,"connected_time":866000000000,"state":"active","ping":83},{"user_id":872,"name":"HenryHJ","steam_id":76561198206291528,"connected_time":837000000000,"state":"active","ping":103},{"user_id":845,"name":"The_Pacific_gamer","steam_id":76561198089491446,"connected_time":2100000000000,"state":"active","ping":92},{"user_id":875,"name":"XIV Stick","steam_id":76561198001509374,"connected_time":270000000000,"state":"active","ping":72},{"user_id":873,"name":"helen keller","steam_id":76561197979870540,"connected_time":813000000000,"state":"active","ping":45}]},{"server_id":36,"name":"Uncletopia | Chicago | 5 | All Maps","name_short":"chi-5","host":"chi-2.us.uncletopia.com","port":27015,"enabled":true,"region":"us-central","cc":"us","latitude":41.881832,"longitude":-87.62318,"reserved":0,"last_update":"0001-01-01T00:00:00Z","name_a2s":"Uncletopia | Chicago | 5 | All Maps","protocol":17,"map":"cp_sunshine","folder":"tf","game":"Team Fortress","app_id":440,"player_count":0,"max_players":24,"Bots":0,"server_type":"Dedicated","server_os":"Linux","password":true,"vac":true,"version":"7961495","steam_id":85568392924866362,"keywords":["cp","nocrits","nodmgspread","uncletopia"],"game_id":440,"stv_port":27016,"stv_name":"Uncletopia | Chicago | 5 | All Maps | STV","players":null},{"server_id":37,"name":"Uncletopia | Chicago | 6 | All Maps","name_short":"chi-6","host":"chi-2.us.uncletopia.com","port":27025,"enabled":true,"region":"us-central","cc":"us","latitude":41.881832,"longitude":-87.62318,"reserved":0,"last_update":"0001-01-01T00:00:00Z","name_a2s":"Uncletopia | Chicago | 6 | All Maps","protocol":17,"map":"cp_steel","folder":"tf","game":"Team Fortress","app_id":440,"player_count":24,"max_players":24,"Bots":0,"server_type":"Dedicated","server_os":"Linux","password":true,"vac":true,"version":"7961495","steam_id":85568392924866363,"keywords":["cp","nocrits","nodmgspread","uncletopia"],"game_id":440,"stv_port":27026,"stv_name":"Uncletopia | Chicago | 6 | All Maps | STV","players":[{"user_id":381,"name":"bballbing11ballboy","steam_id":76561198104811978,"connected_time":665000000000,"state":"active","ping":63},{"user_id":378,"name":"Bacchus","steam_id":76561198113244990,"connected_time":750000000000,"state":"active","ping":72},{"user_id":372,"name":"blehz","steam_id":76561198048429098,"connected_time":843000000000,"state":"active","ping":100},{"user_id":341,"name":"chrischrischris3018@yahoo.com","steam_id":76561198137316053,"connected_time":3678000000000,"state":"active","ping":75},{"user_id":395,"name":"❄Admiral Pete❄ The Penguin","steam_id":76561198452656581,"connected_time":78000000000,"state":"active","ping":85},{"user_id":343,"name":"Natsuki the Scunt","steam_id":76561199175922684,"connected_time":3589000000000,"state":"active","ping":115},{"user_id":331,"name":"Orceus","steam_id":76561198254906285,"connected_time":5512000000000,"state":"active","ping":161},{"user_id":385,"name":"Glover Speedrunner","steam_id":76561198015154311,"connected_time":400000000000,"state":"active","ping":51},{"user_id":388,"name":"GreekGoat_Coffee","steam_id":76561198129331088,"connected_time":370000000000,"state":"active","ping":45},{"user_id":373,"name":"sergeant major cone tits","steam_id":76561198333985626,"connected_time":836000000000,"state":"active","ping":69},{"user_id":396,"name":"Adawnby","steam_id":76561198103057295,"connected_time":48000000000,"state":"active","ping":85},{"user_id":368,"name":"aqua","steam_id":76561199407709552,"connected_time":1584000000000,"state":"active","ping":60},{"user_id":350,"name":"DaMultiversalist","steam_id":76561198239552412,"connected_time":3069000000000,"state":"active","ping":67},{"user_id":390,"name":"TheMiddler","steam_id":76561199254971843,"connected_time":337000000000,"state":"active","ping":94},{"user_id":374,"name":"Some_Arse","steam_id":76561198039095394,"connected_time":831000000000,"state":"active","ping":65},{"user_id":359,"name":"Gluppo","steam_id":76561198379320087,"connected_time":2890000000000,"state":"active","ping":75},{"user_id":375,"name":"golbat","steam_id":76561198041601161,"connected_time":798000000000,"state":"active","ping":60},{"user_id":394,"name":"Goat","steam_id":76561198068447650,"connected_time":238000000000,"state":"active","ping":71},{"user_id":379,"name":"Storethis","steam_id":76561198082792619,"connected_time":718000000000,"state":"active","ping":60},{"user_id":354,"name":"Grease Magician","steam_id":76561198285410854,"connected_time":3038000000000,"state":"active","ping":85},{"user_id":329,"name":"plasmaofthedawn","steam_id":76561198287916194,"connected_time":5578000000000,"state":"active","ping":96},{"user_id":380,"name":"Major","steam_id":76561198334210109,"connected_time":716000000000,"state":"active","ping":93},{"user_id":337,"name":"Cringelander","steam_id":76561198841559088,"connected_time":4663000000000,"state":"active","ping":75},{"user_id":361,"name":"`o2","steam_id":76561197992030936,"connected_time":2615000000000,"state":"active","ping":66}]},{"server_id":38,"name":"Uncletopia | Chicago | 7 | Stopwatch","name_short":"chi-7","host":"chi-2.us.uncletopia.com","port":27035,"enabled":true,"region":"us-central","cc":"us","latitude":41.881832,"longitude":-87.62318,"reserved":0,"last_update":"0001-01-01T00:00:00Z","name_a2s":"Uncletopia | Chicago | 7 | Stopwatch","protocol":17,"map":"pl_borneo","folder":"tf","game":"Team Fortress","app_id":440,"player_count":0,"max_players":24,"Bots":0,"server_type":"Dedicated","server_os":"Linux","password":true,"vac":true,"version":"7961495","steam_id":85568392924866364,"keywords":["nocrits","nodmgspread","payload","uncletopia"],"game_id":440,"stv_port":27036,"stv_name":"Uncletopia | Chicago | 7 | Stopwatch | STV","players":null},{"server_id":39,"name":"Uncletopia | Chicago | 8 | Community","name_short":"chi-8","host":"chi-2.us.uncletopia.com","port":27045,"enabled":true,"region":"us-central","cc":"us","latitude":41.881832,"longitude":-87.62318,"reserved":0,"last_update":"0001-01-01T00:00:00Z","name_a2s":"Uncletopia | Chicago | 8 | Community","protocol":17,"map":"workshop/koth_slaughter_rc1.ugc1712845210","folder":"tf","game":"Team Fortress","app_id":440,"player_count":0,"max_players":24,"Bots":0,"server_type":"Dedicated","server_os":"Linux","password":true,"vac":true,"version":"7961495","steam_id":85568392924866365,"keywords":["cp","nocrits","nodmgspread","uncletopia"],"game_id":440,"stv_port":27046,"stv_name":"Uncletopia | Chicago | 8 | Community | STV","players":null},{"server_id":8,"name":"Uncletopia | Dallas | 1 | All Maps","name_short":"dal-1","host":"dal-1.us.uncletopia.com","port":27015,"enabled":true,"region":"us-central","cc":"us","latitude":32.779167,"longitude":-96.80889,"reserved":0,"last_update":"0001-01-01T00:00:00Z","name_a2s":"Uncletopia | Dallas | 1 | All Maps","protocol":17,"map":"cp_sunshine","folder":"tf","game":"Team Fortress","app_id":440,"player_count":24,"max_players":24,"Bots":0,"server_type":"Dedicated","server_os":"Linux","password":true,"vac":true,"version":"7961495","steam_id":85568392924469986,"keywords":["cp","nocrits","nodmgspread","uncletopia"],"game_id":440,"stv_port":27016,"stv_name":"Uncletopia | Dallas | 1 | All Maps | STV","players":[{"user_id":414,"name":"Tommy Provolone","steam_id":76561198170062377,"connected_time":5910000000000,"state":"active","ping":62},{"user_id":428,"name":"Steben","steam_id":76561198182247921,"connected_time":3920000000000,"state":"active","ping":53},{"user_id":421,"name":"sebjzy ♥","steam_id":76561198009959034,"connected_time":4991000000000,"state":"active","ping":50},{"user_id":474,"name":"porz","steam_id":76561198195711453,"connected_time":1049000000000,"state":"active","ping":45},{"user_id":491,"name":"ĐïɐȐɹɦɆa","steam_id":76561198981411945,"connected_time":66000000000,"state":"active","ping":71},{"user_id":415,"name":"9/11 Airlines","steam_id":76561198096306325,"connected_time":5845000000000,"state":"active","ping":94},{"user_id":489,"name":"im the beef","steam_id":76561198069506128,"connected_time":247000000000,"state":"active","ping":90},{"user_id":476,"name":"ninety9dragonfly","steam_id":76561198363406983,"connected_time":1010000000000,"state":"active","ping":111},{"user_id":484,"name":"Pie™","steam_id":76561198158312625,"connected_time":750000000000,"state":"active","ping":120},{"user_id":433,"name":"daD","steam_id":76561198188498762,"connected_time":3837000000000,"state":"active","ping":59},{"user_id":483,"name":"+","steam_id":76561198262422184,"connected_time":806000000000,"state":"active","ping":46},{"user_id":478,"name":"Squiliam","steam_id":76561198025278006,"connected_time":983000000000,"state":"active","ping":44},{"user_id":479,"name":"Siopao","steam_id":76561198254089497,"connected_time":921000000000,"state":"active","ping":102},{"user_id":485,"name":"feed lips","steam_id":76561197971152439,"connected_time":740000000000,"state":"active","ping":80},{"user_id":465,"name":"Prof. Abedul","steam_id":76561198146171581,"connected_time":1165000000000,"state":"active","ping":55},{"user_id":442,"name":"Gungus Dingaling","steam_id":76561198018270898,"connected_time":3387000000000,"state":"active","ping":60},{"user_id":454,"name":"Ironaka","steam_id":76561198029993183,"connected_time":2482000000000,"state":"active","ping":93},{"user_id":481,"name":"A Parliament of Owls","steam_id":76561197996200417,"connected_time":876000000000,"state":"active","ping":83},{"user_id":444,"name":"Matthew Phong","steam_id":76561198143132686,"connected_time":3310000000000,"state":"active","ping":77},{"user_id":480,"name":"capitalisM","steam_id":76561198058627210,"connected_time":902000000000,"state":"active","ping":45},{"user_id":439,"name":"Colonel Salt","steam_id":76561198207009563,"connected_time":3677000000000,"state":"active","ping":59},{"user_id":374,"name":"barker bill","steam_id":76561198018451994,"connected_time":10160000000000,"state":"active","ping":61},{"user_id":450,"name":"BitPieStudios","steam_id":76561198059216393,"connected_time":2904000000000,"state":"active","ping":87},{"user_id":486,"name":"mudspaw","steam_id":76561198101327448,"connected_time":731000000000,"state":"active","ping":96}]},{"server_id":108,"name":"Uncletopia | Dallas | 2 | All Maps","name_short":"dal-2","host":"dal-1.us.uncletopia.com","port":27025,"enabled":true,"region":"us-central","cc":"us","latitude":32.779167,"longitude":-96.80889,"reserved":0,"last_update":"0001-01-01T00:00:00Z","name_a2s":"Uncletopia | Dallas | 2 | All Maps","protocol":17,"map":"cp_gorge","folder":"tf","game":"Team Fortress","app_id":440,"player_count":0,"max_players":24,"Bots":0,"server_type":"Dedicated","server_os":"Linux","password":true,"vac":true,"version":"7961495","steam_id":85568392924469988,"keywords":["cp","nocrits","nodmgspread","uncletopia"],"game_id":440,"stv_port":27026,"stv_name":"Uncletopia | Dallas | 2 | All Maps | STV","players":null},{"server_id":404,"name":"Uncletopia | Dallas | 3 | All Maps","name_short":"dal-3","host":"dal-1.us.uncletopia.com","port":27035,"enabled":true,"region":"us-central","cc":"us","latitude":32.779167,"longitude":-96.80889,"reserved":0,"last_update":"0001-01-01T00:00:00Z","name_a2s":"Uncletopia | Dallas | 3 | All Maps","protocol":17,"map":"pl_upward","folder":"tf","game":"Team Fortress","app_id":440,"player_count":23,"max_players":24,"Bots":0,"server_type":"Dedicated","server_os":"Linux","password":true,"vac":true,"version":"7961495","steam_id":85568392924515219,"keywords":["nocrits","nodmgspread","payload","uncletopia"],"game_id":440,"stv_port":27036,"stv_name":"Uncletopia | Dallas | 3 | All Maps | STV","players":[{"user_id":90,"name":"Klip","steam_id":76561198316254429,"connected_time":2342000000000,"state":"active","ping":59},{"user_id":137,"name":"Grauvodile","steam_id":76561198044199232,"connected_time":2000000000,"state":"spawning","ping":88},{"user_id":121,"name":"Bcuz","steam_id":76561197981318027,"connected_time":579000000000,"state":"active","ping":90},{"user_id":125,"name":"SarangMiso","steam_id":76561199009445218,"connected_time":326000000000,"state":"active","ping":74},{"user_id":113,"name":"Certified Hood Classic","steam_id":76561199086159354,"connected_time":1248000000000,"state":"active","ping":54},{"user_id":127,"name":"TOKENLIZARD","steam_id":76561198218765205,"connected_time":230000000000,"state":"active","ping":57},{"user_id":122,"name":"Len","steam_id":76561199141913673,"connected_time":517000000000,"state":"active","ping":51},{"user_id":123,"name":"munch","steam_id":76561198820480684,"connected_time":472000000000,"state":"active","ping":82},{"user_id":124,"name":"Weegee","steam_id":76561198140095755,"connected_time":406000000000,"state":"active","ping":88},{"user_id":68,"name":"Scrum","steam_id":76561198055422081,"connected_time":4621000000000,"state":"active","ping":63},{"user_id":135,"name":"the cum wizard","steam_id":76561198046098856,"connected_time":14000000000,"state":"active","ping":72},{"user_id":129,"name":"gnome zone","steam_id":76561198883349445,"connected_time":197000000000,"state":"active","ping":93},{"user_id":88,"name":"Drakon","steam_id":76561198078210822,"connected_time":2443000000000,"state":"active","ping":104},{"user_id":100,"name":"lemon cookie enjoyer","steam_id":76561198070230800,"connected_time":1701000000000,"state":"active","ping":64},{"user_id":130,"name":"Gwuf","steam_id":76561198091503282,"connected_time":179000000000,"state":"active","ping":99},{"user_id":131,"name":"Dowo","steam_id":76561199368651649,"connected_time":174000000000,"state":"active","ping":87},{"user_id":132,"name":"bruh","steam_id":76561198305505479,"connected_time":174000000000,"state":"active","ping":31},{"user_id":99,"name":"FlareOfVoid","steam_id":76561198185627602,"connected_time":1765000000000,"state":"active","ping":107},{"user_id":107,"name":"Mayor McCheese","steam_id":76561198347579460,"connected_time":1453000000000,"state":"active","ping":104},{"user_id":133,"name":"roach","steam_id":76561199061380038,"connected_time":124000000000,"state":"active","ping":69},{"user_id":134,"name":"della","steam_id":76561198118877005,"connected_time":59000000000,"state":"active","ping":60},{"user_id":105,"name":"tuz","steam_id":76561197979961213,"connected_time":1627000000000,"state":"active","ping":60},{"user_id":108,"name":"Double Cheeseburger","steam_id":76561198107807617,"connected_time":1436000000000,"state":"active","ping":85}]},{"server_id":405,"name":"Uncletopia | Dallas | 4 | Community","name_short":"dal-4","host":"dal-1.us.uncletopia.com","port":27045,"enabled":true,"region":"us-central","cc":"us","latitude":32.779167,"longitude":-96.80889,"reserved":0,"last_update":"0001-01-01T00:00:00Z","name_a2s":"Uncletopia | Dallas | 4 | Community","protocol":17,"map":"workshop/cp_reckoner_rc6.ugc674719999","folder":"tf","game":"Team Fortress","app_id":440,"player_count":1,"max_players":24,"Bots":0,"server_type":"Dedicated","server_os":"Linux","password":true,"vac":true,"version":"7961495","steam_id":85568392924515220,"keywords":["cp","nocrits","nodmgspread","uncletopia"],"game_id":440,"stv_port":27046,"stv_name":"Uncletopia | Dallas | 4 | Community | STV","players":[{"user_id":33,"name":"KiWii","steam_id":76561199013608864,"connected_time":939000000000,"state":"active","ping":51}]},{"server_id":5,"name":"Uncletopia | Frankfurt | 1 | All Maps","name_short":"frk-1","host":"frk-1.de.uncletopia.com","port":27015,"enabled":true,"region":"eu","cc":"de","latitude":50.110924,"longitude":8.682127,"reserved":0,"last_update":"0001-01-01T00:00:00Z","name_a2s":"Uncletopia | Frankfurt | 1 | All Maps","protocol":17,"map":"koth_highpass","folder":"tf","game":"Team Fortress","app_id":440,"player_count":0,"max_players":24,"Bots":0,"server_type":"Dedicated","server_os":"Linux","password":true,"vac":true,"version":"7961495","steam_id":85568392924469989,"keywords":["cp","nocrits","nodmgspread","uncletopia"],"game_id":440,"stv_port":27016,"stv_name":"Uncletopia | Frankfurt | 1 | All Maps | STV","players":null},{"server_id":110,"name":"Uncletopia | Frankfurt | 2 | All Maps","name_short":"frk-2","host":"frk-1.de.uncletopia.com","port":27025,"enabled":true,"region":"eu","cc":"de","latitude":50.110924,"longitude":8.682127,"reserved":0,"last_update":"0001-01-01T00:00:00Z","name_a2s":"Uncletopia | Frankfurt | 2 | All Maps","protocol":17,"map":"cp_snakewater_final1","folder":"tf","game":"Team Fortress","app_id":440,"player_count":0,"max_players":24,"Bots":0,"server_type":"Dedicated","server_os":"Linux","password":true,"vac":true,"version":"7961495","steam_id":85568392924469990,"keywords":["cp","nocrits","nodmgspread","uncletopia"],"game_id":440,"stv_port":27026,"stv_name":"Uncletopia | Frankfurt | 2 | All Maps | STV","players":null},{"server_id":308,"name":"Uncletopia | Frankfurt | 3 | All Maps","name_short":"frk-3","host":"frk-1.de.uncletopia.com","port":27035,"enabled":true,"region":"eu","cc":"de","latitude":50.110924,"longitude":8.682127,"reserved":0,"last_update":"0001-01-01T00:00:00Z","name_a2s":"Uncletopia | Frankfurt | 3 | All Maps","protocol":17,"map":"pl_barnblitz","folder":"tf","game":"Team Fortress","app_id":440,"player_count":0,"max_players":24,"Bots":0,"server_type":"Dedicated","server_os":"Linux","password":true,"vac":true,"version":"7961495","steam_id":85568392924504274,"keywords":["nocrits","nodmgspread","payload","uncletopia"],"game_id":440,"stv_port":27036,"stv_name":"Uncletopia | Frankfurt | 3 | All Maps | STV","players":null},{"server_id":309,"name":"Uncletopia | Frankfurt | 4 | All Maps","name_short":"frk-4","host":"frk-1.de.uncletopia.com","port":27045,"enabled":true,"region":"eu","cc":"de","latitude":50.110924,"longitude":8.682127,"reserved":0,"last_update":"0001-01-01T00:00:00Z","name_a2s":"Uncletopia | Frankfurt | 4 | All Maps","protocol":17,"map":"koth_highpass","folder":"tf","game":"Team Fortress","app_id":440,"player_count":0,"max_players":24,"Bots":0,"server_type":"Dedicated","server_os":"Linux","password":true,"vac":true,"version":"7961495","steam_id":85568392924504275,"keywords":["cp","nocrits","nodmgspread","uncletopia"],"game_id":440,"stv_port":27046,"stv_name":"Uncletopia | Frankfurt | 4 | All Maps | STV","players":null},{"server_id":310,"name":"Uncletopia | Frankfurt | 5 | All Maps","name_short":"frk-5","host":"frk-1.de.uncletopia.com","port":27055,"enabled":true,"region":"eu","cc":"de","latitude":50.110924,"longitude":8.682127,"reserved":0,"last_update":"0001-01-01T00:00:00Z","name_a2s":"Uncletopia | Frankfurt | 5 | All Maps","protocol":17,"map":"pl_badwater","folder":"tf","game":"Team Fortress","app_id":440,"player_count":0,"max_players":24,"Bots":0,"server_type":"Dedicated","server_os":"Linux","password":true,"vac":true,"version":"7961495","steam_id":85568392924504277,"keywords":["nocrits","nodmgspread","payload","uncletopia"],"game_id":440,"stv_port":27056,"stv_name":"Uncletopia | Frankfurt | 5 | All Maps | STV","players":null},{"server_id":311,"name":"Uncletopia | Frankfurt | 6 | All Maps","name_short":"frk-6","host":"frk-1.de.uncletopia.com","port":27065,"enabled":true,"region":"eu","cc":"de","latitude":50.110924,"longitude":8.682127,"reserved":0,"last_update":"0001-01-01T00:00:00Z","name_a2s":"Uncletopia | Frankfurt | 6 | All Maps","protocol":17,"map":"cp_altitude","folder":"tf","game":"Team Fortress","app_id":440,"player_count":0,"max_players":24,"Bots":0,"server_type":"Dedicated","server_os":"Linux","password":true,"vac":true,"version":"7961495","steam_id":85568392924504278,"keywords":["cp","nocrits","nodmgspread","uncletopia"],"game_id":440,"stv_port":27066,"stv_name":"Uncletopia | Frankfurt | 6 | All Maps | STV","players":null},{"server_id":23,"name":"Uncletopia | Frankfurt | 7 | Stopwatch","name_short":"frk-7","host":"frk-1.de.uncletopia.com","port":27075,"enabled":true,"region":"eu","cc":"de","latitude":50.110924,"longitude":8.682127,"reserved":0,"last_update":"0001-01-01T00:00:00Z","name_a2s":"Uncletopia | Frankfurt | 7 | Stopwatch","protocol":17,"map":"pl_frontier_final","folder":"tf","game":"Team Fortress","app_id":440,"player_count":0,"max_players":24,"Bots":0,"server_type":"Dedicated","server_os":"Linux","password":true,"vac":true,"version":"7961495","steam_id":85568392924742827,"keywords":["nocrits","nodmgspread","payload","uncletopia"],"game_id":440,"stv_port":27076,"stv_name":"Uncletopia | Frankfurt | 7 | Stopwatch | STV","players":null},{"server_id":24,"name":"Uncletopia | Frankfurt | 8 | Community","name_short":"frk-8","host":"frk-1.de.uncletopia.com","port":27085,"enabled":true,"region":"eu","cc":"de","latitude":50.110924,"longitude":8.682127,"reserved":0,"last_update":"0001-01-01T00:00:00Z","name_a2s":"Uncletopia | Frankfurt | 8 | Community","protocol":17,"map":"cp_mountainlab","folder":"tf","game":"Team Fortress","app_id":440,"player_count":0,"max_players":24,"Bots":0,"server_type":"Dedicated","server_os":"Linux","password":true,"vac":true,"version":"7961495","steam_id":85568392924742828,"keywords":["cp","nocrits","nodmgspread","uncletopia"],"game_id":440,"stv_port":27086,"stv_name":"Uncletopia | Frankfurt | 8 | Community | STV","players":null},{"server_id":202,"name":"Uncletopia | Hong Kong | 1 | All Maps","name_short":"hgk-1","host":"hgk-1.hk.uncletopia.com","port":27015,"enabled":true,"region":"asia","cc":"hk","latitude":22.302711,"longitude":114.177216,"reserved":0,"last_update":"0001-01-01T00:00:00Z","name_a2s":"Uncletopia | Hong Kong | 1 | All Maps","protocol":17,"map":"pl_frontier_final","folder":"tf","game":"Team Fortress","app_id":440,"player_count":24,"max_players":24,"Bots":0,"server_type":"Dedicated","server_os":"Linux","password":true,"vac":true,"version":"7961495","steam_id":85568392924494504,"keywords":["nocrits","nodmgspread","payload","uncletopia"],"game_id":440,"stv_port":27016,"stv_name":"Uncletopia | Hong Kong | 1 | All Maps | STV","players":[{"user_id":3,"name":"poopypantsjoe","steam_id":76561198204747977,"connected_time":15793000000000,"state":"active","ping":71},{"user_id":90,"name":"LiveLeak™","steam_id":76561199174449723,"connected_time":1146000000000,"state":"active","ping":102},{"user_id":97,"name":"Duef","steam_id":76561198386748174,"connected_time":253000000000,"state":"active","ping":99},{"user_id":71,"name":"Sheena","steam_id":76561198412391539,"connected_time":4103000000000,"state":"active","ping":78},{"user_id":36,"name":"ArcticDolphin","steam_id":76561198203626319,"connected_time":8002000000000,"state":"active","ping":129},{"user_id":59,"name":"Elesis","steam_id":76561198393524990,"connected_time":5243000000000,"state":"active","ping":93},{"user_id":83,"name":"Jagaragad","steam_id":76561199068017266,"connected_time":2456000000000,"state":"active","ping":59},{"user_id":80,"name":"noob pyro of all time","steam_id":76561198074339034,"connected_time":2632000000000,"state":"active","ping":77},{"user_id":100,"name":"cau be thieu nang","steam_id":76561199273435519,"connected_time":68000000000,"state":"active","ping":72},{"user_id":86,"name":"g-host","steam_id":76561198298740090,"connected_time":1331000000000,"state":"active","ping":92},{"user_id":78,"name":"doze","steam_id":76561198318292720,"connected_time":2843000000000,"state":"active","ping":132},{"user_id":77,"name":"Lady D.","steam_id":76561199225360457,"connected_time":3888000000000,"state":"active","ping":74},{"user_id":92,"name":"beeoh","steam_id":76561198088242177,"connected_time":991000000000,"state":"active","ping":100},{"user_id":99,"name":"P","steam_id":76561198304514505,"connected_time":230000000000,"state":"active","ping":76},{"user_id":44,"name":"villy","steam_id":76561198169263597,"connected_time":6883000000000,"state":"active","ping":42},{"user_id":49,"name":"Regular Snow","steam_id":76561199445694770,"connected_time":5976000000000,"state":"active","ping":320},{"user_id":98,"name":"PotTimesTwo","steam_id":76561199405461327,"connected_time":251000000000,"state":"active","ping":58},{"user_id":72,"name":"3wfFbdrjEze5d2G","steam_id":76561198435900451,"connected_time":4102000000000,"state":"active","ping":114},{"user_id":94,"name":"beaver the domestic terrorist","steam_id":76561199219484527,"connected_time":972000000000,"state":"active","ping":124},{"user_id":73,"name":"v1.","steam_id":76561198037571054,"connected_time":3990000000000,"state":"active","ping":45},{"user_id":67,"name":"toad♡","steam_id":76561198082199290,"connected_time":4514000000000,"state":"active","ping":45},{"user_id":74,"name":"Az1mv$_AMK","steam_id":76561198416584081,"connected_time":3969000000000,"state":"active","ping":130},{"user_id":91,"name":"Mac09","steam_id":76561198934873063,"connected_time":1141000000000,"state":"active","ping":79},{"user_id":96,"name":"quack","steam_id":76561198258934120,"connected_time":504000000000,"state":"active","ping":88}]},{"server_id":1,"name":"Uncletopia | Los Angeles | 1 | All Maps","name_short":"lax-1","host":"lax-1.us.uncletopia.com","port":27015,"enabled":true,"region":"us-west","cc":"us","latitude":33.94279,"longitude":-118.41004,"reserved":0,"last_update":"0001-01-01T00:00:00Z","name_a2s":"Uncletopia | Los Angeles | 1 | All Maps","protocol":17,"map":"pl_barnblitz","folder":"tf","game":"Team Fortress","app_id":440,"player_count":24,"max_players":24,"Bots":0,"server_type":"Dedicated","server_os":"Linux","password":true,"vac":true,"version":"7961495","steam_id":85568392924469991,"keywords":["alltalk","nocrits","nodmgspread","payload","uncletopia"],"game_id":440,"stv_port":27016,"stv_name":"Uncletopia | Los Angeles | 1 | All Maps | STV","players":[{"user_id":431,"name":"the pizza","steam_id":76561198221331476,"connected_time":1635000000000,"state":"active","ping":47},{"user_id":407,"name":"cock dick ballin","steam_id":76561198095121758,"connected_time":3863000000000,"state":"active","ping":72},{"user_id":440,"name":"filtered by cp_steel","steam_id":76561198031409921,"connected_time":492000000000,"state":"active","ping":59},{"user_id":439,"name":"Jaidezt","steam_id":76561197972613110,"connected_time":882000000000,"state":"active","ping":64},{"user_id":397,"name":"Perfume Department","steam_id":76561198128299594,"connected_time":4360000000000,"state":"active","ping":59},{"user_id":422,"name":"dewey","steam_id":76561198132791511,"connected_time":3101000000000,"state":"active","ping":57},{"user_id":433,"name":"_Ati","steam_id":76561198339777801,"connected_time":1601000000000,"state":"active","ping":68},{"user_id":437,"name":"Clubby McWank Fist","steam_id":76561198043085901,"connected_time":1475000000000,"state":"active","ping":86},{"user_id":426,"name":"HOG RIDER","steam_id":76561198298589502,"connected_time":2781000000000,"state":"active","ping":53},{"user_id":445,"name":"imma let my nuts hang","steam_id":76561198097544038,"connected_time":140000000000,"state":"active","ping":56},{"user_id":415,"name":"2019 Porsche 991 RSR","steam_id":76561198151135298,"connected_time":3591000000000,"state":"active","ping":30},{"user_id":348,"name":"h20verdrive","steam_id":76561198115957085,"connected_time":8108000000000,"state":"active","ping":45},{"user_id":403,"name":"Mr. Noodle","steam_id":76561198025280658,"connected_time":4087000000000,"state":"active","ping":56},{"user_id":402,"name":"Sir BrainDamage the IV of Serbi","steam_id":76561198846344452,"connected_time":4131000000000,"state":"active","ping":60},{"user_id":420,"name":"exx","steam_id":76561198090552145,"connected_time":3133000000000,"state":"active","ping":49},{"user_id":438,"name":"Alltix","steam_id":76561198084110128,"connected_time":1471000000000,"state":"active","ping":123},{"user_id":424,"name":"rat","steam_id":76561198130412963,"connected_time":3000000000000,"state":"active","ping":84},{"user_id":421,"name":"Maid 'n' China","steam_id":76561198423392976,"connected_time":3132000000000,"state":"active","ping":57},{"user_id":425,"name":"ุ","steam_id":76561198084134025,"connected_time":2946000000000,"state":"active","ping":105},{"user_id":443,"name":"amagicowl","steam_id":76561199060487814,"connected_time":197000000000,"state":"active","ping":80},{"user_id":444,"name":"The Horselords and Animal Gods","steam_id":76561197975094050,"connected_time":184000000000,"state":"active","ping":56},{"user_id":391,"name":"Princess?","steam_id":76561198080963759,"connected_time":4484000000000,"state":"active","ping":80},{"user_id":339,"name":"camp3r","steam_id":76561197992870439,"connected_time":8699000000000,"state":"active","ping":61},{"user_id":365,"name":"Crab Raider","steam_id":76561198045727596,"connected_time":6735000000000,"state":"active","ping":105}]},{"server_id":112,"name":"Uncletopia | Los Angeles | 2 | All Maps","name_short":"lax-2","host":"lax-1.us.uncletopia.com","port":27025,"enabled":true,"region":"us-west","cc":"us","latitude":33.94279,"longitude":-118.41004,"reserved":0,"last_update":"0001-01-01T00:00:00Z","name_a2s":"Uncletopia | Los Angeles | 2 | All Maps","protocol":17,"map":"koth_suijin","folder":"tf","game":"Team Fortress","app_id":440,"player_count":2,"max_players":24,"Bots":0,"server_type":"Dedicated","server_os":"Linux","password":true,"vac":true,"version":"7961495","steam_id":85568392924469992,"keywords":["cp","nocrits","nodmgspread","uncletopia"],"game_id":440,"stv_port":27026,"stv_name":"Uncletopia | Los Angeles | 2 | All Maps | STV","players":[{"user_id":14,"name":"XenPie","steam_id":76561198814382153,"connected_time":226000000000,"state":"active","ping":56},{"user_id":15,"name":"Ebby","steam_id":76561198124284351,"connected_time":8000000000,"state":"spawning","ping":97}]},{"server_id":324,"name":"Uncletopia | Los Angeles | 3 | All Maps","name_short":"lax-3","host":"lax-1.us.uncletopia.com","port":27035,"enabled":true,"region":"us-west","cc":"us","latitude":33.94279,"longitude":-118.41004,"reserved":0,"last_update":"0001-01-01T00:00:00Z","name_a2s":"Uncletopia | Los Angeles | 3 | All Maps","protocol":17,"map":"pl_upward","folder":"tf","game":"Team Fortress","app_id":440,"player_count":24,"max_players":24,"Bots":0,"server_type":"Dedicated","server_os":"Linux","password":true,"vac":true,"version":"7961495","steam_id":85568392924510198,"keywords":["nocrits","nodmgspread","payload","uncletopia"],"game_id":440,"stv_port":27036,"stv_name":"Uncletopia | Los Angeles | 3 | All Maps | STV","players":[{"user_id":323,"name":"L-","steam_id":76561198046074220,"connected_time":1940000000000,"state":"active","ping":44},{"user_id":320,"name":"Superangel","steam_id":76561197985566989,"connected_time":2156000000000,"state":"active","ping":68},{"user_id":317,"name":"coffee creamer","steam_id":76561199001918194,"connected_time":2220000000000,"state":"active","ping":60},{"user_id":294,"name":"heck","steam_id":76561198315694520,"connected_time":3592000000000,"state":"active","ping":45},{"user_id":340,"name":"Randle of John","steam_id":76561198328210524,"connected_time":149000000000,"state":"active","ping":45},{"user_id":325,"name":"bleach₪","steam_id":76561198004482768,"connected_time":1888000000000,"state":"active","ping":61},{"user_id":324,"name":"Escapist Robot","steam_id":76561198121501913,"connected_time":1909000000000,"state":"active","ping":59},{"user_id":332,"name":"NGsterson","steam_id":76561198162108154,"connected_time":1592000000000,"state":"active","ping":88},{"user_id":330,"name":"Sir Galahad","steam_id":76561198113682787,"connected_time":1717000000000,"state":"active","ping":54},{"user_id":327,"name":"Seaport Hime","steam_id":76561198055914224,"connected_time":1800000000000,"state":"active","ping":105},{"user_id":335,"name":"fortzei","steam_id":76561198210920541,"connected_time":693000000000,"state":"active","ping":70},{"user_id":331,"name":"SunkenSole9132","steam_id":76561198359562446,"connected_time":1652000000000,"state":"active","ping":83},{"user_id":341,"name":"Boxcars","steam_id":76561198120978767,"connected_time":57000000000,"state":"active","ping":44},{"user_id":336,"name":"The Hulkster Freedom Fighter 2.","steam_id":76561198268798906,"connected_time":679000000000,"state":"active","ping":112},{"user_id":338,"name":"atomicmushroom7","steam_id":76561198008181404,"connected_time":399000000000,"state":"active","ping":78},{"user_id":333,"name":"Genius Meme","steam_id":76561198162911254,"connected_time":1143000000000,"state":"active","ping":71},{"user_id":303,"name":"Buckethead","steam_id":76561198210181296,"connected_time":3201000000000,"state":"active","ping":66},{"user_id":321,"name":"Clagger","steam_id":76561198066701092,"connected_time":1975000000000,"state":"active","ping":66},{"user_id":314,"name":"Goobs","steam_id":76561198059451278,"connected_time":2685000000000,"state":"active","ping":75},{"user_id":319,"name":"Antzen","steam_id":76561198041343470,"connected_time":2179000000000,"state":"active","ping":67},{"user_id":271,"name":"fortnitenathaniel","steam_id":76561198131833567,"connected_time":5952000000000,"state":"active","ping":76},{"user_id":337,"name":"DeepLarkem","steam_id":76561198823247730,"connected_time":668000000000,"state":"active","ping":54},{"user_id":307,"name":"Satori Komeiji","steam_id":76561198158211423,"connected_time":3155000000000,"state":"active","ping":51},{"user_id":309,"name":"Seriously Bruh","steam_id":76561198070408485,"connected_time":3118000000000,"state":"active","ping":69}]},{"server_id":25,"name":"Uncletopia | Los Angeles | 4 | Stopwatch","name_short":"lax-4","host":"lax-1.us.uncletopia.com","port":27045,"enabled":true,"region":"us-west","cc":"us","latitude":33.94279,"longitude":-118.41004,"reserved":0,"last_update":"0001-01-01T00:00:00Z","name_a2s":"Uncletopia | Los Angeles | 4 | Stopwatch","protocol":17,"map":"pl_barnblitz","folder":"tf","game":"Team Fortress","app_id":440,"player_count":0,"max_players":24,"Bots":0,"server_type":"Dedicated","server_os":"Linux","password":true,"vac":true,"version":"7961495","steam_id":85568392924510199,"keywords":["nocrits","nodmgspread","payload","uncletopia"],"game_id":440,"stv_port":27046,"stv_name":"Uncletopia | Los Angeles | 4 | Stopwatch | STV","players":null},{"server_id":11,"name":"Uncletopia | London | 1 | All Maps","name_short":"lon-1","host":"lon-1.uk.uncletopia.com","port":27015,"enabled":true,"region":"eu","cc":"gb","latitude":51.509865,"longitude":-0.118092,"reserved":0,"last_update":"0001-01-01T00:00:00Z","name_a2s":"Uncletopia | London | 1 | All Maps","protocol":17,"map":"koth_highpass","folder":"tf","game":"Team Fortress","app_id":440,"player_count":0,"max_players":24,"Bots":0,"server_type":"Dedicated","server_os":"Linux","password":true,"vac":true,"version":"7961495","steam_id":85568392924367362,"keywords":["cp","nocrits","nodmgspread","uncletopia"],"game_id":440,"stv_port":27016,"stv_name":"Uncletopia | London | 1 | All Maps | STV","players":null},{"server_id":114,"name":"Uncletopia | London | 2 | All Maps","name_short":"lon-2","host":"lon-1.uk.uncletopia.com","port":27025,"enabled":true,"region":"eu","cc":"gb","latitude":51.509865,"longitude":-0.118092,"reserved":0,"last_update":"0001-01-01T00:00:00Z","name_a2s":"Uncletopia | London | 2 | All Maps","protocol":17,"map":"koth_lakeside_final","folder":"tf","game":"Team Fortress","app_id":440,"player_count":0,"max_players":24,"Bots":0,"server_type":"Dedicated","server_os":"Linux","password":true,"vac":true,"version":"7961495","steam_id":85568392924470941,"keywords":["cp","nocrits","nodmgspread","uncletopia"],"game_id":440,"stv_port":27026,"stv_name":"Uncletopia | London | 2 | All Maps | STV","players":null},{"server_id":320,"name":"Uncletopia | London | 3 | All Maps","name_short":"lon-3","host":"lon-1.uk.uncletopia.com","port":27035,"enabled":true,"region":"eu","cc":"gb","latitude":51.509865,"longitude":-0.118092,"reserved":0,"last_update":"0001-01-01T00:00:00Z","name_a2s":"Uncletopia | London | 3 | All Maps","protocol":17,"map":"cp_process_final","folder":"tf","game":"Team Fortress","app_id":440,"player_count":3,"max_players":24,"Bots":0,"server_type":"Dedicated","server_os":"Linux","password":true,"vac":true,"version":"7961495","steam_id":85568392924510192,"keywords":["cp","nocrits","nodmgspread","uncletopia"],"game_id":440,"stv_port":27036,"stv_name":"Uncletopia | London | 3 | All Maps | STV","players":[{"user_id":3,"name":"Feels Good","steam_id":76561198058030054,"connected_time":799000000000,"state":"active","ping":114},{"user_id":4,"name":"Milo","steam_id":76561198407461881,"connected_time":721000000000,"state":"active","ping":64},{"user_id":6,"name":"bacon","steam_id":76561198032787233,"connected_time":475000000000,"state":"active","ping":72}]},{"server_id":321,"name":"Uncletopia | London | 4 | All Maps","name_short":"lon-4","host":"lon-1.uk.uncletopia.com","port":27045,"enabled":true,"region":"eu","cc":"gb","latitude":51.509865,"longitude":-0.118092,"reserved":0,"last_update":"0001-01-01T00:00:00Z","name_a2s":"Uncletopia | London | 4 | All Maps","protocol":17,"map":"koth_cascade","folder":"tf","game":"Team Fortress","app_id":440,"player_count":0,"max_players":24,"Bots":0,"server_type":"Dedicated","server_os":"Linux","password":true,"vac":true,"version":"7961495","steam_id":85568392924510193,"keywords":["cp","nocrits","nodmgspread","uncletopia"],"game_id":440,"stv_port":27046,"stv_name":"Uncletopia | London | 4 | All Maps | STV","players":null},{"server_id":21,"name":"Uncletopia | London | 5 | All Maps","name_short":"lon-5","host":"lon-1.uk.uncletopia.com","port":27055,"enabled":true,"region":"eu","cc":"gb","latitude":51.509865,"longitude":-0.118092,"reserved":0,"last_update":"0001-01-01T00:00:00Z","name_a2s":"Uncletopia | London | 5 | All Maps","protocol":17,"map":"koth_lakeside_final","folder":"tf","game":"Team Fortress","app_id":440,"player_count":0,"max_players":24,"Bots":0,"server_type":"Dedicated","server_os":"Linux","password":true,"vac":true,"version":"7961495","steam_id":85568392924742829,"keywords":["cp","nocrits","nodmgspread","uncletopia"],"game_id":440,"stv_port":27056,"stv_name":"Uncletopia | London | 5 | All Maps | STV","players":null},{"server_id":22,"name":"Uncletopia | London | 6 | All Maps","name_short":"lon-6","host":"lon-1.uk.uncletopia.com","port":27065,"enabled":true,"region":"eu","cc":"gb","latitude":51.509865,"longitude":-0.118092,"reserved":0,"last_update":"0001-01-01T00:00:00Z","name_a2s":"Uncletopia | London | 6 | All Maps","protocol":17,"map":"cp_dustbowl","folder":"tf","game":"Team Fortress","app_id":440,"player_count":0,"max_players":24,"Bots":0,"server_type":"Dedicated","server_os":"Linux","password":true,"vac":true,"version":"7961495","steam_id":85568392924742830,"keywords":["cp","nocrits","nodmgspread","uncletopia"],"game_id":440,"stv_port":27066,"stv_name":"Uncletopia | London | 6 | All Maps | STV","players":null},{"server_id":40,"name":"Uncletopia | London | 7 | Stopwatch","name_short":"lon-7","host":"lon-1.uk.uncletopia.com","port":27075,"enabled":true,"region":"eu","cc":"gb","latitude":51.509865,"longitude":-0.118092,"reserved":0,"last_update":"0001-01-01T00:00:00Z","name_a2s":"Uncletopia | London | 7 | Stopwatch","protocol":17,"map":"koth_lakeside_final","folder":"tf","game":"Team Fortress","app_id":440,"player_count":0,"max_players":24,"Bots":0,"server_type":"Dedicated","server_os":"Linux","password":true,"vac":true,"version":"7961495","steam_id":85568392924964314,"keywords":["cp","nocrits","nodmgspread","uncletopia"],"game_id":440,"stv_port":27076,"stv_name":"Uncletopia | London | 7 | Stopwatch | STV","players":null},{"server_id":41,"name":"Uncletopia | London | 8 | Community","name_short":"lon-8","host":"lon-1.uk.uncletopia.com","port":27085,"enabled":true,"region":"eu","cc":"gb","latitude":51.509865,"longitude":-0.118092,"reserved":0,"last_update":"0001-01-01T00:00:00Z","name_a2s":"Uncletopia | London | 8 | Community","protocol":17,"map":"cp_snakewater_final1","folder":"tf","game":"Team Fortress","app_id":440,"player_count":0,"max_players":24,"Bots":0,"server_type":"Dedicated","server_os":"Linux","password":true,"vac":true,"version":"7961495","steam_id":85568392924964315,"keywords":["cp","nocrits","nodmgspread","uncletopia"],"game_id":440,"stv_port":27086,"stv_name":"Uncletopia | London | 8 | Community | STV","players":null},{"server_id":300,"name":"Uncletopia | Montréal | 1 | One Thousand Uncles","name_short":"mtl-1","host":"mtl-1.ca.uncletopia.com","port":27015,"enabled":true,"region":"us-east","cc":"ca","latitude":45.50889,"longitude":-73.56167,"reserved":0,"last_update":"0001-01-01T00:00:00Z","name_a2s":"","protocol":0,"map":"","folder":"","game":"","app_id":0,"player_count":1,"max_players":0,"Bots":0,"server_type":"","server_os":"","password":false,"vac":false,"version":"","steam_id":0,"keywords":null,"game_id":0,"stv_port":0,"stv_name":"","players":[{"user_id":290,"name":"ExoTheFlyingFish","steam_id":76561198034388243,"connected_time":89000000000,"state":"active","ping":75}]},{"server_id":301,"name":"Uncletopia | Montréal | 2 | One Thousand Uncles","name_short":"mtl-2","host":"mtl-1.ca.uncletopia.com","port":27025,"enabled":true,"region":"us-east","cc":"ca","latitude":45.50889,"longitude":-73.56167,"reserved":0,"last_update":"0001-01-01T00:00:00Z","name_a2s":"","protocol":0,"map":"","folder":"","game":"","app_id":0,"player_count":0,"max_players":0,"Bots":0,"server_type":"","server_os":"","password":false,"vac":false,"version":"","steam_id":0,"keywords":null,"game_id":0,"stv_port":0,"stv_name":"","players":null},{"server_id":302,"name":"Uncletopia | Montréal | 3 | One Thousand Uncles","name_short":"mtl-3","host":"mtl-1.ca.uncletopia.com","port":27035,"enabled":true,"region":"us-east","cc":"ca","latitude":45.50889,"longitude":-73.56167,"reserved":0,"last_update":"0001-01-01T00:00:00Z","name_a2s":"","protocol":0,"map":"","folder":"","game":"","app_id":0,"player_count":0,"max_players":0,"Bots":0,"server_type":"","server_os":"","password":false,"vac":false,"version":"","steam_id":0,"keywords":null,"game_id":0,"stv_port":0,"stv_name":"","players":null},{"server_id":13,"name":"Uncletopia | New York City | 1 | All Maps","name_short":"nyc-1","host":"nyc-1.us.uncletopia.com","port":27015,"enabled":true,"region":"us-east","cc":"us","latitude":40.73061,"longitude":-73.93524,"reserved":0,"last_update":"0001-01-01T00:00:00Z","name_a2s":"Uncletopia | New York City | 1 | All Maps","protocol":17,"map":"cp_process_final","folder":"tf","game":"Team Fortress","app_id":440,"player_count":0,"max_players":24,"Bots":0,"server_type":"Dedicated","server_os":"Linux","password":true,"vac":true,"version":"7961495","steam_id":85568392924469993,"keywords":["cp","nocrits","nodmgspread","uncletopia"],"game_id":440,"stv_port":27016,"stv_name":"Uncletopia | New York City | 1 | All Maps | STV","players":null},{"server_id":14,"name":"Uncletopia | New York City | 2 | All Maps","name_short":"nyc-2","host":"nyc-1.us.uncletopia.com","port":27025,"enabled":true,"region":"us-east","cc":"us","latitude":40.73061,"longitude":-73.93524,"reserved":0,"last_update":"0001-01-01T00:00:00Z","name_a2s":"Uncletopia | New York City | 2 | All Maps","protocol":17,"map":"pl_upward","folder":"tf","game":"Team Fortress","app_id":440,"player_count":24,"max_players":24,"Bots":0,"server_type":"Dedicated","server_os":"Linux","password":true,"vac":true,"version":"7961495","steam_id":85568392924469994,"keywords":["nocrits","nodmgspread","payload","uncletopia"],"game_id":440,"stv_port":27026,"stv_name":"Uncletopia | New York City | 2 | All Maps | STV","players":[{"user_id":716,"name":"HyperOrange|#SaveTF2","steam_id":76561198068071327,"connected_time":728000000000,"state":"active","ping":83},{"user_id":692,"name":"Niλiwiλi, ▼iscount of ▼io","steam_id":76561198009193777,"connected_time":2711000000000,"state":"active","ping":57},{"user_id":705,"name":"Far Slash Enjoyer","steam_id":76561198927584197,"connected_time":1985000000000,"state":"active","ping":53},{"user_id":693,"name":"Mrs.Frizzle","steam_id":76561198117157085,"connected_time":2703000000000,"state":"active","ping":59},{"user_id":734,"name":"Berb","steam_id":76561198193911899,"connected_time":71000000000,"state":"active","ping":96},{"user_id":715,"name":"Pie Eater 9000","steam_id":76561198003791564,"connected_time":861000000000,"state":"active","ping":70},{"user_id":719,"name":"Guess I'm just popo","steam_id":76561197966419253,"connected_time":563000000000,"state":"active","ping":70},{"user_id":718,"name":"Direct Hit Gaming","steam_id":76561198388738763,"connected_time":620000000000,"state":"active","ping":78},{"user_id":679,"name":"PieSpie","steam_id":76561198054531169,"connected_time":3430000000000,"state":"active","ping":88},{"user_id":720,"name":"lys de mer","steam_id":76561198054906945,"connected_time":546000000000,"state":"active","ping":84},{"user_id":721,"name":"Voids","steam_id":76561198128386726,"connected_time":534000000000,"state":"active","ping":90},{"user_id":722,"name":"Unlimited_Trees","steam_id":76561198299141443,"connected_time":511000000000,"state":"active","ping":113},{"user_id":724,"name":"Fus in Boots","steam_id":76561198053897722,"connected_time":465000000000,"state":"active","ping":121},{"user_id":725,"name":"TheStoneBanana","steam_id":76561198106651578,"connected_time":461000000000,"state":"active","ping":82},{"user_id":726,"name":"sloth (i have gay)","steam_id":76561198047098172,"connected_time":459000000000,"state":"active","ping":62},{"user_id":727,"name":"RedTalonZ64","steam_id":76561198287818498,"connected_time":431000000000,"state":"active","ping":57},{"user_id":728,"name":"R3tronaut","steam_id":76561198132373147,"connected_time":429000000000,"state":"active","ping":108},{"user_id":709,"name":"PK","steam_id":76561198368722500,"connected_time":1432000000000,"state":"active","ping":64},{"user_id":729,"name":"ashelin praxis nude mod","steam_id":76561198167907089,"connected_time":427000000000,"state":"active","ping":70},{"user_id":730,"name":"iCarly Lore Expert","steam_id":76561198111902910,"connected_time":415000000000,"state":"active","ping":42},{"user_id":689,"name":"cranfordtheodore45","steam_id":76561199161577403,"connected_time":2887000000000,"state":"active","ping":111},{"user_id":731,"name":"Beau","steam_id":76561198162587622,"connected_time":405000000000,"state":"active","ping":82},{"user_id":732,"name":"Shadoe","steam_id":76561198218577281,"connected_time":401000000000,"state":"active","ping":67},{"user_id":733,"name":"Mury","steam_id":76561198069743049,"connected_time":371000000000,"state":"active","ping":73}]},{"server_id":15,"name":"Uncletopia | New York City | 3 | Stopwatch","name_short":"nyc-3","host":"nyc-1.us.uncletopia.com","port":27035,"enabled":true,"region":"us-east","cc":"us","latitude":40.73061,"longitude":-73.93524,"reserved":0,"last_update":"0001-01-01T00:00:00Z","name_a2s":"Uncletopia | New York City | 3 | Stopwatch","protocol":17,"map":"workshop/koth_ashville_final.ugc2130459942","folder":"tf","game":"Team Fortress","app_id":440,"player_count":0,"max_players":24,"Bots":0,"server_type":"Dedicated","server_os":"Linux","password":true,"vac":true,"version":"7961495","steam_id":85568392924742820,"keywords":["cp","nocrits","nodmgspread","uncletopia"],"game_id":440,"stv_port":27036,"stv_name":"Uncletopia | New York City | 3 | Stopwatch | STV","players":null},{"server_id":16,"name":"Uncletopia | New York City | 4 | Community","name_short":"nyc-4","host":"nyc-1.us.uncletopia.com","port":27045,"enabled":true,"region":"us-east","cc":"us","latitude":40.73061,"longitude":-73.93524,"reserved":0,"last_update":"0001-01-01T00:00:00Z","name_a2s":"Uncletopia | New York City | 4 | Community","protocol":17,"map":"workshop/pl_shoreleave_rc2.ugc1238849347","folder":"tf","game":"Team Fortress","app_id":440,"player_count":0,"max_players":24,"Bots":0,"server_type":"Dedicated","server_os":"Linux","password":true,"vac":true,"version":"7961495","steam_id":85568392924742821,"keywords":["nocrits","nodmgspread","payload","uncletopia"],"game_id":440,"stv_port":27046,"stv_name":"Uncletopia | New York City | 4 | Community | STV","players":null},{"server_id":142,"name":"Uncletopia | São Paulo | 1 | All Maps","name_short":"sao-1","host":"sao-1.br.uncletopia.com","port":27015,"enabled":true,"region":"sa","cc":"br","latitude":-23.533773,"longitude":-46.62529,"reserved":0,"last_update":"0001-01-01T00:00:00Z","name_a2s":"Uncletopia | São Paulo | 1 | All Maps","protocol":17,"map":"koth_cascade","folder":"tf","game":"Team Fortress","app_id":440,"player_count":0,"max_players":24,"Bots":0,"server_type":"Dedicated","server_os":"Linux","password":true,"vac":true,"version":"7961495","steam_id":85568392924469996,"keywords":["cp","nocrits","nodmgspread","uncletopia"],"game_id":440,"stv_port":27016,"stv_name":"Uncletopia | São Paulo | 1 | All Maps | STV","players":null},{"server_id":143,"name":"Uncletopia | São Paulo | 2 | Community","name_short":"sao-2","host":"sao-2.br.uncletopia.com","port":27015,"enabled":true,"region":"sa","cc":"br","latitude":-23.533773,"longitude":-46.62529,"reserved":0,"last_update":"0001-01-01T00:00:00Z","name_a2s":"Uncletopia | São Paulo | 2 | Community","protocol":17,"map":"workshop/koth_synthetic_rc6a.ugc1549817316","folder":"tf","game":"Team Fortress","app_id":440,"player_count":0,"max_players":24,"Bots":0,"server_type":"Dedicated","server_os":"Linux","password":true,"vac":true,"version":"7961495","steam_id":85568392924485349,"keywords":["cp","nocrits","nodmgspread","uncletopia"],"game_id":440,"stv_port":27016,"stv_name":"Uncletopia | São Paulo | 2 | Community | STV","players":null},{"server_id":7,"name":"Uncletopia | Seattle | 1 | All Maps","name_short":"sea-1","host":"sea-1.us.uncletopia.com","port":27015,"enabled":true,"region":"us-west","cc":"us","latitude":47.608013,"longitude":-122.33517,"reserved":0,"last_update":"0001-01-01T00:00:00Z","name_a2s":"Uncletopia | Seattle | 1 | All Maps","protocol":17,"map":"pl_barnblitz","folder":"tf","game":"Team Fortress","app_id":440,"player_count":24,"max_players":24,"Bots":0,"server_type":"Dedicated","server_os":"Linux","password":true,"vac":true,"version":"7961495","steam_id":85568392924469997,"keywords":["nocrits","nodmgspread","payload","uncletopia"],"game_id":440,"stv_port":27016,"stv_name":"Uncletopia | Seattle | 1 | All Maps | STV","players":[{"user_id":634,"name":"samantha","steam_id":76561198049258493,"connected_time":48000000000,"state":"active","ping":59},{"user_id":607,"name":"smeasly","steam_id":76561198028718812,"connected_time":3375000000000,"state":"active","ping":43},{"user_id":606,"name":"Nom Skirrett","steam_id":76561198014600788,"connected_time":3381000000000,"state":"active","ping":62},{"user_id":624,"name":"hardfork","steam_id":76561197960958019,"connected_time":1270000000000,"state":"active","ping":47},{"user_id":629,"name":"SkobeBeef","steam_id":76561198078638948,"connected_time":1000000000000,"state":"active","ping":55},{"user_id":597,"name":"Sweets","steam_id":76561198998446307,"connected_time":5106000000000,"state":"active","ping":64},{"user_id":623,"name":"Panleya","steam_id":76561198372255797,"connected_time":1392000000000,"state":"active","ping":123},{"user_id":614,"name":"WaffleWithNoToppings","steam_id":76561199088280111,"connected_time":1843000000000,"state":"active","ping":49},{"user_id":631,"name":"Hazel Nutts","steam_id":76561199247095754,"connected_time":143000000000,"state":"active","ping":56},{"user_id":588,"name":"JacobOneHundredPercentWholeWhea","steam_id":76561198045992418,"connected_time":6253000000000,"state":"active","ping":61},{"user_id":635,"name":"Arsonist Goose","steam_id":76561198147441830,"connected_time":38000000000,"state":"active","ping":80},{"user_id":599,"name":"TROY","steam_id":76561197983852176,"connected_time":4037000000000,"state":"active","ping":76},{"user_id":625,"name":"Maurdakar","steam_id":76561197983420976,"connected_time":1195000000000,"state":"active","ping":110},{"user_id":601,"name":"Gm_Sweet","steam_id":76561199445091548,"connected_time":3883000000000,"state":"active","ping":60},{"user_id":579,"name":"duddlee","steam_id":76561198030052564,"connected_time":6762000000000,"state":"active","ping":60},{"user_id":580,"name":"GalaxyDoug32","steam_id":76561197997126305,"connected_time":6642000000000,"state":"active","ping":60},{"user_id":535,"name":"Ayayayayayayayayayayayayahuasca","steam_id":76561199002906056,"connected_time":10709000000000,"state":"active","ping":52},{"user_id":616,"name":"roody","steam_id":76561198066260405,"connected_time":1772000000000,"state":"active","ping":47},{"user_id":630,"name":"Sasha The Foxgirl","steam_id":76561198018403555,"connected_time":475000000000,"state":"active","ping":46},{"user_id":627,"name":"tr","steam_id":76561198046944222,"connected_time":1120000000000,"state":"active","ping":47},{"user_id":610,"name":"Daz","steam_id":76561198041431938,"connected_time":2241000000000,"state":"active","ping":74},{"user_id":632,"name":"PopcornBucketGames","steam_id":76561199089562026,"connected_time":143000000000,"state":"active","ping":51},{"user_id":592,"name":"rat who can kickflip","steam_id":76561198073620027,"connected_time":5612000000000,"state":"active","ping":46},{"user_id":612,"name":"Dog (Wagging tail)","steam_id":76561198041841128,"connected_time":2199000000000,"state":"active","ping":83}]},{"server_id":119,"name":"Uncletopia | Seattle | 2 | All Maps","name_short":"sea-2","host":"sea-1.us.uncletopia.com","port":27025,"enabled":true,"region":"us-west","cc":"us","latitude":47.608013,"longitude":-122.33517,"reserved":0,"last_update":"0001-01-01T00:00:00Z","name_a2s":"Uncletopia | Seattle | 2 | All Maps","protocol":17,"map":"pl_upward","folder":"tf","game":"Team Fortress","app_id":440,"player_count":25,"max_players":24,"Bots":0,"server_type":"Dedicated","server_os":"Linux","password":true,"vac":true,"version":"7961495","steam_id":85568392924469998,"keywords":["nocrits","nodmgspread","payload","uncletopia"],"game_id":440,"stv_port":27026,"stv_name":"Uncletopia | Seattle | 2 | All Maps | STV","players":[{"user_id":188,"name":"sudoku_fiend","steam_id":76561198152029104,"connected_time":1714000000000,"state":"active","ping":75},{"user_id":212,"name":"SolarusD","steam_id":76561198029279861,"connected_time":382000000000,"state":"active","ping":61},{"user_id":172,"name":"AlIen","steam_id":76561198093605031,"connected_time":2434000000000,"state":"active","ping":52},{"user_id":126,"name":"DaBigA","steam_id":76561198326492538,"connected_time":4829000000000,"state":"active","ping":45},{"user_id":204,"name":"Furikuri","steam_id":76561197998277739,"connected_time":820000000000,"state":"active","ping":36},{"user_id":189,"name":"Arkell","steam_id":76561198135884882,"connected_time":1639000000000,"state":"active","ping":43},{"user_id":214,"name":"spiderland","steam_id":76561198335992132,"connected_time":300000000000,"state":"active","ping":36},{"user_id":199,"name":"bladees realest, saddest verse","steam_id":76561198098099826,"connected_time":1156000000000,"state":"active","ping":88},{"user_id":205,"name":"oxi-moe","steam_id":76561198835590034,"connected_time":761000000000,"state":"active","ping":200},{"user_id":206,"name":"solenizantka :3","steam_id":76561198337705174,"connected_time":752000000000,"state":"active","ping":76},{"user_id":182,"name":"BlazedBunny","steam_id":76561198243610560,"connected_time":2222000000000,"state":"active","ping":55},{"user_id":118,"name":"OxOoxen841","steam_id":76561198297981993,"connected_time":5908000000000,"state":"active","ping":77},{"user_id":190,"name":"s-dog","steam_id":76561198065339248,"connected_time":1617000000000,"state":"active","ping":62},{"user_id":207,"name":"Matches_                       ","steam_id":76561198048925904,"connected_time":746000000000,"state":"active","ping":94},{"user_id":213,"name":"zee","steam_id":76561198148876424,"connected_time":340000000000,"state":"active","ping":55},{"user_id":215,"name":"Birby","steam_id":76561198884009768,"connected_time":220000000000,"state":"active","ping":60},{"user_id":158,"name":"Business Zone","steam_id":76561198011675372,"connected_time":3573000000000,"state":"active","ping":52},{"user_id":186,"name":"R5-D4","steam_id":76561198025196439,"connected_time":1842000000000,"state":"active","ping":50},{"user_id":195,"name":"OGBobbyJohns","steam_id":76561197964339077,"connected_time":1446000000000,"state":"active","ping":45},{"user_id":216,"name":"jorts","steam_id":76561199041179985,"connected_time":14000000000,"state":"spawning","ping":56},{"user_id":161,"name":"Emmy Kat","steam_id":76561198185115417,"connected_time":3538000000000,"state":"active","ping":60},{"user_id":194,"name":"Darkgigglemonster","steam_id":76561198870649125,"connected_time":1540000000000,"state":"active","ping":79},{"user_id":210,"name":"Dongus","steam_id":76561197979056451,"connected_time":541000000000,"state":"active","ping":45},{"user_id":202,"name":"loser","steam_id":76561198058690096,"connected_time":1005000000000,"state":"active","ping":50},{"user_id":211,"name":"Dick to ball ratio","steam_id":76561198072205512,"connected_time":540000000000,"state":"active","ping":131}]},{"server_id":406,"name":"Uncletopia | Seattle | 3 | Stopwatch","name_short":"sea-3","host":"sea-1.us.uncletopia.com","port":27035,"enabled":true,"region":"us-west","cc":"us","latitude":47.608013,"longitude":-122.33517,"reserved":0,"last_update":"0001-01-01T00:00:00Z","name_a2s":"Uncletopia | Seattle | 3 | Stopwatch","protocol":17,"map":"workshop/koth_bagel_rc6.ugc2514036946","folder":"tf","game":"Team Fortress","app_id":440,"player_count":0,"max_players":24,"Bots":0,"server_type":"Dedicated","server_os":"Linux","password":true,"vac":true,"version":"7961495","steam_id":85568392924515217,"keywords":["cp","nocrits","nodmgspread","uncletopia"],"game_id":440,"stv_port":27036,"stv_name":"Uncletopia | Seattle | 3 | Stopwatch | STV","players":null},{"server_id":17,"name":"Uncletopia | San Francisco | 1 | All Maps","name_short":"sfo-1","host":"sfo-1.us.uncletopia.com","port":27015,"enabled":true,"region":"us-west","cc":"us","latitude":37.77397,"longitude":-122.4313,"reserved":0,"last_update":"0001-01-01T00:00:00Z","name_a2s":"Uncletopia | San Francisco | 1 | All Maps","protocol":17,"map":"pl_barnblitz","folder":"tf","game":"Team Fortress","app_id":440,"player_count":20,"max_players":24,"Bots":0,"server_type":"Dedicated","server_os":"Linux","password":true,"vac":true,"version":"7961495","steam_id":85568392924469999,"keywords":["nocrits","nodmgspread","payload","uncletopia"],"game_id":440,"stv_port":27016,"stv_name":"Uncletopia | San Francisco | 1 | All Maps | STV","players":[{"user_id":92,"name":"ZeroEmpires","steam_id":76561198044112464,"connected_time":1370000000000,"state":"active","ping":60},{"user_id":96,"name":"THE CLAW","steam_id":76561198050034647,"connected_time":1145000000000,"state":"active","ping":59},{"user_id":55,"name":"blademiss","steam_id":76561198062083019,"connected_time":4525000000000,"state":"active","ping":129},{"user_id":113,"name":"cute anime girl","steam_id":76561198313129977,"connected_time":18000000000,"state":"active","ping":62},{"user_id":111,"name":"Deuce","steam_id":76561198053985200,"connected_time":137000000000,"state":"active","ping":76},{"user_id":107,"name":"Siplord","steam_id":76561198098285138,"connected_time":416000000000,"state":"active","ping":80},{"user_id":102,"name":"Keamy","steam_id":76561199471434875,"connected_time":723000000000,"state":"active","ping":59},{"user_id":82,"name":"Nut Bustray","steam_id":76561198092403883,"connected_time":2147000000000,"state":"active","ping":80},{"user_id":108,"name":"tadatuku","steam_id":76561199029855506,"connected_time":415000000000,"state":"active","ping":176},{"user_id":71,"name":"Fgtfv567","steam_id":76561198071022525,"connected_time":2968000000000,"state":"active","ping":54},{"user_id":112,"name":"bed wetter","steam_id":76561199065405827,"connected_time":135000000000,"state":"active","ping":92},{"user_id":103,"name":"paypur -rng","steam_id":76561198214370515,"connected_time":600000000000,"state":"active","ping":60},{"user_id":81,"name":"bug","steam_id":76561198130032444,"connected_time":2276000000000,"state":"active","ping":72},{"user_id":100,"name":"Kill la Kill Me Pls","steam_id":76561198041304434,"connected_time":849000000000,"state":"active","ping":57},{"user_id":93,"name":"Bishop","steam_id":76561198033860186,"connected_time":1187000000000,"state":"active","ping":99},{"user_id":45,"name":"MantisToboggan","steam_id":76561197969447887,"connected_time":5108000000000,"state":"active","ping":91},{"user_id":101,"name":"bad spy player","steam_id":76561198873699671,"connected_time":840000000000,"state":"active","ping":70},{"user_id":91,"name":"chimplicity","steam_id":76561198012097062,"connected_time":1552000000000,"state":"active","ping":77},{"user_id":87,"name":"level 7 firemancer","steam_id":76561198209571677,"connected_time":1945000000000,"state":"active","ping":105}]},{"server_id":18,"name":"Uncletopia | San Francisco | 2 | All Maps","name_short":"sfo-2","host":"sfo-1.us.uncletopia.com","port":27025,"enabled":true,"region":"us-west","cc":"us","latitude":37.77397,"longitude":-122.4313,"reserved":0,"last_update":"0001-01-01T00:00:00Z","name_a2s":"Uncletopia | San Francisco | 2 | All Maps","protocol":17,"map":"pl_upward","folder":"tf","game":"Team Fortress","app_id":440,"player_count":0,"max_players":24,"Bots":0,"server_type":"Dedicated","server_os":"Linux","password":true,"vac":true,"version":"7961495","steam_id":85568392924470000,"keywords":["nocrits","nodmgspread","payload","uncletopia"],"game_id":440,"stv_port":27026,"stv_name":"Uncletopia | San Francisco | 2 | All Maps | STV","players":null},{"server_id":19,"name":"Uncletopia | San Francisco | 3 | Stopwatch","name_short":"sfo-3","host":"sfo-1.us.uncletopia.com","port":27035,"enabled":true,"region":"us-west","cc":"us","latitude":37.77397,"longitude":-122.4313,"reserved":0,"last_update":"0001-01-01T00:00:00Z","name_a2s":"Uncletopia | San Francisco | 3 | Stopwatch","protocol":17,"map":"workshop/koth_product_final.ugc454272353","folder":"tf","game":"Team Fortress","app_id":440,"player_count":0,"max_players":24,"Bots":0,"server_type":"Dedicated","server_os":"Linux","password":true,"vac":true,"version":"7961495","steam_id":85568392924742824,"keywords":["cp","nocrits","nodmgspread","uncletopia"],"game_id":440,"stv_port":27036,"stv_name":"Uncletopia | San Francisco | 3 | Stopwatch | STV","players":null},{"server_id":20,"name":"Uncletopia | San Francisco | 4 | Community","name_short":"sfo-4","host":"sfo-1.us.uncletopia.com","port":27045,"enabled":true,"region":"us-west","cc":"us","latitude":37.77397,"longitude":-122.4313,"reserved":0,"last_update":"0001-01-01T00:00:00Z","name_a2s":"Uncletopia | San Francisco | 4 | Community","protocol":17,"map":"workshop/cp_logjam_rc12.ugc454812035","folder":"tf","game":"Team Fortress","app_id":440,"player_count":0,"max_players":24,"Bots":0,"server_type":"Dedicated","server_os":"Linux","password":true,"vac":true,"version":"7961495","steam_id":85568392924742826,"keywords":["cp","nocrits","nodmgspread","uncletopia"],"game_id":440,"stv_port":27046,"stv_name":"Uncletopia | San Francisco | 4 | Community | STV","players":null},{"server_id":141,"name":"Uncletopia | Sydney | 1 | All Maps","name_short":"syd-1","host":"syd-1.au.uncletopia.com","port":27015,"enabled":true,"region":"au","cc":"au","latitude":-33.865143,"longitude":151.2099,"reserved":0,"last_update":"0001-01-01T00:00:00Z","name_a2s":"Uncletopia | Sydney | 1 | All Maps","protocol":17,"map":"koth_viaduct","folder":"tf","game":"Team Fortress","app_id":440,"player_count":0,"max_players":24,"Bots":0,"server_type":"Dedicated","server_os":"Linux","password":true,"vac":true,"version":"7961495","steam_id":85568392924470001,"keywords":["cp","nocrits","nodmgspread","uncletopia"],"game_id":440,"stv_port":27016,"stv_name":"Uncletopia | Sydney | 1 | All Maps | STV","players":null},{"server_id":123,"name":"Uncletopia | Sydney | 2 | All Maps","name_short":"syd-2","host":"syd-1.au.uncletopia.com","port":27025,"enabled":true,"region":"au","cc":"au","latitude":-33.865143,"longitude":151.2099,"reserved":0,"last_update":"0001-01-01T00:00:00Z","name_a2s":"Uncletopia | Sydney | 2 | All Maps","protocol":17,"map":"cp_altitude","folder":"tf","game":"Team Fortress","app_id":440,"player_count":0,"max_players":24,"Bots":0,"server_type":"Dedicated","server_os":"Linux","password":true,"vac":true,"version":"7961495","steam_id":85568392924470002,"keywords":["cp","nocrits","nodmgspread","uncletopia"],"game_id":440,"stv_port":27026,"stv_name":"Uncletopia | Sydney | 2 | All Maps | STV","players":null},{"server_id":395,"name":"Uncletopia | Sydney | 3 | All Maps","name_short":"syd-3","host":"syd-1.au.uncletopia.com","port":27035,"enabled":true,"region":"au","cc":"au","latitude":-33.865143,"longitude":151.2099,"reserved":0,"last_update":"0001-01-01T00:00:00Z","name_a2s":"Uncletopia | Sydney | 3 | All Maps","protocol":17,"map":"pl_frontier_final","folder":"tf","game":"Team Fortress","app_id":440,"player_count":0,"max_players":24,"Bots":0,"server_type":"Dedicated","server_os":"Linux","password":true,"vac":true,"version":"7961495","steam_id":85568392925194467,"keywords":["nocrits","nodmgspread","payload","uncletopia"],"game_id":440,"stv_port":27036,"stv_name":"Uncletopia | Sydney | 3 | All Maps | STV","players":null},{"server_id":396,"name":"Uncletopia | Sydney | 4 | All Maps","name_short":"syd-4","host":"syd-1.au.uncletopia.com","port":27045,"enabled":true,"region":"au","cc":"au","latitude":-33.865143,"longitude":151.2099,"reserved":0,"last_update":"0001-01-01T00:00:00Z","name_a2s":"Uncletopia | Sydney | 4 | All Maps","protocol":17,"map":"cp_process_final","folder":"tf","game":"Team Fortress","app_id":440,"player_count":0,"max_players":24,"Bots":0,"server_type":"Dedicated","server_os":"Linux","password":true,"vac":true,"version":"7961495","steam_id":85568392925397958,"keywords":["cp","nocrits","nodmgspread","uncletopia"],"game_id":440,"stv_port":27046,"stv_name":"Uncletopia | Sydney | 4 | All Maps | STV","players":null},{"server_id":58,"name":"Uncletopia | Sydney | 5 | Stopwatch","name_short":"syd-5","host":"syd-1.au.uncletopia.com","port":27055,"enabled":true,"region":"au","cc":"au","latitude":-33.865143,"longitude":151.2099,"reserved":0,"last_update":"0001-01-01T00:00:00Z","name_a2s":"Uncletopia | Sydney | 5 | Stopwatch","protocol":17,"map":"pl_frontier_final","folder":"tf","game":"Team Fortress","app_id":440,"player_count":0,"max_players":24,"Bots":0,"server_type":"Dedicated","server_os":"Linux","password":true,"vac":true,"version":"7961495","steam_id":85568392925397959,"keywords":["nocrits","nodmgspread","payload","uncletopia"],"game_id":440,"stv_port":27056,"stv_name":"Uncletopia | Sydney | 5 | Stopwatch | STV","players":null},{"server_id":59,"name":"Uncletopia | Sydney | 6 | Community","name_short":"syd-6","host":"syd-1.au.uncletopia.com","port":27065,"enabled":true,"region":"au","cc":"au","latitude":-33.865143,"longitude":151.2099,"reserved":0,"last_update":"0001-01-01T00:00:00Z","name_a2s":"Uncletopia | Sydney | 6 | Community","protocol":17,"map":"cp_sunshine","folder":"tf","game":"Team Fortress","app_id":440,"player_count":0,"max_players":24,"Bots":0,"server_type":"Dedicated","server_os":"Linux","password":true,"vac":true,"version":"7961495","steam_id":85568392925397960,"keywords":["cp","nocrits","nodmgspread","uncletopia"],"game_id":440,"stv_port":27066,"stv_name":"Uncletopia | Sydney | 6 | Community | STV","players":null},{"server_id":49,"name":"Uncletopia | Warsaw | 1 | One Thousand Uncles","name_short":"waw-1","host":"waw-1.pl.uncletopia.com","port":27015,"enabled":true,"region":"eu","cc":"pl","latitude":52.2297,"longitude":21.017532,"reserved":0,"last_update":"0001-01-01T00:00:00Z","name_a2s":"Uncletopia | Warsaw | 1 | One Thousand Uncles","protocol":17,"map":"koth_highpass","folder":"tf","game":"Team Fortress","app_id":440,"player_count":18,"max_players":32,"Bots":16,"server_type":"Dedicated","server_os":"Linux","password":true,"vac":true,"version":"7961495","steam_id":85568392925397850,"keywords":["alltalk","bots","cp","danepve","increased_maxplayers","nocrits","norespawntime","uncletopia"],"game_id":440,"stv_port":0,"stv_name":"","players":[{"user_id":25,"name":"TDSZAN","steam_id":76561199228365368,"connected_time":3027000000000,"state":"active","ping":268},{"user_id":44,"name":"sniper_XD777","steam_id":76561199219271484,"connected_time":1797000000000,"state":"active","ping":300}]},{"server_id":50,"name":"Uncletopia | Warsaw | 2 | One Thousand Uncles","name_short":"waw-2","host":"waw-1.pl.uncletopia.com","port":27025,"enabled":true,"region":"eu","cc":"pl","latitude":52.2297,"longitude":21.017532,"reserved":0,"last_update":"0001-01-01T00:00:00Z","name_a2s":"Uncletopia | Warsaw | 2 | One Thousand Uncles","protocol":17,"map":"pl_goldrush","folder":"tf","game":"Team Fortress","app_id":440,"player_count":0,"max_players":32,"Bots":0,"server_type":"Dedicated","server_os":"Linux","password":true,"vac":true,"version":"7961495","steam_id":85568392925397851,"keywords":["alltalk","danepve","increased_maxplayers","nocrits","norespawntime","payload","uncletopia"],"game_id":440,"stv_port":0,"stv_name":"","players":null},{"server_id":51,"name":"Uncletopia | Warsaw | 3 | All Maps","name_short":"waw-3","host":"waw-1.pl.uncletopia.com","port":27035,"enabled":true,"region":"eu","cc":"pl","latitude":52.2297,"longitude":21.017532,"reserved":0,"last_update":"0001-01-01T00:00:00Z","name_a2s":"Uncletopia | Warsaw | 3 | All Maps","protocol":17,"map":"plr_pipeline","folder":"tf","game":"Team Fortress","app_id":440,"player_count":0,"max_players":24,"Bots":0,"server_type":"Dedicated","server_os":"Linux","password":true,"vac":true,"version":"7961495","steam_id":85568392925397852,"keywords":["nocrits","nodmgspread","payload","uncletopia"],"game_id":440,"stv_port":27036,"stv_name":"Uncletopia | Warsaw | 3 | All Maps | STV","players":null},{"server_id":52,"name":"Uncletopia | Warsaw | 4 | All Maps","name_short":"waw-4","host":"waw-1.pl.uncletopia.com","port":27045,"enabled":true,"region":"eu","cc":"pl","latitude":52.2297,"longitude":21.017532,"reserved":0,"last_update":"0001-01-01T00:00:00Z","name_a2s":"Uncletopia | Warsaw | 4 | All Maps","protocol":17,"map":"cp_coldfront","folder":"tf","game":"Team Fortress","app_id":440,"player_count":0,"max_players":24,"Bots":0,"server_type":"Dedicated","server_os":"Linux","password":true,"vac":true,"version":"7961495","steam_id":85568392925397853,"keywords":["cp","nocrits","nodmgspread","uncletopia"],"game_id":440,"stv_port":27046,"stv_name":"Uncletopia | Warsaw | 4 | All Maps | STV","players":null},{"server_id":53,"name":"Uncletopia | Warsaw | 5 | Stopwatch","name_short":"waw-5","host":"waw-1.pl.uncletopia.com","port":27055,"enabled":true,"region":"eu","cc":"pl","latitude":52.2297,"longitude":21.017532,"reserved":0,"last_update":"0001-01-01T00:00:00Z","name_a2s":"Uncletopia | Warsaw | 5 | Stopwatch","protocol":17,"map":"workshop/koth_bagel_rc6.ugc2514036946","folder":"tf","game":"Team Fortress","app_id":440,"player_count":0,"max_players":24,"Bots":0,"server_type":"Dedicated","server_os":"Linux","password":true,"vac":true,"version":"7961495","steam_id":85568392925397854,"keywords":["cp","nocrits","nodmgspread","uncletopia"],"game_id":440,"stv_port":27056,"stv_name":"Uncletopia | Warsaw | 5 | Stopwatch | STV","players":null},{"server_id":54,"name":"Uncletopia | Warsaw | 6 | Community","name_short":"waw-6","host":"waw-1.pl.uncletopia.com","port":27065,"enabled":true,"region":"eu","cc":"pl","latitude":52.2297,"longitude":21.017532,"reserved":0,"last_update":"0001-01-01T00:00:00Z","name_a2s":"Uncletopia | Warsaw | 6 | Community","protocol":17,"map":"workshop/pl_badwater_pro_v12.ugc2142942074","folder":"tf","game":"Team Fortress","app_id":440,"player_count":0,"max_players":24,"Bots":0,"server_type":"Dedicated","server_os":"Linux","password":true,"vac":true,"version":"7961495","steam_id":85568392925397856,"keywords":["nocrits","nodmgspread","payload","uncletopia"],"game_id":440,"stv_port":27066,"stv_name":"Uncletopia | Warsaw | 6 | Community | STV","players":null}]}