{"status":true,"message":"","result":[{"server_id":9,"name":"Uncletopia | Atlanta | 1 | All Maps","name_short":"atl-1","host":"atl-1.us.uncletopia.com","port":27015,"enabled":true,"region":"us-east","cc":"us","latitude":33.753746,"longitude":-84.38633,"reserved":0,"last_update":"0001-01-01T00:00:00Z","name_a2s":"Uncletopia | Atlanta | 1 | All Maps","protocol":17,"map":"cp_mountainlab","folder":"tf","game":"Team Fortress","app_id":440,"player_count":0,"max_players":24,"Bots":0,"server_type":"Dedicated","server_os":"Linux","password":true,"vac":true,"version":"7961495","steam_id":85568392924469982,"keywords":["cp","nocrits","nodmgspread","uncletopia"],"game_id":440,"stv_port":27016,"stv_name":"Uncletopia | Atlanta | 1 | All Maps | STV","players":null},{"server_id":104,"name":"Uncletopia | Atlanta | 2 | All Maps","name_short":"atl-2","host":"atl-1.us.uncletopia.com","port":27025,"enabled":true,"region":"us-east","cc":"us","latitude":33.753746,"longitude":-84.38633,"reserved":0,"last_update":"0001-01-01T00:00:00Z","name_a2s":"Uncletopia | Atlanta | 2 | All Maps","protocol":17,"map":"pl_badwater","folder":"tf","game":"Team Fortress","app_id":440,"player_count":24,"max_players":24,"Bots":0,"server_type":"Dedicated","server_os":"Linux","password":true,"vac":true,"version":"7961495","steam_id":85568392924469983,"keywords":["nocrits","nodmgspread","payload","uncletopia"],"game_id":440,"stv_port":27026,"stv_name":"Uncletopia | Atlanta | 2 | All Maps | STV","players":null},{"server_id":400,"name":"Uncletopia | Atlanta | 3 | Stopwatch","name_short":"atl-3","host":"atl-1.us.uncletopia.com","port":27035,"enabled":true,"region":"us-east","cc":"us","latitude":33.753746,"longitude":-84.38633,"reserved":0,"last_update":"0001-01-01T00:00:00Z","name_a2s":"Uncletopia | Atlanta | 3 | Stopwatch","protocol":17,"map":"cp_process_final","folder":"tf","game":"Team Fortress","app_id":440,"player_count":0,"max_players":24,"Bots":0,"server_type":"Dedicated","server_os":"Linux","password":true,"vac":true,"version":"7961495","steam_id":85568392924515187,"keywords":["cp","nocrits","nodmgspread","uncletopia"],"game_id":440,"stv_port":27036,"stv_name":"Uncletopia | Atlanta | 3 | Stopwatch | STV","players":null},{"server_id":401,"name":"Uncletopia | Atlanta | 4 | Community","name_short":"atl-4","host":"atl-1.us.uncletopia.com","port":27045,"enabled":true,"region":"us-east","cc":"us","latitude":33.753746,"longitude":-84.38633,"reserved":0,"last_update":"0001-01-01T00:00:00Z","name_a2s":"Uncletopia | Atlanta | 4 | Community","protocol":17,"map":"koth_trenchfoot_b1a","folder":"tf","game":"Team Fortress","app_id":440,"player_count":0,"max_players":24,"Bots":0,"server_type":"Dedicated","server_os":"Linux","password":true,"vac":true,"version":"7961495","steam_id":85568392924515188,"keywords":["cp","nocrits","nodmgspread","uncletopia"],"game_id":440,"stv_port":27046,"stv_name":"Uncletopia | Atlanta | 4 | Community | STV","players":null},{"server_id":2,"name":"Uncletopia | Chicago | 1 | All Maps","name_short":"chi-1","host":"chi-1.us.uncletopia.com","port":27015,"enabled":true,"region":"us-central","cc":"us","latitude":41.881832,"longitude":-87.62318,"reserved":0,"last_update":"0001-01-01T00:00:00Z","name_a2s":"Uncletopia | Chicago | 1 | All Maps","protocol":17,"map":"ctf_doublecross","folder":"tf","game":"Team Fortress","app_id":440,"player_count":24,"max_players":24,"Bots":0,"server_type":"Dedicated","server_os":"Linux","password":true,"vac":true,"version":"7961495","steam_id":85568392924469984,"keywords":["ctf","nocrits","nodmgspread","uncletopia"],"game_id":440,"stv_port":27016,"stv_name":"Uncletopia | Chicago | 1 | All Maps | STV","players":[{"user_id":103,"name":"Shark Sandwich","steam_id":76561198025007938,"connected_time":1490000000000,"state":"active","ping":107},{"user_id":106,"name":"triangleman","steam_id":76561198972733542,"connected_time":1365000000000,"state":"active","ping":50},{"user_id":66,"name":"B.Luga™","steam_id":76561198046473460,"connected_time":4459000000000,"state":"active","ping":63},{"user_id":84,"name":"William Wallace","steam_id":76561199343316814,"connected_time":3010000000000,"state":"active","ping":74},{"user_id":104,"name":"Duckbeater","steam_id":76561198012421014,"connected_time":1365000000000,"state":"active","ping":104},{"user_id":121,"name":"fish scout ●","steam_id":76561198999217575,"connected_time":395000000000,"state":"active","ping":70},{"user_id":108,"name":"his flatulence","steam_id":76561198799404824,"connected_time":1325000000000,"state":"active","ping":81},{"user_id":109,"name":"HOODOO_LOVER_2007","steam_id":76561199087691214,"connected_time":1324000000000,"state":"active","ping":87},{"user_id":123,"name":"Scuffy Irwin","steam_id":76561198106314821,"connected_time":227000000000,"state":"active","ping":65},{"user_id":97,"name":"Aeri","steam_id":76561198041809495,"connected_time":2000000000000,"state":"active","ping":96},{"user_id":122,"name":"✿♡☆•Alex•☆♡♀","steam_id":76561199070438316,"connected_time":392000000000,"state":"active","ping":48},{"user_id":98,"name":"Clear Sights","steam_id":76561198006215683,"connected_time":1987000000000,"state":"active","ping":64},{"user_id":62,"name":"JSlayz","steam_id":76561198853768655,"connected_time":4880000000000,"state":"active","ping":43},{"user_id":91,"name":"DivineBanana","steam_id":76561198026529731,"connected_time":2652000000000,"state":"active","ping":89},{"user_id":102,"name":"-BRH- Tangled up in Bluegrass","steam_id":76561197987181139,"connected_time":1717000000000,"state":"active","ping":75},{"user_id":113,"name":"Dr. Captain","steam_id":76561198180724285,"connected_time":1132000000000,"state":"active","ping":61},{"user_id":100,"name":"Tree","steam_id":76561198239699504,"connected_time":1807000000000,"state":"active","ping":47},{"user_id":69,"name":"the keebler","steam_id":76561199486326945,"connected_time":4374000000000,"state":"active","ping":83},{"user_id":124,"name":"GooniOoni","steam_id":76561198102154561,"connected_time":100000000000,"state":"active","ping":44},{"user_id":107,"name":"LegendaryMister151","steam_id":76561198064890524,"connected_time":1335000000000,"state":"active","ping":85},{"user_id":117,"name":"RIP Rick May","steam_id":76561199083451324,"connected_time":680000000000,"state":"active","ping":70},{"user_id":99,"name":"Jamie","steam_id":76561198058840477,"connected_time":1971000000000,"state":"active","ping":109},{"user_id":119,"name":"Sir Loincloth","steam_id":76561198033073991,"connected_time":572000000000,"state":"active","ping":75},{"user_id":125,"name":"Voids","steam_id":76561198128386726,"connected_time":60000000000,"state":"active","ping":81}]},{"server_id":106,"name":"Uncletopia | Chicago | 2 | All Maps","name_short":"chi-2","host":"chi-1.us.uncletopia.com","port":27025,"enabled":true,"region":"us-central","cc":"us","latitude":41.881832,"longitude":-87.62318,"reserved":0,"last_update":"0001-01-01T00:00:00Z","name_a2s":"Uncletopia | Chicago | 2 | All Maps","protocol":17,"map":"pl_snowycoast","folder":"tf","game":"Team Fortress","app_id":440,"player_count":0,"max_players":24,"Bots":0,"server_type":"Dedicated","server_os":"Linux","password":true,"vac":true,"version":"7961495","steam_id":85568392924469985,"keywords":["nocrits","nodmgspread","payload","uncletopia"],"game_id":440,"stv_port":27026,"stv_name":"Uncletopia | Chicago | 2 | All Maps | STV","players":null},{"server_id":402,"name":"Uncletopia | Chicago | 3 | All Maps","name_short":"chi-3","host":"chi-1.us.uncletopia.com","port":27035,"enabled":true,"region":"us-central","cc":"us","latitude":41.881832,"longitude":-87.62318,"reserved":0,"last_update":"0001-01-01T00:00:00Z","name_a2s":"Uncletopia | Chicago | 3 | All Maps","protocol":17,"map":"pl_barnblitz","folder":"tf","game":"Team Fortress","app_id":440,"player_count":0,"max_players":24,"Bots":0,"server_type":"Dedicated","server_os":"Linux","password":true,"vac":true,"version":"7961495","steam_id":85568392924515191,"keywords":["nocrits","nodmgspread","payload","uncletopia"],"game_id":440,"stv_port":27036,"stv_name":"Uncletopia | Chicago | 3 | All Maps | STV","players":null},{"server_id":403,"name":"Uncletopia | Chicago | 4 | All Maps","name_short":"chi-4","host":"chi-1.us.uncletopia.com","port":27045,"enabled":true,"region":"us-central","cc":"us","latitude":41.881832,"longitude":-87.62318,"reserved":0,"last_update":"0001-01-01T00:00:00Z","name_a2s":"Uncletopia | Chicago | 4 | All Maps","protocol":17,"map":"cp_steel","folder":"tf","game":"Team Fortress","app_id":440,"player_count":24,"max_players":24,"Bots":0,"server_type":"Dedicated","server_os":"Linux","password":true,"vac":true,"version":"7961495","steam_id":85568392924515193,"keywords":["cp","nocrits","nodmgspread","uncletopia"],"game_id":440,"stv_port":27046,"stv_name":"Uncletopia | Chicago | 4 | All Maps | STV","players":[{"user_id":212,"name":"YunKoツ","steam_id":76561199107366261,"connected_time":204000000000,"state":"active","ping":73},{"user_id":171,"name":"g00bur","steam_id":76561197993622520,"connected_time":3551000000000,"state":"active","ping":71},{"user_id":50,"name":"not a good idea","steam_id":76561198032259680,"connected_time":15514000000000,"state":"active","ping":75},{"user_id":199,"name":"homsar","steam_id":76561199031742838,"connected_time":1017000000000,"state":"active","ping":73},{"user_id":198,"name":"Tom Crúaich","steam_id":76561197999439911,"connected_time":1044000000000,"state":"active","ping":76},{"user_id":185,"name":"Dr. Kiefer Th.C.","steam_id":76561198098014636,"connected_time":2767000000000,"state":"active","ping":50},{"user_id":211,"name":"acid","steam_id":76561198055855408,"connected_time":242000000000,"state":"active","ping":74},{"user_id":182,"name":"Mury","steam_id":76561198069743049,"connected_time":2809000000000,"state":"active","ping":97},{"user_id":203,"name":"Petrivus","steam_id":76561198202152453,"connected_time":740000000000,"state":"active","ping":102},{"user_id":195,"name":"Nic0","steam_id":76561198305690218,"connected_time":1465000000000,"state":"active","ping":64},{"user_id":181,"name":"ThePopularLoner3334","steam_id":76561198202436474,"connected_time":2902000000000,"state":"active","ping":60},{"user_id":205,"name":"FlamingManiac","steam_id":76561198361996837,"connected_time":618000000000,"state":"active","ping":82},{"user_id":183,"name":"Toxic Ron","steam_id":76561198089302972,"connected_time":2799000000000,"state":"active","ping":62},{"user_id":200,"name":"Nephi","steam_id":76561198031525122,"connected_time":997000000000,"state":"active","ping":78},{"user_id":189,"name":"Kritzburgh","steam_id":76561198149466938,"connected_time":2427000000000,"state":"active","ping":62},{"user_id":206,"name":"pea ttv/peabeanz","steam_id":76561198119551968,"connected_time":587000000000,"state":"active","ping":82},{"user_id":202,"name":"Ulrich Stern","steam_id":76561198101739682,"connected_time":843000000000,"state":"active","ping":92},{"user_id":208,"name":"moonbunny","steam_id":76561198262304152,"connected_time":374000000000,"state":"active","ping":69},{"user_id":209,"name":"Keyblockor","steam_id":76561197997009501,"connected_time":278000000000,"state":"active","ping":117},{"user_id":215,"name":"Dan","steam_id":76561199236719411,"connected_time":164000000000,"state":"active","ping":73},{"user_id":113,"name":"Joseph Stalin","steam_id":76561198382398935,"connected_time":9399000000000,"state":"active","ping":114},{"user_id":197,"name":"ＲＥＤ","steam_id":76561198030282308,"connected_time":1255000000000,"state":"active","ping":100},{"user_id":213,"name":"StealthyZeroTwo","steam_id":76561198942692649,"connected_time":198000000000,"state":"active","ping":81},{"user_id":214,"name":"glorpo male","steam_id":76561198110320334,"connected_time":187000000000,"state":"active","ping":60}]},{"server_id":36,"name":"Uncletopia | Chicago | 5 | All Maps","name_short":"chi-5","host":"chi-2.us.uncletopia.com","port":27015,"enabled":true,"region":"us-central","cc":"us","latitude":41.881832,"longitude":-87.62318,"reserved":0,"last_update":"0001-01-01T00:00:00Z","name_a2s":"Uncletopia | Chicago | 5 | All Maps","protocol":17,"map":"koth_viaduct","folder":"tf","game":"Team Fortress","app_id":440,"player_count":0,"max_players":24,"Bots":0,"server_type":"Dedicated","server_os":"Linux","password":true,"vac":true,"version":"7961495","steam_id":85568392924866362,"keywords":["cp","nocrits","nodmgspread","uncletopia"],"game_id":440,"stv_port":27016,"stv_name":"Uncletopia | Chicago | 5 | All Maps | STV","players":null},{"server_id":37,"name":"Uncletopia | Chicago | 6 | All Maps","name_short":"chi-6","host":"chi-2.us.uncletopia.com","port":27025,"enabled":true,"region":"us-central","cc":"us","latitude":41.881832,"longitude":-87.62318,"reserved":0,"last_update":"0001-01-01T00:00:00Z","name_a2s":"Uncletopia | Chicago | 6 | All Maps","protocol":17,"map":"pl_frontier_final","folder":"tf","game":"Team Fortress","app_id":440,"player_count":0,"max_players":24,"Bots":0,"server_type":"Dedicated","server_os":"Linux","password":true,"vac":true,"version":"7961495","steam_id":85568392924866363,"keywords":["nocrits","nodmgspread","payload","uncletopia"],"game_id":440,"stv_port":27026,"stv_name":"Uncletopia | Chicago | 6 | All Maps | STV","players":null},{"server_id":38,"name":"Uncletopia | Chicago | 7 | Stopwatch","name_short":"chi-7","host":"chi-2.us.uncletopia.com","port":27035,"enabled":true,"region":"us-central","cc":"us","latitude":41.881832,"longitude":-87.62318,"reserved":0,"last_update":"0001-01-01T00:00:00Z","name_a2s":"Uncletopia | Chicago | 7 | Stopwatch","protocol":17,"map":"pl_badwater","folder":"tf","game":"Team Fortress","app_id":440,"player_count":0,"max_players":24,"Bots":0,"server_type":"Dedicated","server_os":"Linux","password":true,"vac":true,"version":"7961495","steam_id":85568392924866364,"keywords":["nocrits","nodmgspread","payload","uncletopia"],"game_id":440,"stv_port":27036,"stv_name":"Uncletopia | Chicago | 7 | Stopwatch | STV","players":null},{"server_id":39,"name":"Uncletopia | Chicago | 8 | Community","name_short":"chi-8","host":"chi-2.us.uncletopia.com","port":27045,"enabled":true,"region":"us-central","cc":"us","latitude":41.881832,"longitude":-87.62318,"reserved":0,"last_update":"0001-01-01T00:00:00Z","name_a2s":"Uncletopia | Chicago | 8 | Community","protocol":17,"map":"pl_pier","folder":"tf","game":"Team Fortress","app_id":440,"player_count":0,"max_players":24,"Bots":0,"server_type":"Dedicated","server_os":"Linux","password":true,"vac":true,"version":"7961495","steam_id":85568392924866365,"keywords":["nocrits","nodmgspread","payload","uncletopia"],"game_id":440,"stv_port":27046,"stv_name":"Uncletopia | Chicago | 8 | Community | STV","players":null},{"server_id":8,"name":"Uncletopia | Dallas | 1 | All Maps","name_short":"dal-1","host":"dal-1.us.uncletopia.com","port":27015,"enabled":true,"region":"us-central","cc":"us","latitude":32.779167,"longitude":-96.80889,"reserved":0,"last_update":"0001-01-01T00:00:00Z","name_a2s":"Uncletopia | Dallas | 1 | All Maps","protocol":17,"map":"cp_altitude","folder":"tf","game":"Team Fortress","app_id":440,"player_count":0,"max_players":24,"Bots":0,"server_type":"Dedicated","server_os":"Linux","password":true,"vac":true,"version":"7961495","steam_id":85568392924469986,"keywords":["cp","nocrits","nodmgspread","uncletopia"],"game_id":440,"stv_port":27016,"stv_name":"Uncletopia | Dallas | 1 | All Maps | STV","players":null},{"server_id":108,"name":"Uncletopia | Dallas | 2 | All Maps","name_short":"dal-2","host":"dal-1.us.uncletopia.com","port":27025,"enabled":true,"region":"us-central","cc":"us","latitude":32.779167,"longitude":-96.80889,"reserved":0,"last_update":"0001-01-01T00:00:00Z","name_a2s":"Uncletopia | Dallas | 2 | All Maps","protocol":17,"map":"cp_sunshine","folder":"tf","game":"Team Fortress","app_id":440,"player_count":20,"max_players":24,"Bots":0,"server_type":"Dedicated","server_os":"Linux","password":true,"vac":true,"version":"7961495","steam_id":85568392924469988,"keywords":["cp","nocrits","nodmgspread","uncletopia"],"game_id":440,"stv_port":27026,"stv_name":"Uncletopia | Dallas | 2 | All Maps | STV","players":[{"user_id":53,"name":"Warhead","steam_id":76561198067746049,"connected_time":780000000000,"state":"active","ping":134},{"user_id":5,"name":"DragonJimmy","steam_id":76561198272966565,"connected_time":4444000000000,"state":"active","ping":73},{"user_id":44,"name":"Abysa.","steam_id":76561198424398862,"connected_time":1871000000000,"state":"active","ping":163},{"user_id":7,"name":"FormalCheese","steam_id":76561198068636715,"connected_time":4190000000000,"state":"active","ping":66},{"user_id":58,"name":"Muk__Tuk","steam_id":76561199122524457,"connected_time":216000000000,"state":"active","ping":86},{"user_id":55,"name":"Gamerfan64","steam_id":76561198801410962,"connected_time":346000000000,"state":"spawning","ping":43},{"user_id":50,"name":"kbsfnk","steam_id":76561198036884600,"connected_time":1461000000000,"state":"active","ping":84},{"user_id":60,"name":"mountainkug","steam_id":76561199491802535,"connected_time":45000000000,"state":"active","ping":106},{"user_id":61,"name":"Walmart Employee","steam_id":76561198840373909,"connected_time":20000000000,"state":"active","ping":107},{"user_id":41,"name":"JoJoJo","steam_id":76561198067153390,"connected_time":2111000000000,"state":"active","ping":75},{"user_id":46,"name":"flu walrus","steam_id":76561198207940136,"connected_time":1566000000000,"state":"active","ping":51},{"user_id":43,"name":"Urist McDwarf","steam_id":76561198164004939,"connected_time":1882000000000,"state":"active","ping":100},{"user_id":62,"name":"capetanunito","steam_id":76561199364524852,"connected_time":19000000000,"state":"active","ping":228},{"user_id":56,"name":"Bamstar","steam_id":76561198195740803,"connected_time":338000000000,"state":"active","ping":120},{"user_id":21,"name":"FreonAddict9x19","steam_id":76561198060010824,"connected_time":3154000000000,"state":"active","ping":88},{"user_id":52,"name":"w4rd","steam_id":76561198134667434,"connected_time":810000000000,"state":"active","ping":61},{"user_id":63,"name":"lego star wars on the psp","steam_id":76561198148014773,"connected_time":5000000000,"state":"spawning","ping":73},{"user_id":54,"name":"rad killl raccoon","steam_id":76561198980975595,"connected_time":574000000000,"state":"active","ping":124},{"user_id":57,"name":"BOT Positronic♥June","steam_id":76561198042556857,"connected_time":329000000000,"state":"active","ping":74},{"user_id":49,"name":"Soupcan","steam_id":76561198012807915,"connected_time":1521000000000,"state":"active","ping":60}]},{"server_id":404,"name":"Uncletopia | Dallas | 3 | All Maps","name_short":"dal-3","host":"dal-1.us.uncletopia.com","port":27035,"enabled":true,"region":"us-central","cc":"us","latitude":32.779167,"longitude":-96.80889,"reserved":0,"last_update":"0001-01-01T00:00:00Z","name_a2s":"Uncletopia | Dallas | 3 | All Maps","protocol":17,"map":"pl_badwater","folder":"tf","game":"Team Fortress","app_id":440,"player_count":0,"max_players":24,"Bots":0,"server_type":"Dedicated","server_os":"Linux","password":true,"vac":true,"version":"7961495","steam_id":85568392924515219,"keywords":["nocrits","nodmgspread","payload","uncletopia"],"game_id":440,"stv_port":27036,"stv_name":"Uncletopia | Dallas | 3 | All Maps | STV","players":null},{"server_id":405,"name":"Uncletopia | Dallas | 4 | Community","name_short":"dal-4","host":"dal-1.us.uncletopia.com","port":27045,"enabled":true,"region":"us-central","cc":"us","latitude":32.779167,"longitude":-96.80889,"reserved":0,"last_update":"0001-01-01T00:00:00Z","name_a2s":"Uncletopia | Dallas | 4 | Community","protocol":17,"map":"pl_pier","folder":"tf","game":"Team Fortress","app_id":440,"player_count":0,"max_players":24,"Bots":0,"server_type":"Dedicated","server_os":"Linux","password":true,"vac":true,"version":"7961495","steam_id":85568392924515220,"keywords":["nocrits","nodmgspread","payload","uncletopia"],"game_id":440,"stv_port":27046,"stv_name":"Uncletopia | Dallas | 4 | Community | STV","players":null},{"server_id":5,"name":"Uncletopia | Frankfurt | 1 | All Maps","name_short":"frk-1","host":"frk-1.de.uncletopia.com","port":27015,"enabled":true,"region":"eu","cc":"de","latitude":50.110924,"longitude":8.682127,"reserved":0,"last_update":"0001-01-01T00:00:00Z","name_a2s":"Uncletopia | Frankfurt | 1 | All Maps","protocol":17,"map":"cp_dustbowl","folder":"tf","game":"Team Fortress","app_id":440,"player_count":24,"max_players":24,"Bots":0,"server_type":"Dedicated","server_os":"Linux","password":true,"vac":true,"version":"7961495","steam_id":85568392924469989,"keywords":["cp","nocrits","nodmgspread","uncletopia"],"game_id":440,"stv_port":27016,"stv_name":"Uncletopia | Frankfurt | 1 | All Maps | STV","players":[{"user_id":453,"name":"IgorVitoriev","steam_id":76561198075723591,"connected_time":806000000000,"state":"active","ping":57},{"user_id":468,"name":"Borlor","steam_id":76561198206059604,"connected_time":219000000000,"state":"active","ping":56},{"user_id":457,"name":"noot","steam_id":76561198148074472,"connected_time":716000000000,"state":"active","ping":44},{"user_id":422,"name":"seductive_spiederman","steam_id":76561199138558228,"connected_time":2184000000000,"state":"active","ping":74},{"user_id":467,"name":"The legendery balls","steam_id":76561199139344747,"connected_time":375000000000,"state":"active","ping":98},{"user_id":450,"name":"You know i had to do it to em","steam_id":76561198023884216,"connected_time":983000000000,"state":"active","ping":69},{"user_id":421,"name":"Sakata Gintoki","steam_id":76561198339980449,"connected_time":2188000000000,"state":"active","ping":71},{"user_id":381,"name":"Lassie","steam_id":76561198131924713,"connected_time":4952000000000,"state":"active","ping":48},{"user_id":439,"name":"SocialistBacon","steam_id":76561198055872267,"connected_time":1439000000000,"state":"active","ping":94},{"user_id":400,"name":"Chappi","steam_id":76561198075512843,"connected_time":3344000000000,"state":"active","ping":80},{"user_id":455,"name":"FUKAYOU","steam_id":76561198380484033,"connected_time":753000000000,"state":"active","ping":54},{"user_id":403,"name":"Finkaksu :3","steam_id":76561198201389163,"connected_time":3077000000000,"state":"active","ping":71},{"user_id":469,"name":"Towercat","steam_id":76561198013141793,"connected_time":32000000000,"state":"active","ping":69},{"user_id":456,"name":"drama606","steam_id":76561199436213204,"connected_time":746000000000,"state":"active","ping":57},{"user_id":371,"name":"squillisky","steam_id":76561198083569327,"connected_time":5500000000000,"state":"active","ping":65},{"user_id":411,"name":"Hinterhofschubser","steam_id":76561198366679963,"connected_time":2918000000000,"state":"active","ping":60},{"user_id":458,"name":"NOBODY","steam_id":76561198094578887,"connected_time":696000000000,"state":"active","ping":129},{"user_id":461,"name":"?TheEnd","steam_id":76561198055280327,"connected_time":645000000000,"state":"active","ping":54},{"user_id":470,"name":"morka","steam_id":76561198136827219,"connected_time":28000000000,"state":"spawning","ping":44},{"user_id":460,"name":"rudolph","steam_id":76561198057399765,"connected_time":683000000000,"state":"active","ping":40},{"user_id":462,"name":"Isac","steam_id":76561198040921939,"connected_time":645000000000,"state":"active","ping":70},{"user_id":430,"name":"MR BUBBLES","steam_id":76561198019005259,"connected_time":1690000000000,"state":"active","ping":101},{"user_id":464,"name":"TheLuzinator","steam_id":76561198377144604,"connected_time":634000000000,"state":"active","ping":162},{"user_id":278,"name":"_Shkoot","steam_id":76561198318170398,"connected_time":9943000000000,"state":"active","ping":46}]},{"server_id":110,"name":"Uncletopia | Frankfurt | 2 | All Maps","name_short":"frk-2","host":"frk-1.de.uncletopia.com","port":27025,"enabled":true,"region":"eu","cc":"de","latitude":50.110924,"longitude":8.682127,"reserved":0,"last_update":"0001-01-01T00:00:00Z","name_a2s":"Uncletopia | Frankfurt | 2 | All Maps","protocol":17,"map":"pl_goldrush","folder":"tf","game":"Team Fortress","app_id":440,"player_count":19,"max_players":24,"Bots":0,"server_type":"Dedicated","server_os":"Linux","password":true,"vac":true,"version":"7961495","steam_id":85568392924469990,"keywords":["nocrits","nodmgspread","payload","uncletopia"],"game_id":440,"stv_port":27026,"stv_name":"Uncletopia | Frankfurt | 2 | All Maps | STV","players":[{"user_id":338,"name":"󠀡󠀡 󠀡Lazerkuken","steam_id":76561198102048004,"connected_time":424000000000,"state":"connecting","ping":75},{"user_id":306,"name":"Mitt","steam_id":76561199011013919,"connected_time":2461000000000,"state":"connecting","ping":62},{"user_id":272,"name":"Seb, Comrade","steam_id":76561198040279587,"connected_time":4855000000000,"state":"connecting","ping":103},{"user_id":345,"name":"jones","steam_id":76561198044434971,"connected_time":19000000000,"state":"connecting","ping":76},{"user_id":342,"name":"ChicoColo [ A1r ]","steam_id":76561198045977760,"connected_time":250000000000,"state":"connecting","ping":56},{"user_id":304,"name":"Pain in a Box","steam_id":76561197990777173,"connected_time":2469000000000,"state":"connecting","ping":106},{"user_id":334,"name":"Mong","steam_id":76561198254497427,"connected_time":484000000000,"state":"spawning","ping":79},{"user_id":328,"name":"Pan Pan","steam_id":76561199074670515,"connected_time":931000000000,"state":"connecting","ping":200},{"user_id":344,"name":"damjan.trajkovski88","steam_id":76561199493932486,"connected_time":117000000000,"state":"connecting","ping":75},{"user_id":343,"name":"Fajjson","steam_id":76561199236237192,"connected_time":226000000000,"state":"connecting","ping":77},{"user_id":283,"name":"The guy that killed Hitler","steam_id":76561199106262610,"connected_time":4023000000000,"state":"connecting","ping":74},{"user_id":199,"name":"hyvakii705","steam_id":76561198086630552,"connected_time":11317000000000,"state":"connecting","ping":111},{"user_id":331,"name":"joulupukki","steam_id":76561198002473789,"connected_time":710000000000,"state":"connecting","ping":108},{"user_id":329,"name":"Tree","steam_id":76561198054795379,"connected_time":816000000000,"state":"connecting","ping":80},{"user_id":311,"name":"luma","steam_id":76561198081649669,"connected_time":2343000000000,"state":"connecting","ping":82},{"user_id":288,"name":"cargo_conductor_754","steam_id":76561198165604007,"connected_time":3910000000000,"state":"connecting","ping":54},{"user_id":335,"name":"JohkupohkuXD","steam_id":76561198391108762,"connected_time":484000000000,"state":"connecting","ping":98}]},{"server_id":308,"name":"Uncletopia | Frankfurt | 3 | All Maps","name_short":"frk-3","host":"frk-1.de.uncletopia.com","port":27035,"enabled":true,"region":"eu","cc":"de","latitude":50.110924,"longitude":8.682127,"reserved":0,"last_update":"0001-01-01T00:00:00Z","name_a2s":"Uncletopia | Frankfurt | 3 | All Maps","protocol":17,"map":"pl_badwater","folder":"tf","game":"Team Fortress","app_id":440,"player_count":0,"max_players":24,"Bots":0,"server_type":"Dedicated","server_os":"Linux","password":true,"vac":true,"version":"7961495","steam_id":85568392924504274,"keywords":["nocrits","nodmgspread","payload","uncletopia"],"game_id":440,"stv_port":27036,"stv_name":"Uncletopia | Frankfurt | 3 | All Maps | STV","players":null},{"server_id":309,"name":"Uncletopia | Frankfurt | 4 | All Maps","name_short":"frk-4","host":"frk-1.de.uncletopia.com","port":27045,"enabled":true,"region":"eu","cc":"de","latitude":50.110924,"longitude":8.682127,"reserved":0,"last_update":"0001-01-01T00:00:00Z","name_a2s":"Uncletopia | Frankfurt | 4 | All Maps","protocol":17,"map":"koth_highpass","folder":"tf","game":"Team Fortress","app_id":440,"player_count":0,"max_players":24,"Bots":0,"server_type":"Dedicated","server_os":"Linux","password":true,"vac":true,"version":"7961495","steam_id":85568392924504275,"keywords":["cp","nocrits","nodmgspread","uncletopia"],"game_id":440,"stv_port":27046,"stv_name":"Uncletopia | Frankfurt | 4 | All Maps | STV","players":null},{"server_id":310,"name":"Uncletopia | Frankfurt | 5 | All Maps","name_short":"frk-5","host":"frk-1.de.uncletopia.com","port":27055,"enabled":true,"region":"eu","cc":"de","latitude":50.110924,"longitude":8.682127,"reserved":0,"last_update":"0001-01-01T00:00:00Z","name_a2s":"Uncletopia | Frankfurt | 5 | All Maps","protocol":17,"map":"ctf_doublecross","folder":"tf","game":"Team Fortress","app_id":440,"player_count":24,"max_players":24,"Bots":0,"server_type":"Dedicated","server_os":"Linux","password":true,"vac":true,"version":"7961495","steam_id":85568392924504277,"keywords":["ctf","nocrits","nodmgspread","uncletopia"],"game_id":440,"stv_port":27056,"stv_name":"Uncletopia | Frankfurt | 5 | All Maps | STV","players":[{"user_id":172,"name":"Pilorcio","steam_id":76561198036862688,"connected_time":1214000000000,"state":"active","ping":75},{"user_id":162,"name":"Schiever","steam_id":76561198052136026,"connected_time":1468000000000,"state":"active","ping":57},{"user_id":182,"name":"Lukas","steam_id":76561198009118452,"connected_time":899000000000,"state":"active","ping":57},{"user_id":195,"name":"bigmazi","steam_id":76561198133276643,"connected_time":236000000000,"state":"active","ping":91},{"user_id":191,"name":"MatarArg","steam_id":76561198280246498,"connected_time":278000000000,"state":"active","ping":110},{"user_id":194,"name":"Itai","steam_id":76561198804555329,"connected_time":256000000000,"state":"active","ping":108},{"user_id":200,"name":"Whackyone5588","steam_id":76561198846242972,"connected_time":83000000000,"state":"active","ping":199},{"user_id":169,"name":"Helmet dude","steam_id":76561198217595649,"connected_time":1376000000000,"state":"active","ping":83},{"user_id":192,"name":"Sidorovichs left ball","steam_id":76561199058102308,"connected_time":277000000000,"state":"active","ping":60},{"user_id":171,"name":"Josip Bro Tito","steam_id":76561198047723700,"connected_time":1365000000000,"state":"active","ping":73},{"user_id":196,"name":"The Daniella","steam_id":76561198023075547,"connected_time":200000000000,"state":"active","ping":66},{"user_id":197,"name":"Magenta Lizard","steam_id":76561198297899047,"connected_time":186000000000,"state":"active","ping":169},{"user_id":131,"name":"GuyWithoutAPie","steam_id":76561198054512149,"connected_time":4249000000000,"state":"active","ping":70},{"user_id":198,"name":"Moebius","steam_id":76561198045069988,"connected_time":153000000000,"state":"active","ping":63},{"user_id":199,"name":"panakid","steam_id":76561198364121077,"connected_time":144000000000,"state":"active","ping":83},{"user_id":145,"name":"Nonhuman","steam_id":76561198062002340,"connected_time":3244000000000,"state":"active","ping":76},{"user_id":181,"name":"Marabosha","steam_id":76561198137599173,"connected_time":1044000000000,"state":"active","ping":105},{"user_id":163,"name":"pablo.minecraft.2011","steam_id":76561198044060262,"connected_time":1439000000000,"state":"active","ping":75},{"user_id":193,"name":"PLEASE do not the spy.","steam_id":76561198963293449,"connected_time":267000000000,"state":"active","ping":68},{"user_id":188,"name":"John Yakuza","steam_id":76561199013814051,"connected_time":650000000000,"state":"active","ping":94},{"user_id":184,"name":"aida","steam_id":76561198311044984,"connected_time":730000000000,"state":"active","ping":59},{"user_id":186,"name":"taxidermized turtle","steam_id":76561198316405866,"connected_time":696000000000,"state":"active","ping":70},{"user_id":179,"name":"Leibeigener","steam_id":76561199275478305,"connected_time":1082000000000,"state":"active","ping":39},{"user_id":105,"name":"The One (and only)","steam_id":76561198827193499,"connected_time":7019000000000,"state":"active","ping":69}]},{"server_id":311,"name":"Uncletopia | Frankfurt | 6 | All Maps","name_short":"frk-6","host":"frk-1.de.uncletopia.com","port":27065,"enabled":true,"region":"eu","cc":"de","latitude":50.110924,"longitude":8.682127,"reserved":0,"last_update":"0001-01-01T00:00:00Z","name_a2s":"Uncletopia | Frankfurt | 6 | All Maps","protocol":17,"map":"pl_borneo","folder":"tf","game":"Team Fortress","app_id":440,"player_count":24,"max_players":24,"Bots":0,"server_type":"Dedicated","server_os":"Linux","password":true,"vac":true,"version":"7961495","steam_id":85568392924504278,"keywords":["nocrits","nodmgspread","payload","uncletopia"],"game_id":440,"stv_port":27066,"stv_name":"Uncletopia | Frankfurt | 6 | All Maps | STV","players":[{"user_id":253,"name":"The man from the window","steam_id":76561198055949151,"connected_time":1989000000000,"state":"active","ping":60},{"user_id":269,"name":"TriRИЌ","steam_id":76561198119622375,"connected_time":677000000000,"state":"active","ping":72},{"user_id":267,"name":"Ross [AT]","steam_id":76561198322955357,"connected_time":782000000000,"state":"active","ping":77},{"user_id":263,"name":"paradise","steam_id":76561198966057450,"connected_time":1162000000000,"state":"active","ping":77},{"user_id":256,"name":"fetology","steam_id":76561198197305963,"connected_time":1909000000000,"state":"active","ping":95},{"user_id":211,"name":"LizCul","steam_id":76561198024436969,"connected_time":4156000000000,"state":"active","ping":53},{"user_id":235,"name":"Princess Fuzz","steam_id":76561198025783000,"connected_time":2766000000000,"state":"active","ping":58},{"user_id":262,"name":"KsawiDemon","steam_id":76561198855789287,"connected_time":1237000000000,"state":"active","ping":65},{"user_id":268,"name":"mohemmedmokhter2005","steam_id":76561199197650506,"connected_time":744000000000,"state":"active","ping":105},{"user_id":258,"name":"Storm's Foreshadow","steam_id":76561198098462526,"connected_time":1886000000000,"state":"active","ping":73},{"user_id":228,"name":"wtabs","steam_id":76561198831766743,"connected_time":2970000000000,"state":"active","ping":61},{"user_id":270,"name":"tf2 snake","steam_id":76561198193971167,"connected_time":577000000000,"state":"active","ping":54},{"user_id":204,"name":"taste Fanta through your balls","steam_id":76561198823497252,"connected_time":4822000000000,"state":"active","ping":51},{"user_id":272,"name":".apo","steam_id":76561198003042239,"connected_time":475000000000,"state":"active","ping":52},{"user_id":260,"name":"Twik","steam_id":76561198023835056,"connected_time":1573000000000,"state":"active","ping":59},{"user_id":271,"name":"Huskai","steam_id":76561198141512362,"connected_time":512000000000,"state":"active","ping":45},{"user_id":237,"name":"pierogi","steam_id":76561198718760200,"connected_time":2744000000000,"state":"active","ping":63},{"user_id":274,"name":"Remizer","steam_id":76561198799755616,"connected_time":258000000000,"state":"active","ping":60},{"user_id":208,"name":"Cock Man","steam_id":76561198283638723,"connected_time":4698000000000,"state":"active","ping":72},{"user_id":245,"name":"Джекет","steam_id":76561198327897125,"connected_time":2295000000000,"state":"active","ping":97},{"user_id":275,"name":"swueuws","steam_id":76561198020716743,"connected_time":150000000000,"state":"active","ping":54},{"user_id":239,"name":"FlameTheGame","steam_id":76561198841108519,"connected_time":2705000000000,"state":"active","ping":91},{"user_id":224,"name":"Farbror Stuart","steam_id":76561198150950100,"connected_time":3437000000000,"state":"active","ping":96},{"user_id":255,"name":"Ixsus\u003c3","steam_id":76561198094756869,"connected_time":1963000000000,"state":"active","ping":57}]},{"server_id":23,"name":"Uncletopia | Frankfurt | 7 | Stopwatch","name_short":"frk-7","host":"frk-1.de.uncletopia.com","port":27075,"enabled":true,"region":"eu","cc":"de","latitude":50.110924,"longitude":8.682127,"reserved":0,"last_update":"0001-01-01T00:00:00Z","name_a2s":"Uncletopia | Frankfurt | 7 | Stopwatch","protocol":17,"map":"workshop/pl_barnblitz_pro7.ugc582280235","folder":"tf","game":"Team Fortress","app_id":440,"player_count":2,"max_players":24,"Bots":0,"server_type":"Dedicated","server_os":"Linux","password":true,"vac":true,"version":"7961495","steam_id":85568392924742827,"keywords":["nocrits","nodmgspread","payload","uncletopia"],"game_id":440,"stv_port":27076,"stv_name":"Uncletopia | Frankfurt | 7 | Stopwatch | STV","players":[{"user_id":12,"name":"63756d","steam_id":76561198808699024,"connected_time":2012000000000,"state":"active","ping":62},{"user_id":17,"name":"XxfishxX","steam_id":76561199066786518,"connected_time":331000000000,"state":"active","ping":142}]},{"server_id":24,"name":"Uncletopia | Frankfurt | 8 | Community","name_short":"frk-8","host":"frk-1.de.uncletopia.com","port":27085,"enabled":true,"region":"eu","cc":"de","latitude":50.110924,"longitude":8.682127,"reserved":0,"last_update":"0001-01-01T00:00:00Z","name_a2s":"Uncletopia | Frankfurt | 8 | Community","protocol":17,"map":"workshop/rd_asteroid_redux_b1.ugc2154902912","folder":"tf","game":"Team Fortress","app_id":440,"player_count":1,"max_players":24,"Bots":0,"server_type":"Dedicated","server_os":"Linux","password":true,"vac":true,"version":"7961495","steam_id":85568392924742828,"keywords":["beta","nocrits","nodmgspread","rd","uncletopia"],"game_id":440,"stv_port":27086,"stv_name":"Uncletopia | Frankfurt | 8 | Community | STV","players":[{"user_id":25,"name":"Bad demoblan?","steam_id":76561199181031501,"connected_time":418000000000,"state":"active","ping":76}]},{"server_id":202,"name":"Uncletopia | Hong Kong | 1 | All Maps","name_short":"hgk-1","host":"hgk-1.hk.uncletopia.com","port":27015,"enabled":true,"region":"asia","cc":"hk","latitude":22.302711,"longitude":114.177216,"reserved":0,"last_update":"0001-01-01T00:00:00Z","name_a2s":"Uncletopia | Hong Kong | 1 | All Maps","protocol":17,"map":"ctf_turbine","folder":"tf","game":"Team Fortress","app_id":440,"player_count":8,"max_players":24,"Bots":0,"server_type":"Dedicated","server_os":"Linux","password":true,"vac":true,"version":"7961495","steam_id":85568392924494504,"keywords":["ctf","nocrits","nodmgspread","uncletopia"],"game_id":440,"stv_port":27016,"stv_name":"Uncletopia | Hong Kong | 1 | All Maps | STV","players":[{"user_id":348,"name":"Floda","steam_id":76561198842008616,"connected_time":134000000000,"state":"active","ping":113},{"user_id":328,"name":"humanbot","steam_id":76561199077602424,"connected_time":1841000000000,"state":"active","ping":59},{"user_id":346,"name":"Hay","steam_id":76561199438952901,"connected_time":447000000000,"state":"active","ping":43},{"user_id":343,"name":"Apollo","steam_id":76561199213103384,"connected_time":561000000000,"state":"active","ping":53},{"user_id":339,"name":"母の肉団子@hao123.com","steam_id":76561198069561896,"connected_time":909000000000,"state":"active","ping":33},{"user_id":345,"name":"Stewb","steam_id":76561198131423270,"connected_time":512000000000,"state":"active","ping":54},{"user_id":221,"name":"U149ToT","steam_id":76561198138187921,"connected_time":8911000000000,"state":"active","ping":46},{"user_id":308,"name":"Reggie","steam_id":76561199206904501,"connected_time":3252000000000,"state":"active","ping":78}]},{"server_id":1,"name":"Uncletopia | Los Angeles | 1 | All Maps","name_short":"lax-1","host":"lax-1.us.uncletopia.com","port":27015,"enabled":true,"region":"us-west","cc":"us","latitude":33.94279,"longitude":-118.41004,"reserved":0,"last_update":"0001-01-01T00:00:00Z","name_a2s":"Uncletopia | Los Angeles | 1 | All Maps","protocol":17,"map":"pl_snowycoast","folder":"tf","game":"Team Fortress","app_id":440,"player_count":1,"max_players":24,"Bots":0,"server_type":"Dedicated","server_os":"Linux","password":true,"vac":true,"version":"7961495","steam_id":85568392924469991,"keywords":["nocrits","nodmgspread","payload","uncletopia"],"game_id":440,"stv_port":27016,"stv_name":"Uncletopia | Los Angeles | 1 | All Maps | STV","players":[{"user_id":4,"name":"TheFlyingHussar","steam_id":76561199388276949,"connected_time":26000000000,"state":"active","ping":109}]},{"server_id":112,"name":"Uncletopia | Los Angeles | 2 | All Maps","name_short":"lax-2","host":"lax-1.us.uncletopia.com","port":27025,"enabled":true,"region":"us-west","cc":"us","latitude":33.94279,"longitude":-118.41004,"reserved":0,"last_update":"0001-01-01T00:00:00Z","name_a2s":"Uncletopia | Los Angeles | 2 | All Maps","protocol":17,"map":"cp_mountainlab","folder":"tf","game":"Team Fortress","app_id":440,"player_count":0,"max_players":24,"Bots":0,"server_type":"Dedicated","server_os":"Linux","password":true,"vac":true,"version":"7961495","steam_id":85568392924469992,"keywords":["cp","nocrits","nodmgspread","uncletopia"],"game_id":440,"stv_port":27026,"stv_name":"Uncletopia | Los Angeles | 2 | All Maps | STV","players":null},{"server_id":324,"name":"Uncletopia | Los Angeles | 3 | All Maps","name_short":"lax-3","host":"lax-1.us.uncletopia.com","port":27035,"enabled":true,"region":"us-west","cc":"us","latitude":33.94279,"longitude":-118.41004,"reserved":0,"last_update":"0001-01-01T00:00:00Z","name_a2s":"Uncletopia | Los Angeles | 3 | All Maps","protocol":17,"map":"pl_frontier_final","folder":"tf","game":"Team Fortress","app_id":440,"player_count":0,"max_players":24,"Bots":0,"server_type":"Dedicated","server_os":"Linux","password":true,"vac":true,"version":"7961495","steam_id":85568392924510198,"keywords":["nocrits","nodmgspread","payload","uncletopia"],"game_id":440,"stv_port":27036,"stv_name":"Uncletopia | Los Angeles | 3 | All Maps | STV","players":null},{"server_id":25,"name":"Uncletopia | Los Angeles | 4 | Stopwatch","name_short":"lax-4","host":"lax-1.us.uncletopia.com","port":27045,"enabled":true,"region":"us-west","cc":"us","latitude":33.94279,"longitude":-118.41004,"reserved":0,"last_update":"0001-01-01T00:00:00Z","name_a2s":"Uncletopia | Los Angeles | 4 | Stopwatch","protocol":17,"map":"pl_barnblitz","folder":"tf","game":"Team Fortress","app_id":440,"player_count":0,"max_players":24,"Bots":0,"server_type":"Dedicated","server_os":"Linux","password":true,"vac":true,"version":"7961495","steam_id":85568392924510199,"keywords":["nocrits","nodmgspread","payload","uncletopia"],"game_id":440,"stv_port":27046,"stv_name":"Uncletopia | Los Angeles | 4 | Stopwatch | STV","players":null},{"server_id":11,"name":"Uncletopia | London | 1 | All Maps","name_short":"lon-1","host":"lon-1.uk.uncletopia.com","port":27015,"enabled":true,"region":"eu","cc":"gb","latitude":51.509865,"longitude":-0.118092,"reserved":0,"last_update":"0001-01-01T00:00:00Z","name_a2s":"Uncletopia | London | 1 | All Maps","protocol":17,"map":"pl_frontier_final","folder":"tf","game":"Team Fortress","app_id":440,"player_count":24,"max_players":24,"Bots":0,"server_type":"Dedicated","server_os":"Linux","password":true,"vac":true,"version":"7961495","steam_id":85568392924367362,"keywords":["nocrits","nodmgspread","payload","uncletopia"],"game_id":440,"stv_port":27016,"stv_name":"Uncletopia | London | 1 | All Maps | STV","players":[{"user_id":354,"name":"Bonkovich","steam_id":76561198256800084,"connected_time":783000000000,"state":"active","ping":129},{"user_id":357,"name":"FreeAndLit","steam_id":76561198300393852,"connected_time":628000000000,"state":"active","ping":39},{"user_id":359,"name":"KaZa","steam_id":76561198106106803,"connected_time":578000000000,"state":"active","ping":72},{"user_id":352,"name":"brookie","steam_id":76561198094514515,"connected_time":871000000000,"state":"active","ping":46},{"user_id":247,"name":"Marl Karx","steam_id":76561198396797516,"connected_time":4057000000000,"state":"active","ping":69},{"user_id":324,"name":"lyra","steam_id":76561198043601838,"connected_time":2450000000000,"state":"active","ping":60},{"user_id":364,"name":"NOOB4CAKE","steam_id":76561198017529671,"connected_time":166000000000,"state":"active","ping":97},{"user_id":361,"name":"Vinhal Keller","steam_id":76561198145589528,"connected_time":565000000000,"state":"active","ping":56},{"user_id":311,"name":"enine","steam_id":76561198890193313,"connected_time":2587000000000,"state":"active","ping":59},{"user_id":349,"name":"stroyo","steam_id":76561198409592046,"connected_time":911000000000,"state":"active","ping":51},{"user_id":347,"name":"Bonduelle#Savetf2","steam_id":76561199041992422,"connected_time":1168000000000,"state":"active","ping":179},{"user_id":338,"name":"Janneke Maan","steam_id":76561198069290924,"connected_time":1984000000000,"state":"active","ping":57},{"user_id":259,"name":"Sheen (Khang)","steam_id":76561198371062974,"connected_time":3040000000000,"state":"active","ping":88},{"user_id":231,"name":"Sex Man TF2","steam_id":76561198798657045,"connected_time":4869000000000,"state":"active","ping":73},{"user_id":362,"name":"TMC","steam_id":76561198077956157,"connected_time":557000000000,"state":"active","ping":45},{"user_id":363,"name":"cof","steam_id":76561199128417805,"connected_time":552000000000,"state":"active","ping":55},{"user_id":346,"name":"call me extream78711","steam_id":76561198080912087,"connected_time":1327000000000,"state":"active","ping":74},{"user_id":345,"name":"face beautiful lies","steam_id":76561198079277466,"connected_time":1364000000000,"state":"active","ping":67},{"user_id":342,"name":"Slifer the SKY Acorn","steam_id":76561198062255803,"connected_time":1559000000000,"state":"active","ping":68},{"user_id":278,"name":"jeannot lapin","steam_id":76561199057953617,"connected_time":2940000000000,"state":"active","ping":60},{"user_id":351,"name":"Alexandre","steam_id":76561198121784446,"connected_time":881000000000,"state":"active","ping":45},{"user_id":348,"name":"bse","steam_id":76561198115627631,"connected_time":1123000000000,"state":"active","ping":79},{"user_id":328,"name":"xaxaxaxa","steam_id":76561198074917015,"connected_time":2330000000000,"state":"active","ping":85},{"user_id":296,"name":"yup that extream78711","steam_id":76561198106049954,"connected_time":2775000000000,"state":"active","ping":151}]},{"server_id":114,"name":"Uncletopia | London | 2 | All Maps","name_short":"lon-2","host":"lon-1.uk.uncletopia.com","port":27025,"enabled":true,"region":"eu","cc":"gb","latitude":51.509865,"longitude":-0.118092,"reserved":0,"last_update":"0001-01-01T00:00:00Z","name_a2s":"Uncletopia | London | 2 | All Maps","protocol":17,"map":"cp_snakewater_final1","folder":"tf","game":"Team Fortress","app_id":440,"player_count":21,"max_players":24,"Bots":0,"server_type":"Dedicated","server_os":"Linux","password":true,"vac":true,"version":"7961495","steam_id":85568392924470941,"keywords":["cp","nocrits","nodmgspread","uncletopia"],"game_id":440,"stv_port":27026,"stv_name":"Uncletopia | London | 2 | All Maps | STV","players":[{"user_id":230,"name":"sareena","steam_id":76561198810194062,"connected_time":885000000000,"state":"active","ping":73},{"user_id":237,"name":"im tired","steam_id":76561198812159557,"connected_time":658000000000,"state":"active","ping":86},{"user_id":206,"name":"Zembis","steam_id":76561198008017918,"connected_time":1702000000000,"state":"active","ping":89},{"user_id":136,"name":"Medium sized Cunt","steam_id":76561199012566222,"connected_time":7381000000000,"state":"active","ping":69},{"user_id":226,"name":"Walle","steam_id":76561197995148937,"connected_time":1068000000000,"state":"active","ping":76},{"user_id":111,"name":"beanie_snail","steam_id":76561199111476299,"connected_time":9526000000000,"state":"active","ping":72},{"user_id":239,"name":"Krucial","steam_id":76561198144464665,"connected_time":398000000000,"state":"active","ping":81},{"user_id":94,"name":"After8","steam_id":76561198090750865,"connected_time":10608000000000,"state":"active","ping":71},{"user_id":152,"name":"M2rtRa","steam_id":76561198111036466,"connected_time":6169000000000,"state":"active","ping":74},{"user_id":203,"name":"Plep","steam_id":76561198840259819,"connected_time":2013000000000,"state":"active","ping":55},{"user_id":235,"name":"Erebe","steam_id":76561197998206563,"connected_time":764000000000,"state":"active","ping":74},{"user_id":232,"name":"Bradders","steam_id":76561198072225758,"connected_time":829000000000,"state":"active","ping":44},{"user_id":204,"name":"Koli","steam_id":76561197992428783,"connected_time":1853000000000,"state":"active","ping":59},{"user_id":175,"name":"That Bussy Can Squirt","steam_id":76561199185615752,"connected_time":4241000000000,"state":"active","ping":53},{"user_id":224,"name":"Skittles","steam_id":76561198024077569,"connected_time":1092000000000,"state":"active","ping":64},{"user_id":223,"name":"silicon based life form","steam_id":76561199127121346,"connected_time":1156000000000,"state":"active","ping":60},{"user_id":236,"name":"ape arc","steam_id":76561198038976075,"connected_time":683000000000,"state":"active","ping":90},{"user_id":179,"name":"they banned me from profile pic","steam_id":76561198834897089,"connected_time":3708000000000,"state":"active","ping":69},{"user_id":199,"name":"Dozer","steam_id":76561197998742338,"connected_time":2216000000000,"state":"active","ping":70},{"user_id":238,"name":"Aeglos","steam_id":76561198248698294,"connected_time":656000000000,"state":"active","ping":67},{"user_id":222,"name":"yush","steam_id":76561198121688934,"connected_time":1232000000000,"state":"active","ping":68}]},{"server_id":320,"name":"Uncletopia | London | 3 | All Maps","name_short":"lon-3","host":"lon-1.uk.uncletopia.com","port":27035,"enabled":true,"region":"eu","cc":"gb","latitude":51.509865,"longitude":-0.118092,"reserved":0,"last_update":"0001-01-01T00:00:00Z","name_a2s":"Uncletopia | London | 3 | All Maps","protocol":17,"map":"pl_frontier_final","folder":"tf","game":"Team Fortress","app_id":440,"player_count":24,"max_players":24,"Bots":0,"server_type":"Dedicated","server_os":"Linux","password":true,"vac":true,"version":"7961495","steam_id":85568392924510192,"keywords":["nocrits","nodmgspread","payload","uncletopia"],"game_id":440,"stv_port":27036,"stv_name":"Uncletopia | London | 3 | All Maps | STV","players":[{"user_id":118,"name":"BenteBent","steam_id":76561198297920637,"connected_time":371000000000,"state":"active","ping":44},{"user_id":124,"name":"Koti \u003c3","steam_id":76561198370063864,"connected_time":68000000000,"state":"active","ping":80},{"user_id":117,"name":"Carbon Monoxide Detector","steam_id":76561198055608801,"connected_time":561000000000,"state":"active","ping":68},{"user_id":115,"name":"Gumit","steam_id":76561198208126512,"connected_time":807000000000,"state":"active","ping":116},{"user_id":70,"name":"Thalash","steam_id":76561198064052251,"connected_time":3192000000000,"state":"active","ping":60},{"user_id":107,"name":"Blar","steam_id":76561198042438229,"connected_time":1272000000000,"state":"active","ping":70},{"user_id":116,"name":"NotGsuper","steam_id":76561199091053168,"connected_time":791000000000,"state":"active","ping":89},{"user_id":112,"name":"nug","steam_id":76561198055396568,"connected_time":987000000000,"state":"active","ping":46},{"user_id":119,"name":"trans werewolf","steam_id":76561198107235989,"connected_time":353000000000,"state":"active","ping":70},{"user_id":96,"name":"Raider","steam_id":76561199004044623,"connected_time":1704000000000,"state":"active","ping":93},{"user_id":89,"name":"quickfast","steam_id":76561199438900919,"connected_time":2012000000000,"state":"active","ping":41},{"user_id":101,"name":"Largo","steam_id":76561198844368927,"connected_time":1505000000000,"state":"active","ping":78},{"user_id":71,"name":"☜(ﾟヮﾟ☜) fribs","steam_id":76561198000461999,"connected_time":3177000000000,"state":"active","ping":43},{"user_id":114,"name":"Mr. Enjoy da money","steam_id":76561198152681460,"connected_time":975000000000,"state":"active","ping":75},{"user_id":121,"name":"Sae ☘","steam_id":76561198138004226,"connected_time":328000000000,"state":"active","ping":148},{"user_id":111,"name":"Parky","steam_id":76561198013803623,"connected_time":1100000000000,"state":"active","ping":41},{"user_id":110,"name":"Mister_fLeXsS","steam_id":76561198075613556,"connected_time":1199000000000,"state":"active","ping":94},{"user_id":120,"name":"ThatTFguy","steam_id":76561198056794321,"connected_time":350000000000,"state":"active","ping":60},{"user_id":75,"name":"jun0","steam_id":76561197984763237,"connected_time":3134000000000,"state":"active","ping":41},{"user_id":97,"name":"Lorenzo Lovers","steam_id":76561198073973581,"connected_time":1691000000000,"state":"active","ping":88},{"user_id":98,"name":"heisenberg","steam_id":76561198988867951,"connected_time":1600000000000,"state":"active","ping":57},{"user_id":99,"name":"r0la","steam_id":76561198128315340,"connected_time":1577000000000,"state":"active","ping":87},{"user_id":76,"name":"David","steam_id":76561198017852330,"connected_time":3123000000000,"state":"active","ping":577},{"user_id":122,"name":"IShagMyCat","steam_id":76561199384639549,"connected_time":322000000000,"state":"active","ping":80}]},{"server_id":321,"name":"Uncletopia | London | 4 | All Maps","name_short":"lon-4","host":"lon-1.uk.uncletopia.com","port":27045,"enabled":true,"region":"eu","cc":"gb","latitude":51.509865,"longitude":-0.118092,"reserved":0,"last_update":"0001-01-01T00:00:00Z","name_a2s":"Uncletopia | London | 4 | All Maps","protocol":17,"map":"koth_viaduct","folder":"tf","game":"Team Fortress","app_id":440,"player_count":22,"max_players":24,"Bots":0,"server_type":"Dedicated","server_os":"Linux","password":true,"vac":true,"version":"7961495","steam_id":85568392924510193,"keywords":["cp","nocrits","nodmgspread","uncletopia"],"game_id":440,"stv_port":27046,"stv_name":"Uncletopia | London | 4 | All Maps | STV","players":[{"user_id":474,"name":"Shalalala","steam_id":76561198088707470,"connected_time":557000000000,"state":"active","ping":52},{"user_id":487,"name":"VK2124 :D","steam_id":76561198111130688,"connected_time":66000000000,"state":"active","ping":52},{"user_id":449,"name":"Laryssa","steam_id":76561198271084076,"connected_time":2340000000000,"state":"active","ping":88},{"user_id":372,"name":"Rodak","steam_id":76561199135986344,"connected_time":8950000000000,"state":"active","ping":73},{"user_id":454,"name":"Adam","steam_id":76561198259467867,"connected_time":1541000000000,"state":"active","ping":86},{"user_id":421,"name":"Zerfesh","steam_id":76561198117534358,"connected_time":4548000000000,"state":"active","ping":105},{"user_id":452,"name":"arhrhthur","steam_id":76561199199499453,"connected_time":1727000000000,"state":"active","ping":76},{"user_id":453,"name":"jermany","steam_id":76561198126599355,"connected_time":1604000000000,"state":"active","ping":54},{"user_id":488,"name":"ran is running","steam_id":76561199443185667,"connected_time":50000000000,"state":"active","ping":131},{"user_id":455,"name":"∫xe^(-x^2)dx","steam_id":76561198069530746,"connected_time":1538000000000,"state":"active","ping":150},{"user_id":489,"name":"Torsten Flenning","steam_id":76561198041688553,"connected_time":40000000000,"state":"active","ping":66},{"user_id":345,"name":"john fortress","steam_id":76561198013237629,"connected_time":10985000000000,"state":"active","ping":97},{"user_id":476,"name":"RandoART","steam_id":76561198818165503,"connected_time":497000000000,"state":"active","ping":101},{"user_id":480,"name":"Cosmetic brain","steam_id":76561198055936410,"connected_time":404000000000,"state":"active","ping":75},{"user_id":457,"name":"Pietro Badoglio","steam_id":76561198302435743,"connected_time":1528000000000,"state":"active","ping":83},{"user_id":490,"name":"jaime8D","steam_id":76561197980590671,"connected_time":17000000000,"state":"active","ping":72},{"user_id":467,"name":"wajo.b","steam_id":76561198125841309,"connected_time":1172000000000,"state":"active","ping":61},{"user_id":473,"name":"Etherhel","steam_id":76561198838449544,"connected_time":569000000000,"state":"active","ping":98},{"user_id":468,"name":"NoMaD994","steam_id":76561198051908201,"connected_time":1008000000000,"state":"active","ping":85},{"user_id":484,"name":"joachym","steam_id":76561198428579761,"connected_time":231000000000,"state":"active","ping":70},{"user_id":485,"name":"Calanim","steam_id":76561198068163854,"connected_time":184000000000,"state":"active","ping":56},{"user_id":417,"name":"AleXandriX","steam_id":76561198035203950,"connected_time":5088000000000,"state":"active","ping":63}]},{"server_id":21,"name":"Uncletopia | London | 5 | All Maps","name_short":"lon-5","host":"lon-1.uk.uncletopia.com","port":27055,"enabled":true,"region":"eu","cc":"gb","latitude":51.509865,"longitude":-0.118092,"reserved":0,"last_update":"0001-01-01T00:00:00Z","name_a2s":"Uncletopia | London | 5 | All Maps","protocol":17,"map":"koth_lakeside_final","folder":"tf","game":"Team Fortress","app_id":440,"player_count":0,"max_players":24,"Bots":0,"server_type":"Dedicated","server_os":"Linux","password":true,"vac":true,"version":"7961495","steam_id":85568392924742829,"keywords":["cp","nocrits","nodmgspread","uncletopia"],"game_id":440,"stv_port":27056,"stv_name":"Uncletopia | London | 5 | All Maps | STV","players":null},{"server_id":22,"name":"Uncletopia | London | 6 | All Maps","name_short":"lon-6","host":"lon-1.uk.uncletopia.com","port":27065,"enabled":true,"region":"eu","cc":"gb","latitude":51.509865,"longitude":-0.118092,"reserved":0,"last_update":"0001-01-01T00:00:00Z","name_a2s":"Uncletopia | London | 6 | All Maps","protocol":17,"map":"pl_pier","folder":"tf","game":"Team Fortress","app_id":440,"player_count":23,"max_players":24,"Bots":0,"server_type":"Dedicated","server_os":"Linux","password":true,"vac":true,"version":"7961495","steam_id":85568392924742830,"keywords":["nocrits","nodmgspread","payload","uncletopia"],"game_id":440,"stv_port":27066,"stv_name":"Uncletopia | London | 6 | All Maps | STV","players":[{"user_id":504,"name":"Boki","steam_id":76561198044553351,"connected_time":1755000000000,"state":"active","ping":60},{"user_id":493,"name":"rummy","steam_id":76561197997573379,"connected_time":2430000000000,"state":"active","ping":49},{"user_id":511,"name":"old slimey ichabod","steam_id":76561198043900518,"connected_time":114000000000,"state":"active","ping":156},{"user_id":513,"name":"Not Steven","steam_id":76561198051881261,"connected_time":80000000000,"state":"active","ping":30},{"user_id":499,"name":"ROX","steam_id":76561198272289320,"connected_time":2343000000000,"state":"active","ping":64},{"user_id":433,"name":"silly penguin guy","steam_id":76561198123592400,"connected_time":7476000000000,"state":"active","ping":84},{"user_id":508,"name":"Luuk","steam_id":76561198088266026,"connected_time":953000000000,"state":"active","ping":45},{"user_id":462,"name":"Jon","steam_id":76561199380849468,"connected_time":4919000000000,"state":"active","ping":60},{"user_id":500,"name":"Schmack","steam_id":76561198026535437,"connected_time":2324000000000,"state":"active","ping":57},{"user_id":497,"name":"veltek","steam_id":76561198112681438,"connected_time":2352000000000,"state":"active","ping":91},{"user_id":494,"name":"Miss Bari","steam_id":76561198365286092,"connected_time":2413000000000,"state":"active","ping":43},{"user_id":463,"name":"Caramel","steam_id":76561198021214844,"connected_time":4914000000000,"state":"active","ping":45},{"user_id":512,"name":"Nag","steam_id":76561197970488206,"connected_time":108000000000,"state":"active","ping":77},{"user_id":505,"name":"Purps","steam_id":76561198053886680,"connected_time":1594000000000,"state":"active","ping":42},{"user_id":485,"name":"☞LaZe☜","steam_id":76561198202191400,"connected_time":3241000000000,"state":"active","ping":46},{"user_id":501,"name":"TylowStar","steam_id":76561198357107806,"connected_time":2316000000000,"state":"active","ping":60},{"user_id":509,"name":"Chitovka","steam_id":76561198253508638,"connected_time":564000000000,"state":"active","ping":96},{"user_id":495,"name":"Speltok","steam_id":76561198084028223,"connected_time":2405000000000,"state":"active","ping":84},{"user_id":469,"name":"Fat Pigeon","steam_id":76561198817940142,"connected_time":4785000000000,"state":"active","ping":45},{"user_id":466,"name":"Spurt","steam_id":76561198078523852,"connected_time":4905000000000,"state":"active","ping":57},{"user_id":491,"name":"Nittugai","steam_id":76561198067366462,"connected_time":2590000000000,"state":"active","ping":60},{"user_id":514,"name":"Nitro_Kill","steam_id":76561198232098540,"connected_time":76000000000,"state":"active","ping":171},{"user_id":507,"name":"Son Heung-Min","steam_id":76561198314364201,"connected_time":1080000000000,"state":"active","ping":60}]},{"server_id":40,"name":"Uncletopia | London | 7 | Stopwatch","name_short":"lon-7","host":"lon-1.uk.uncletopia.com","port":27075,"enabled":true,"region":"eu","cc":"gb","latitude":51.509865,"longitude":-0.118092,"reserved":0,"last_update":"0001-01-01T00:00:00Z","name_a2s":"Uncletopia | London | 7 | Stopwatch","protocol":17,"map":"workshop/koth_bagel_rc6.ugc2514036946","folder":"tf","game":"Team Fortress","app_id":440,"player_count":0,"max_players":24,"Bots":0,"server_type":"Dedicated","server_os":"Linux","password":true,"vac":true,"version":"7961495","steam_id":85568392924964314,"keywords":["cp","nocrits","nodmgspread","uncletopia"],"game_id":440,"stv_port":27076,"stv_name":"Uncletopia | London | 7 | Stopwatch | STV","players":null},{"server_id":41,"name":"Uncletopia | London | 8 | Community","name_short":"lon-8","host":"lon-1.uk.uncletopia.com","port":27085,"enabled":true,"region":"eu","cc":"gb","latitude":51.509865,"longitude":-0.118092,"reserved":0,"last_update":"0001-01-01T00:00:00Z","name_a2s":"Uncletopia | London | 8 | Community","protocol":17,"map":"workshop/pl_cactuscanyon_redux_final2.ugc2579644293","folder":"tf","game":"Team Fortress","app_id":440,"player_count":0,"max_players":24,"Bots":0,"server_type":"Dedicated","server_os":"Linux","password":true,"vac":true,"version":"7961495","steam_id":85568392924964315,"keywords":["nocrits","nodmgspread","payload","uncletopia"],"game_id":440,"stv_port":27086,"stv_name":"Uncletopia | London | 8 | Community | STV","players":null},{"server_id":300,"name":"Uncletopia | Montréal | 1 | All Maps","name_short":"mtl-1","host":"mtl-1.ca.uncletopia.com","port":27015,"enabled":true,"region":"us-east","cc":"ca","latitude":45.50889,"longitude":-73.56167,"reserved":0,"last_update":"0001-01-01T00:00:00Z","name_a2s":"","protocol":0,"map":"","folder":"","game":"","app_id":0,"player_count":0,"max_players":0,"Bots":0,"server_type":"","server_os":"","password":false,"vac":false,"version":"","steam_id":0,"keywords":null,"game_id":0,"stv_port":0,"stv_name":"","players":null},{"server_id":301,"name":"Uncletopia | Montréal | 2 | All Maps","name_short":"mtl-2","host":"mtl-1.ca.uncletopia.com","port":27025,"enabled":true,"region":"us-east","cc":"ca","latitude":45.50889,"longitude":-73.56167,"reserved":0,"last_update":"0001-01-01T00:00:00Z","name_a2s":"","protocol":0,"map":"","folder":"","game":"","app_id":0,"player_count":2,"max_players":0,"Bots":0,"server_type":"","server_os":"","password":false,"vac":false,"version":"","steam_id":0,"keywords":null,"game_id":0,"stv_port":0,"stv_name":"","players":[{"user_id":3,"name":"poiu2020","steam_id":76561198845416650,"connected_time":1623000000000,"state":"active","ping":173},{"user_id":4,"name":"maciejkrzysteczko","steam_id":76561199140822962,"connected_time":1604000000000,"state":"active","ping":157}]},{"server_id":302,"name":"Uncletopia | Montréal | 3 | All Maps","name_short":"mtl-3","host":"mtl-1.ca.uncletopia.com","port":27035,"enabled":true,"region":"us-east","cc":"ca","latitude":45.50889,"longitude":-73.56167,"reserved":0,"last_update":"0001-01-01T00:00:00Z","name_a2s":"","protocol":0,"map":"","folder":"","game":"","app_id":0,"player_count":0,"max_players":0,"Bots":0,"server_type":"","server_os":"","password":false,"vac":false,"version":"","steam_id":0,"keywords":null,"game_id":0,"stv_port":0,"stv_name":"","players":null},{"server_id":303,"name":"Uncletopia | Montréal | 4 | No Payload","name_short":"mtl-4","host":"mtl-1.ca.uncletopia.com","port":27045,"enabled":true,"region":"us-east","cc":"ca","latitude":45.50889,"longitude":-73.56167,"reserved":0,"last_update":"0001-01-01T00:00:00Z","name_a2s":"","protocol":0,"map":"","folder":"","game":"","app_id":0,"player_count":0,"max_players":0,"Bots":0,"server_type":"","server_os":"","password":false,"vac":false,"version":"","steam_id":0,"keywords":null,"game_id":0,"stv_port":0,"stv_name":"","players":null},{"server_id":13,"name":"Uncletopia | New York City | 1 | All Maps","name_short":"nyc-1","host":"nyc-1.us.uncletopia.com","port":27015,"enabled":true,"region":"us-east","cc":"us","latitude":40.73061,"longitude":-73.93524,"reserved":0,"last_update":"0001-01-01T00:00:00Z","name_a2s":"Uncletopia | New York City | 1 | All Maps","protocol":17,"map":"koth_highpass","folder":"tf","game":"Team Fortress","app_id":440,"player_count":0,"max_players":24,"Bots":0,"server_type":"Dedicated","server_os":"Linux","password":true,"vac":true,"version":"7961495","steam_id":85568392924469993,"keywords":["cp","nocrits","nodmgspread","uncletopia"],"game_id":440,"stv_port":27016,"stv_name":"Uncletopia | New York City | 1 | All Maps | STV","players":null},{"server_id":14,"name":"Uncletopia | New York City | 2 | All Maps","name_short":"nyc-2","host":"nyc-1.us.uncletopia.com","port":27025,"enabled":true,"region":"us-east","cc":"us","latitude":40.73061,"longitude":-73.93524,"reserved":0,"last_update":"0001-01-01T00:00:00Z","name_a2s":"Uncletopia | New York City | 2 | All Maps","protocol":17,"map":"cp_dustbowl","folder":"tf","game":"Team Fortress","app_id":440,"player_count":0,"max_players":24,"Bots":0,"server_type":"Dedicated","server_os":"Linux","password":true,"vac":true,"version":"7961495","steam_id":85568392924469994,"keywords":["cp","nocrits","nodmgspread","uncletopia"],"game_id":440,"stv_port":27026,"stv_name":"Uncletopia | New York City | 2 | All Maps | STV","players":null},{"server_id":15,"name":"Uncletopia | New York City | 3 | Stopwatch","name_short":"nyc-3","host":"nyc-1.us.uncletopia.com","port":27035,"enabled":true,"region":"us-east","cc":"us","latitude":40.73061,"longitude":-73.93524,"reserved":0,"last_update":"0001-01-01T00:00:00Z","name_a2s":"Uncletopia | New York City | 3 | Stopwatch","protocol":17,"map":"pl_snowycoast","folder":"tf","game":"Team Fortress","app_id":440,"player_count":0,"max_players":24,"Bots":0,"server_type":"Dedicated","server_os":"Linux","password":true,"vac":true,"version":"7961495","steam_id":85568392924742820,"keywords":["nocrits","nodmgspread","payload","uncletopia"],"game_id":440,"stv_port":27036,"stv_name":"Uncletopia | New York City | 3 | Stopwatch | STV","players":null},{"server_id":16,"name":"Uncletopia | New York City | 4 | Community","name_short":"nyc-4","host":"nyc-1.us.uncletopia.com","port":27045,"enabled":true,"region":"us-east","cc":"us","latitude":40.73061,"longitude":-73.93524,"reserved":0,"last_update":"0001-01-01T00:00:00Z","name_a2s":"Uncletopia | New York City | 4 | Community","protocol":17,"map":"cp_altitude","folder":"tf","game":"Team Fortress","app_id":440,"player_count":0,"max_players":24,"Bots":0,"server_type":"Dedicated","server_os":"Linux","password":true,"vac":true,"version":"7961495","steam_id":85568392924742821,"keywords":["cp","nocrits","nodmgspread","uncletopia"],"game_id":440,"stv_port":27046,"stv_name":"Uncletopia | New York City | 4 | Community | STV","players":null},{"server_id":142,"name":"Uncletopia | São Paulo | 1 | All Maps","name_short":"sao-1","host":"sao-1.br.uncletopia.com","port":27015,"enabled":true,"region":"sa","cc":"br","latitude":-23.533773,"longitude":-46.62529,"reserved":0,"last_update":"0001-01-01T00:00:00Z","name_a2s":"Uncletopia | São Paulo | 1 | All Maps","protocol":17,"map":"pl_snowycoast","folder":"tf","game":"Team Fortress","app_id":440,"player_count":0,"max_players":24,"Bots":0,"server_type":"Dedicated","server_os":"Linux","password":true,"vac":true,"version":"7961495","steam_id":85568392924469996,"keywords":["nocrits","nodmgspread","payload","uncletopia"],"game_id":440,"stv_port":27016,"stv_name":"Uncletopia | São Paulo | 1 | All Maps | STV","players":null},{"server_id":143,"name":"Uncletopia | São Paulo | 2 | Community","name_short":"sao-2","host":"sao-2.br.uncletopia.com","port":27015,"enabled":true,"region":"sa","cc":"br","latitude":-23.533773,"longitude":-46.62529,"reserved":0,"last_update":"0001-01-01T00:00:00Z","name_a2s":"Uncletopia | São Paulo | 2 | Community","protocol":17,"map":"pl_badwater","folder":"tf","game":"Team Fortress","app_id":440,"player_count":0,"max_players":24,"Bots":0,"server_type":"Dedicated","server_os":"Linux","password":true,"vac":true,"version":"7961495","steam_id":85568392924485349,"keywords":["nocrits","nodmgspread","payload","uncletopia"],"game_id":440,"stv_port":27016,"stv_name":"Uncletopia | São Paulo | 2 | Community | STV","players":null},{"server_id":7,"name":"Uncletopia | Seattle | 1 | All Maps","name_short":"sea-1","host":"sea-1.us.uncletopia.com","port":27015,"enabled":true,"region":"us-west","cc":"us","latitude":47.608013,"longitude":-122.33517,"reserved":0,"last_update":"0001-01-01T00:00:00Z","name_a2s":"Uncletopia | Seattle | 1 | All Maps","protocol":17,"map":"pl_pier","folder":"tf","game":"Team Fortress","app_id":440,"player_count":0,"max_players":24,"Bots":0,"server_type":"Dedicated","server_os":"Linux","password":true,"vac":true,"version":"7961495","steam_id":85568392924469997,"keywords":["nocrits","nodmgspread","payload","uncletopia"],"game_id":440,"stv_port":27016,"stv_name":"Uncletopia | Seattle | 1 | All Maps | STV","players":null},{"server_id":119,"name":"Uncletopia | Seattle | 2 | All Maps","name_short":"sea-2","host":"sea-1.us.uncletopia.com","port":27025,"enabled":true,"region":"us-west","cc":"us","latitude":47.608013,"longitude":-122.33517,"reserved":0,"last_update":"0001-01-01T00:00:00Z","name_a2s":"Uncletopia | Seattle | 2 | All Maps","protocol":17,"map":"pl_frontier_final","folder":"tf","game":"Team Fortress","app_id":440,"player_count":0,"max_players":24,"Bots":0,"server_type":"Dedicated","server_os":"Linux","password":true,"vac":true,"version":"7961495","steam_id":85568392924469998,"keywords":["nocrits","nodmgspread","payload","uncletopia"],"game_id":440,"stv_port":27026,"stv_name":"Uncletopia | Seattle | 2 | All Maps | STV","players":null},{"server_id":406,"name":"Uncletopia | Seattle | 3 | Stopwatch","name_short":"sea-3","host":"sea-1.us.uncletopia.com","port":27035,"enabled":true,"region":"us-west","cc":"us","latitude":47.608013,"longitude":-122.33517,"reserved":0,"last_update":"0001-01-01T00:00:00Z","name_a2s":"Uncletopia | Seattle | 3 | Stopwatch","protocol":17,"map":"workshop/koth_clearcut_b15.ugc2107050255","folder":"tf","game":"Team Fortress","app_id":440,"player_count":3,"max_players":24,"Bots":0,"server_type":"Dedicated","server_os":"Linux","password":true,"vac":true,"version":"7961495","steam_id":85568392924515217,"keywords":["cp","nocrits","nodmgspread","uncletopia"],"game_id":440,"stv_port":27036,"stv_name":"Uncletopia | Seattle | 3 | Stopwatch | STV","players":[{"user_id":34,"name":"silly","steam_id":76561198311564850,"connected_time":486000000000,"state":"active","ping":83},{"user_id":29,"name":"🅜🅔🅔🅚🅢🅣🅔\ufffd\ufffd\ufffd","steam_id":76561197999748343,"connected_time":1044000000000,"state":"active","ping":90},{"user_id":31,"name":"Peppy","steam_id":76561198866629645,"connected_time":837000000000,"state":"active","ping":59}]},{"server_id":17,"name":"Uncletopia | San Francisco | 1 | All Maps","name_short":"sfo-1","host":"sfo-1.us.uncletopia.com","port":27015,"enabled":true,"region":"us-west","cc":"us","latitude":37.77397,"longitude":-122.4313,"reserved":0,"last_update":"0001-01-01T00:00:00Z","name_a2s":"Uncletopia | San Francisco | 1 | All Maps","protocol":17,"map":"koth_cascade","folder":"tf","game":"Team Fortress","app_id":440,"player_count":0,"max_players":24,"Bots":0,"server_type":"Dedicated","server_os":"Linux","password":true,"vac":true,"version":"7961495","steam_id":85568392924469999,"keywords":["cp","nocrits","nodmgspread","uncletopia"],"game_id":440,"stv_port":27016,"stv_name":"Uncletopia | San Francisco | 1 | All Maps | STV","players":null},{"server_id":18,"name":"Uncletopia | San Francisco | 2 | All Maps","name_short":"sfo-2","host":"sfo-1.us.uncletopia.com","port":27025,"enabled":true,"region":"us-west","cc":"us","latitude":37.77397,"longitude":-122.4313,"reserved":0,"last_update":"0001-01-01T00:00:00Z","name_a2s":"Uncletopia | San Francisco | 2 | All Maps","protocol":17,"map":"pl_frontier_final","folder":"tf","game":"Team Fortress","app_id":440,"player_count":0,"max_players":24,"Bots":0,"server_type":"Dedicated","server_os":"Linux","password":true,"vac":true,"version":"7961495","steam_id":85568392924470000,"keywords":["nocrits","nodmgspread","payload","uncletopia"],"game_id":440,"stv_port":27026,"stv_name":"Uncletopia | San Francisco | 2 | All Maps | STV","players":null},{"server_id":19,"name":"Uncletopia | San Francisco | 3 | Stopwatch","name_short":"sfo-3","host":"sfo-1.us.uncletopia.com","port":27035,"enabled":true,"region":"us-west","cc":"us","latitude":37.77397,"longitude":-122.4313,"reserved":0,"last_update":"0001-01-01T00:00:00Z","name_a2s":"Uncletopia | San Francisco | 3 | Stopwatch","protocol":17,"map":"pl_pier","folder":"tf","game":"Team Fortress","app_id":440,"player_count":0,"max_players":24,"Bots":0,"server_type":"Dedicated","server_os":"Linux","password":true,"vac":true,"version":"7961495","steam_id":85568392924742824,"keywords":["nocrits","nodmgspread","payload","uncletopia"],"game_id":440,"stv_port":27036,"stv_name":"Uncletopia | San Francisco | 3 | Stopwatch | STV","players":null},{"server_id":20,"name":"Uncletopia | San Francisco | 4 | Community","name_short":"sfo-4","host":"sfo-1.us.uncletopia.com","port":27045,"enabled":true,"region":"us-west","cc":"us","latitude":37.77397,"longitude":-122.4313,"reserved":0,"last_update":"0001-01-01T00:00:00Z","name_a2s":"Uncletopia | San Francisco | 4 | Community","protocol":17,"map":"pl_pier","folder":"tf","game":"Team Fortress","app_id":440,"player_count":0,"max_players":24,"Bots":0,"server_type":"Dedicated","server_os":"Linux","password":true,"vac":true,"version":"7961495","steam_id":85568392924742826,"keywords":["nocrits","nodmgspread","payload","uncletopia"],"game_id":440,"stv_port":27046,"stv_name":"Uncletopia | San Francisco | 4 | Community | STV","players":null},{"server_id":141,"name":"Uncletopia | Sydney | 1 | All Maps","name_short":"syd-1","host":"syd-1.au.uncletopia.com","port":27015,"enabled":true,"region":"au","cc":"au","latitude":-33.865143,"longitude":151.2099,"reserved":0,"last_update":"0001-01-01T00:00:00Z","name_a2s":"Uncletopia | Sydney | 1 | All Maps","protocol":17,"map":"pl_upward","folder":"tf","game":"Team Fortress","app_id":440,"player_count":0,"max_players":24,"Bots":0,"server_type":"Dedicated","server_os":"Linux","password":true,"vac":true,"version":"7961495","steam_id":85568392924470001,"keywords":["nocrits","nodmgspread","payload","uncletopia"],"game_id":440,"stv_port":27016,"stv_name":"Uncletopia | Sydney | 1 | All Maps | STV","players":null},{"server_id":123,"name":"Uncletopia | Sydney | 2 | All Maps","name_short":"syd-2","host":"syd-1.au.uncletopia.com","port":27025,"enabled":true,"region":"au","cc":"au","latitude":-33.865143,"longitude":151.2099,"reserved":0,"last_update":"0001-01-01T00:00:00Z","name_a2s":"Uncletopia | Sydney | 2 | All Maps","protocol":17,"map":"plr_hightower","folder":"tf","game":"Team Fortress","app_id":440,"player_count":10,"max_players":24,"Bots":0,"server_type":"Dedicated","server_os":"Linux","password":true,"vac":true,"version":"7961495","steam_id":85568392924470002,"keywords":["nocrits","nodmgspread","payload","uncletopia"],"game_id":440,"stv_port":27026,"stv_name":"Uncletopia | Sydney | 2 | All Maps | STV","players":[{"user_id":447,"name":"Barbatruc","steam_id":76561198119019916,"connected_time":1191000000000,"state":"active","ping":302},{"user_id":449,"name":"Atner","steam_id":76561198442934454,"connected_time":533000000000,"state":"active","ping":91},{"user_id":445,"name":"Reefo","steam_id":76561198161626796,"connected_time":1701000000000,"state":"active","ping":65},{"user_id":440,"name":"「WoahFlamingo」","steam_id":76561198260332301,"connected_time":2780000000000,"state":"active","ping":88},{"user_id":446,"name":"Vallis","steam_id":76561198054493101,"connected_time":1699000000000,"state":"active","ping":51},{"user_id":424,"name":"HomicidalGaming123","steam_id":76561198166732952,"connected_time":4057000000000,"state":"active","ping":31},{"user_id":442,"name":"zasqm","steam_id":76561198398717954,"connected_time":2732000000000,"state":"active","ping":69},{"user_id":450,"name":"Xh4dow","steam_id":76561199171823881,"connected_time":457000000000,"state":"active","ping":207},{"user_id":425,"name":"OTRAG","steam_id":76561198930863087,"connected_time":4034000000000,"state":"active","ping":55},{"user_id":433,"name":"durcy","steam_id":76561198049037327,"connected_time":3438000000000,"state":"active","ping":102}]},{"server_id":395,"name":"Uncletopia | Sydney | 3 | All Maps","name_short":"syd-3","host":"syd-1.au.uncletopia.com","port":27035,"enabled":true,"region":"au","cc":"au","latitude":-33.865143,"longitude":151.2099,"reserved":0,"last_update":"0001-01-01T00:00:00Z","name_a2s":"Uncletopia | Sydney | 3 | All Maps","protocol":17,"map":"koth_viaduct","folder":"tf","game":"Team Fortress","app_id":440,"player_count":0,"max_players":24,"Bots":0,"server_type":"Dedicated","server_os":"Linux","password":true,"vac":true,"version":"7961495","steam_id":85568392925194467,"keywords":["cp","nocrits","nodmgspread","uncletopia"],"game_id":440,"stv_port":27036,"stv_name":"Uncletopia | Sydney | 3 | All Maps | STV","players":null},{"server_id":396,"name":"Uncletopia | Sydney | 4 | All Maps","name_short":"syd-4","host":"syd-1.au.uncletopia.com","port":27045,"enabled":true,"region":"au","cc":"au","latitude":-33.865143,"longitude":151.2099,"reserved":0,"last_update":"0001-01-01T00:00:00Z","name_a2s":"Uncletopia | Sydney | 4 | All Maps","protocol":17,"map":"cp_sunshine","folder":"tf","game":"Team Fortress","app_id":440,"player_count":0,"max_players":24,"Bots":0,"server_type":"Dedicated","server_os":"Linux","password":true,"vac":true,"version":"7961495","steam_id":85568392925397958,"keywords":["cp","nocrits","nodmgspread","uncletopia"],"game_id":440,"stv_port":27046,"stv_name":"Uncletopia | Sydney | 4 | All Maps | STV","players":null},{"server_id":58,"name":"Uncletopia | Sydney | 5 | Stopwatch","name_short":"syd-5","host":"syd-1.au.uncletopia.com","port":27055,"enabled":true,"region":"au","cc":"au","latitude":-33.865143,"longitude":151.2099,"reserved":0,"last_update":"0001-01-01T00:00:00Z","name_a2s":"Uncletopia | Sydney | 5 | Stopwatch","protocol":17,"map":"koth_lakeside_final","folder":"tf","game":"Team Fortress","app_id":440,"player_count":0,"max_players":24,"Bots":0,"server_type":"Dedicated","server_os":"Linux","password":true,"vac":true,"version":"7961495","steam_id":85568392925397959,"keywords":["cp","nocrits","nodmgspread","uncletopia"],"game_id":440,"stv_port":27056,"stv_name":"Uncletopia | Sydney | 5 | Stopwatch | STV","players":null},{"server_id":59,"name":"Uncletopia | Sydney | 6 | Community","name_short":"syd-6","host":"syd-1.au.uncletopia.com","port":27065,"enabled":true,"region":"au","cc":"au","latitude":-33.865143,"longitude":151.2099,"reserved":0,"last_update":"0001-01-01T00:00:00Z","name_a2s":"Uncletopia | Sydney | 6 | Community","protocol":17,"map":"workshop/koth_product_final.ugc454272353","folder":"tf","game":"Team Fortress","app_id":440,"player_count":0,"max_players":24,"Bots":0,"server_type":"Dedicated","server_os":"Linux","password":true,"vac":true,"version":"7961495","steam_id":85568392925397960,"keywords":["cp","nocrits","nodmgspread","uncletopia"],"game_id":440,"stv_port":27066,"stv_name":"Uncletopia | Sydney | 6 | Community | STV","players":null},{"server_id":49,"name":"Uncletopia | Warsaw | 1 | All Maps","name_short":"waw-1","host":"waw-1.pl.uncletopia.com","port":27015,"enabled":true,"region":"eu","cc":"pl","latitude":52.2297,"longitude":21.017532,"reserved":0,"last_update":"0001-01-01T00:00:00Z","name_a2s":"Uncletopia | Warsaw | 1 | All Maps","protocol":17,"map":"koth_lakeside_final","folder":"tf","game":"Team Fortress","app_id":440,"player_count":0,"max_players":24,"Bots":0,"server_type":"Dedicated","server_os":"Linux","password":true,"vac":true,"version":"7961495","steam_id":85568392925397850,"keywords":["cp","nocrits","nodmgspread","uncletopia"],"game_id":440,"stv_port":27016,"stv_name":"Uncletopia | Warsaw | 1 | All Maps | STV","players":null},{"server_id":50,"name":"Uncletopia | Warsaw | 2 | All Maps","name_short":"waw-2","host":"waw-1.pl.uncletopia.com","port":27025,"enabled":true,"region":"eu","cc":"pl","latitude":52.2297,"longitude":21.017532,"reserved":0,"last_update":"0001-01-01T00:00:00Z","name_a2s":"Uncletopia | Warsaw | 2 | All Maps","protocol":17,"map":"koth_cascade","folder":"tf","game":"Team Fortress","app_id":440,"player_count":0,"max_players":24,"Bots":0,"server_type":"Dedicated","server_os":"Linux","password":true,"vac":true,"version":"7961495","steam_id":85568392925397851,"keywords":["cp","nocrits","nodmgspread","uncletopia"],"game_id":440,"stv_port":27026,"stv_name":"Uncletopia | Warsaw | 2 | All Maps | STV","players":null},{"server_id":51,"name":"Uncletopia | Warsaw | 3 | All Maps","name_short":"waw-3","host":"waw-1.pl.uncletopia.com","port":27035,"enabled":true,"region":"eu","cc":"pl","latitude":52.2297,"longitude":21.017532,"reserved":0,"last_update":"0001-01-01T00:00:00Z","name_a2s":"Uncletopia | Warsaw | 3 | All Maps","protocol":17,"map":"cp_mountainlab","folder":"tf","game":"Team Fortress","app_id":440,"player_count":0,"max_players":24,"Bots":0,"server_type":"Dedicated","server_os":"Linux","password":true,"vac":true,"version":"7961495","steam_id":85568392925397852,"keywords":["cp","nocrits","nodmgspread","uncletopia"],"game_id":440,"stv_port":27036,"stv_name":"Uncletopia | Warsaw | 3 | All Maps | STV","players":null},{"server_id":52,"name":"Uncletopia | Warsaw | 4 | All Maps","name_short":"waw-4","host":"waw-1.pl.uncletopia.com","port":27045,"enabled":true,"region":"eu","cc":"pl","latitude":52.2297,"longitude":21.017532,"reserved":0,"last_update":"0001-01-01T00:00:00Z","name_a2s":"Uncletopia | Warsaw | 4 | All Maps","protocol":17,"map":"pl_borneo","folder":"tf","game":"Team Fortress","app_id":440,"player_count":0,"max_players":24,"Bots":0,"server_type":"Dedicated","server_os":"Linux","password":true,"vac":true,"version":"7961495","steam_id":85568392925397853,"keywords":["nocrits","nodmgspread","payload","uncletopia"],"game_id":440,"stv_port":27046,"stv_name":"Uncletopia | Warsaw | 4 | All Maps | STV","players":null},{"server_id":53,"name":"Uncletopia | Warsaw | 5 | Stopwatch","name_short":"waw-5","host":"waw-1.pl.uncletopia.com","port":27055,"enabled":true,"region":"eu","cc":"pl","latitude":52.2297,"longitude":21.017532,"reserved":0,"last_update":"0001-01-01T00:00:00Z","name_a2s":"Uncletopia | Warsaw | 5 | Stopwatch","protocol":17,"map":"pl_barnblitz","folder":"tf","game":"Team Fortress","app_id":440,"player_count":0,"max_players":24,"Bots":0,"server_type":"Dedicated","server_os":"Linux","password":true,"vac":true,"version":"7961495","steam_id":85568392925397854,"keywords":["nocrits","nodmgspread","payload","uncletopia"],"game_id":440,"stv_port":27056,"stv_name":"Uncletopia | Warsaw | 5 | Stopwatch | STV","players":null},{"server_id":54,"name":"Uncletopia | Warsaw | 6 | Community","name_short":"waw-6","host":"waw-1.pl.uncletopia.com","port":27065,"enabled":true,"region":"eu","cc":"pl","latitude":52.2297,"longitude":21.017532,"reserved":0,"last_update":"0001-01-01T00:00:00Z","name_a2s":"Uncletopia | Warsaw | 6 | Community","protocol":17,"map":"cp_altitude","folder":"tf","game":"Team Fortress","app_id":440,"player_count":0,"max_players":24,"Bots":0,"server_type":"Dedicated","server_os":"Linux","password":true,"vac":true,"version":"7961495","steam_id":85568392925397856,"keywords":["cp","nocrits","nodmgspread","uncletopia"],"game_id":440,"stv_port":27066,"stv_name":"Uncletopia | Warsaw | 6 | Community | STV","players":null}]}