{"status":true,"message":"","result":[{"server_id":9,"name":"Uncletopia | Atlanta | 1 | All Maps","name_short":"atl-1","host":"atl-1.us.uncletopia.com","port":27015,"enabled":true,"region":"us-east","cc":"us","latitude":33.753746,"longitude":-84.38633,"reserved":0,"last_update":"0001-01-01T00:00:00Z","name_a2s":"Uncletopia | Atlanta | 1 | All Maps","protocol":17,"map":"pl_borneo","folder":"tf","game":"Team Fortress","app_id":440,"player_count":4,"max_players":24,"Bots":0,"server_type":"Dedicated","server_os":"Linux","password":true,"vac":true,"version":"7757534","steam_id":85568392924469982,"keywords":["nocrits","nodmgspread","payload","uncletopia"],"game_id":440,"stv_port":27016,"stv_name":"Uncletopia | Atlanta | 1 | All Maps | STV","players":[{"user_id":346,"name":"Sconedog04","steam_id":76561198410923783,"connected_time":559000000000,"state":"active","ping":84},{"user_id":318,"name":"Psyloom","steam_id":76561198836978827,"connected_time":3310000000000,"state":"active","ping":55},{"user_id":292,"name":"Sherfire","steam_id":76561198094123992,"connected_time":5928000000000,"state":"active","ping":163},{"user_id":210,"name":"BLU1 | Flint","steam_id":76561198066547582,"connected_time":12882000000000,"state":"active","ping":108}]},{"server_id":400,"name":"Uncletopia | Atlanta | 3 | Community","name_short":"atl-3","host":"atl-1.us.uncletopia.com","port":27035,"enabled":true,"region":"us-east","cc":"us","latitude":33.753746,"longitude":-84.38633,"reserved":0,"last_update":"0001-01-01T00:00:00Z","name_a2s":"Uncletopia | Atlanta | 3 | Community","protocol":17,"map":"workshop/cp_croissant_final.ugc458840209","folder":"tf","game":"Team Fortress","app_id":440,"player_count":15,"max_players":24,"Bots":0,"server_type":"Dedicated","server_os":"Linux","password":true,"vac":true,"version":"7757534","steam_id":85568392924515187,"keywords":["cp","nocrits","nodmgspread","uncletopia"],"game_id":440,"stv_port":27036,"stv_name":"Uncletopia | Atlanta | 3 | Community | STV","players":[{"user_id":309,"name":"Missing Minus","steam_id":76561198120822928,"connected_time":1175000000000,"state":"active","ping":45},{"user_id":321,"name":"name420","steam_id":76561198129374525,"connected_time":298000000000,"state":"active","ping":60},{"user_id":320,"name":"Bottom Text","steam_id":76561198075447301,"connected_time":420000000000,"state":"active","ping":88},{"user_id":325,"name":"Bobdude","steam_id":76561198075956967,"connected_time":145000000000,"state":"active","ping":115},{"user_id":323,"name":"Karma's Camera","steam_id":76561198059385185,"connected_time":277000000000,"state":"active","ping":82},{"user_id":308,"name":"nasty","steam_id":76561199209403512,"connected_time":1401000000000,"state":"active","ping":46},{"user_id":326,"name":"mcgram2","steam_id":76561199121850792,"connected_time":117000000000,"state":"active","ping":52},{"user_id":324,"name":"The Builder","steam_id":76561198093432863,"connected_time":238000000000,"state":"active","ping":69},{"user_id":313,"name":"Kyrisuu","steam_id":76561198362711064,"connected_time":917000000000,"state":"active","ping":81},{"user_id":314,"name":"Sun Tzu","steam_id":76561198318444107,"connected_time":901000000000,"state":"active","ping":87},{"user_id":315,"name":"„Ç¥„Éü‰∫∫Èñì(Buns)","steam_id":76561197999548548,"connected_time":879000000000,"state":"active","ping":71},{"user_id":317,"name":"gettysburg","steam_id":76561198016157051,"connected_time":705000000000,"state":"active","ping":56},{"user_id":281,"name":"drooskie","steam_id":76561198036083886,"connected_time":3983000000000,"state":"active","ping":61},{"user_id":318,"name":"Cindereye","steam_id":76561198097959534,"connected_time":693000000000,"state":"active","ping":86},{"user_id":319,"name":"gNarNar","steam_id":76561197994505205,"connected_time":514000000000,"state":"active","ping":58}]},{"server_id":401,"name":"Uncletopia | Atlanta | 4 | No Payload","name_short":"atl-4","host":"atl-1.us.uncletopia.com","port":27045,"enabled":true,"region":"us-east","cc":"us","latitude":33.753746,"longitude":-84.38633,"reserved":0,"last_update":"0001-01-01T00:00:00Z","name_a2s":"","protocol":0,"map":"","folder":"","game":"","app_id":0,"player_count":0,"max_players":0,"Bots":0,"server_type":"","server_os":"","password":false,"vac":false,"version":"","steam_id":0,"keywords":null,"game_id":0,"stv_port":0,"stv_name":"","players":null},{"server_id":2,"name":"Uncletopia | Chicago | 1 | All Maps","name_short":"chi-1","host":"chi-1.us.uncletopia.com","port":27015,"enabled":true,"region":"us-central","cc":"us","latitude":41.881832,"longitude":-87.62318,"reserved":0,"last_update":"0001-01-01T00:00:00Z","name_a2s":"Uncletopia | Chicago | 1 | All Maps","protocol":17,"map":"pl_frontier_final","folder":"tf","game":"Team Fortress","app_id":440,"player_count":0,"max_players":24,"Bots":0,"server_type":"Dedicated","server_os":"Linux","password":true,"vac":true,"version":"7757534","steam_id":85568392924469984,"keywords":["nocrits","nodmgspread","payload","uncletopia"],"game_id":440,"stv_port":27016,"stv_name":"Uncletopia | Chicago | 1 | All Maps | STV","players":null},{"server_id":106,"name":"Uncletopia | Chicago | 2 | All Maps","name_short":"chi-2","host":"chi-1.us.uncletopia.com","port":27025,"enabled":true,"region":"us-central","cc":"us","latitude":41.881832,"longitude":-87.62318,"reserved":0,"last_update":"0001-01-01T00:00:00Z","name_a2s":"Uncletopia | Chicago | 2 | All Maps","protocol":17,"map":"pl_barnblitz","folder":"tf","game":"Team Fortress","app_id":440,"player_count":0,"max_players":24,"Bots":0,"server_type":"Dedicated","server_os":"Linux","password":true,"vac":true,"version":"7757534","steam_id":85568392924469985,"keywords":["nocrits","nodmgspread","payload","uncletopia"],"game_id":440,"stv_port":27026,"stv_name":"Uncletopia | Chicago | 2 | All Maps | STV","players":null},{"server_id":402,"name":"Uncletopia | Chicago | 3 | All Maps","name_short":"chi-3","host":"chi-1.us.uncletopia.com","port":27035,"enabled":true,"region":"us-central","cc":"us","latitude":41.881832,"longitude":-87.62318,"reserved":0,"last_update":"0001-01-01T00:00:00Z","name_a2s":"Uncletopia | Chicago | 3 | All Maps","protocol":17,"map":"cp_sunshine","folder":"tf","game":"Team Fortress","app_id":440,"player_count":0,"max_players":24,"Bots":0,"server_type":"Dedicated","server_os":"Linux","password":true,"vac":true,"version":"7757534","steam_id":85568392924515191,"keywords":["cp","nocrits","nodmgspread","uncletopia"],"game_id":440,"stv_port":27036,"stv_name":"Uncletopia | Chicago | 3 | All Maps | STV","players":null},{"server_id":403,"name":"Uncletopia | Chicago | 4 | All Maps","name_short":"chi-4","host":"chi-1.us.uncletopia.com","port":27045,"enabled":true,"region":"us-central","cc":"us","latitude":41.881832,"longitude":-87.62318,"reserved":0,"last_update":"0001-01-01T00:00:00Z","name_a2s":"Uncletopia | Chicago | 4 | All Maps","protocol":17,"map":"cp_dustbowl","folder":"tf","game":"Team Fortress","app_id":440,"player_count":0,"max_players":24,"Bots":0,"server_type":"Dedicated","server_os":"Linux","password":true,"vac":true,"version":"7757534","steam_id":85568392924515193,"keywords":["cp","nocrits","nodmgspread","uncletopia"],"game_id":440,"stv_port":27046,"stv_name":"Uncletopia | Chicago | 4 | All Maps | STV","players":null},{"server_id":36,"name":"Uncletopia | Chicago | 5 | All Maps","name_short":"chi-5","host":"chi-2.us.uncletopia.com","port":27015,"enabled":true,"region":"us-central","cc":"us","latitude":41.881832,"longitude":-87.62318,"reserved":0,"last_update":"0001-01-01T00:00:00Z","name_a2s":"Uncletopia | Chicago | 5 | All Maps","protocol":17,"map":"pl_pier","folder":"tf","game":"Team Fortress","app_id":440,"player_count":24,"max_players":24,"Bots":0,"server_type":"Dedicated","server_os":"Linux","password":true,"vac":true,"version":"7757534","steam_id":85568392924866362,"keywords":["nocrits","nodmgspread","payload","uncletopia"],"game_id":440,"stv_port":27016,"stv_name":"Uncletopia | Chicago | 5 | All Maps | STV","players":[{"user_id":744,"name":"Grink \"V.F\" da Boy","steam_id":76561197985230768,"connected_time":388000000000,"state":"active","ping":96},{"user_id":732,"name":"Ye ( I Love Caulk ) West","steam_id":76561198068830312,"connected_time":715000000000,"state":"active","ping":45},{"user_id":666,"name":"souperman","steam_id":76561198426458219,"connected_time":5674000000000,"state":"active","ping":102},{"user_id":711,"name":"ZekeN0Tech","steam_id":76561198042151365,"connected_time":2106000000000,"state":"active","ping":49},{"user_id":734,"name":"Furry Saul Goodman","steam_id":76561198069580305,"connected_time":703000000000,"state":"active","ping":47},{"user_id":733,"name":"debin","steam_id":76561198070711217,"connected_time":710000000000,"state":"active","ping":45},{"user_id":745,"name":"Not Slavoj ≈Ωi≈æek","steam_id":76561198004619616,"connected_time":298000000000,"state":"active","ping":126},{"user_id":712,"name":"heisenberg","steam_id":76561198075341060,"connected_time":1993000000000,"state":"active","ping":114},{"user_id":631,"name":"last_apoc","steam_id":76561197974910911,"connected_time":7439000000000,"state":"active","ping":60},{"user_id":729,"name":"Tommy Pickles is (Very Cool)","steam_id":76561198391261463,"connected_time":1212000000000,"state":"active","ping":65},{"user_id":742,"name":"Joocebox","steam_id":76561198259997021,"connected_time":428000000000,"state":"active","ping":66},{"user_id":714,"name":"The Glizzanator","steam_id":76561198115355451,"connected_time":1782000000000,"state":"active","ping":90},{"user_id":736,"name":"Old St. Scat","steam_id":76561198322096569,"connected_time":676000000000,"state":"active","ping":105},{"user_id":737,"name":"Presto","steam_id":76561198069293923,"connected_time":667000000000,"state":"active","ping":76},{"user_id":694,"name":"cyal","steam_id":76561198080957000,"connected_time":3954000000000,"state":"active","ping":103},{"user_id":707,"name":"Model CHP-3Y","steam_id":76561198107806145,"connected_time":2585000000000,"state":"active","ping":67},{"user_id":738,"name":"f_stop","steam_id":76561198065281390,"connected_time":645000000000,"state":"active","ping":71},{"user_id":750,"name":":)","steam_id":76561198093921290,"connected_time":72000000000,"state":"active","ping":53},{"user_id":743,"name":"richard clock","steam_id":76561198048455671,"connected_time":400000000000,"state":"active","ping":51},{"user_id":726,"name":"yep","steam_id":76561198068113077,"connected_time":1257000000000,"state":"active","ping":112},{"user_id":749,"name":"_DrunkenGibberish_","steam_id":76561199123070071,"connected_time":157000000000,"state":"active","ping":98},{"user_id":741,"name":"dP | I'm in a Wookie Suit","steam_id":76561198083307644,"connected_time":577000000000,"state":"active","ping":99},{"user_id":669,"name":"darkness.danny3481","steam_id":76561198132808002,"connected_time":5252000000000,"state":"active","ping":101},{"user_id":746,"name":"moe","steam_id":76561198929586245,"connected_time":287000000000,"state":"active","ping":103}]},{"server_id":37,"name":"Uncletopia | Chicago | 6 | All Maps","name_short":"chi-6","host":"chi-2.us.uncletopia.com","port":27025,"enabled":true,"region":"us-central","cc":"us","latitude":41.881832,"longitude":-87.62318,"reserved":0,"last_update":"0001-01-01T00:00:00Z","name_a2s":"Uncletopia | Chicago | 6 | All Maps","protocol":17,"map":"pl_borneo","folder":"tf","game":"Team Fortress","app_id":440,"player_count":24,"max_players":24,"Bots":0,"server_type":"Dedicated","server_os":"Linux","password":true,"vac":true,"version":"7757534","steam_id":85568392924866363,"keywords":["nocrits","nodmgspread","payload","uncletopia"],"game_id":440,"stv_port":27026,"stv_name":"Uncletopia | Chicago | 6 | All Maps | STV","players":[{"user_id":637,"name":"ToughGuy311","steam_id":76561198131458027,"connected_time":10275000000000,"state":"active","ping":72},{"user_id":762,"name":"po","steam_id":76561198012945016,"connected_time":926000000000,"state":"active","ping":45},{"user_id":773,"name":"breakist","steam_id":76561198285819311,"connected_time":89000000000,"state":"active","ping":106},{"user_id":664,"name":"Soap Man","steam_id":76561198000490235,"connected_time":8687000000000,"state":"active","ping":124},{"user_id":772,"name":"Farseer Ulwithy","steam_id":76561197965179245,"connected_time":225000000000,"state":"active","ping":82},{"user_id":760,"name":"on the beans","steam_id":76561198265035553,"connected_time":956000000000,"state":"active","ping":79},{"user_id":761,"name":"Captain Otto","steam_id":76561197970910453,"connected_time":947000000000,"state":"active","ping":79},{"user_id":727,"name":"Koopa Paratroopa","steam_id":76561198035448426,"connected_time":4388000000000,"state":"active","ping":101},{"user_id":747,"name":"itsmajestic","steam_id":76561198304790008,"connected_time":3030000000000,"state":"active","ping":67},{"user_id":756,"name":"Waterman","steam_id":76561198053046161,"connected_time":2012000000000,"state":"active","ping":68},{"user_id":759,"name":"ZofoJackson","steam_id":76561197998366861,"connected_time":1703000000000,"state":"active","ping":47},{"user_id":770,"name":"mos","steam_id":76561197995777973,"connected_time":253000000000,"state":"active","ping":70},{"user_id":763,"name":"Gigazelle","steam_id":76561197997652337,"connected_time":909000000000,"state":"active","ping":64},{"user_id":734,"name":"SubZeroDestruction","steam_id":76561198145082209,"connected_time":3890000000000,"state":"active","ping":71},{"user_id":735,"name":"SleepingBrim","steam_id":76561198067650229,"connected_time":3885000000000,"state":"active","ping":99},{"user_id":752,"name":"onsceler","steam_id":76561198183663605,"connected_time":2638000000000,"state":"active","ping":80},{"user_id":764,"name":"TRKY_","steam_id":76561198184575166,"connected_time":854000000000,"state":"active","ping":147},{"user_id":765,"name":"uwutang clan","steam_id":76561198361326855,"connected_time":850000000000,"state":"active","ping":61},{"user_id":769,"name":"Ducter","steam_id":76561198085369908,"connected_time":768000000000,"state":"active","ping":55},{"user_id":766,"name":"Papa Stalin","steam_id":76561198298953716,"connected_time":823000000000,"state":"active","ping":178},{"user_id":739,"name":"ROGUE-PLANET","steam_id":76561198116023052,"connected_time":3843000000000,"state":"active","ping":69},{"user_id":749,"name":"üêáBunnyüêá","steam_id":76561198822773578,"connected_time":2990000000000,"state":"active","ping":104},{"user_id":774,"name":"moro","steam_id":76561198084174868,"connected_time":39000000000,"state":"active","ping":141},{"user_id":767,"name":"rudy","steam_id":76561198088712799,"connected_time":820000000000,"state":"active","ping":90}]},{"server_id":38,"name":"Uncletopia | Chicago | 7 | Stopwatch Beta","name_short":"chi-7","host":"chi-2.us.uncletopia.com","port":27035,"enabled":true,"region":"us-central","cc":"us","latitude":41.881832,"longitude":-87.62318,"reserved":0,"last_update":"0001-01-01T00:00:00Z","name_a2s":"Uncletopia | Chicago | 7 | Stopwatch Beta","protocol":17,"map":"workshop/pl_barnblitz_pro7.ugc582280235","folder":"tf","game":"Team Fortress","app_id":440,"player_count":0,"max_players":24,"Bots":0,"server_type":"Dedicated","server_os":"Linux","password":true,"vac":true,"version":"7757534","steam_id":85568392924866364,"keywords":["nocrits","nodmgspread","payload","uncletopia"],"game_id":440,"stv_port":27036,"stv_name":"Uncletopia | Chicago | 7 | Stopwatch Beta | STV","players":null},{"server_id":39,"name":"Uncletopia | Chicago | 8 | Community","name_short":"chi-8","host":"chi-2.us.uncletopia.com","port":27045,"enabled":true,"region":"us-central","cc":"us","latitude":41.881832,"longitude":-87.62318,"reserved":0,"last_update":"0001-01-01T00:00:00Z","name_a2s":"Uncletopia | Chicago | 8 | Community","protocol":17,"map":"workshop/koth_product_final.ugc454272353","folder":"tf","game":"Team Fortress","app_id":440,"player_count":0,"max_players":24,"Bots":0,"server_type":"Dedicated","server_os":"Linux","password":true,"vac":true,"version":"7757534","steam_id":85568392924866365,"keywords":["cp","nocrits","nodmgspread","uncletopia"],"game_id":440,"stv_port":27046,"stv_name":"Uncletopia | Chicago | 8 | Community | STV","players":null},{"server_id":8,"name":"Uncletopia | Dallas | 1 | All Maps","name_short":"dal-1","host":"dal-1.us.uncletopia.com","port":27015,"enabled":true,"region":"us-central","cc":"us","latitude":32.779167,"longitude":-96.80889,"reserved":0,"last_update":"0001-01-01T00:00:00Z","name_a2s":"Uncletopia | Dallas | 1 | All Maps","protocol":17,"map":"pl_badwater","folder":"tf","game":"Team Fortress","app_id":440,"player_count":16,"max_players":24,"Bots":0,"server_type":"Dedicated","server_os":"Linux","password":true,"vac":true,"version":"7757534","steam_id":85568392924469986,"keywords":["nocrits","nodmgspread","payload","uncletopia"],"game_id":440,"stv_port":27016,"stv_name":"Uncletopia | Dallas | 1 | All Maps | STV","players":[{"user_id":690,"name":"DeckofDragons","steam_id":76561198057398213,"connected_time":297000000000,"state":"active","ping":65},{"user_id":692,"name":"Matte :)","steam_id":76561198070631073,"connected_time":140000000000,"state":"active","ping":77},{"user_id":648,"name":"Krow","steam_id":76561198010392099,"connected_time":4896000000000,"state":"active","ping":51},{"user_id":606,"name":"DrBenjas","steam_id":76561198345883103,"connected_time":8302000000000,"state":"active","ping":98},{"user_id":693,"name":"Zeke McGeeks","steam_id":76561198067050258,"connected_time":110000000000,"state":"active","ping":91},{"user_id":688,"name":"tapewyrm","steam_id":76561198072632696,"connected_time":955000000000,"state":"active","ping":51},{"user_id":694,"name":"\"rabbit\"","steam_id":76561198110046630,"connected_time":84000000000,"state":"active","ping":57},{"user_id":583,"name":"Sydney","steam_id":76561198797603297,"connected_time":10131000000000,"state":"active","ping":45},{"user_id":642,"name":"Can You Feel It Mr.Krabs","steam_id":76561198128302414,"connected_time":6211000000000,"state":"active","ping":68},{"user_id":695,"name":"singular brain celled organism","steam_id":76561198042508469,"connected_time":17000000000,"state":"spawning","ping":111},{"user_id":682,"name":"Mr. Comrade","steam_id":76561198155667562,"connected_time":2039000000000,"state":"active","ping":88},{"user_id":671,"name":"JJunkit the First","steam_id":76561198024595354,"connected_time":3442000000000,"state":"active","ping":100},{"user_id":647,"name":"KingOfLewd","steam_id":76561198180034311,"connected_time":4928000000000,"state":"active","ping":84},{"user_id":670,"name":"Spiker!","steam_id":76561198344491858,"connected_time":3560000000000,"state":"active","ping":90},{"user_id":683,"name":"Unregistered Hypercam 2","steam_id":76561198046895822,"connected_time":1770000000000,"state":"active","ping":68},{"user_id":687,"name":"Jello","steam_id":76561198890633732,"connected_time":1091000000000,"state":"active","ping":68}]},{"server_id":108,"name":"Uncletopia | Dallas | 2 | All Maps","name_short":"dal-2","host":"dal-1.us.uncletopia.com","port":27025,"enabled":true,"region":"us-central","cc":"us","latitude":32.779167,"longitude":-96.80889,"reserved":0,"last_update":"0001-01-01T00:00:00Z","name_a2s":"Uncletopia | Dallas | 2 | All Maps","protocol":17,"map":"pl_snowycoast","folder":"tf","game":"Team Fortress","app_id":440,"player_count":24,"max_players":24,"Bots":0,"server_type":"Dedicated","server_os":"Linux","password":true,"vac":true,"version":"7757534","steam_id":85568392924469988,"keywords":["nocrits","nodmgspread","payload","uncletopia"],"game_id":440,"stv_port":27026,"stv_name":"Uncletopia | Dallas | 2 | All Maps | STV","players":[{"user_id":920,"name":"Rasputia","steam_id":76561198132051047,"connected_time":1265000000000,"state":"active","ping":99},{"user_id":929,"name":"Tots","steam_id":76561198027485007,"connected_time":841000000000,"state":"active","ping":59},{"user_id":885,"name":"VixianUwU","steam_id":76561198948815060,"connected_time":4034000000000,"state":"active","ping":76},{"user_id":930,"name":"‚í∑‚ì™‚ì™‚ì£‚ì®‚ìí‚ìê‚ìö‚ìî‚ì¢","steam_id":76561198088776421,"connected_time":762000000000,"state":"active","ping":90},{"user_id":923,"name":"present-malone","steam_id":76561198163775988,"connected_time":1030000000000,"state":"active","ping":63},{"user_id":931,"name":"Sad Sapling","steam_id":76561198075612150,"connected_time":739000000000,"state":"active","ping":83},{"user_id":927,"name":"bob1444","steam_id":76561198110258432,"connected_time":940000000000,"state":"active","ping":197},{"user_id":932,"name":"Squeena","steam_id":76561198274312900,"connected_time":722000000000,"state":"active","ping":77},{"user_id":924,"name":"LuciD","steam_id":76561198242842394,"connected_time":1028000000000,"state":"active","ping":63},{"user_id":937,"name":"CredibleFish","steam_id":76561199163102616,"connected_time":173000000000,"state":"active","ping":83},{"user_id":907,"name":"MistakesWereMade","steam_id":76561199059220481,"connected_time":2588000000000,"state":"active","ping":87},{"user_id":917,"name":"Eros","steam_id":76561198000530934,"connected_time":1315000000000,"state":"active","ping":89},{"user_id":933,"name":"The Spice","steam_id":76561197998760607,"connected_time":691000000000,"state":"active","ping":80},{"user_id":916,"name":"Bleebi","steam_id":76561197971264259,"connected_time":1367000000000,"state":"active","ping":72},{"user_id":935,"name":"Buhtkis","steam_id":76561198043186160,"connected_time":638000000000,"state":"active","ping":74},{"user_id":872,"name":"Satori Komeiji","steam_id":76561198158211423,"connected_time":4554000000000,"state":"active","ping":73},{"user_id":918,"name":"K.A.R.M.A.","steam_id":76561198240750142,"connected_time":1315000000000,"state":"active","ping":75},{"user_id":919,"name":"JimmyDribblerJibblerGribbler","steam_id":76561198274536607,"connected_time":1294000000000,"state":"active","ping":86},{"user_id":903,"name":"Calypso","steam_id":76561198082939544,"connected_time":3337000000000,"state":"active","ping":126},{"user_id":921,"name":"Horny Gay Bird","steam_id":76561198349247367,"connected_time":1250000000000,"state":"active","ping":95},{"user_id":922,"name":"M√©xico","steam_id":76561198238059280,"connected_time":1234000000000,"state":"active","ping":83},{"user_id":925,"name":"[G.E.W.P]BreadFace","steam_id":76561198147534411,"connected_time":1027000000000,"state":"active","ping":83},{"user_id":926,"name":"Cow-on-a-tornado soda flavor","steam_id":76561198339814593,"connected_time":1016000000000,"state":"active","ping":141},{"user_id":936,"name":"“â“à“âœüTheSuperEngŒª","steam_id":76561197964359047,"connected_time":634000000000,"state":"active","ping":73}]},{"server_id":5,"name":"Uncletopia | Frankfurt | 1 | All Maps","name_short":"frk-1","host":"frk-1.de.uncletopia.com","port":27015,"enabled":true,"region":"eu","cc":"de","latitude":50.110924,"longitude":8.682127,"reserved":0,"last_update":"0001-01-01T00:00:00Z","name_a2s":"Uncletopia | Frankfurt | 1 | All Maps","protocol":17,"map":"pl_snowycoast","folder":"tf","game":"Team Fortress","app_id":440,"player_count":0,"max_players":24,"Bots":0,"server_type":"Dedicated","server_os":"Linux","password":true,"vac":true,"version":"7757534","steam_id":85568392924469989,"keywords":["nocrits","nodmgspread","payload","uncletopia"],"game_id":440,"stv_port":27016,"stv_name":"Uncletopia | Frankfurt | 1 | All Maps | STV","players":null},{"server_id":110,"name":"Uncletopia | Frankfurt | 2 | All Maps","name_short":"frk-2","host":"frk-1.de.uncletopia.com","port":27025,"enabled":true,"region":"eu","cc":"de","latitude":50.110924,"longitude":8.682127,"reserved":0,"last_update":"0001-01-01T00:00:00Z","name_a2s":"Uncletopia | Frankfurt | 2 | All Maps","protocol":17,"map":"pl_snowycoast","folder":"tf","game":"Team Fortress","app_id":440,"player_count":0,"max_players":24,"Bots":0,"server_type":"Dedicated","server_os":"Linux","password":true,"vac":true,"version":"7757534","steam_id":85568392924469990,"keywords":["nocrits","nodmgspread","payload","uncletopia"],"game_id":440,"stv_port":27026,"stv_name":"Uncletopia | Frankfurt | 2 | All Maps | STV","players":null},{"server_id":308,"name":"Uncletopia | Frankfurt | 3 | All Maps","name_short":"frk-3","host":"frk-1.de.uncletopia.com","port":27035,"enabled":true,"region":"eu","cc":"de","latitude":50.110924,"longitude":8.682127,"reserved":0,"last_update":"0001-01-01T00:00:00Z","name_a2s":"Uncletopia | Frankfurt | 3 | All Maps","protocol":17,"map":"cp_altitude","folder":"tf","game":"Team Fortress","app_id":440,"player_count":0,"max_players":24,"Bots":0,"server_type":"Dedicated","server_os":"Linux","password":true,"vac":true,"version":"7757534","steam_id":85568392924504274,"keywords":["cp","nocrits","nodmgspread","uncletopia"],"game_id":440,"stv_port":27036,"stv_name":"Uncletopia | Frankfurt | 3 | All Maps | STV","players":null},{"server_id":309,"name":"Uncletopia | Frankfurt | 4 | All Maps","name_short":"frk-4","host":"frk-1.de.uncletopia.com","port":27045,"enabled":true,"region":"eu","cc":"de","latitude":50.110924,"longitude":8.682127,"reserved":0,"last_update":"0001-01-01T00:00:00Z","name_a2s":"Uncletopia | Frankfurt | 4 | All Maps","protocol":17,"map":"cp_altitude","folder":"tf","game":"Team Fortress","app_id":440,"player_count":0,"max_players":24,"Bots":0,"server_type":"Dedicated","server_os":"Linux","password":true,"vac":true,"version":"7757534","steam_id":85568392924504275,"keywords":["cp","nocrits","nodmgspread","uncletopia"],"game_id":440,"stv_port":27046,"stv_name":"Uncletopia | Frankfurt | 4 | All Maps | STV","players":null},{"server_id":310,"name":"Uncletopia | Frankfurt | 5 | All Maps","name_short":"frk-5","host":"frk-1.de.uncletopia.com","port":27055,"enabled":true,"region":"eu","cc":"de","latitude":50.110924,"longitude":8.682127,"reserved":0,"last_update":"0001-01-01T00:00:00Z","name_a2s":"Uncletopia | Frankfurt | 5 | All Maps","protocol":17,"map":"cp_altitude","folder":"tf","game":"Team Fortress","app_id":440,"player_count":0,"max_players":24,"Bots":0,"server_type":"Dedicated","server_os":"Linux","password":true,"vac":true,"version":"7757534","steam_id":85568392924504277,"keywords":["cp","nocrits","nodmgspread","uncletopia"],"game_id":440,"stv_port":27056,"stv_name":"Uncletopia | Frankfurt | 5 | All Maps | STV","players":null},{"server_id":311,"name":"Uncletopia | Frankfurt | 6 | All Maps","name_short":"frk-6","host":"frk-1.de.uncletopia.com","port":27065,"enabled":true,"region":"eu","cc":"de","latitude":50.110924,"longitude":8.682127,"reserved":0,"last_update":"0001-01-01T00:00:00Z","name_a2s":"Uncletopia | Frankfurt | 6 | All Maps","protocol":17,"map":"koth_highpass","folder":"tf","game":"Team Fortress","app_id":440,"player_count":0,"max_players":24,"Bots":0,"server_type":"Dedicated","server_os":"Linux","password":true,"vac":true,"version":"7757534","steam_id":85568392924504278,"keywords":["cp","nocrits","nodmgspread","uncletopia"],"game_id":440,"stv_port":27066,"stv_name":"Uncletopia | Frankfurt | 6 | All Maps | STV","players":null},{"server_id":23,"name":"Uncletopia | Frankfurt | 7 | Stopwatch Beta","name_short":"frk-7","host":"frk-1.de.uncletopia.com","port":27075,"enabled":true,"region":"eu","cc":"de","latitude":50.110924,"longitude":8.682127,"reserved":0,"last_update":"0001-01-01T00:00:00Z","name_a2s":"Uncletopia | Frankfurt | 7 | Stopwatch Beta","protocol":17,"map":"pl_frontier_final","folder":"tf","game":"Team Fortress","app_id":440,"player_count":0,"max_players":24,"Bots":0,"server_type":"Dedicated","server_os":"Linux","password":true,"vac":true,"version":"7757534","steam_id":85568392924742827,"keywords":["nocrits","nodmgspread","payload","uncletopia"],"game_id":440,"stv_port":27076,"stv_name":"Uncletopia | Frankfurt | 7 | Stopwatch Beta | STV","players":null},{"server_id":24,"name":"Uncletopia | Frankfurt | 8 | Community","name_short":"frk-8","host":"frk-1.de.uncletopia.com","port":27085,"enabled":true,"region":"eu","cc":"de","latitude":50.110924,"longitude":8.682127,"reserved":0,"last_update":"0001-01-01T00:00:00Z","name_a2s":"Uncletopia | Frankfurt | 8 | Community","protocol":17,"map":"pl_badwater","folder":"tf","game":"Team Fortress","app_id":440,"player_count":0,"max_players":24,"Bots":0,"server_type":"Dedicated","server_os":"Linux","password":true,"vac":true,"version":"7757534","steam_id":85568392924742828,"keywords":["nocrits","nodmgspread","payload","uncletopia"],"game_id":440,"stv_port":27086,"stv_name":"Uncletopia | Frankfurt | 8 | Community | STV","players":null},{"server_id":202,"name":"Uncletopia | Hong Kong | 1 | All Maps","name_short":"hgk-1","host":"hgk-1.hk.uncletopia.com","port":27015,"enabled":true,"region":"asia","cc":"hk","latitude":22.302711,"longitude":114.177216,"reserved":0,"last_update":"0001-01-01T00:00:00Z","name_a2s":"Uncletopia | Hong Kong | 1 | All Maps","protocol":17,"map":"pl_barnblitz","folder":"tf","game":"Team Fortress","app_id":440,"player_count":24,"max_players":24,"Bots":0,"server_type":"Dedicated","server_os":"Linux","password":true,"vac":true,"version":"7757534","steam_id":85568392924494504,"keywords":["nocrits","nodmgspread","payload","uncletopia"],"game_id":440,"stv_port":27016,"stv_name":"Uncletopia | Hong Kong | 1 | All Maps | STV","players":[{"user_id":71,"name":"im_0ff","steam_id":76561198339346695,"connected_time":773000000000,"state":"active","ping":128},{"user_id":57,"name":"SonThanhVN","steam_id":76561198418758543,"connected_time":1203000000000,"state":"active","ping":75},{"user_id":75,"name":"aqzwsxdec","steam_id":76561199021181873,"connected_time":618000000000,"state":"active","ping":88},{"user_id":37,"name":"engamiing","steam_id":76561198846610729,"connected_time":3508000000000,"state":"active","ping":105},{"user_id":70,"name":"Â∏ï","steam_id":76561198439343999,"connected_time":844000000000,"state":"active","ping":73},{"user_id":79,"name":"Him Him Ung","steam_id":76561198204789021,"connected_time":32000000000,"state":"spawning","ping":36},{"user_id":43,"name":"peppermint","steam_id":76561198820630422,"connected_time":2469000000000,"state":"active","ping":90},{"user_id":73,"name":"Burger One","steam_id":76561198059523754,"connected_time":716000000000,"state":"active","ping":49},{"user_id":47,"name":"Smoke Weed Every Night","steam_id":76561199445694770,"connected_time":2178000000000,"state":"active","ping":132},{"user_id":48,"name":"C√° Th√°ng 4","steam_id":76561198047162026,"connected_time":2116000000000,"state":"active","ping":75},{"user_id":49,"name":"uptriste","steam_id":76561198158666692,"connected_time":2055000000000,"state":"active","ping":36},{"user_id":58,"name":"HŒªi","steam_id":76561198872566128,"connected_time":1202000000000,"state":"active","ping":91},{"user_id":76,"name":"juscusimkool","steam_id":76561198809511635,"connected_time":591000000000,"state":"active","ping":88},{"user_id":52,"name":"Â∞èÁÉèÈæúÈ†≠Áóõ","steam_id":76561198201078982,"connected_time":2028000000000,"state":"active","ping":85},{"user_id":78,"name":"Puddin","steam_id":76561198140052918,"connected_time":194000000000,"state":"active","ping":90},{"user_id":55,"name":"Dropout„ÇØ„Éû","steam_id":76561199092455646,"connected_time":1601000000000,"state":"active","ping":80},{"user_id":61,"name":"water tastes good","steam_id":76561199375947670,"connected_time":1141000000000,"state":"active","ping":73},{"user_id":64,"name":"gilsomnia","steam_id":76561198830813639,"connected_time":1058000000000,"state":"active","ping":107},{"user_id":63,"name":"About","steam_id":76561198198273477,"connected_time":1101000000000,"state":"active","ping":100},{"user_id":65,"name":"Exis","steam_id":76561198129263849,"connected_time":1048000000000,"state":"active","ping":88},{"user_id":66,"name":"Zed","steam_id":76561198862621597,"connected_time":1045000000000,"state":"active","ping":84},{"user_id":67,"name":"one of the players","steam_id":76561198442507642,"connected_time":1042000000000,"state":"active","ping":90},{"user_id":68,"name":"ukpkmkk","steam_id":76561198178477327,"connected_time":1026000000000,"state":"active","ping":141},{"user_id":77,"name":"FPGA","steam_id":76561198178904166,"connected_time":573000000000,"state":"active","ping":150}]},{"server_id":1,"name":"Uncletopia | Los Angeles | 1 | All Maps","name_short":"lax-1","host":"lax-1.us.uncletopia.com","port":27015,"enabled":true,"region":"us-west","cc":"us","latitude":33.94279,"longitude":-118.41004,"reserved":0,"last_update":"0001-01-01T00:00:00Z","name_a2s":"Uncletopia | Los Angeles | 1 | All Maps","protocol":17,"map":"ctf_landfall","folder":"tf","game":"Team Fortress","app_id":440,"player_count":9,"max_players":24,"Bots":0,"server_type":"Dedicated","server_os":"Linux","password":true,"vac":true,"version":"7757534","steam_id":85568392924469991,"keywords":["ctf","nocrits","nodmgspread","uncletopia"],"game_id":440,"stv_port":27016,"stv_name":"Uncletopia | Los Angeles | 1 | All Maps | STV","players":[{"user_id":354,"name":"Feel the bern","steam_id":76561198078824519,"connected_time":505000000000,"state":"active","ping":43},{"user_id":352,"name":"Nate","steam_id":76561198045186954,"connected_time":1178000000000,"state":"active","ping":45},{"user_id":355,"name":"Schnitz(Lost my Glasses)","steam_id":76561198265484253,"connected_time":324000000000,"state":"active","ping":54},{"user_id":357,"name":"filipinofriday","steam_id":76561198441805004,"connected_time":11000000000,"state":"active","ping":43},{"user_id":240,"name":"Kevin McCarthy","steam_id":76561198843868609,"connected_time":11242000000000,"state":"active","ping":38},{"user_id":244,"name":"David DePape","steam_id":76561198340989889,"connected_time":11226000000000,"state":"active","ping":44},{"user_id":329,"name":"Verboten Code","steam_id":76561198162202770,"connected_time":3201000000000,"state":"active","ping":103},{"user_id":328,"name":"Puny Punny","steam_id":76561198060143203,"connected_time":3396000000000,"state":"active","ping":54},{"user_id":319,"name":"Canned Lobster","steam_id":76561198110847328,"connected_time":3615000000000,"state":"active","ping":54}]},{"server_id":112,"name":"Uncletopia | Los Angeles | 2 | All Maps","name_short":"lax-2","host":"lax-1.us.uncletopia.com","port":27025,"enabled":true,"region":"us-west","cc":"us","latitude":33.94279,"longitude":-118.41004,"reserved":0,"last_update":"0001-01-01T00:00:00Z","name_a2s":"Uncletopia | Los Angeles | 2 | All Maps","protocol":17,"map":"cp_altitude","folder":"tf","game":"Team Fortress","app_id":440,"player_count":0,"max_players":24,"Bots":0,"server_type":"Dedicated","server_os":"Linux","password":true,"vac":true,"version":"7757534","steam_id":85568392924469992,"keywords":["cp","nocrits","nodmgspread","uncletopia"],"game_id":440,"stv_port":27026,"stv_name":"Uncletopia | Los Angeles | 2 | All Maps | STV","players":null},{"server_id":324,"name":"Uncletopia | Los Angeles | 3 | All Maps","name_short":"lax-3","host":"lax-1.us.uncletopia.com","port":27035,"enabled":true,"region":"us-west","cc":"us","latitude":33.94279,"longitude":-118.41004,"reserved":0,"last_update":"0001-01-01T00:00:00Z","name_a2s":"Uncletopia | Los Angeles | 3 | All Maps","protocol":17,"map":"koth_cascade","folder":"tf","game":"Team Fortress","app_id":440,"player_count":0,"max_players":24,"Bots":0,"server_type":"Dedicated","server_os":"Linux","password":true,"vac":true,"version":"7757534","steam_id":85568392924510198,"keywords":["cp","nocrits","nodmgspread","uncletopia"],"game_id":440,"stv_port":27036,"stv_name":"Uncletopia | Los Angeles | 3 | All Maps | STV","players":null},{"server_id":25,"name":"Uncletopia | Los Angeles | 4 | Stopwatch Beta","name_short":"lax-4","host":"lax-1.us.uncletopia.com","port":27045,"enabled":true,"region":"us-west","cc":"us","latitude":33.94279,"longitude":-118.41004,"reserved":0,"last_update":"0001-01-01T00:00:00Z","name_a2s":"Uncletopia | Los Angeles | 4 | Stopwatch Beta","protocol":17,"map":"workshop/pl_badwater_pro_v12.ugc2142942074","folder":"tf","game":"Team Fortress","app_id":440,"player_count":0,"max_players":24,"Bots":0,"server_type":"Dedicated","server_os":"Linux","password":true,"vac":true,"version":"7757534","steam_id":85568392924510199,"keywords":["nocrits","nodmgspread","payload","uncletopia"],"game_id":440,"stv_port":27046,"stv_name":"Uncletopia | Los Angeles | 4 | Stopwatch Beta | STV","players":null},{"server_id":11,"name":"Uncletopia | London | 1 | All Maps","name_short":"lon-1","host":"lon-1.uk.uncletopia.com","port":27015,"enabled":true,"region":"eu","cc":"gb","latitude":51.509865,"longitude":-0.118092,"reserved":0,"last_update":"0001-01-01T00:00:00Z","name_a2s":"Uncletopia | London | 1 | All Maps","protocol":17,"map":"pl_frontier_final","folder":"tf","game":"Team Fortress","app_id":440,"player_count":24,"max_players":24,"Bots":0,"server_type":"Dedicated","server_os":"Linux","password":true,"vac":true,"version":"7757534","steam_id":85568392924367362,"keywords":["nocrits","nodmgspread","payload","uncletopia"],"game_id":440,"stv_port":27016,"stv_name":"Uncletopia | London | 1 | All Maps | STV","players":[{"user_id":8,"name":"posht0 @_@","steam_id":76561198106182078,"connected_time":4073000000000,"state":"active","ping":103},{"user_id":9,"name":"sabaka jebanoia","steam_id":76561198147249160,"connected_time":4030000000000,"state":"active","ping":105},{"user_id":53,"name":"Sora The Fox","steam_id":76561198072998702,"connected_time":425000000000,"state":"active","ping":50},{"user_id":11,"name":"Rave Robber","steam_id":76561199414716848,"connected_time":3907000000000,"state":"active","ping":71},{"user_id":52,"name":"//_-)","steam_id":76561198118412910,"connected_time":447000000000,"state":"active","ping":56},{"user_id":38,"name":"VibingWave[Outer Heaven]","steam_id":76561198866358613,"connected_time":1524000000000,"state":"active","ping":152},{"user_id":15,"name":"Coffee","steam_id":76561199077316448,"connected_time":3254000000000,"state":"active","ping":67},{"user_id":16,"name":"Alin","steam_id":76561198059679991,"connected_time":3236000000000,"state":"active","ping":88},{"user_id":49,"name":"Haku ( ‚Ä¢·¥ó‚Ä¢)","steam_id":76561198013292193,"connected_time":771000000000,"state":"active","ping":75},{"user_id":18,"name":"Rouxls Kaard","steam_id":76561199439917592,"connected_time":3022000000000,"state":"active","ping":87},{"user_id":37,"name":"Tasque Manager","steam_id":76561198301728644,"connected_time":1657000000000,"state":"active","ping":63},{"user_id":46,"name":"OffMilky","steam_id":76561198831440921,"connected_time":942000000000,"state":"active","ping":25},{"user_id":40,"name":"Fine","steam_id":76561198015551404,"connected_time":1370000000000,"state":"active","ping":73},{"user_id":31,"name":"Sneaky boi","steam_id":76561199195985387,"connected_time":2213000000000,"state":"active","ping":93},{"user_id":23,"name":"Yelowchy","steam_id":76561198199416121,"connected_time":2887000000000,"state":"active","ping":72},{"user_id":51,"name":"Rascalpants08","steam_id":76561199095535317,"connected_time":511000000000,"state":"active","ping":70},{"user_id":25,"name":"Pixie","steam_id":76561198044038797,"connected_time":2849000000000,"state":"active","ping":85},{"user_id":26,"name":"MRLOLENO","steam_id":76561198450911838,"connected_time":2771000000000,"state":"active","ping":76},{"user_id":27,"name":"Cetroz","steam_id":76561199100567476,"connected_time":2579000000000,"state":"active","ping":99},{"user_id":54,"name":"Metheus","steam_id":76561198051847106,"connected_time":383000000000,"state":"active","ping":68},{"user_id":29,"name":"Poleeyan","steam_id":76561198885522435,"connected_time":2427000000000,"state":"active","ping":82},{"user_id":43,"name":"Karp","steam_id":76561199056452365,"connected_time":1181000000000,"state":"active","ping":67},{"user_id":44,"name":"FairlyFatFungus","steam_id":76561199152828854,"connected_time":1120000000000,"state":"active","ping":54},{"user_id":45,"name":"Mr_Spappy","steam_id":76561199106707541,"connected_time":1055000000000,"state":"active","ping":56}]},{"server_id":114,"name":"Uncletopia | London | 2 | All Maps","name_short":"lon-2","host":"lon-1.uk.uncletopia.com","port":27025,"enabled":true,"region":"eu","cc":"gb","latitude":51.509865,"longitude":-0.118092,"reserved":0,"last_update":"0001-01-01T00:00:00Z","name_a2s":"Uncletopia | London | 2 | All Maps","protocol":17,"map":"cp_dustbowl","folder":"tf","game":"Team Fortress","app_id":440,"player_count":0,"max_players":24,"Bots":0,"server_type":"Dedicated","server_os":"Linux","password":true,"vac":true,"version":"7757534","steam_id":85568392924470941,"keywords":["cp","nocrits","nodmgspread","uncletopia"],"game_id":440,"stv_port":27026,"stv_name":"Uncletopia | London | 2 | All Maps | STV","players":null},{"server_id":320,"name":"Uncletopia | London | 3 | All Maps","name_short":"lon-3","host":"lon-1.uk.uncletopia.com","port":27035,"enabled":true,"region":"eu","cc":"gb","latitude":51.509865,"longitude":-0.118092,"reserved":0,"last_update":"0001-01-01T00:00:00Z","name_a2s":"Uncletopia | London | 3 | All Maps","protocol":17,"map":"pl_badwater","folder":"tf","game":"Team Fortress","app_id":440,"player_count":0,"max_players":24,"Bots":0,"server_type":"Dedicated","server_os":"Linux","password":true,"vac":true,"version":"7757534","steam_id":85568392924510192,"keywords":["nocrits","nodmgspread","payload","uncletopia"],"game_id":440,"stv_port":27036,"stv_name":"Uncletopia | London | 3 | All Maps | STV","players":null},{"server_id":321,"name":"Uncletopia | London | 4 | All Maps","name_short":"lon-4","host":"lon-1.uk.uncletopia.com","port":27045,"enabled":true,"region":"eu","cc":"gb","latitude":51.509865,"longitude":-0.118092,"reserved":0,"last_update":"0001-01-01T00:00:00Z","name_a2s":"Uncletopia | London | 4 | All Maps","protocol":17,"map":"koth_viaduct","folder":"tf","game":"Team Fortress","app_id":440,"player_count":0,"max_players":24,"Bots":0,"server_type":"Dedicated","server_os":"Linux","password":true,"vac":true,"version":"7757534","steam_id":85568392924510193,"keywords":["cp","nocrits","nodmgspread","uncletopia"],"game_id":440,"stv_port":27046,"stv_name":"Uncletopia | London | 4 | All Maps | STV","players":null},{"server_id":21,"name":"Uncletopia | London | 5 | All Maps","name_short":"lon-5","host":"lon-1.uk.uncletopia.com","port":27055,"enabled":true,"region":"eu","cc":"gb","latitude":51.509865,"longitude":-0.118092,"reserved":0,"last_update":"0001-01-01T00:00:00Z","name_a2s":"Uncletopia | London | 5 | All Maps","protocol":17,"map":"cp_snakewater_final1","folder":"tf","game":"Team Fortress","app_id":440,"player_count":0,"max_players":24,"Bots":0,"server_type":"Dedicated","server_os":"Linux","password":true,"vac":true,"version":"7757534","steam_id":85568392924742829,"keywords":["cp","nocrits","nodmgspread","uncletopia"],"game_id":440,"stv_port":27056,"stv_name":"Uncletopia | London | 5 | All Maps | STV","players":null},{"server_id":22,"name":"Uncletopia | London | 6 | All Maps","name_short":"lon-6","host":"lon-1.uk.uncletopia.com","port":27065,"enabled":true,"region":"eu","cc":"gb","latitude":51.509865,"longitude":-0.118092,"reserved":0,"last_update":"0001-01-01T00:00:00Z","name_a2s":"Uncletopia | London | 6 | All Maps","protocol":17,"map":"koth_cascade","folder":"tf","game":"Team Fortress","app_id":440,"player_count":0,"max_players":24,"Bots":0,"server_type":"Dedicated","server_os":"Linux","password":true,"vac":true,"version":"7757534","steam_id":85568392924742830,"keywords":["cp","nocrits","nodmgspread","uncletopia"],"game_id":440,"stv_port":27066,"stv_name":"Uncletopia | London | 6 | All Maps | STV","players":null},{"server_id":40,"name":"Uncletopia | London | 7 | No Payload","name_short":"lon-7","host":"lon-1.uk.uncletopia.com","port":27075,"enabled":true,"region":"eu","cc":"gb","latitude":51.509865,"longitude":-0.118092,"reserved":0,"last_update":"0001-01-01T00:00:00Z","name_a2s":"Uncletopia | London | 7 | No Payload","protocol":17,"map":"cp_process_final","folder":"tf","game":"Team Fortress","app_id":440,"player_count":0,"max_players":24,"Bots":0,"server_type":"Dedicated","server_os":"Linux","password":true,"vac":true,"version":"7757534","steam_id":85568392924964314,"keywords":["cp","nocrits","nodmgspread","uncletopia"],"game_id":440,"stv_port":27076,"stv_name":"Uncletopia | London | 7 | No Payload | STV","players":null},{"server_id":41,"name":"Uncletopia | London | 8 | Community","name_short":"lon-8","host":"lon-1.uk.uncletopia.com","port":27085,"enabled":true,"region":"eu","cc":"gb","latitude":51.509865,"longitude":-0.118092,"reserved":0,"last_update":"0001-01-01T00:00:00Z","name_a2s":"Uncletopia | London | 8 | Community","protocol":17,"map":"pl_upward","folder":"tf","game":"Team Fortress","app_id":440,"player_count":0,"max_players":24,"Bots":0,"server_type":"Dedicated","server_os":"Linux","password":true,"vac":true,"version":"7757534","steam_id":85568392924964315,"keywords":["nocrits","nodmgspread","payload","uncletopia"],"game_id":440,"stv_port":27086,"stv_name":"Uncletopia | London | 8 | Community | STV","players":null},{"server_id":300,"name":"Uncletopia | Montr√©al | 1 | All Maps","name_short":"mtl-1","host":"mtl-1.ca.uncletopia.com","port":27015,"enabled":true,"region":"us-east","cc":"ca","latitude":45.50889,"longitude":-73.56167,"reserved":0,"last_update":"0001-01-01T00:00:00Z","name_a2s":"Uncletopia | Montr√©al | 1 | All Maps","protocol":17,"map":"pl_snowycoast","folder":"tf","game":"Team Fortress","app_id":440,"player_count":0,"max_players":24,"Bots":0,"server_type":"Dedicated","server_os":"Linux","password":true,"vac":true,"version":"7757534","steam_id":85568392924500087,"keywords":["nocrits","nodmgspread","payload","uncletopia"],"game_id":440,"stv_port":27016,"stv_name":"Uncletopia | Montr√©al | 1 | All Maps | STV","players":null},{"server_id":301,"name":"Uncletopia | Montr√©al | 2 | All Maps","name_short":"mtl-2","host":"mtl-1.ca.uncletopia.com","port":27025,"enabled":true,"region":"us-east","cc":"ca","latitude":45.50889,"longitude":-73.56167,"reserved":0,"last_update":"0001-01-01T00:00:00Z","name_a2s":"Uncletopia | Montr√©al | 2 | All Maps","protocol":17,"map":"cp_dustbowl","folder":"tf","game":"Team Fortress","app_id":440,"player_count":0,"max_players":24,"Bots":0,"server_type":"Dedicated","server_os":"Linux","password":true,"vac":true,"version":"7757534","steam_id":85568392924500088,"keywords":["cp","nocrits","nodmgspread","uncletopia"],"game_id":440,"stv_port":27026,"stv_name":"Uncletopia | Montr√©al | 2 | All Maps | STV","players":null},{"server_id":302,"name":"Uncletopia | Montr√©al | 3 | All Maps","name_short":"mtl-3","host":"mtl-1.ca.uncletopia.com","port":27035,"enabled":true,"region":"us-east","cc":"ca","latitude":45.50889,"longitude":-73.56167,"reserved":0,"last_update":"0001-01-01T00:00:00Z","name_a2s":"Uncletopia | Montr√©al | 3 | All Maps","protocol":17,"map":"koth_cascade","folder":"tf","game":"Team Fortress","app_id":440,"player_count":0,"max_players":24,"Bots":0,"server_type":"Dedicated","server_os":"Linux","password":true,"vac":true,"version":"7757534","steam_id":85568392924500089,"keywords":["cp","nocrits","nodmgspread","uncletopia"],"game_id":440,"stv_port":27036,"stv_name":"Uncletopia | Montr√©al | 3 | All Maps | STV","players":null},{"server_id":303,"name":"Uncletopia | Montr√©al | 4 | No Payload","name_short":"mtl-4","host":"mtl-1.ca.uncletopia.com","port":27045,"enabled":true,"region":"us-east","cc":"ca","latitude":45.50889,"longitude":-73.56167,"reserved":0,"last_update":"0001-01-01T00:00:00Z","name_a2s":"Uncletopia | Montr√©al | 4 | No Payload","protocol":17,"map":"cp_standin_final","folder":"tf","game":"Team Fortress","app_id":440,"player_count":0,"max_players":24,"Bots":0,"server_type":"Dedicated","server_os":"Linux","password":true,"vac":true,"version":"7757534","steam_id":85568392924500090,"keywords":["cp","nocrits","nodmgspread","uncletopia"],"game_id":440,"stv_port":27046,"stv_name":"Uncletopia | Montr√©al | 4 | No Payload | STV","players":null},{"server_id":13,"name":"Uncletopia | New York City | 1 | All Maps","name_short":"nyc-1","host":"nyc-1.us.uncletopia.com","port":27015,"enabled":true,"region":"us-east","cc":"us","latitude":40.73061,"longitude":-73.93524,"reserved":0,"last_update":"0001-01-01T00:00:00Z","name_a2s":"Uncletopia | New York City | 1 | All Maps","protocol":17,"map":"pl_upward","folder":"tf","game":"Team Fortress","app_id":440,"player_count":0,"max_players":24,"Bots":0,"server_type":"Dedicated","server_os":"Linux","password":true,"vac":true,"version":"7757534","steam_id":85568392924469993,"keywords":["nocrits","nodmgspread","payload","uncletopia"],"game_id":440,"stv_port":27016,"stv_name":"Uncletopia | New York City | 1 | All Maps | STV","players":null},{"server_id":14,"name":"Uncletopia | New York City | 2 | All Maps","name_short":"nyc-2","host":"nyc-1.us.uncletopia.com","port":27025,"enabled":true,"region":"us-east","cc":"us","latitude":40.73061,"longitude":-73.93524,"reserved":0,"last_update":"0001-01-01T00:00:00Z","name_a2s":"Uncletopia | New York City | 2 | All Maps","protocol":17,"map":"pl_upward","folder":"tf","game":"Team Fortress","app_id":440,"player_count":24,"max_players":24,"Bots":0,"server_type":"Dedicated","server_os":"Linux","password":true,"vac":true,"version":"7757534","steam_id":85568392924469994,"keywords":["nocrits","nodmgspread","payload","uncletopia"],"game_id":440,"stv_port":27026,"stv_name":"Uncletopia | New York City | 2 | All Maps | STV","players":[{"user_id":871,"name":"Big Cock Brock","steam_id":76561198093244204,"connected_time":396000000000,"state":"active","ping":65},{"user_id":856,"name":"morphtext","steam_id":76561199021314980,"connected_time":1602000000000,"state":"active","ping":84},{"user_id":872,"name":"JYNACCI","steam_id":76561198100942212,"connected_time":389000000000,"state":"active","ping":76},{"user_id":875,"name":"Rise for the National Spamton","steam_id":76561198138468982,"connected_time":358000000000,"state":"active","ping":118},{"user_id":866,"name":"Octovaitor","steam_id":76561198004658451,"connected_time":913000000000,"state":"active","ping":42},{"user_id":874,"name":"lamadre07","steam_id":76561198067337453,"connected_time":365000000000,"state":"active","ping":117},{"user_id":849,"name":"noelle","steam_id":76561198842577534,"connected_time":2504000000000,"state":"active","ping":125},{"user_id":877,"name":"Buswolley","steam_id":76561197995205571,"connected_time":234000000000,"state":"active","ping":116},{"user_id":878,"name":"kite man","steam_id":76561198156336213,"connected_time":218000000000,"state":"active","ping":105},{"user_id":876,"name":"godisamazing!","steam_id":76561198102681457,"connected_time":352000000000,"state":"active","ping":75},{"user_id":857,"name":"Kraft Punk Gaming","steam_id":76561198159579919,"connected_time":1402000000000,"state":"active","ping":36},{"user_id":800,"name":"dicksouls26","steam_id":76561198838196266,"connected_time":7177000000000,"state":"active","ping":69},{"user_id":838,"name":"flora","steam_id":76561197994492154,"connected_time":3565000000000,"state":"active","ping":148},{"user_id":863,"name":"cumrat","steam_id":76561198087495470,"connected_time":996000000000,"state":"active","ping":117},{"user_id":861,"name":"NewerCoke","steam_id":76561198042911847,"connected_time":1198000000000,"state":"active","ping":70},{"user_id":864,"name":"BoogBrandy","steam_id":76561198987023037,"connected_time":983000000000,"state":"active","ping":102},{"user_id":881,"name":"aishiteru","steam_id":76561198126358045,"connected_time":159000000000,"state":"active","ping":60},{"user_id":870,"name":"Âåó (Hoku)","steam_id":76561198156541138,"connected_time":553000000000,"state":"active","ping":40},{"user_id":879,"name":"fire","steam_id":76561198127149121,"connected_time":218000000000,"state":"active","ping":61},{"user_id":880,"name":"i work in a chinese restaurant","steam_id":76561198027033926,"connected_time":201000000000,"state":"active","ping":126},{"user_id":829,"name":"Rusty","steam_id":76561198055585129,"connected_time":4028000000000,"state":"active","ping":120},{"user_id":882,"name":"Hear \"For You\"","steam_id":76561199213988023,"connected_time":157000000000,"state":"active","ping":105},{"user_id":883,"name":"Midnight Flame","steam_id":76561198279692754,"connected_time":149000000000,"state":"active","ping":79},{"user_id":826,"name":"www.lesbian.com","steam_id":76561198029274581,"connected_time":4817000000000,"state":"active","ping":72}]},{"server_id":15,"name":"Uncletopia | New York City | 3 | Stopwatch Beta","name_short":"nyc-3","host":"nyc-1.us.uncletopia.com","port":27035,"enabled":true,"region":"us-east","cc":"us","latitude":40.73061,"longitude":-73.93524,"reserved":0,"last_update":"0001-01-01T00:00:00Z","name_a2s":"Uncletopia | New York City | 3 | Stopwatch Beta","protocol":17,"map":"pl_swiftwater_final1","folder":"tf","game":"Team Fortress","app_id":440,"player_count":0,"max_players":24,"Bots":0,"server_type":"Dedicated","server_os":"Linux","password":true,"vac":true,"version":"7757534","steam_id":85568392924742820,"keywords":["nocrits","nodmgspread","payload","uncletopia"],"game_id":440,"stv_port":27036,"stv_name":"Uncletopia | New York City | 3 | Stopwatch Beta | STV","players":null},{"server_id":16,"name":"Uncletopia | New York City | 4 | Community","name_short":"nyc-4","host":"nyc-1.us.uncletopia.com","port":27045,"enabled":true,"region":"us-east","cc":"us","latitude":40.73061,"longitude":-73.93524,"reserved":0,"last_update":"0001-01-01T00:00:00Z","name_a2s":"Uncletopia | New York City | 4 | Community","protocol":17,"map":"workshop/koth_synthetic_rc6a.ugc1549817316","folder":"tf","game":"Team Fortress","app_id":440,"player_count":0,"max_players":24,"Bots":0,"server_type":"Dedicated","server_os":"Linux","password":true,"vac":true,"version":"7757534","steam_id":85568392924742821,"keywords":["cp","nocrits","nodmgspread","uncletopia"],"game_id":440,"stv_port":27046,"stv_name":"Uncletopia | New York City | 4 | Community | STV","players":null},{"server_id":142,"name":"Uncletopia | S√£o Paulo | 1 | All Maps","name_short":"sao-1","host":"sao-1.br.uncletopia.com","port":27015,"enabled":true,"region":"sa","cc":"br","latitude":-23.533773,"longitude":-46.62529,"reserved":0,"last_update":"0001-01-01T00:00:00Z","name_a2s":"Uncletopia | S√£o Paulo | 1 | All Maps","protocol":17,"map":"koth_viaduct","folder":"tf","game":"Team Fortress","app_id":440,"player_count":0,"max_players":24,"Bots":0,"server_type":"Dedicated","server_os":"Linux","password":true,"vac":true,"version":"7757534","steam_id":85568392924469996,"keywords":["cp","nocrits","nodmgspread","uncletopia"],"game_id":440,"stv_port":27016,"stv_name":"Uncletopia | S√£o Paulo | 1 | All Maps | STV","players":null},{"server_id":143,"name":"Uncletopia | S√£o Paulo | 2 | All Maps","name_short":"sao-2","host":"sao-2.br.uncletopia.com","port":27015,"enabled":true,"region":"sa","cc":"br","latitude":-23.533773,"longitude":-46.62529,"reserved":0,"last_update":"0001-01-01T00:00:00Z","name_a2s":"Uncletopia | S√£o Paulo | 2 | All Maps","protocol":17,"map":"koth_lakeside_final","folder":"tf","game":"Team Fortress","app_id":440,"player_count":0,"max_players":24,"Bots":0,"server_type":"Dedicated","server_os":"Linux","password":true,"vac":true,"version":"7757534","steam_id":85568392924485349,"keywords":["cp","nocrits","nodmgspread","uncletopia"],"game_id":440,"stv_port":27016,"stv_name":"Uncletopia | S√£o Paulo | 2 | All Maps | STV","players":null},{"server_id":7,"name":"Uncletopia | Seattle | 1 | All Maps","name_short":"sea-1","host":"sea-1.us.uncletopia.com","port":27015,"enabled":true,"region":"us-west","cc":"us","latitude":47.608013,"longitude":-122.33517,"reserved":0,"last_update":"0001-01-01T00:00:00Z","name_a2s":"Uncletopia | Seattle | 1 | All Maps","protocol":17,"map":"pl_pier","folder":"tf","game":"Team Fortress","app_id":440,"player_count":24,"max_players":24,"Bots":0,"server_type":"Dedicated","server_os":"Linux","password":true,"vac":true,"version":"7757534","steam_id":85568392924469997,"keywords":["nocrits","nodmgspread","payload","uncletopia"],"game_id":440,"stv_port":27016,"stv_name":"Uncletopia | Seattle | 1 | All Maps | STV","players":[{"user_id":636,"name":"rat gets the cheese","steam_id":76561198031234032,"connected_time":14654000000000,"state":"active","ping":100},{"user_id":795,"name":"TheRatMan","steam_id":76561198035094735,"connected_time":3695000000000,"state":"active","ping":59},{"user_id":800,"name":"thunderous prophet","steam_id":76561198131166135,"connected_time":3523000000000,"state":"active","ping":40},{"user_id":720,"name":"Arsonist Goose","steam_id":76561198147441830,"connected_time":6497000000000,"state":"active","ping":74},{"user_id":699,"name":"discord kitten","steam_id":76561198210322871,"connected_time":9005000000000,"state":"active","ping":72},{"user_id":648,"name":"Level 99 Mudcrab","steam_id":76561198077452771,"connected_time":13975000000000,"state":"active","ping":59},{"user_id":671,"name":"Haydob13","steam_id":76561198110378191,"connected_time":12454000000000,"state":"active","ping":51},{"user_id":793,"name":"p9 squash","steam_id":76561198150281353,"connected_time":4061000000000,"state":"active","ping":57},{"user_id":724,"name":"Dentivent","steam_id":76561197971953043,"connected_time":6277000000000,"state":"active","ping":94},{"user_id":820,"name":"the average dreamlander","steam_id":76561198325306660,"connected_time":602000000000,"state":"active","ping":53},{"user_id":804,"name":"Harold","steam_id":76561198057317770,"connected_time":2666000000000,"state":"active","ping":60},{"user_id":816,"name":"Schaephyr","steam_id":76561199153886364,"connected_time":1773000000000,"state":"active","ping":64},{"user_id":792,"name":"loppy","steam_id":76561198081870327,"connected_time":4209000000000,"state":"active","ping":87},{"user_id":802,"name":"gorlab","steam_id":76561198025089694,"connected_time":2777000000000,"state":"active","ping":61},{"user_id":810,"name":"ChibiFerrari","steam_id":76561198825330201,"connected_time":2191000000000,"state":"active","ping":75},{"user_id":798,"name":"goldhed","steam_id":76561198051751133,"connected_time":3586000000000,"state":"active","ping":51},{"user_id":812,"name":"Sniff","steam_id":76561198010270922,"connected_time":2099000000000,"state":"active","ping":46},{"user_id":790,"name":"‚ô• President Shitfart ‚ô•","steam_id":76561198141819053,"connected_time":4239000000000,"state":"active","ping":63},{"user_id":799,"name":"Malmart_Employee","steam_id":76561198320388704,"connected_time":3568000000000,"state":"active","ping":71},{"user_id":813,"name":"Octopus","steam_id":76561198114639980,"connected_time":1978000000000,"state":"active","ping":91},{"user_id":819,"name":"Ayayahuasca","steam_id":76561199002906056,"connected_time":866000000000,"state":"active","ping":51},{"user_id":814,"name":"the them","steam_id":76561198082922382,"connected_time":1903000000000,"state":"active","ping":82},{"user_id":808,"name":"weegeebad","steam_id":76561198280841437,"connected_time":2648000000000,"state":"active","ping":123},{"user_id":817,"name":"p9 jorts","steam_id":76561199041179985,"connected_time":1757000000000,"state":"active","ping":72}]},{"server_id":119,"name":"Uncletopia | Seattle | 2 | All Maps","name_short":"sea-2","host":"sea-1.us.uncletopia.com","port":27025,"enabled":true,"region":"us-west","cc":"us","latitude":47.608013,"longitude":-122.33517,"reserved":0,"last_update":"0001-01-01T00:00:00Z","name_a2s":"Uncletopia | Seattle | 2 | All Maps","protocol":17,"map":"cp_steel","folder":"tf","game":"Team Fortress","app_id":440,"player_count":21,"max_players":24,"Bots":0,"server_type":"Dedicated","server_os":"Linux","password":true,"vac":true,"version":"7757534","steam_id":85568392924469998,"keywords":["cp","nocrits","nodmgspread","uncletopia"],"game_id":440,"stv_port":27026,"stv_name":"Uncletopia | Seattle | 2 | All Maps | STV","players":[{"user_id":586,"name":"Jazz Hands","steam_id":76561199225708271,"connected_time":679000000000,"state":"active","ping":72},{"user_id":588,"name":"cracky","steam_id":76561197971365444,"connected_time":631000000000,"state":"active","ping":51},{"user_id":557,"name":"American Dad Funny Moments #32","steam_id":76561198254874328,"connected_time":2523000000000,"state":"active","ping":100},{"user_id":560,"name":"pookus","steam_id":76561198114239912,"connected_time":2471000000000,"state":"active","ping":47},{"user_id":568,"name":"Gary, 40, soul sucking 9-5","steam_id":76561198073812888,"connected_time":1711000000000,"state":"active","ping":31},{"user_id":564,"name":"StrangeMachine","steam_id":76561198046628064,"connected_time":2147000000000,"state":"active","ping":47},{"user_id":596,"name":"Pubk","steam_id":76561198095939571,"connected_time":24000000000,"state":"active","ping":34},{"user_id":569,"name":"SomeRandomMail","steam_id":76561199002913110,"connected_time":1657000000000,"state":"active","ping":61},{"user_id":566,"name":"crum diddly yum um","steam_id":76561198314221897,"connected_time":1892000000000,"state":"active","ping":45},{"user_id":547,"name":"Zekiozeso","steam_id":76561198162816824,"connected_time":3603000000000,"state":"active","ping":73},{"user_id":595,"name":"Sweets","steam_id":76561198998446307,"connected_time":41000000000,"state":"spawning","ping":2104},{"user_id":572,"name":"-BRH- Tangled up in Bluegrass","steam_id":76561197987181139,"connected_time":1470000000000,"state":"active","ping":100},{"user_id":551,"name":"COOL master_9","steam_id":76561198073041151,"connected_time":3106000000000,"state":"active","ping":172},{"user_id":591,"name":"seats","steam_id":76561197998756039,"connected_time":489000000000,"state":"active","ping":75},{"user_id":578,"name":"0xFUL","steam_id":76561198081684676,"connected_time":1140000000000,"state":"active","ping":66},{"user_id":565,"name":"Baby Llama","steam_id":76561198407155682,"connected_time":2056000000000,"state":"active","ping":89},{"user_id":543,"name":"SvicidalBug","steam_id":76561198221390504,"connected_time":4398000000000,"state":"active","ping":68},{"user_id":594,"name":"Grill Skills","steam_id":76561198053575147,"connected_time":56000000000,"state":"active","ping":64},{"user_id":593,"name":"Akechi","steam_id":76561199058307208,"connected_time":425000000000,"state":"active","ping":90},{"user_id":580,"name":"PerKnuckleChuckle","steam_id":76561198023221596,"connected_time":1067000000000,"state":"active","ping":82},{"user_id":592,"name":"Noatok-","steam_id":76561198409476607,"connected_time":448000000000,"state":"active","ping":45}]},{"server_id":406,"name":"Uncletopia | Seattle | 3 | Stopwatch Beta","name_short":"sea-3","host":"sea-1.us.uncletopia.com","port":27035,"enabled":true,"region":"us-west","cc":"us","latitude":47.608013,"longitude":-122.33517,"reserved":0,"last_update":"0001-01-01T00:00:00Z","name_a2s":"Uncletopia | Seattle | 3 | Stopwatch Beta","protocol":17,"map":"workshop/cp_process_f11.ugc2302948105","folder":"tf","game":"Team Fortress","app_id":440,"player_count":2,"max_players":24,"Bots":0,"server_type":"Dedicated","server_os":"Linux","password":true,"vac":true,"version":"7757534","steam_id":85568392924515217,"keywords":["cp","nocrits","nodmgspread","uncletopia"],"game_id":440,"stv_port":27036,"stv_name":"Uncletopia | Seattle | 3 | Stopwatch Beta | STV","players":[{"user_id":60,"name":"January","steam_id":76561199100225735,"connected_time":56000000000,"state":"active","ping":44},{"user_id":55,"name":"Donnie","steam_id":76561198066986108,"connected_time":1448000000000,"state":"active","ping":40}]},{"server_id":17,"name":"Uncletopia | San Francisco | 1 | All Maps","name_short":"sfo-1","host":"sfo-1.us.uncletopia.com","port":27015,"enabled":true,"region":"us-west","cc":"us","latitude":37.77397,"longitude":-122.4313,"reserved":0,"last_update":"0001-01-01T00:00:00Z","name_a2s":"Uncletopia | San Francisco | 1 | All Maps","protocol":17,"map":"pl_frontier_final","folder":"tf","game":"Team Fortress","app_id":440,"player_count":24,"max_players":24,"Bots":0,"server_type":"Dedicated","server_os":"Linux","password":true,"vac":true,"version":"7757534","steam_id":85568392924469999,"keywords":["nocrits","nodmgspread","payload","uncletopia"],"game_id":440,"stv_port":27016,"stv_name":"Uncletopia | San Francisco | 1 | All Maps | STV","players":[{"user_id":791,"name":"PonYOOOOOOO","steam_id":76561199067424111,"connected_time":142000000000,"state":"active","ping":62},{"user_id":768,"name":"Flyingcat9000","steam_id":76561198179561797,"connected_time":1837000000000,"state":"active","ping":32},{"user_id":737,"name":"MORE BOUNCE TO THE OUNCE","steam_id":76561198243399336,"connected_time":4024000000000,"state":"active","ping":70},{"user_id":779,"name":"Hallo","steam_id":76561198414353668,"connected_time":1024000000000,"state":"active","ping":54},{"user_id":761,"name":"TheRealChizz","steam_id":76561198016055769,"connected_time":2451000000000,"state":"active","ping":57},{"user_id":795,"name":"huh","steam_id":76561198272057200,"connected_time":30000000000,"state":"active","ping":47},{"user_id":776,"name":"Sinn","steam_id":76561199013434543,"connected_time":1105000000000,"state":"active","ping":69},{"user_id":786,"name":"jelderjr","steam_id":76561198208862897,"connected_time":863000000000,"state":"active","ping":55},{"user_id":774,"name":"tobrehto","steam_id":76561198097544038,"connected_time":1156000000000,"state":"active","ping":70},{"user_id":780,"name":"DoggowithaSword","steam_id":76561199206794383,"connected_time":908000000000,"state":"active","ping":78},{"user_id":769,"name":"Aspa","steam_id":76561199048815630,"connected_time":1811000000000,"state":"active","ping":98},{"user_id":766,"name":"Varrick","steam_id":76561198018461983,"connected_time":2147000000000,"state":"active","ping":98},{"user_id":785,"name":"tinajd187","steam_id":76561198253574136,"connected_time":881000000000,"state":"active","ping":75},{"user_id":794,"name":"Auburn","steam_id":76561198199541493,"connected_time":67000000000,"state":"active","ping":60},{"user_id":781,"name":"Zero The Sholf","steam_id":76561198075385665,"connected_time":907000000000,"state":"active","ping":82},{"user_id":782,"name":"ragnarok","steam_id":76561198273579889,"connected_time":897000000000,"state":"active","ping":68},{"user_id":783,"name":"‚ô•Yesterday‚ô•","steam_id":76561198348199088,"connected_time":889000000000,"state":"active","ping":74},{"user_id":784,"name":"Markz","steam_id":76561197996278159,"connected_time":887000000000,"state":"active","ping":73},{"user_id":796,"name":"riSygneD","steam_id":76561198331618687,"connected_time":23000000000,"state":"active","ping":47},{"user_id":787,"name":"dzcreeper","steam_id":76561198072250723,"connected_time":833000000000,"state":"active","ping":75},{"user_id":788,"name":"Muffinbat","steam_id":76561198072041032,"connected_time":821000000000,"state":"active","ping":83},{"user_id":793,"name":"Uluyo","steam_id":76561198065857148,"connected_time":80000000000,"state":"active","ping":106},{"user_id":790,"name":"HE‚ÄôS IN THE GODDAMN WALLS","steam_id":76561198363267009,"connected_time":778000000000,"state":"active","ping":80},{"user_id":753,"name":"Battery_Included","steam_id":76561198067164431,"connected_time":3218000000000,"state":"active","ping":51}]},{"server_id":18,"name":"Uncletopia | San Francisco | 2 | All Maps","name_short":"sfo-2","host":"sfo-1.us.uncletopia.com","port":27025,"enabled":true,"region":"us-west","cc":"us","latitude":37.77397,"longitude":-122.4313,"reserved":0,"last_update":"0001-01-01T00:00:00Z","name_a2s":"Uncletopia | San Francisco | 2 | All Maps","protocol":17,"map":"cp_dustbowl","folder":"tf","game":"Team Fortress","app_id":440,"player_count":11,"max_players":24,"Bots":0,"server_type":"Dedicated","server_os":"Linux","password":true,"vac":true,"version":"7757534","steam_id":85568392924470000,"keywords":["cp","nocrits","nodmgspread","uncletopia"],"game_id":440,"stv_port":27026,"stv_name":"Uncletopia | San Francisco | 2 | All Maps | STV","players":[{"user_id":264,"name":"DoorhingeMan","steam_id":76561198872501684,"connected_time":1384000000000,"state":"active","ping":58},{"user_id":278,"name":"a chicken","steam_id":76561198313121580,"connected_time":922000000000,"state":"active","ping":53},{"user_id":282,"name":"Alego","steam_id":76561198084158384,"connected_time":215000000000,"state":"active","ping":52},{"user_id":232,"name":"nicolas the mercenary","steam_id":76561199077641644,"connected_time":5011000000000,"state":"active","ping":114},{"user_id":272,"name":"Hindmost","steam_id":76561199081837220,"connected_time":1238000000000,"state":"active","ping":128},{"user_id":283,"name":"‚ô° Chimmy ‚ô°","steam_id":76561198277602723,"connected_time":112000000000,"state":"active","ping":56},{"user_id":258,"name":"berserker_tf2 ttv","steam_id":76561198303464488,"connected_time":2368000000000,"state":"active","ping":93},{"user_id":279,"name":"poseidon","steam_id":76561199085441984,"connected_time":789000000000,"state":"active","ping":101},{"user_id":271,"name":"Antzen","steam_id":76561198041343470,"connected_time":1243000000000,"state":"active","ping":45},{"user_id":281,"name":"ameanpickle","steam_id":76561198113057149,"connected_time":221000000000,"state":"active","ping":53},{"user_id":275,"name":"syrt","steam_id":76561197998564789,"connected_time":1165000000000,"state":"active","ping":50}]},{"server_id":19,"name":"Uncletopia | San Francisco | 3 | Stopwatch Beta","name_short":"sfo-3","host":"sfo-1.us.uncletopia.com","port":27035,"enabled":true,"region":"us-west","cc":"us","latitude":37.77397,"longitude":-122.4313,"reserved":0,"last_update":"0001-01-01T00:00:00Z","name_a2s":"Uncletopia | San Francisco | 3 | Stopwatch Beta","protocol":17,"map":"pl_borneo","folder":"tf","game":"Team Fortress","app_id":440,"player_count":0,"max_players":24,"Bots":0,"server_type":"Dedicated","server_os":"Linux","password":true,"vac":true,"version":"7757534","steam_id":85568392924742824,"keywords":["nocrits","nodmgspread","payload","uncletopia"],"game_id":440,"stv_port":27036,"stv_name":"Uncletopia | San Francisco | 3 | Stopwatch Beta | STV","players":null},{"server_id":20,"name":"Uncletopia | San Francisco | 4 | Community","name_short":"sfo-4","host":"sfo-1.us.uncletopia.com","port":27045,"enabled":true,"region":"us-west","cc":"us","latitude":37.77397,"longitude":-122.4313,"reserved":0,"last_update":"0001-01-01T00:00:00Z","name_a2s":"Uncletopia | San Francisco | 4 | Community","protocol":17,"map":"workshop/pl_divulgence_b4b.ugc2884808746","folder":"tf","game":"Team Fortress","app_id":440,"player_count":0,"max_players":24,"Bots":0,"server_type":"Dedicated","server_os":"Linux","password":true,"vac":true,"version":"7757534","steam_id":85568392924742826,"keywords":["nocrits","nodmgspread","payload","uncletopia"],"game_id":440,"stv_port":27046,"stv_name":"Uncletopia | San Francisco | 4 | Community | STV","players":null},{"server_id":141,"name":"Uncletopia | Sydney | 1 | All Maps","name_short":"syd-1","host":"syd-1.au.uncletopia.com","port":27015,"enabled":true,"region":"au","cc":"au","latitude":-33.865143,"longitude":151.2099,"reserved":0,"last_update":"0001-01-01T00:00:00Z","name_a2s":"Uncletopia | Sydney | 1 | All Maps","protocol":17,"map":"pl_upward","folder":"tf","game":"Team Fortress","app_id":440,"player_count":24,"max_players":24,"Bots":0,"server_type":"Dedicated","server_os":"Linux","password":true,"vac":true,"version":"7757534","steam_id":85568392924470001,"keywords":["nocrits","nodmgspread","payload","uncletopia"],"game_id":440,"stv_port":27016,"stv_name":"Uncletopia | Sydney | 1 | All Maps | STV","players":[{"user_id":377,"name":"shaggy","steam_id":76561198124366634,"connected_time":431000000000,"state":"active","ping":57},{"user_id":361,"name":"Squishy","steam_id":76561198985769205,"connected_time":1007000000000,"state":"active","ping":57},{"user_id":378,"name":"Raven","steam_id":76561198428025966,"connected_time":399000000000,"state":"active","ping":67},{"user_id":339,"name":"orange is fucking trash","steam_id":76561198207940839,"connected_time":2076000000000,"state":"active","ping":59},{"user_id":360,"name":"Balsamic Vinegar","steam_id":76561198260148888,"connected_time":1034000000000,"state":"active","ping":68},{"user_id":356,"name":"Colours","steam_id":76561198179873275,"connected_time":1333000000000,"state":"active","ping":58},{"user_id":370,"name":"Princess Blair","steam_id":76561198163440773,"connected_time":824000000000,"state":"active","ping":45},{"user_id":326,"name":"Evelyn ‚ô•","steam_id":76561199054620764,"connected_time":2885000000000,"state":"active","ping":56},{"user_id":338,"name":"soupy","steam_id":76561198073734936,"connected_time":2142000000000,"state":"active","ping":86},{"user_id":380,"name":"Zeron","steam_id":76561198125778202,"connected_time":11000000000,"state":"active","ping":147},{"user_id":321,"name":"normans on sabbatical honey","steam_id":76561198082423230,"connected_time":3146000000000,"state":"active","ping":74},{"user_id":369,"name":"LuponF8","steam_id":76561198843211865,"connected_time":829000000000,"state":"active","ping":46},{"user_id":337,"name":"anger324","steam_id":76561198074317875,"connected_time":2162000000000,"state":"active","ping":45},{"user_id":327,"name":"uso","steam_id":76561198028756598,"connected_time":2736000000000,"state":"active","ping":96},{"user_id":376,"name":"Sy 4","steam_id":76561198879862702,"connected_time":718000000000,"state":"active","ping":69},{"user_id":379,"name":"gluglug","steam_id":76561198074931564,"connected_time":289000000000,"state":"active","ping":39},{"user_id":350,"name":"Chooka","steam_id":76561197992307814,"connected_time":1787000000000,"state":"active","ping":64},{"user_id":345,"name":"perturb","steam_id":76561198085124297,"connected_time":1942000000000,"state":"active","ping":58},{"user_id":351,"name":"Lloydy","steam_id":76561198142971098,"connected_time":1777000000000,"state":"active","ping":76},{"user_id":357,"name":"floop flub","steam_id":76561198418968979,"connected_time":1211000000000,"state":"active","ping":104},{"user_id":320,"name":"Corgo","steam_id":76561198162174985,"connected_time":3228000000000,"state":"active","ping":56},{"user_id":336,"name":"Erl","steam_id":76561198041082043,"connected_time":2180000000000,"state":"active","ping":105},{"user_id":368,"name":"JohnnoDwarf","steam_id":76561199069897590,"connected_time":876000000000,"state":"active","ping":104},{"user_id":375,"name":"...","steam_id":76561198309750355,"connected_time":789000000000,"state":"active","ping":49}]},{"server_id":123,"name":"Uncletopia | Sydney | 2 | All Maps","name_short":"syd-2","host":"syd-1.au.uncletopia.com","port":27025,"enabled":true,"region":"au","cc":"au","latitude":-33.865143,"longitude":151.2099,"reserved":0,"last_update":"0001-01-01T00:00:00Z","name_a2s":"Uncletopia | Sydney | 2 | All Maps","protocol":17,"map":"pl_barnblitz","folder":"tf","game":"Team Fortress","app_id":440,"player_count":24,"max_players":24,"Bots":0,"server_type":"Dedicated","server_os":"Linux","password":true,"vac":true,"version":"7757534","steam_id":85568392924470002,"keywords":["nocrits","nodmgspread","payload","uncletopia"],"game_id":440,"stv_port":27026,"stv_name":"Uncletopia | Sydney | 2 | All Maps | STV","players":[{"user_id":282,"name":"sausage slinger","steam_id":76561198442260055,"connected_time":2504000000000,"state":"active","ping":68},{"user_id":303,"name":"Mase","steam_id":76561198797093795,"connected_time":972000000000,"state":"active","ping":45},{"user_id":307,"name":"BlueAtla404","steam_id":76561199119529048,"connected_time":937000000000,"state":"active","ping":69},{"user_id":302,"name":"fovai","steam_id":76561198223471072,"connected_time":977000000000,"state":"active","ping":61},{"user_id":306,"name":"Panzerbjorn","steam_id":76561198300694862,"connected_time":952000000000,"state":"active","ping":79},{"user_id":309,"name":"dinxie","steam_id":76561199448765541,"connected_time":781000000000,"state":"active","ping":70},{"user_id":286,"name":"no teles 4 u","steam_id":76561198018478297,"connected_time":2142000000000,"state":"active","ping":70},{"user_id":259,"name":"Muffin","steam_id":76561198075391119,"connected_time":3225000000000,"state":"active","ping":52},{"user_id":284,"name":"Jizfellow","steam_id":76561198067993108,"connected_time":2374000000000,"state":"active","ping":43},{"user_id":264,"name":"Milk Boi","steam_id":76561198238708000,"connected_time":3078000000000,"state":"active","ping":88},{"user_id":274,"name":"XtremeN00b1337","steam_id":76561199228990627,"connected_time":2897000000000,"state":"active","ping":67},{"user_id":278,"name":"CareBear","steam_id":76561198152496674,"connected_time":2864000000000,"state":"active","ping":112},{"user_id":249,"name":"Rashid Of The Dank Memes","steam_id":76561198281398078,"connected_time":3611000000000,"state":"active","ping":64},{"user_id":294,"name":"JayTheLlamaKing","steam_id":76561198836354249,"connected_time":1695000000000,"state":"active","ping":68},{"user_id":308,"name":"Almond_Robin","steam_id":76561198823996617,"connected_time":914000000000,"state":"active","ping":72},{"user_id":292,"name":"INeedC0ffee","steam_id":76561199202991118,"connected_time":1846000000000,"state":"active","ping":54},{"user_id":262,"name":"Aden","steam_id":76561198028555097,"connected_time":3173000000000,"state":"active","ping":73},{"user_id":290,"name":"hydatid","steam_id":76561198796773396,"connected_time":1934000000000,"state":"active","ping":57},{"user_id":311,"name":"Dewy the meme","steam_id":76561198320814218,"connected_time":617000000000,"state":"active","ping":60},{"user_id":299,"name":"reeee.vol 2","steam_id":76561198309177510,"connected_time":1044000000000,"state":"active","ping":83},{"user_id":310,"name":"The Tupelo Mississippi Flash","steam_id":76561197994434239,"connected_time":772000000000,"state":"active","ping":56},{"user_id":277,"name":"Jontohil2","steam_id":76561198114091810,"connected_time":2881000000000,"state":"active","ping":105},{"user_id":293,"name":"scout tf2","steam_id":76561198251386932,"connected_time":1768000000000,"state":"active","ping":66},{"user_id":300,"name":"KnowZero","steam_id":76561198095752015,"connected_time":985000000000,"state":"active","ping":62}]},{"server_id":395,"name":"Uncletopia | Sydney | 3 | All Maps","name_short":"syd-3","host":"syd-1.au.uncletopia.com","port":27035,"enabled":true,"region":"au","cc":"au","latitude":-33.865143,"longitude":151.2099,"reserved":0,"last_update":"0001-01-01T00:00:00Z","name_a2s":"Uncletopia | Sydney | 3 | All Maps","protocol":17,"map":"koth_lakeside_final","folder":"tf","game":"Team Fortress","app_id":440,"player_count":8,"max_players":24,"Bots":0,"server_type":"Dedicated","server_os":"Linux","password":true,"vac":true,"version":"7757534","steam_id":85568392925194467,"keywords":["cp","nocrits","nodmgspread","uncletopia"],"game_id":440,"stv_port":27036,"stv_name":"Uncletopia | Sydney | 3 | All Maps | STV","players":[{"user_id":38,"name":"Averg","steam_id":76561199116359172,"connected_time":532000000000,"state":"active","ping":64},{"user_id":30,"name":"AmethystDragon10","steam_id":76561198412979983,"connected_time":929000000000,"state":"active","ping":82},{"user_id":39,"name":"A Spaceman","steam_id":76561198400378180,"connected_time":496000000000,"state":"active","ping":44},{"user_id":31,"name":"Ticklish Demoman","steam_id":76561198955569441,"connected_time":916000000000,"state":"active","ping":53},{"user_id":41,"name":"chalk","steam_id":76561199128944380,"connected_time":237000000000,"state":"active","ping":73},{"user_id":33,"name":"CoolJosh3k | YouTube","steam_id":76561197997407342,"connected_time":875000000000,"state":"active","ping":49},{"user_id":35,"name":"Morgenstern","steam_id":76561198253080474,"connected_time":595000000000,"state":"active","ping":62},{"user_id":36,"name":"dingo","steam_id":76561198315774295,"connected_time":592000000000,"state":"active","ping":51}]},{"server_id":396,"name":"Uncletopia | Sydney | 4 | All Maps","name_short":"syd-4","host":"syd-1.au.uncletopia.com","port":27045,"enabled":true,"region":"au","cc":"au","latitude":-33.865143,"longitude":151.2099,"reserved":0,"last_update":"0001-01-01T00:00:00Z","name_a2s":"Uncletopia | Sydney | 4 | All Maps","protocol":17,"map":"koth_lakeside_final","folder":"tf","game":"Team Fortress","app_id":440,"player_count":0,"max_players":24,"Bots":0,"server_type":"Dedicated","server_os":"Linux","password":true,"vac":true,"version":"7757534","steam_id":85568392925397958,"keywords":["cp","nocrits","nodmgspread","uncletopia"],"game_id":440,"stv_port":27046,"stv_name":"Uncletopia | Sydney | 4 | All Maps | STV","players":null},{"server_id":58,"name":"Uncletopia | Sydney | 5 | Stopwatch Beta","name_short":"syd-5","host":"syd-1.au.uncletopia.com","port":27055,"enabled":true,"region":"au","cc":"au","latitude":-33.865143,"longitude":151.2099,"reserved":0,"last_update":"0001-01-01T00:00:00Z","name_a2s":"Uncletopia | Sydney | 5 | Stopwatch Beta","protocol":17,"map":"koth_highpass","folder":"tf","game":"Team Fortress","app_id":440,"player_count":0,"max_players":24,"Bots":0,"server_type":"Dedicated","server_os":"Linux","password":true,"vac":true,"version":"7757534","steam_id":85568392925397959,"keywords":["cp","nocrits","nodmgspread","uncletopia"],"game_id":440,"stv_port":27056,"stv_name":"Uncletopia | Sydney | 5 | Stopwatch Beta | STV","players":null},{"server_id":59,"name":"Uncletopia | Sydney | 6 | Community","name_short":"syd-6","host":"syd-1.au.uncletopia.com","port":27065,"enabled":true,"region":"au","cc":"au","latitude":-33.865143,"longitude":151.2099,"reserved":0,"last_update":"0001-01-01T00:00:00Z","name_a2s":"Uncletopia | Sydney | 6 | Community","protocol":17,"map":"workshop/cp_bruhstbowl_b5.ugc2878604990","folder":"tf","game":"Team Fortress","app_id":440,"player_count":9,"max_players":24,"Bots":0,"server_type":"Dedicated","server_os":"Linux","password":true,"vac":true,"version":"7757534","steam_id":85568392925397960,"keywords":["cp","nocrits","nodmgspread","uncletopia"],"game_id":440,"stv_port":27066,"stv_name":"Uncletopia | Sydney | 6 | Community | STV","players":[{"user_id":56,"name":"ghost tv","steam_id":76561199407679312,"connected_time":644000000000,"state":"active","ping":324},{"user_id":58,"name":"Kouroboros","steam_id":76561198141283669,"connected_time":521000000000,"state":"active","ping":91},{"user_id":59,"name":"Oysenberry","steam_id":76561198125443335,"connected_time":478000000000,"state":"active","ping":45},{"user_id":23,"name":"banan consumer","steam_id":76561199446773766,"connected_time":3024000000000,"state":"active","ping":86},{"user_id":57,"name":"Jacob","steam_id":76561198059341907,"connected_time":612000000000,"state":"active","ping":39},{"user_id":60,"name":"ThirtyTwelve","steam_id":76561199192513554,"connected_time":403000000000,"state":"active","ping":53},{"user_id":53,"name":"Stimski","steam_id":76561198015332236,"connected_time":812000000000,"state":"active","ping":73},{"user_id":33,"name":"TsvndereFvn53","steam_id":76561197975953955,"connected_time":2152000000000,"state":"active","ping":42},{"user_id":41,"name":"grunt","steam_id":76561198197730302,"connected_time":1363000000000,"state":"active","ping":69}]},{"server_id":49,"name":"Uncletopia | Warsaw | 1 | All Maps","name_short":"waw-1","host":"waw-1.pl.uncletopia.com","port":27015,"enabled":true,"region":"eu","cc":"pl","latitude":52.2297,"longitude":21.017532,"reserved":0,"last_update":"0001-01-01T00:00:00Z","name_a2s":"","protocol":0,"map":"","folder":"","game":"","app_id":0,"player_count":0,"max_players":0,"Bots":0,"server_type":"","server_os":"","password":false,"vac":false,"version":"","steam_id":0,"keywords":null,"game_id":0,"stv_port":0,"stv_name":"","players":null},{"server_id":50,"name":"Uncletopia | Warsaw | 2 | All Maps","name_short":"waw-2","host":"waw-1.pl.uncletopia.com","port":27025,"enabled":true,"region":"eu","cc":"pl","latitude":52.2297,"longitude":21.017532,"reserved":0,"last_update":"0001-01-01T00:00:00Z","name_a2s":"Uncletopia | Warsaw | 2 | All Maps","protocol":17,"map":"cp_process_final","folder":"tf","game":"Team Fortress","app_id":440,"player_count":0,"max_players":24,"Bots":0,"server_type":"Dedicated","server_os":"Linux","password":true,"vac":true,"version":"7757534","steam_id":85568392925397851,"keywords":["cp","nocrits","nodmgspread","uncletopia"],"game_id":440,"stv_port":27026,"stv_name":"Uncletopia | Warsaw | 2 | All Maps | STV","players":null},{"server_id":51,"name":"Uncletopia | Warsaw | 3 | All Maps","name_short":"waw-3","host":"waw-1.pl.uncletopia.com","port":27035,"enabled":true,"region":"eu","cc":"pl","latitude":52.2297,"longitude":21.017532,"reserved":0,"last_update":"0001-01-01T00:00:00Z","name_a2s":"Uncletopia | Warsaw | 3 | All Maps","protocol":17,"map":"pl_barnblitz","folder":"tf","game":"Team Fortress","app_id":440,"player_count":0,"max_players":24,"Bots":0,"server_type":"Dedicated","server_os":"Linux","password":true,"vac":true,"version":"7757534","steam_id":85568392925397852,"keywords":["nocrits","nodmgspread","payload","uncletopia"],"game_id":440,"stv_port":27036,"stv_name":"Uncletopia | Warsaw | 3 | All Maps | STV","players":null},{"server_id":52,"name":"Uncletopia | Warsaw | 4 | All Maps","name_short":"waw-4","host":"waw-1.pl.uncletopia.com","port":27045,"enabled":true,"region":"eu","cc":"pl","latitude":52.2297,"longitude":21.017532,"reserved":0,"last_update":"0001-01-01T00:00:00Z","name_a2s":"Uncletopia | Warsaw | 4 | All Maps","protocol":17,"map":"pl_snowycoast","folder":"tf","game":"Team Fortress","app_id":440,"player_count":0,"max_players":24,"Bots":0,"server_type":"Dedicated","server_os":"Linux","password":true,"vac":true,"version":"7757534","steam_id":85568392925397853,"keywords":["nocrits","nodmgspread","payload","uncletopia"],"game_id":440,"stv_port":27046,"stv_name":"Uncletopia | Warsaw | 4 | All Maps | STV","players":null},{"server_id":53,"name":"Uncletopia | Warsaw | 5 | Stopwatch Beta","name_short":"waw-5","host":"waw-1.pl.uncletopia.com","port":27055,"enabled":true,"region":"eu","cc":"pl","latitude":52.2297,"longitude":21.017532,"reserved":0,"last_update":"0001-01-01T00:00:00Z","name_a2s":"Uncletopia | Warsaw | 5 | Stopwatch Beta","protocol":17,"map":"pl_barnblitz","folder":"tf","game":"Team Fortress","app_id":440,"player_count":0,"max_players":24,"Bots":0,"server_type":"Dedicated","server_os":"Linux","password":true,"vac":true,"version":"7757534","steam_id":85568392925397854,"keywords":["nocrits","nodmgspread","payload","uncletopia"],"game_id":440,"stv_port":27056,"stv_name":"Uncletopia | Warsaw | 5 | Stopwatch Beta | STV","players":null},{"server_id":54,"name":"Uncletopia | Warsaw | 6 | Community","name_short":"waw-6","host":"waw-1.pl.uncletopia.com","port":27065,"enabled":true,"region":"eu","cc":"pl","latitude":52.2297,"longitude":21.017532,"reserved":0,"last_update":"0001-01-01T00:00:00Z","name_a2s":"Uncletopia | Warsaw | 6 | Community","protocol":17,"map":"pl_swiftwater_final1","folder":"tf","game":"Team Fortress","app_id":440,"player_count":0,"max_players":24,"Bots":0,"server_type":"Dedicated","server_os":"Linux","password":true,"vac":true,"version":"7757534","steam_id":85568392925397856,"keywords":["nocrits","nodmgspread","payload","uncletopia"],"game_id":440,"stv_port":27066,"stv_name":"Uncletopia | Warsaw | 6 | Community | STV","players":null}]}