{"status":true,"message":"","result":[{"server_id":9,"name":"Uncletopia | Atlanta | 1 | All Maps","name_short":"atl-1","host":"atl-1.us.uncletopia.com","port":27015,"enabled":true,"region":"us-east","cc":"us","latitude":33.753746,"longitude":-84.38633,"reserved":0,"last_update":"0001-01-01T00:00:00Z","name_a2s":"Uncletopia | Atlanta | 1 | All Maps","protocol":17,"map":"pl_pier","folder":"tf","game":"Team Fortress","app_id":440,"player_count":24,"max_players":24,"Bots":0,"server_type":"Dedicated","server_os":"Linux","password":true,"vac":true,"version":"7723704","steam_id":85568392924469982,"keywords":["nocrits","nodmgspread","payload","uncletopia"],"game_id":440,"stv_port":27016,"stv_name":"Uncletopia | Atlanta | 1 | All Maps | STV","players":[{"user_id":438,"name":"stink claus","steam_id":76561198099318923,"connected_time":8440000000000,"state":"active","ping":87},{"user_id":499,"name":"Smoket","steam_id":76561197990727408,"connected_time":3299000000000,"state":"active","ping":68},{"user_id":517,"name":"terrible ancient weasel","steam_id":76561198067487745,"connected_time":2029000000000,"state":"active","ping":60},{"user_id":532,"name":"Barack Obama Hot Rod","steam_id":76561198034079853,"connected_time":483000000000,"state":"active","ping":63},{"user_id":513,"name":"rose","steam_id":76561198048882285,"connected_time":2365000000000,"state":"active","ping":68},{"user_id":530,"name":"Tue","steam_id":76561198181668501,"connected_time":526000000000,"state":"active","ping":46},{"user_id":467,"name":"cola","steam_id":76561198374390458,"connected_time":6962000000000,"state":"active","ping":69},{"user_id":535,"name":"Jacck916","steam_id":76561198176874157,"connected_time":478000000000,"state":"active","ping":128},{"user_id":534,"name":"tf2s worst player","steam_id":76561199108820058,"connected_time":480000000000,"state":"active","ping":60},{"user_id":529,"name":"SnowStorm","steam_id":76561198095817025,"connected_time":537000000000,"state":"active","ping":44},{"user_id":527,"name":"festivities","steam_id":76561198069407799,"connected_time":1081000000000,"state":"active","ping":46},{"user_id":528,"name":"thomasdee725","steam_id":76561199189526173,"connected_time":1046000000000,"state":"active","ping":71},{"user_id":486,"name":"MOTORTREND TRUCK OF THE YEAR","steam_id":76561198077654131,"connected_time":4434000000000,"state":"active","ping":76},{"user_id":506,"name":"happy man!!! :D!!!!","steam_id":76561198128468316,"connected_time":3180000000000,"state":"active","ping":76},{"user_id":525,"name":"☙ Corrupt ❧","steam_id":76561197977631915,"connected_time":1297000000000,"state":"active","ping":68},{"user_id":501,"name":"joe","steam_id":76561198045781320,"connected_time":3288000000000,"state":"active","ping":65},{"user_id":504,"name":"Garrett","steam_id":76561198008467099,"connected_time":3217000000000,"state":"active","ping":69},{"user_id":516,"name":"Robyn Goodfellowe","steam_id":76561198074719241,"connected_time":2177000000000,"state":"active","ping":63},{"user_id":476,"name":"mommy claus","steam_id":76561199230929836,"connected_time":5907000000000,"state":"active","ping":89},{"user_id":521,"name":"ash","steam_id":76561198127890645,"connected_time":1763000000000,"state":"active","ping":69},{"user_id":536,"name":"Bankai","steam_id":76561198441844420,"connected_time":454000000000,"state":"active","ping":157},{"user_id":515,"name":"ATL0 Dedi Le4n!!!","steam_id":76561198045522596,"connected_time":2298000000000,"state":"active","ping":71},{"user_id":488,"name":"Doober","steam_id":76561198056661095,"connected_time":4219000000000,"state":"active","ping":69},{"user_id":466,"name":"Save your wifi","steam_id":76561198286147372,"connected_time":6993000000000,"state":"active","ping":70}]},{"server_id":400,"name":"Uncletopia | Atlanta | 3 | All Maps","name_short":"atl-3","host":"atl-1.us.uncletopia.com","port":27035,"enabled":true,"region":"us-east","cc":"us","latitude":33.753746,"longitude":-84.38633,"reserved":0,"last_update":"0001-01-01T00:00:00Z","name_a2s":"Uncletopia | Atlanta | 3 | All Maps","protocol":17,"map":"koth_lakeside_final","folder":"tf","game":"Team Fortress","app_id":440,"player_count":6,"max_players":24,"Bots":0,"server_type":"Dedicated","server_os":"Linux","password":true,"vac":true,"version":"7723704","steam_id":85568392924515187,"keywords":["cp","nocrits","nodmgspread","uncletopia"],"game_id":440,"stv_port":27036,"stv_name":"Uncletopia | Atlanta | 3 | All Maps | STV","players":[{"user_id":33,"name":"MCHolden","steam_id":76561199142512034,"connected_time":2588000000000,"state":"active","ping":78},{"user_id":34,"name":"Enzothebenzo","steam_id":76561199011041281,"connected_time":2577000000000,"state":"active","ping":81},{"user_id":35,"name":"Aerguera","steam_id":76561198117613222,"connected_time":2019000000000,"state":"active","ping":67},{"user_id":36,"name":"Bucket of Spaghetti","steam_id":76561198126680822,"connected_time":2009000000000,"state":"active","ping":63},{"user_id":39,"name":"Clearesttree637","steam_id":76561199088954356,"connected_time":126000000000,"state":"active","ping":72},{"user_id":40,"name":"BaconWalker","steam_id":76561199259295503,"connected_time":119000000000,"state":"active","ping":61}]},{"server_id":401,"name":"Uncletopia | Atlanta | 4 | No Payload","name_short":"atl-4","host":"atl-1.us.uncletopia.com","port":27045,"enabled":true,"region":"us-east","cc":"us","latitude":33.753746,"longitude":-84.38633,"reserved":0,"last_update":"0001-01-01T00:00:00Z","name_a2s":"Uncletopia | Atlanta | 4 | No Payload","protocol":17,"map":"koth_sawmill","folder":"tf","game":"Team Fortress","app_id":440,"player_count":24,"max_players":24,"Bots":0,"server_type":"Dedicated","server_os":"Linux","password":true,"vac":true,"version":"7723704","steam_id":85568392924515188,"keywords":["cp","nocrits","nodmgspread","uncletopia"],"game_id":440,"stv_port":27046,"stv_name":"Uncletopia | Atlanta | 4 | No Payload | STV","players":[{"user_id":230,"name":"raven","steam_id":76561198354068131,"connected_time":511000000000,"state":"active","ping":69},{"user_id":201,"name":"sumdedguy","steam_id":76561199095882636,"connected_time":1909000000000,"state":"active","ping":63},{"user_id":174,"name":"Kick Down Door 6:00AM TUCK☃RO","steam_id":76561197976146738,"connected_time":2952000000000,"state":"active","ping":80},{"user_id":239,"name":"[chef] iron","steam_id":76561197970888616,"connected_time":246000000000,"state":"active","ping":78},{"user_id":171,"name":"Chillin Turt","steam_id":76561198025796849,"connected_time":3350000000000,"state":"active","ping":53},{"user_id":226,"name":"BuhBuh","steam_id":76561198872613199,"connected_time":869000000000,"state":"active","ping":43},{"user_id":227,"name":"Hanselpup","steam_id":76561198165480226,"connected_time":839000000000,"state":"active","ping":67},{"user_id":158,"name":"hugs for noob","steam_id":76561198063116291,"connected_time":4160000000000,"state":"active","ping":48},{"user_id":197,"name":"Person Man","steam_id":76561198120844626,"connected_time":1968000000000,"state":"active","ping":81},{"user_id":177,"name":"Breezy","steam_id":76561198046903890,"connected_time":2899000000000,"state":"active","ping":60},{"user_id":152,"name":"Killroy NQP ❤","steam_id":76561198006983771,"connected_time":4374000000000,"state":"active","ping":73},{"user_id":240,"name":"*:･ﾟ✧ junemofu","steam_id":76561198029052153,"connected_time":153000000000,"state":"active","ping":84},{"user_id":238,"name":"214214+S","steam_id":76561198191189053,"connected_time":270000000000,"state":"active","ping":69},{"user_id":229,"name":"Yengozi","steam_id":76561198448764748,"connected_time":536000000000,"state":"active","ping":97},{"user_id":200,"name":"chimp","steam_id":76561197968179724,"connected_time":1922000000000,"state":"active","ping":77},{"user_id":182,"name":"fool","steam_id":76561198172049831,"connected_time":2590000000000,"state":"active","ping":87},{"user_id":235,"name":"Quincunx Ölaavgäärden","steam_id":76561198035618952,"connected_time":386000000000,"state":"active","ping":50},{"user_id":231,"name":"Ghostmeal","steam_id":76561198042380299,"connected_time":498000000000,"state":"active","ping":64},{"user_id":205,"name":"poopluvr112","steam_id":76561198082081354,"connected_time":1773000000000,"state":"active","ping":77},{"user_id":234,"name":"rumes","steam_id":76561198349219467,"connected_time":417000000000,"state":"active","ping":84},{"user_id":236,"name":"Lain Iwakura","steam_id":76561198449359154,"connected_time":366000000000,"state":"active","ping":62},{"user_id":237,"name":"Mista Boombastic","steam_id":76561197973121212,"connected_time":359000000000,"state":"active","ping":76},{"user_id":218,"name":"parker","steam_id":76561198187085307,"connected_time":1370000000000,"state":"active","ping":61},{"user_id":214,"name":"1 Sandwich Enjoyer","steam_id":76561198986281248,"connected_time":1534000000000,"state":"active","ping":69}]},{"server_id":2,"name":"Uncletopia | Chicago | 1 | All Maps","name_short":"chi-1","host":"chi-1.us.uncletopia.com","port":27015,"enabled":true,"region":"us-central","cc":"us","latitude":41.881832,"longitude":-87.62318,"reserved":0,"last_update":"0001-01-01T00:00:00Z","name_a2s":"Uncletopia | Chicago | 1 | All Maps","protocol":17,"map":"pl_upward","folder":"tf","game":"Team Fortress","app_id":440,"player_count":24,"max_players":24,"Bots":0,"server_type":"Dedicated","server_os":"Linux","password":true,"vac":true,"version":"7723704","steam_id":85568392924469984,"keywords":["nocrits","nodmgspread","payload","uncletopia"],"game_id":440,"stv_port":27016,"stv_name":"Uncletopia | Chicago | 1 | All Maps | STV","players":[{"user_id":676,"name":"KingTinkerer","steam_id":76561198226856548,"connected_time":4466000000000,"state":"active","ping":78},{"user_id":682,"name":"debin","steam_id":76561198070711217,"connected_time":3025000000000,"state":"active","ping":57},{"user_id":705,"name":"SilentDom","steam_id":76561198008339097,"connected_time":747000000000,"state":"active","ping":53},{"user_id":596,"name":"Ras","steam_id":76561198123546775,"connected_time":9282000000000,"state":"active","ping":62},{"user_id":685,"name":"stop","steam_id":76561198268686419,"connected_time":2964000000000,"state":"active","ping":59},{"user_id":701,"name":"ChefMike","steam_id":76561198414034069,"connected_time":961000000000,"state":"active","ping":61},{"user_id":695,"name":"hej","steam_id":76561197996366940,"connected_time":2079000000000,"state":"active","ping":61},{"user_id":679,"name":"Gup","steam_id":76561198176370997,"connected_time":3721000000000,"state":"active","ping":49},{"user_id":694,"name":"MedRed™ #IATAH","steam_id":76561198002962970,"connected_time":2086000000000,"state":"active","ping":96},{"user_id":697,"name":"Whorse","steam_id":76561198114141445,"connected_time":1479000000000,"state":"active","ping":66},{"user_id":707,"name":"ChickenKing","steam_id":76561198855330454,"connected_time":624000000000,"state":"active","ping":42},{"user_id":616,"name":"Infinity","steam_id":76561199134919099,"connected_time":8570000000000,"state":"active","ping":58},{"user_id":680,"name":"cheddabob","steam_id":76561198993259948,"connected_time":3040000000000,"state":"active","ping":96},{"user_id":698,"name":"Ye (I Love Hitler) West","steam_id":76561198068830312,"connected_time":1116000000000,"state":"active","ping":46},{"user_id":684,"name":"PKBEAST_7","steam_id":76561198177136537,"connected_time":2974000000000,"state":"active","ping":81},{"user_id":656,"name":"Xenny femmy","steam_id":76561198299269074,"connected_time":5631000000000,"state":"active","ping":41},{"user_id":708,"name":"Sprinklingmydoughnut","steam_id":76561198168009092,"connected_time":518000000000,"state":"active","ping":90},{"user_id":702,"name":"Kyaaaaa!!!","steam_id":76561198066384337,"connected_time":954000000000,"state":"active","ping":57},{"user_id":659,"name":"atserc","steam_id":76561197997570349,"connected_time":5536000000000,"state":"active","ping":90},{"user_id":703,"name":"GooniOoni","steam_id":76561198102154561,"connected_time":805000000000,"state":"active","ping":47},{"user_id":661,"name":"Pierce","steam_id":76561198043747953,"connected_time":5505000000000,"state":"active","ping":60},{"user_id":700,"name":"The Muffin Man","steam_id":76561199088286427,"connected_time":1039000000000,"state":"active","ping":112},{"user_id":706,"name":"plutonium isotope","steam_id":76561198319442494,"connected_time":733000000000,"state":"active","ping":107},{"user_id":692,"name":"NOLSEY","steam_id":76561198108959504,"connected_time":2199000000000,"state":"active","ping":57}]},{"server_id":106,"name":"Uncletopia | Chicago | 2 | All Maps","name_short":"chi-2","host":"chi-1.us.uncletopia.com","port":27025,"enabled":true,"region":"us-central","cc":"us","latitude":41.881832,"longitude":-87.62318,"reserved":0,"last_update":"0001-01-01T00:00:00Z","name_a2s":"Uncletopia | Chicago | 2 | All Maps","protocol":17,"map":"pl_badwater","folder":"tf","game":"Team Fortress","app_id":440,"player_count":24,"max_players":24,"Bots":0,"server_type":"Dedicated","server_os":"Linux","password":true,"vac":true,"version":"7723704","steam_id":85568392924469985,"keywords":["nocrits","nodmgspread","payload","uncletopia"],"game_id":440,"stv_port":27026,"stv_name":"Uncletopia | Chicago | 2 | All Maps | STV","players":[{"user_id":474,"name":"Karma's Kringle Caper","steam_id":76561198059385185,"connected_time":730000000000,"state":"active","ping":78},{"user_id":480,"name":"hyperledz","steam_id":76561198807917808,"connected_time":439000000000,"state":"active","ping":77},{"user_id":481,"name":"Dill","steam_id":76561197985091914,"connected_time":318000000000,"state":"active","ping":65},{"user_id":438,"name":"AlbinoRhino","steam_id":76561199192140783,"connected_time":3989000000000,"state":"active","ping":73},{"user_id":449,"name":"Forge","steam_id":76561198044434129,"connected_time":3594000000000,"state":"active","ping":46},{"user_id":383,"name":"Penguin Blehnder","steam_id":76561198172097526,"connected_time":8536000000000,"state":"active","ping":83},{"user_id":479,"name":"snake king50","steam_id":76561199210667616,"connected_time":551000000000,"state":"active","ping":40},{"user_id":485,"name":"choi","steam_id":76561198053669887,"connected_time":140000000000,"state":"active","ping":117},{"user_id":471,"name":"LikeASir","steam_id":76561198042209721,"connected_time":1027000000000,"state":"active","ping":40},{"user_id":469,"name":"Tedward","steam_id":76561198948693551,"connected_time":1216000000000,"state":"active","ping":83},{"user_id":476,"name":"THIRDPIERCE","steam_id":76561198405366314,"connected_time":723000000000,"state":"active","ping":82},{"user_id":463,"name":"everythingrhymeswithorange","steam_id":76561198010306193,"connected_time":1722000000000,"state":"active","ping":97},{"user_id":486,"name":"AR1782","steam_id":76561199380738475,"connected_time":120000000000,"state":"active","ping":87},{"user_id":434,"name":"inzang","steam_id":76561198088318074,"connected_time":4316000000000,"state":"active","ping":68},{"user_id":482,"name":"Jimmy","steam_id":76561197970838363,"connected_time":308000000000,"state":"active","ping":80},{"user_id":478,"name":"garfield","steam_id":76561198114119308,"connected_time":658000000000,"state":"active","ping":67},{"user_id":483,"name":"faxxy","steam_id":76561198079621240,"connected_time":251000000000,"state":"active","ping":64},{"user_id":446,"name":"Huge","steam_id":76561199030987614,"connected_time":3778000000000,"state":"active","ping":104},{"user_id":472,"name":"Antwan","steam_id":76561198246200638,"connected_time":831000000000,"state":"active","ping":62},{"user_id":459,"name":"hashmap","steam_id":76561198043794014,"connected_time":2556000000000,"state":"active","ping":48},{"user_id":462,"name":"Stew Eater","steam_id":76561198978307159,"connected_time":1909000000000,"state":"active","ping":66},{"user_id":382,"name":"pee pee poo poo","steam_id":76561198930017260,"connected_time":8681000000000,"state":"active","ping":54},{"user_id":473,"name":"Corporal Boom","steam_id":76561198135677629,"connected_time":830000000000,"state":"active","ping":110},{"user_id":468,"name":"chiri","steam_id":76561198052373634,"connected_time":1386000000000,"state":"active","ping":82}]},{"server_id":402,"name":"Uncletopia | Chicago | 3 | All Maps","name_short":"chi-3","host":"chi-1.us.uncletopia.com","port":27035,"enabled":true,"region":"us-central","cc":"us","latitude":41.881832,"longitude":-87.62318,"reserved":0,"last_update":"0001-01-01T00:00:00Z","name_a2s":"Uncletopia | Chicago | 3 | All Maps","protocol":17,"map":"cp_snakewater_final1","folder":"tf","game":"Team Fortress","app_id":440,"player_count":24,"max_players":24,"Bots":0,"server_type":"Dedicated","server_os":"Linux","password":true,"vac":true,"version":"7723704","steam_id":85568392924515191,"keywords":["cp","nocrits","nodmgspread","uncletopia"],"game_id":440,"stv_port":27036,"stv_name":"Uncletopia | Chicago | 3 | All Maps | STV","players":[{"user_id":29,"name":"Merry Matches_","steam_id":76561198048925904,"connected_time":1848000000000,"state":"active","ping":110},{"user_id":39,"name":"Suction","steam_id":76561198236786158,"connected_time":819000000000,"state":"active","ping":78},{"user_id":31,"name":"Cristanc99","steam_id":76561198114715810,"connected_time":1797000000000,"state":"active","ping":64},{"user_id":32,"name":"Res","steam_id":76561198167207112,"connected_time":1789000000000,"state":"active","ping":74},{"user_id":33,"name":"Human Person","steam_id":76561198283855440,"connected_time":1740000000000,"state":"active","ping":91},{"user_id":34,"name":"trobort","steam_id":76561198027150357,"connected_time":1584000000000,"state":"active","ping":77},{"user_id":35,"name":"honked off the bobo","steam_id":76561198123287268,"connected_time":1575000000000,"state":"active","ping":49},{"user_id":42,"name":"Garlicbud","steam_id":76561199013990026,"connected_time":441000000000,"state":"active","ping":77},{"user_id":37,"name":"Chip","steam_id":76561198182205245,"connected_time":852000000000,"state":"active","ping":61},{"user_id":38,"name":"The contagious plague of taco's","steam_id":76561198883736130,"connected_time":843000000000,"state":"active","ping":96},{"user_id":40,"name":"ankh","steam_id":76561199121935667,"connected_time":691000000000,"state":"active","ping":100},{"user_id":41,"name":"HyperOrange|#SaveTF2","steam_id":76561198068071327,"connected_time":564000000000,"state":"active","ping":68},{"user_id":43,"name":"TheAilingSword","steam_id":76561198250350844,"connected_time":435000000000,"state":"active","ping":60},{"user_id":44,"name":"lauren/","steam_id":76561198048745798,"connected_time":296000000000,"state":"active","ping":45},{"user_id":45,"name":"M249 | Spectre","steam_id":76561198118334485,"connected_time":232000000000,"state":"active","ping":84},{"user_id":46,"name":"A used self heating flesh-light","steam_id":76561198069918221,"connected_time":170000000000,"state":"active","ping":72},{"user_id":48,"name":"Tirlby","steam_id":76561198045231233,"connected_time":122000000000,"state":"active","ping":68},{"user_id":49,"name":"ITSwillows_","steam_id":76561199239165015,"connected_time":101000000000,"state":"active","ping":82},{"user_id":50,"name":"Person","steam_id":76561198073885832,"connected_time":94000000000,"state":"active","ping":114},{"user_id":51,"name":"Money Collector","steam_id":76561198046249467,"connected_time":81000000000,"state":"active","ping":84},{"user_id":52,"name":"can i get some ice cream","steam_id":76561198029318657,"connected_time":80000000000,"state":"active","ping":60},{"user_id":53,"name":"Jeremy \"Scout\" Jones","steam_id":76561198934455279,"connected_time":79000000000,"state":"active","ping":117},{"user_id":54,"name":"a shrieking cloud of bats","steam_id":76561198151363063,"connected_time":42000000000,"state":"active","ping":65},{"user_id":55,"name":"Mierne","steam_id":76561198839570195,"connected_time":31000000000,"state":"active","ping":75}]},{"server_id":403,"name":"Uncletopia | Chicago | 4 | All Maps","name_short":"chi-4","host":"chi-1.us.uncletopia.com","port":27045,"enabled":true,"region":"us-central","cc":"us","latitude":41.881832,"longitude":-87.62318,"reserved":0,"last_update":"0001-01-01T00:00:00Z","name_a2s":"Uncletopia | Chicago | 4 | All Maps","protocol":17,"map":"pl_barnblitz","folder":"tf","game":"Team Fortress","app_id":440,"player_count":14,"max_players":24,"Bots":0,"server_type":"Dedicated","server_os":"Linux","password":true,"vac":true,"version":"7723704","steam_id":85568392924515193,"keywords":["nocrits","nodmgspread","payload","uncletopia"],"game_id":440,"stv_port":27046,"stv_name":"Uncletopia | Chicago | 4 | All Maps | STV","players":[{"user_id":522,"name":"Aristotle Voulton","steam_id":76561198100174923,"connected_time":1125000000000,"state":"active","ping":82},{"user_id":532,"name":"Miner2495","steam_id":76561198445904523,"connected_time":677000000000,"state":"active","ping":50},{"user_id":490,"name":"Whorenet","steam_id":76561198090433209,"connected_time":3025000000000,"state":"active","ping":81},{"user_id":519,"name":"ghostedghost","steam_id":76561198111410905,"connected_time":1574000000000,"state":"active","ping":81},{"user_id":505,"name":"schalldämpfer","steam_id":76561198178303726,"connected_time":2337000000000,"state":"active","ping":62},{"user_id":524,"name":"Kevin Y.","steam_id":76561198364331423,"connected_time":1108000000000,"state":"active","ping":81},{"user_id":504,"name":"DropSkizm","steam_id":76561198389116044,"connected_time":2431000000000,"state":"active","ping":65},{"user_id":494,"name":"Rodrick Knee","steam_id":76561198283021062,"connected_time":2766000000000,"state":"active","ping":57},{"user_id":495,"name":"yamme","steam_id":76561198117849124,"connected_time":2734000000000,"state":"active","ping":108},{"user_id":529,"name":"MC Ballyhoo","steam_id":76561198296310388,"connected_time":924000000000,"state":"active","ping":85},{"user_id":527,"name":"FROYO donovin","steam_id":76561198045679387,"connected_time":1076000000000,"state":"active","ping":45},{"user_id":528,"name":"Skelebob","steam_id":76561198880649335,"connected_time":1060000000000,"state":"active","ping":60},{"user_id":531,"name":"IIP","steam_id":76561198286102406,"connected_time":856000000000,"state":"active","ping":67},{"user_id":501,"name":"A Bic Lighter","steam_id":76561198070606068,"connected_time":2542000000000,"state":"active","ping":50}]},{"server_id":36,"name":"Uncletopia | Chicago | 5 | All Maps","name_short":"chi-5","host":"chi-2.us.uncletopia.com","port":27015,"enabled":true,"region":"us-central","cc":"us","latitude":41.881832,"longitude":-87.62318,"reserved":0,"last_update":"0001-01-01T00:00:00Z","name_a2s":"Uncletopia | Chicago | 5 | All Maps","protocol":17,"map":"cp_snakewater_final1","folder":"tf","game":"Team Fortress","app_id":440,"player_count":0,"max_players":24,"Bots":0,"server_type":"Dedicated","server_os":"Linux","password":true,"vac":true,"version":"7723704","steam_id":85568392924866362,"keywords":["cp","nocrits","nodmgspread","uncletopia"],"game_id":440,"stv_port":27016,"stv_name":"Uncletopia | Chicago | 5 | All Maps | STV","players":null},{"server_id":37,"name":"Uncletopia | Chicago | 6 | All Maps","name_short":"chi-6","host":"chi-2.us.uncletopia.com","port":27025,"enabled":true,"region":"us-central","cc":"us","latitude":41.881832,"longitude":-87.62318,"reserved":0,"last_update":"0001-01-01T00:00:00Z","name_a2s":"Uncletopia | Chicago | 6 | All Maps","protocol":17,"map":"cp_snakewater_final1","folder":"tf","game":"Team Fortress","app_id":440,"player_count":0,"max_players":24,"Bots":0,"server_type":"Dedicated","server_os":"Linux","password":true,"vac":true,"version":"7723704","steam_id":85568392924866363,"keywords":["cp","nocrits","nodmgspread","uncletopia"],"game_id":440,"stv_port":27026,"stv_name":"Uncletopia | Chicago | 6 | All Maps | STV","players":null},{"server_id":38,"name":"Uncletopia | Chicago | 7 | No Payload","name_short":"chi-7","host":"chi-2.us.uncletopia.com","port":27035,"enabled":true,"region":"us-central","cc":"us","latitude":41.881832,"longitude":-87.62318,"reserved":0,"last_update":"0001-01-01T00:00:00Z","name_a2s":"","protocol":0,"map":"","folder":"","game":"","app_id":0,"player_count":0,"max_players":0,"Bots":0,"server_type":"","server_os":"","password":false,"vac":false,"version":"","steam_id":0,"keywords":null,"game_id":0,"stv_port":0,"stv_name":"","players":null},{"server_id":39,"name":"Uncletopia | Chicago | 8 | Community","name_short":"chi-8","host":"chi-2.us.uncletopia.com","port":27045,"enabled":true,"region":"us-central","cc":"us","latitude":41.881832,"longitude":-87.62318,"reserved":0,"last_update":"0001-01-01T00:00:00Z","name_a2s":"Uncletopia | Chicago | 8 | Community","protocol":17,"map":"workshop/cp_sulfur_rc2.ugc619869471","folder":"tf","game":"Team Fortress","app_id":440,"player_count":24,"max_players":24,"Bots":0,"server_type":"Dedicated","server_os":"Linux","password":true,"vac":true,"version":"7723704","steam_id":85568392924866365,"keywords":["cp","nocrits","nodmgspread","uncletopia"],"game_id":440,"stv_port":27046,"stv_name":"Uncletopia | Chicago | 8 | Community | STV","players":[{"user_id":82,"name":"mischevious","steam_id":76561198058209703,"connected_time":8076000000000,"state":"active","ping":45},{"user_id":168,"name":"Ember Wisks","steam_id":76561198271668411,"connected_time":2683000000000,"state":"active","ping":81},{"user_id":143,"name":"Chechens Spotted","steam_id":76561199028910893,"connected_time":4195000000000,"state":"active","ping":103},{"user_id":184,"name":"SimplySammy","steam_id":76561197982256946,"connected_time":1715000000000,"state":"active","ping":74},{"user_id":88,"name":"Civic Wayfinder","steam_id":76561198060320953,"connected_time":7771000000000,"state":"active","ping":66},{"user_id":197,"name":"rubb3r","steam_id":76561198096874230,"connected_time":923000000000,"state":"active","ping":68},{"user_id":192,"name":"flygonboy127","steam_id":76561199105773990,"connected_time":1007000000000,"state":"active","ping":56},{"user_id":194,"name":"Chuck Finley","steam_id":76561198027411284,"connected_time":968000000000,"state":"active","ping":72},{"user_id":206,"name":"enemy gamer","steam_id":76561198299094088,"connected_time":264000000000,"state":"active","ping":61},{"user_id":176,"name":"TreesRUs","steam_id":76561198305740611,"connected_time":2023000000000,"state":"active","ping":74},{"user_id":193,"name":"Kit kyat","steam_id":76561198235786296,"connected_time":1007000000000,"state":"active","ping":58},{"user_id":174,"name":"speakers","steam_id":76561198138221795,"connected_time":2078000000000,"state":"active","ping":71},{"user_id":179,"name":"BIG HOG","steam_id":76561198126489501,"connected_time":1751000000000,"state":"active","ping":45},{"user_id":196,"name":"The Sinister Potion","steam_id":76561198131280715,"connected_time":945000000000,"state":"active","ping":66},{"user_id":209,"name":"Smeller","steam_id":76561198041767882,"connected_time":5000000000,"state":"spawning","ping":59},{"user_id":207,"name":"Mongfa","steam_id":76561199224765916,"connected_time":179000000000,"state":"active","ping":45},{"user_id":205,"name":"Hol Horse","steam_id":76561198078207743,"connected_time":333000000000,"state":"active","ping":67},{"user_id":182,"name":"professor coke","steam_id":76561198108165531,"connected_time":1744000000000,"state":"active","ping":52},{"user_id":159,"name":"Nightfall","steam_id":76561198169718867,"connected_time":3128000000000,"state":"active","ping":105},{"user_id":128,"name":"Violetta","steam_id":76561197999924080,"connected_time":5828000000000,"state":"active","ping":68},{"user_id":183,"name":"NUt","steam_id":76561198031007966,"connected_time":1729000000000,"state":"active","ping":52},{"user_id":202,"name":"WHITEBOYRICK","steam_id":76561198044589240,"connected_time":587000000000,"state":"active","ping":63},{"user_id":118,"name":"Van","steam_id":76561198073518712,"connected_time":6287000000000,"state":"active","ping":92},{"user_id":208,"name":"Master Of Whales","steam_id":76561198349104889,"connected_time":56000000000,"state":"spawning","ping":641}]},{"server_id":8,"name":"Uncletopia | Dallas | 1 | All Maps","name_short":"dal-1","host":"dal-1.us.uncletopia.com","port":27015,"enabled":true,"region":"us-central","cc":"us","latitude":32.779167,"longitude":-96.80889,"reserved":0,"last_update":"0001-01-01T00:00:00Z","name_a2s":"Uncletopia | Dallas | 1 | All Maps","protocol":17,"map":"pl_badwater","folder":"tf","game":"Team Fortress","app_id":440,"player_count":24,"max_players":24,"Bots":0,"server_type":"Dedicated","server_os":"Linux","password":true,"vac":true,"version":"7723704","steam_id":85568392924469986,"keywords":["nocrits","nodmgspread","payload","uncletopia"],"game_id":440,"stv_port":27016,"stv_name":"Uncletopia | Dallas | 1 | All Maps | STV","players":[{"user_id":628,"name":"Bullwinkle J. Moose","steam_id":76561198075977196,"connected_time":5827000000000,"state":"active","ping":64},{"user_id":672,"name":"TransWomanGaming","steam_id":76561198809645656,"connected_time":1255000000000,"state":"active","ping":71},{"user_id":673,"name":"PH","steam_id":76561198019693197,"connected_time":1207000000000,"state":"active","ping":73},{"user_id":652,"name":"Dr. Ludwig","steam_id":76561198110246392,"connected_time":3946000000000,"state":"active","ping":57},{"user_id":655,"name":"Artic_Ryuu","steam_id":76561198182194918,"connected_time":3913000000000,"state":"active","ping":75},{"user_id":624,"name":"El Benjador","steam_id":76561198345883103,"connected_time":6465000000000,"state":"active","ping":67},{"user_id":674,"name":"FestiveAnarchist","steam_id":76561199116042550,"connected_time":1181000000000,"state":"active","ping":82},{"user_id":681,"name":"LuciD","steam_id":76561198242842394,"connected_time":323000000000,"state":"active","ping":71},{"user_id":682,"name":"WhileImStuntinWithHellaRacksBoy","steam_id":76561199215821942,"connected_time":308000000000,"state":"active","ping":46},{"user_id":683,"name":"Gugomo","steam_id":76561198121428316,"connected_time":276000000000,"state":"active","ping":71},{"user_id":670,"name":"Extant Spy","steam_id":76561198241715040,"connected_time":1273000000000,"state":"active","ping":107},{"user_id":653,"name":"Webi Wabo","steam_id":76561198799224408,"connected_time":3942000000000,"state":"active","ping":85},{"user_id":676,"name":"urine trouble","steam_id":76561199013266640,"connected_time":1152000000000,"state":"active","ping":74},{"user_id":671,"name":"Tree52","steam_id":76561198046763622,"connected_time":1270000000000,"state":"active","ping":80},{"user_id":668,"name":"Nikolai The Conqueror","steam_id":76561199068849031,"connected_time":2119000000000,"state":"active","ping":77},{"user_id":663,"name":"SpinnerSpecial","steam_id":76561198065661869,"connected_time":2672000000000,"state":"active","ping":102},{"user_id":677,"name":"chilis baby back ribs","steam_id":76561198813516435,"connected_time":1141000000000,"state":"active","ping":73},{"user_id":634,"name":"GarretGood","steam_id":76561198071881495,"connected_time":5750000000000,"state":"active","ping":107},{"user_id":680,"name":"Koalateral Thinking","steam_id":76561197971352904,"connected_time":511000000000,"state":"active","ping":82},{"user_id":660,"name":"+","steam_id":76561198262422184,"connected_time":3208000000000,"state":"active","ping":54},{"user_id":651,"name":"AGTCO Texas","steam_id":76561198053276976,"connected_time":3949000000000,"state":"active","ping":96},{"user_id":664,"name":"CraftKitty","steam_id":76561198080775103,"connected_time":2670000000000,"state":"active","ping":76},{"user_id":679,"name":"desiring machine","steam_id":76561198045838834,"connected_time":996000000000,"state":"active","ping":52},{"user_id":666,"name":"Zero","steam_id":76561199383267408,"connected_time":2669000000000,"state":"active","ping":49}]},{"server_id":108,"name":"Uncletopia | Dallas | 2 | All Maps","name_short":"dal-2","host":"dal-1.us.uncletopia.com","port":27025,"enabled":true,"region":"us-central","cc":"us","latitude":32.779167,"longitude":-96.80889,"reserved":0,"last_update":"0001-01-01T00:00:00Z","name_a2s":"Uncletopia | Dallas | 2 | All Maps","protocol":17,"map":"koth_highpass","folder":"tf","game":"Team Fortress","app_id":440,"player_count":0,"max_players":24,"Bots":0,"server_type":"Dedicated","server_os":"Linux","password":true,"vac":true,"version":"7723704","steam_id":85568392924469988,"keywords":["cp","nocrits","nodmgspread","uncletopia"],"game_id":440,"stv_port":27026,"stv_name":"Uncletopia | Dallas | 2 | All Maps | STV","players":null},{"server_id":5,"name":"Uncletopia | Frankfurt | 1 | All Maps","name_short":"frk-1","host":"frk-1.de.uncletopia.com","port":27015,"enabled":true,"region":"eu","cc":"de","latitude":50.110924,"longitude":8.682127,"reserved":0,"last_update":"0001-01-01T00:00:00Z","name_a2s":"Uncletopia | Frankfurt | 1 | All Maps","protocol":17,"map":"cp_mountainlab","folder":"tf","game":"Team Fortress","app_id":440,"player_count":0,"max_players":24,"Bots":0,"server_type":"Dedicated","server_os":"Linux","password":true,"vac":true,"version":"7723704","steam_id":85568392924469989,"keywords":["cp","nocrits","nodmgspread","uncletopia"],"game_id":440,"stv_port":27016,"stv_name":"Uncletopia | Frankfurt | 1 | All Maps | STV","players":null},{"server_id":110,"name":"Uncletopia | Frankfurt | 2 | All Maps","name_short":"frk-2","host":"frk-1.de.uncletopia.com","port":27025,"enabled":true,"region":"eu","cc":"de","latitude":50.110924,"longitude":8.682127,"reserved":0,"last_update":"0001-01-01T00:00:00Z","name_a2s":"Uncletopia | Frankfurt | 2 | All Maps","protocol":17,"map":"pl_pier","folder":"tf","game":"Team Fortress","app_id":440,"player_count":0,"max_players":24,"Bots":0,"server_type":"Dedicated","server_os":"Linux","password":true,"vac":true,"version":"7723704","steam_id":85568392924469990,"keywords":["nocrits","nodmgspread","payload","uncletopia"],"game_id":440,"stv_port":27026,"stv_name":"Uncletopia | Frankfurt | 2 | All Maps | STV","players":null},{"server_id":308,"name":"Uncletopia | Frankfurt | 3 | All Maps","name_short":"frk-3","host":"frk-1.de.uncletopia.com","port":27035,"enabled":true,"region":"eu","cc":"de","latitude":50.110924,"longitude":8.682127,"reserved":0,"last_update":"0001-01-01T00:00:00Z","name_a2s":"Uncletopia | Frankfurt | 3 | All Maps","protocol":17,"map":"pl_swiftwater_final1","folder":"tf","game":"Team Fortress","app_id":440,"player_count":0,"max_players":24,"Bots":0,"server_type":"Dedicated","server_os":"Linux","password":true,"vac":true,"version":"7723704","steam_id":85568392924504274,"keywords":["nocrits","nodmgspread","payload","uncletopia"],"game_id":440,"stv_port":27036,"stv_name":"Uncletopia | Frankfurt | 3 | All Maps | STV","players":null},{"server_id":309,"name":"Uncletopia | Frankfurt | 4 | All Maps","name_short":"frk-4","host":"frk-1.de.uncletopia.com","port":27045,"enabled":true,"region":"eu","cc":"de","latitude":50.110924,"longitude":8.682127,"reserved":0,"last_update":"0001-01-01T00:00:00Z","name_a2s":"Uncletopia | Frankfurt | 4 | All Maps","protocol":17,"map":"cp_altitude","folder":"tf","game":"Team Fortress","app_id":440,"player_count":0,"max_players":24,"Bots":0,"server_type":"Dedicated","server_os":"Linux","password":true,"vac":true,"version":"7723704","steam_id":85568392924504275,"keywords":["cp","nocrits","nodmgspread","uncletopia"],"game_id":440,"stv_port":27046,"stv_name":"Uncletopia | Frankfurt | 4 | All Maps | STV","players":null},{"server_id":310,"name":"Uncletopia | Frankfurt | 5 | All Maps","name_short":"frk-5","host":"frk-1.de.uncletopia.com","port":27055,"enabled":true,"region":"eu","cc":"de","latitude":50.110924,"longitude":8.682127,"reserved":0,"last_update":"0001-01-01T00:00:00Z","name_a2s":"Uncletopia | Frankfurt | 5 | All Maps","protocol":17,"map":"cp_process_final","folder":"tf","game":"Team Fortress","app_id":440,"player_count":0,"max_players":24,"Bots":0,"server_type":"Dedicated","server_os":"Linux","password":true,"vac":true,"version":"7723704","steam_id":85568392924504277,"keywords":["cp","nocrits","nodmgspread","uncletopia"],"game_id":440,"stv_port":27056,"stv_name":"Uncletopia | Frankfurt | 5 | All Maps | STV","players":null},{"server_id":311,"name":"Uncletopia | Frankfurt | 6 | All Maps","name_short":"frk-6","host":"frk-1.de.uncletopia.com","port":27065,"enabled":true,"region":"eu","cc":"de","latitude":50.110924,"longitude":8.682127,"reserved":0,"last_update":"0001-01-01T00:00:00Z","name_a2s":"Uncletopia | Frankfurt | 6 | All Maps","protocol":17,"map":"cp_snakewater_final1","folder":"tf","game":"Team Fortress","app_id":440,"player_count":0,"max_players":24,"Bots":0,"server_type":"Dedicated","server_os":"Linux","password":true,"vac":true,"version":"7723704","steam_id":85568392924504278,"keywords":["cp","nocrits","nodmgspread","uncletopia"],"game_id":440,"stv_port":27066,"stv_name":"Uncletopia | Frankfurt | 6 | All Maps | STV","players":null},{"server_id":23,"name":"Uncletopia | Frankfurt | 7 | No Payload","name_short":"frk-7","host":"frk-1.de.uncletopia.com","port":27075,"enabled":true,"region":"eu","cc":"de","latitude":50.110924,"longitude":8.682127,"reserved":0,"last_update":"0001-01-01T00:00:00Z","name_a2s":"Uncletopia | Frankfurt | 7 | No Payload","protocol":17,"map":"pl_upward","folder":"tf","game":"Team Fortress","app_id":440,"player_count":0,"max_players":24,"Bots":0,"server_type":"Dedicated","server_os":"Linux","password":true,"vac":true,"version":"7723704","steam_id":85568392924742827,"keywords":["nocrits","nodmgspread","payload","uncletopia"],"game_id":440,"stv_port":27076,"stv_name":"Uncletopia | Frankfurt | 7 | No Payload | STV","players":null},{"server_id":24,"name":"Uncletopia | Frankfurt | 8 | Community","name_short":"frk-8","host":"frk-1.de.uncletopia.com","port":27085,"enabled":true,"region":"eu","cc":"de","latitude":50.110924,"longitude":8.682127,"reserved":0,"last_update":"0001-01-01T00:00:00Z","name_a2s":"Uncletopia | Frankfurt | 8 | Community","protocol":17,"map":"cp_altitude","folder":"tf","game":"Team Fortress","app_id":440,"player_count":0,"max_players":24,"Bots":0,"server_type":"Dedicated","server_os":"Linux","password":true,"vac":true,"version":"7723704","steam_id":85568392924742828,"keywords":["cp","nocrits","nodmgspread","uncletopia"],"game_id":440,"stv_port":27086,"stv_name":"Uncletopia | Frankfurt | 8 | Community | STV","players":null},{"server_id":202,"name":"Uncletopia | Hong Kong | 1 | All Maps","name_short":"hgk-1","host":"hgk-1.hk.uncletopia.com","port":27015,"enabled":true,"region":"asia","cc":"hk","latitude":22.302711,"longitude":114.177216,"reserved":0,"last_update":"0001-01-01T00:00:00Z","name_a2s":"Uncletopia | Hong Kong | 1 | All Maps","protocol":17,"map":"koth_viaduct","folder":"tf","game":"Team Fortress","app_id":440,"player_count":8,"max_players":24,"Bots":0,"server_type":"Dedicated","server_os":"Linux","password":true,"vac":true,"version":"7723704","steam_id":85568392924494504,"keywords":["cp","nocrits","nodmgspread","uncletopia"],"game_id":440,"stv_port":27016,"stv_name":"Uncletopia | Hong Kong | 1 | All Maps | STV","players":[{"user_id":171,"name":"LD","steam_id":76561198073177418,"connected_time":457000000000,"state":"active","ping":240},{"user_id":179,"name":"Hyojin","steam_id":76561199277317248,"connected_time":46000000000,"state":"active","ping":49},{"user_id":12,"name":"Bertengkar","steam_id":76561198213031155,"connected_time":14330000000000,"state":"active","ping":91},{"user_id":172,"name":"hog","steam_id":76561199206816701,"connected_time":441000000000,"state":"active","ping":68},{"user_id":178,"name":"Skyler White yo","steam_id":76561198895193247,"connected_time":113000000000,"state":"active","ping":70},{"user_id":175,"name":"Andro","steam_id":76561199198221353,"connected_time":192000000000,"state":"active","ping":55},{"user_id":180,"name":"Agen1ඞ","steam_id":76561199015929817,"connected_time":40000000000,"state":"active","ping":44},{"user_id":177,"name":"KillerKurt64(F2p)#SaveTf2","steam_id":76561199225224942,"connected_time":151000000000,"state":"active","ping":269}]},{"server_id":1,"name":"Uncletopia | Los Angeles | 1 | All Maps","name_short":"lax-1","host":"lax-1.us.uncletopia.com","port":27015,"enabled":true,"region":"us-west","cc":"us","latitude":33.94279,"longitude":-118.41004,"reserved":0,"last_update":"0001-01-01T00:00:00Z","name_a2s":"Uncletopia | Los Angeles | 1 | All Maps","protocol":17,"map":"cp_process_final","folder":"tf","game":"Team Fortress","app_id":440,"player_count":9,"max_players":24,"Bots":0,"server_type":"Dedicated","server_os":"Linux","password":true,"vac":true,"version":"7723704","steam_id":85568392924469991,"keywords":["cp","nocrits","nodmgspread","uncletopia"],"game_id":440,"stv_port":27016,"stv_name":"Uncletopia | Los Angeles | 1 | All Maps | STV","players":[{"user_id":168,"name":"Navigatxr","steam_id":76561199185153789,"connected_time":860000000000,"state":"active","ping":53},{"user_id":169,"name":"bespokepoop (but festive)","steam_id":76561198042300337,"connected_time":783000000000,"state":"active","ping":70},{"user_id":172,"name":"grassman","steam_id":76561197972835907,"connected_time":154000000000,"state":"active","ping":58},{"user_id":153,"name":"The Clown","steam_id":76561199085524751,"connected_time":2015000000000,"state":"active","ping":43},{"user_id":170,"name":"CrackedSanity","steam_id":76561198279841251,"connected_time":564000000000,"state":"active","ping":43},{"user_id":171,"name":"Cow","steam_id":76561199068097215,"connected_time":346000000000,"state":"active","ping":43},{"user_id":173,"name":"theneedforfeet","steam_id":76561198861637608,"connected_time":62000000000,"state":"active","ping":53},{"user_id":162,"name":"Furious George","steam_id":76561198405111646,"connected_time":1573000000000,"state":"active","ping":55},{"user_id":137,"name":"sun sugar","steam_id":76561198385085005,"connected_time":3017000000000,"state":"active","ping":52}]},{"server_id":112,"name":"Uncletopia | Los Angeles | 2 | All Maps","name_short":"lax-2","host":"lax-1.us.uncletopia.com","port":27025,"enabled":true,"region":"us-west","cc":"us","latitude":33.94279,"longitude":-118.41004,"reserved":0,"last_update":"0001-01-01T00:00:00Z","name_a2s":"Uncletopia | Los Angeles | 2 | All Maps","protocol":17,"map":"pl_goldrush","folder":"tf","game":"Team Fortress","app_id":440,"player_count":24,"max_players":24,"Bots":0,"server_type":"Dedicated","server_os":"Linux","password":true,"vac":true,"version":"7723704","steam_id":85568392924469992,"keywords":["nocrits","nodmgspread","payload","uncletopia"],"game_id":440,"stv_port":27026,"stv_name":"Uncletopia | Los Angeles | 2 | All Maps | STV","players":[{"user_id":162,"name":"Thelookoutpoint","steam_id":76561198078377234,"connected_time":900000000000,"state":"active","ping":46},{"user_id":161,"name":"Gimmick","steam_id":76561198065873462,"connected_time":997000000000,"state":"active","ping":45},{"user_id":163,"name":"uskthedwarf","steam_id":76561199076096095,"connected_time":884000000000,"state":"active","ping":80},{"user_id":147,"name":"Satori Komeiji","steam_id":76561198158211423,"connected_time":1513000000000,"state":"active","ping":44},{"user_id":37,"name":"QuarterAnnualLiposuction #SvTF2","steam_id":76561198119886429,"connected_time":6277000000000,"state":"active","ping":100},{"user_id":165,"name":"ASCII | Dr.keinmann","steam_id":76561198360305514,"connected_time":734000000000,"state":"active","ping":82},{"user_id":138,"name":"cuppo","steam_id":76561198022008901,"connected_time":2139000000000,"state":"active","ping":66},{"user_id":112,"name":"Arcy","steam_id":76561198237030056,"connected_time":3020000000000,"state":"active","ping":76},{"user_id":168,"name":"ice cream (冰淇淋)","steam_id":76561198976530881,"connected_time":199000000000,"state":"active","ping":44},{"user_id":153,"name":"Frogzilla","steam_id":76561198077657538,"connected_time":1287000000000,"state":"active","ping":79},{"user_id":156,"name":"bobtheninjaman","steam_id":76561198066424544,"connected_time":1211000000000,"state":"active","ping":92},{"user_id":127,"name":"⛧Alkahestry","steam_id":76561198109641497,"connected_time":2625000000000,"state":"active","ping":47},{"user_id":170,"name":"ASCII | kymeira","steam_id":76561198340743816,"connected_time":110000000000,"state":"active","ping":45},{"user_id":49,"name":"Drog0nXV | Trade.tf","steam_id":76561198864720623,"connected_time":5164000000000,"state":"active","ping":51},{"user_id":159,"name":"The Assistant Regional Manager","steam_id":76561199221484936,"connected_time":1078000000000,"state":"active","ping":54},{"user_id":144,"name":"greggthebunny","steam_id":76561198006488417,"connected_time":1697000000000,"state":"active","ping":47},{"user_id":140,"name":"Nez","steam_id":76561197963109059,"connected_time":1999000000000,"state":"active","ping":67},{"user_id":154,"name":"BionicApe","steam_id":76561198154637711,"connected_time":1286000000000,"state":"active","ping":72},{"user_id":169,"name":"Bosmeroya","steam_id":76561198069454860,"connected_time":117000000000,"state":"active","ping":44},{"user_id":167,"name":"Dullahan","steam_id":76561198119668908,"connected_time":643000000000,"state":"active","ping":53},{"user_id":160,"name":"Double Stuf Roreo","steam_id":76561198005856754,"connected_time":1072000000000,"state":"active","ping":50},{"user_id":105,"name":"Crazy Hungarian","steam_id":76561198025498172,"connected_time":3389000000000,"state":"active","ping":75},{"user_id":85,"name":"Cinna Mon","steam_id":76561198005840633,"connected_time":4268000000000,"state":"active","ping":85},{"user_id":158,"name":"121256","steam_id":76561197974860359,"connected_time":1128000000000,"state":"active","ping":91}]},{"server_id":324,"name":"Uncletopia | Los Angeles | 3 | All Maps","name_short":"lax-3","host":"lax-1.us.uncletopia.com","port":27035,"enabled":true,"region":"us-west","cc":"us","latitude":33.94279,"longitude":-118.41004,"reserved":0,"last_update":"0001-01-01T00:00:00Z","name_a2s":"Uncletopia | Los Angeles | 3 | All Maps","protocol":17,"map":"koth_lakeside_final","folder":"tf","game":"Team Fortress","app_id":440,"player_count":0,"max_players":24,"Bots":0,"server_type":"Dedicated","server_os":"Linux","password":true,"vac":true,"version":"7723704","steam_id":85568392924510198,"keywords":["cp","nocrits","nodmgspread","uncletopia"],"game_id":440,"stv_port":27036,"stv_name":"Uncletopia | Los Angeles | 3 | All Maps | STV","players":null},{"server_id":25,"name":"Uncletopia | Los Angeles | 4 | No Payload","name_short":"lax-4","host":"lax-1.us.uncletopia.com","port":27045,"enabled":true,"region":"us-west","cc":"us","latitude":33.94279,"longitude":-118.41004,"reserved":0,"last_update":"0001-01-01T00:00:00Z","name_a2s":"Uncletopia | Los Angeles | 4 | No Payload","protocol":17,"map":"koth_lazarus","folder":"tf","game":"Team Fortress","app_id":440,"player_count":0,"max_players":24,"Bots":0,"server_type":"Dedicated","server_os":"Linux","password":true,"vac":true,"version":"7723704","steam_id":85568392924510199,"keywords":["cp","nocrits","nodmgspread","uncletopia"],"game_id":440,"stv_port":27046,"stv_name":"Uncletopia | Los Angeles | 4 | No Payload | STV","players":null},{"server_id":11,"name":"Uncletopia | London | 1 | All Maps","name_short":"lon-1","host":"lon-1.uk.uncletopia.com","port":27015,"enabled":true,"region":"eu","cc":"gb","latitude":51.509865,"longitude":-0.118092,"reserved":0,"last_update":"0001-01-01T00:00:00Z","name_a2s":"Uncletopia | London | 1 | All Maps","protocol":17,"map":"pl_upward","folder":"tf","game":"Team Fortress","app_id":440,"player_count":4,"max_players":24,"Bots":0,"server_type":"Dedicated","server_os":"Linux","password":true,"vac":true,"version":"7723704","steam_id":85568392924367362,"keywords":["nocrits","nodmgspread","payload","uncletopia"],"game_id":440,"stv_port":27016,"stv_name":"Uncletopia | London | 1 | All Maps | STV","players":[{"user_id":1032,"name":"Sluggsy","steam_id":76561199179251131,"connected_time":1132000000000,"state":"active","ping":170},{"user_id":1033,"name":"thekoolest88","steam_id":76561199022415672,"connected_time":560000000000,"state":"active","ping":127},{"user_id":914,"name":"dec","steam_id":76561198009660168,"connected_time":14692000000000,"state":"active","ping":48},{"user_id":1027,"name":"gamerweed5","steam_id":76561198087651151,"connected_time":2250000000000,"state":"active","ping":40}]},{"server_id":114,"name":"Uncletopia | London | 2 | All Maps","name_short":"lon-2","host":"lon-1.uk.uncletopia.com","port":27025,"enabled":true,"region":"eu","cc":"gb","latitude":51.509865,"longitude":-0.118092,"reserved":0,"last_update":"0001-01-01T00:00:00Z","name_a2s":"Uncletopia | London | 2 | All Maps","protocol":17,"map":"cp_gorge","folder":"tf","game":"Team Fortress","app_id":440,"player_count":0,"max_players":24,"Bots":0,"server_type":"Dedicated","server_os":"Linux","password":true,"vac":true,"version":"7723704","steam_id":85568392924470941,"keywords":["cp","nocrits","nodmgspread","uncletopia"],"game_id":440,"stv_port":27026,"stv_name":"Uncletopia | London | 2 | All Maps | STV","players":null},{"server_id":320,"name":"Uncletopia | London | 3 | All Maps","name_short":"lon-3","host":"lon-1.uk.uncletopia.com","port":27035,"enabled":true,"region":"eu","cc":"gb","latitude":51.509865,"longitude":-0.118092,"reserved":0,"last_update":"0001-01-01T00:00:00Z","name_a2s":"Uncletopia | London | 3 | All Maps","protocol":17,"map":"koth_viaduct","folder":"tf","game":"Team Fortress","app_id":440,"player_count":0,"max_players":24,"Bots":0,"server_type":"Dedicated","server_os":"Linux","password":true,"vac":true,"version":"7723704","steam_id":85568392924510192,"keywords":["cp","nocrits","nodmgspread","uncletopia"],"game_id":440,"stv_port":27036,"stv_name":"Uncletopia | London | 3 | All Maps | STV","players":null},{"server_id":321,"name":"Uncletopia | London | 4 | All Maps","name_short":"lon-4","host":"lon-1.uk.uncletopia.com","port":27045,"enabled":true,"region":"eu","cc":"gb","latitude":51.509865,"longitude":-0.118092,"reserved":0,"last_update":"0001-01-01T00:00:00Z","name_a2s":"Uncletopia | London | 4 | All Maps","protocol":17,"map":"koth_cascade","folder":"tf","game":"Team Fortress","app_id":440,"player_count":0,"max_players":24,"Bots":0,"server_type":"Dedicated","server_os":"Linux","password":true,"vac":true,"version":"7723704","steam_id":85568392924510193,"keywords":["cp","nocrits","nodmgspread","uncletopia"],"game_id":440,"stv_port":27046,"stv_name":"Uncletopia | London | 4 | All Maps | STV","players":null},{"server_id":21,"name":"Uncletopia | London | 5 | All Maps","name_short":"lon-5","host":"lon-1.uk.uncletopia.com","port":27055,"enabled":true,"region":"eu","cc":"gb","latitude":51.509865,"longitude":-0.118092,"reserved":0,"last_update":"0001-01-01T00:00:00Z","name_a2s":"Uncletopia | London | 5 | All Maps","protocol":17,"map":"koth_highpass","folder":"tf","game":"Team Fortress","app_id":440,"player_count":0,"max_players":24,"Bots":0,"server_type":"Dedicated","server_os":"Linux","password":true,"vac":true,"version":"7723704","steam_id":85568392924742829,"keywords":["cp","nocrits","nodmgspread","uncletopia"],"game_id":440,"stv_port":27056,"stv_name":"Uncletopia | London | 5 | All Maps | STV","players":null},{"server_id":22,"name":"Uncletopia | London | 6 | All Maps","name_short":"lon-6","host":"lon-1.uk.uncletopia.com","port":27065,"enabled":true,"region":"eu","cc":"gb","latitude":51.509865,"longitude":-0.118092,"reserved":0,"last_update":"0001-01-01T00:00:00Z","name_a2s":"Uncletopia | London | 6 | All Maps","protocol":17,"map":"cp_process_final","folder":"tf","game":"Team Fortress","app_id":440,"player_count":0,"max_players":24,"Bots":0,"server_type":"Dedicated","server_os":"Linux","password":true,"vac":true,"version":"7723704","steam_id":85568392924742830,"keywords":["cp","nocrits","nodmgspread","uncletopia"],"game_id":440,"stv_port":27066,"stv_name":"Uncletopia | London | 6 | All Maps | STV","players":null},{"server_id":40,"name":"Uncletopia | London | 7 | No Payload","name_short":"lon-7","host":"lon-1.uk.uncletopia.com","port":27075,"enabled":true,"region":"eu","cc":"gb","latitude":51.509865,"longitude":-0.118092,"reserved":0,"last_update":"0001-01-01T00:00:00Z","name_a2s":"Uncletopia | London | 7 | No Payload","protocol":17,"map":"ctf_sawmill","folder":"tf","game":"Team Fortress","app_id":440,"player_count":0,"max_players":24,"Bots":0,"server_type":"Dedicated","server_os":"Linux","password":true,"vac":true,"version":"7723704","steam_id":85568392924964314,"keywords":["ctf","nocrits","nodmgspread","uncletopia"],"game_id":440,"stv_port":27076,"stv_name":"Uncletopia | London | 7 | No Payload | STV","players":null},{"server_id":41,"name":"Uncletopia | London | 8 | Community","name_short":"lon-8","host":"lon-1.uk.uncletopia.com","port":27085,"enabled":true,"region":"eu","cc":"gb","latitude":51.509865,"longitude":-0.118092,"reserved":0,"last_update":"0001-01-01T00:00:00Z","name_a2s":"Uncletopia | London | 8 | Community","protocol":17,"map":"workshop/koth_synthetic_rc6a.ugc1549817316","folder":"tf","game":"Team Fortress","app_id":440,"player_count":0,"max_players":24,"Bots":0,"server_type":"Dedicated","server_os":"Linux","password":true,"vac":true,"version":"7723704","steam_id":85568392924964315,"keywords":["cp","nocrits","nodmgspread","uncletopia"],"game_id":440,"stv_port":27086,"stv_name":"Uncletopia | London | 8 | Community | STV","players":null},{"server_id":300,"name":"Uncletopia | Montréal | 1 | All Maps","name_short":"mtl-1","host":"mtl-1.ca.uncletopia.com","port":27015,"enabled":true,"region":"us-east","cc":"ca","latitude":45.50889,"longitude":-73.56167,"reserved":0,"last_update":"0001-01-01T00:00:00Z","name_a2s":"","protocol":0,"map":"","folder":"","game":"","app_id":0,"player_count":0,"max_players":0,"Bots":0,"server_type":"","server_os":"","password":false,"vac":false,"version":"","steam_id":0,"keywords":null,"game_id":0,"stv_port":0,"stv_name":"","players":null},{"server_id":301,"name":"Uncletopia | Montréal | 2 | All Maps","name_short":"mtl-2","host":"mtl-1.ca.uncletopia.com","port":27025,"enabled":true,"region":"us-east","cc":"ca","latitude":45.50889,"longitude":-73.56167,"reserved":0,"last_update":"0001-01-01T00:00:00Z","name_a2s":"","protocol":0,"map":"","folder":"","game":"","app_id":0,"player_count":0,"max_players":0,"Bots":0,"server_type":"","server_os":"","password":false,"vac":false,"version":"","steam_id":0,"keywords":null,"game_id":0,"stv_port":0,"stv_name":"","players":null},{"server_id":302,"name":"Uncletopia | Montréal | 3 | All Maps","name_short":"mtl-3","host":"mtl-1.ca.uncletopia.com","port":27035,"enabled":true,"region":"us-east","cc":"ca","latitude":45.50889,"longitude":-73.56167,"reserved":0,"last_update":"0001-01-01T00:00:00Z","name_a2s":"","protocol":0,"map":"","folder":"","game":"","app_id":0,"player_count":0,"max_players":0,"Bots":0,"server_type":"","server_os":"","password":false,"vac":false,"version":"","steam_id":0,"keywords":null,"game_id":0,"stv_port":0,"stv_name":"","players":null},{"server_id":303,"name":"Uncletopia | Montréal | 4 | No Payload","name_short":"mtl-4","host":"mtl-1.ca.uncletopia.com","port":27045,"enabled":true,"region":"us-east","cc":"ca","latitude":45.50889,"longitude":-73.56167,"reserved":0,"last_update":"0001-01-01T00:00:00Z","name_a2s":"","protocol":0,"map":"","folder":"","game":"","app_id":0,"player_count":0,"max_players":0,"Bots":0,"server_type":"","server_os":"","password":false,"vac":false,"version":"","steam_id":0,"keywords":null,"game_id":0,"stv_port":0,"stv_name":"","players":null},{"server_id":13,"name":"Uncletopia | New York City | 1 | All Maps","name_short":"nyc-1","host":"nyc-1.us.uncletopia.com","port":27015,"enabled":true,"region":"us-east","cc":"us","latitude":40.73061,"longitude":-73.93524,"reserved":0,"last_update":"0001-01-01T00:00:00Z","name_a2s":"Uncletopia | New York City | 1 | All Maps","protocol":17,"map":"koth_highpass","folder":"tf","game":"Team Fortress","app_id":440,"player_count":22,"max_players":24,"Bots":0,"server_type":"Dedicated","server_os":"Linux","password":true,"vac":true,"version":"7723704","steam_id":85568392924469993,"keywords":["cp","nocrits","nodmgspread","uncletopia"],"game_id":440,"stv_port":27016,"stv_name":"Uncletopia | New York City | 1 | All Maps | STV","players":[{"user_id":621,"name":"Xavibite","steam_id":76561198209380493,"connected_time":5089000000000,"state":"active","ping":39},{"user_id":671,"name":"Detective Ed Sciple","steam_id":76561199076386390,"connected_time":1247000000000,"state":"active","ping":60},{"user_id":596,"name":"The Circle rules Your Life","steam_id":76561198072095399,"connected_time":8004000000000,"state":"active","ping":38},{"user_id":637,"name":"erwebomio","steam_id":76561198071152924,"connected_time":4356000000000,"state":"active","ping":111},{"user_id":677,"name":"devamar","steam_id":76561198069115467,"connected_time":490000000000,"state":"active","ping":68},{"user_id":660,"name":"Mr. MakeShitHappen","steam_id":76561198097905339,"connected_time":1934000000000,"state":"active","ping":47},{"user_id":636,"name":"Diamond Jack","steam_id":76561198321304762,"connected_time":4392000000000,"state":"active","ping":40},{"user_id":561,"name":"PinkLemonade","steam_id":76561198799286228,"connected_time":10458000000000,"state":"active","ping":54},{"user_id":672,"name":"MitcheyHD","steam_id":76561198066489645,"connected_time":1149000000000,"state":"active","ping":61},{"user_id":583,"name":"Sorbet Shark Cookie","steam_id":76561198133082665,"connected_time":9248000000000,"state":"active","ping":47},{"user_id":679,"name":"Princess","steam_id":76561199304796706,"connected_time":224000000000,"state":"active","ping":63},{"user_id":673,"name":"Potato","steam_id":76561198281505145,"connected_time":1088000000000,"state":"active","ping":58},{"user_id":662,"name":"wool","steam_id":76561198869689933,"connected_time":1921000000000,"state":"active","ping":56},{"user_id":667,"name":"DAY","steam_id":76561198090122537,"connected_time":1873000000000,"state":"active","ping":56},{"user_id":663,"name":"shameek mill","steam_id":76561198047531749,"connected_time":1921000000000,"state":"active","ping":59},{"user_id":581,"name":"John Creighton-Cruz Harrison","steam_id":76561198031611806,"connected_time":9500000000000,"state":"active","ping":43},{"user_id":668,"name":"Medic BF","steam_id":76561198197422098,"connected_time":1802000000000,"state":"active","ping":49},{"user_id":678,"name":"Bob the Minion","steam_id":76561197972389354,"connected_time":410000000000,"state":"active","ping":91},{"user_id":652,"name":"tame","steam_id":76561198925005855,"connected_time":2993000000000,"state":"active","ping":178},{"user_id":633,"name":"Bee_Pirate","steam_id":76561199000599111,"connected_time":4784000000000,"state":"active","ping":62},{"user_id":563,"name":"e0e0","steam_id":76561198293839750,"connected_time":10248000000000,"state":"active","ping":46},{"user_id":592,"name":"CorbanClyffe","steam_id":76561198154114994,"connected_time":8081000000000,"state":"active","ping":49}]},{"server_id":14,"name":"Uncletopia | New York City | 2 | All Maps","name_short":"nyc-2","host":"nyc-1.us.uncletopia.com","port":27025,"enabled":true,"region":"us-east","cc":"us","latitude":40.73061,"longitude":-73.93524,"reserved":0,"last_update":"0001-01-01T00:00:00Z","name_a2s":"Uncletopia | New York City | 2 | All Maps","protocol":17,"map":"pl_snowycoast","folder":"tf","game":"Team Fortress","app_id":440,"player_count":24,"max_players":24,"Bots":0,"server_type":"Dedicated","server_os":"Linux","password":true,"vac":true,"version":"7723704","steam_id":85568392924469994,"keywords":["nocrits","nodmgspread","payload","uncletopia"],"game_id":440,"stv_port":27026,"stv_name":"Uncletopia | New York City | 2 | All Maps | STV","players":[{"user_id":361,"name":"JFK Gamer","steam_id":76561199229169396,"connected_time":1732000000000,"state":"active","ping":80},{"user_id":359,"name":"SaucyAlfredo","steam_id":76561198814854234,"connected_time":2418000000000,"state":"active","ping":57},{"user_id":362,"name":"Funniest Man On TV","steam_id":76561198271907916,"connected_time":1709000000000,"state":"active","ping":45},{"user_id":392,"name":"Anthoneeee","steam_id":76561199209220671,"connected_time":150000000000,"state":"active","ping":120},{"user_id":375,"name":"RichardV","steam_id":76561197985772809,"connected_time":421000000000,"state":"active","ping":77},{"user_id":295,"name":"SLaPPy- oNaSiS","steam_id":76561198009286862,"connected_time":8196000000000,"state":"active","ping":67},{"user_id":389,"name":"Godfinger","steam_id":76561198426346549,"connected_time":178000000000,"state":"active","ping":97},{"user_id":370,"name":"Big Yoshi","steam_id":76561199160576376,"connected_time":1089000000000,"state":"active","ping":133},{"user_id":378,"name":"Anhkrehg","steam_id":76561197963201684,"connected_time":396000000000,"state":"active","ping":77},{"user_id":385,"name":"Lord PieNapple of Skalitz","steam_id":76561198023434116,"connected_time":282000000000,"state":"active","ping":60},{"user_id":379,"name":"Jousty","steam_id":76561199162677853,"connected_time":381000000000,"state":"active","ping":110},{"user_id":357,"name":"q!k.glodfyeehs","steam_id":76561198086008437,"connected_time":2531000000000,"state":"active","ping":91},{"user_id":371,"name":"brn","steam_id":76561198118211523,"connected_time":901000000000,"state":"active","ping":44},{"user_id":346,"name":"layabout","steam_id":76561198130892117,"connected_time":3556000000000,"state":"active","ping":55},{"user_id":386,"name":"Buckytr","steam_id":76561198096335025,"connected_time":235000000000,"state":"active","ping":96},{"user_id":387,"name":"harry","steam_id":76561198365118514,"connected_time":221000000000,"state":"active","ping":50},{"user_id":395,"name":"That one gamer boy","steam_id":76561199166485004,"connected_time":89000000000,"state":"active","ping":111},{"user_id":373,"name":"Player","steam_id":76561198883062728,"connected_time":530000000000,"state":"active","ping":53},{"user_id":393,"name":"Random","steam_id":76561198318879454,"connected_time":120000000000,"state":"active","ping":64},{"user_id":388,"name":"mike","steam_id":76561198099412571,"connected_time":200000000000,"state":"active","ping":46},{"user_id":390,"name":"J O V A","steam_id":76561198090333536,"connected_time":177000000000,"state":"active","ping":62},{"user_id":338,"name":"Ziath","steam_id":76561198094009164,"connected_time":4721000000000,"state":"active","ping":47},{"user_id":391,"name":"footoftheday","steam_id":76561198052712449,"connected_time":166000000000,"state":"active","ping":99},{"user_id":394,"name":"Lost (15)","steam_id":76561198093713427,"connected_time":107000000000,"state":"active","ping":88}]},{"server_id":15,"name":"Uncletopia | New York City | 3 | All Maps","name_short":"nyc-3","host":"nyc-1.us.uncletopia.com","port":27035,"enabled":true,"region":"us-east","cc":"us","latitude":40.73061,"longitude":-73.93524,"reserved":0,"last_update":"0001-01-01T00:00:00Z","name_a2s":"Uncletopia | New York City | 3 | All Maps","protocol":17,"map":"pl_wutville_event","folder":"tf","game":"Team Fortress","app_id":440,"player_count":3,"max_players":24,"Bots":0,"server_type":"Dedicated","server_os":"Linux","password":true,"vac":true,"version":"7723704","steam_id":85568392924742820,"keywords":["nocrits","nodmgspread","payload","uncletopia"],"game_id":440,"stv_port":27036,"stv_name":"Uncletopia | New York City | 3 | All Maps | STV","players":[{"user_id":198,"name":"The Potato Romancer","steam_id":76561198204197648,"connected_time":221000000000,"state":"active","ping":95},{"user_id":199,"name":"Lucky Cashews","steam_id":76561199234138446,"connected_time":177000000000,"state":"active","ping":118},{"user_id":200,"name":"World's WORST Gunspy","steam_id":76561199174579733,"connected_time":125000000000,"state":"active","ping":66}]},{"server_id":16,"name":"Uncletopia | New York City | 4 | Community","name_short":"nyc-4","host":"nyc-1.us.uncletopia.com","port":27045,"enabled":true,"region":"us-east","cc":"us","latitude":40.73061,"longitude":-73.93524,"reserved":0,"last_update":"0001-01-01T00:00:00Z","name_a2s":"Uncletopia | New York City | 4 | Community","protocol":17,"map":"workshop/koth_ashville_final.ugc2130459942","folder":"tf","game":"Team Fortress","app_id":440,"player_count":0,"max_players":24,"Bots":0,"server_type":"Dedicated","server_os":"Linux","password":true,"vac":true,"version":"7723704","steam_id":85568392924742821,"keywords":["cp","nocrits","nodmgspread","uncletopia"],"game_id":440,"stv_port":27046,"stv_name":"Uncletopia | New York City | 4 | Community | STV","players":null},{"server_id":142,"name":"Uncletopia | São Paulo | 1 | All Maps","name_short":"sao-1","host":"sao-1.br.uncletopia.com","port":27015,"enabled":true,"region":"sa","cc":"br","latitude":-23.533773,"longitude":-46.62529,"reserved":0,"last_update":"0001-01-01T00:00:00Z","name_a2s":"Uncletopia | São Paulo | 1 | All Maps","protocol":17,"map":"pl_swiftwater_final1","folder":"tf","game":"Team Fortress","app_id":440,"player_count":0,"max_players":24,"Bots":0,"server_type":"Dedicated","server_os":"Linux","password":true,"vac":true,"version":"7723704","steam_id":85568392924469996,"keywords":["nocrits","nodmgspread","payload","uncletopia"],"game_id":440,"stv_port":27016,"stv_name":"Uncletopia | São Paulo | 1 | All Maps | STV","players":null},{"server_id":143,"name":"Uncletopia | São Paulo | 2 | All Maps","name_short":"sao-2","host":"sao-2.br.uncletopia.com","port":27015,"enabled":true,"region":"sa","cc":"br","latitude":-23.533773,"longitude":-46.62529,"reserved":0,"last_update":"0001-01-01T00:00:00Z","name_a2s":"Uncletopia | São Paulo | 2 | All Maps","protocol":17,"map":"pl_borneo","folder":"tf","game":"Team Fortress","app_id":440,"player_count":0,"max_players":24,"Bots":0,"server_type":"Dedicated","server_os":"Linux","password":true,"vac":true,"version":"7723704","steam_id":85568392924485349,"keywords":["nocrits","nodmgspread","payload","uncletopia"],"game_id":440,"stv_port":27016,"stv_name":"Uncletopia | São Paulo | 2 | All Maps | STV","players":null},{"server_id":7,"name":"Uncletopia | Seattle | 1 | All Maps","name_short":"sea-1","host":"sea-1.us.uncletopia.com","port":27015,"enabled":true,"region":"us-west","cc":"us","latitude":47.608013,"longitude":-122.33517,"reserved":0,"last_update":"0001-01-01T00:00:00Z","name_a2s":"Uncletopia | Seattle | 1 | All Maps","protocol":17,"map":"pl_upward","folder":"tf","game":"Team Fortress","app_id":440,"player_count":24,"max_players":24,"Bots":0,"server_type":"Dedicated","server_os":"Linux","password":true,"vac":true,"version":"7723704","steam_id":85568392924469997,"keywords":["nocrits","nodmgspread","payload","uncletopia"],"game_id":440,"stv_port":27016,"stv_name":"Uncletopia | Seattle | 1 | All Maps | STV","players":[{"user_id":277,"name":"⛧⸸⛧⸸⛧⸸","steam_id":76561198007051179,"connected_time":1154000000000,"state":"active","ping":71},{"user_id":186,"name":"lili.winters","steam_id":76561199391478575,"connected_time":7419000000000,"state":"active","ping":68},{"user_id":223,"name":"Luca","steam_id":76561198125087140,"connected_time":6342000000000,"state":"active","ping":47},{"user_id":261,"name":"blinkerton city","steam_id":76561198054270410,"connected_time":2903000000000,"state":"active","ping":49},{"user_id":249,"name":"Monsterjj","steam_id":76561198077019286,"connected_time":3688000000000,"state":"active","ping":59},{"user_id":290,"name":"9. choking on apple","steam_id":76561198984612489,"connected_time":18000000000,"state":"active","ping":89},{"user_id":264,"name":"KellyKapoor","steam_id":76561198040828123,"connected_time":2611000000000,"state":"active","ping":38},{"user_id":267,"name":"Juntao","steam_id":76561199389584938,"connected_time":2501000000000,"state":"active","ping":32},{"user_id":278,"name":"My bday I guess","steam_id":76561198056075147,"connected_time":951000000000,"state":"active","ping":170},{"user_id":281,"name":"Tom","steam_id":76561198070630154,"connected_time":792000000000,"state":"active","ping":73},{"user_id":288,"name":"zinnk","steam_id":76561198092081825,"connected_time":331000000000,"state":"active","ping":74},{"user_id":147,"name":"Be Gay, Do Crimes, Smoke Weed!","steam_id":76561198092419868,"connected_time":10006000000000,"state":"active","ping":49},{"user_id":156,"name":"[K.Y.L.L.]TSQ-05DRN18-0432 (it)","steam_id":76561198027321950,"connected_time":9877000000000,"state":"active","ping":50},{"user_id":282,"name":"Nolan","steam_id":76561198169648081,"connected_time":660000000000,"state":"active","ping":98},{"user_id":289,"name":"General Fisticuffs","steam_id":76561198255721392,"connected_time":34000000000,"state":"active","ping":99},{"user_id":291,"name":"shane","steam_id":76561198060491451,"connected_time":15000000000,"state":"spawning","ping":214},{"user_id":279,"name":"Pan Dulce","steam_id":76561198044444716,"connected_time":915000000000,"state":"active","ping":78},{"user_id":287,"name":"Inflight","steam_id":76561198920049475,"connected_time":523000000000,"state":"active","ping":108},{"user_id":283,"name":"a crazy hobo","steam_id":76561198289650060,"connected_time":629000000000,"state":"active","ping":68},{"user_id":113,"name":"Tom Skirrett","steam_id":76561198014600788,"connected_time":13871000000000,"state":"active","ping":63},{"user_id":276,"name":"Zell Da Sheepy","steam_id":76561198978753666,"connected_time":1302000000000,"state":"active","ping":86},{"user_id":167,"name":"[slug]","steam_id":76561197989592178,"connected_time":9005000000000,"state":"active","ping":106},{"user_id":199,"name":"MisterManne","steam_id":76561198106598600,"connected_time":7025000000000,"state":"active","ping":46},{"user_id":260,"name":"EatSomeBEES","steam_id":76561198047334307,"connected_time":3015000000000,"state":"active","ping":81}]},{"server_id":119,"name":"Uncletopia | Seattle | 2 | All Maps","name_short":"sea-2","host":"sea-1.us.uncletopia.com","port":27025,"enabled":true,"region":"us-west","cc":"us","latitude":47.608013,"longitude":-122.33517,"reserved":0,"last_update":"0001-01-01T00:00:00Z","name_a2s":"Uncletopia | Seattle | 2 | All Maps","protocol":17,"map":"cp_steel","folder":"tf","game":"Team Fortress","app_id":440,"player_count":24,"max_players":24,"Bots":0,"server_type":"Dedicated","server_os":"Linux","password":true,"vac":true,"version":"7723704","steam_id":85568392924469998,"keywords":["cp","nocrits","nodmgspread","uncletopia"],"game_id":440,"stv_port":27026,"stv_name":"Uncletopia | Seattle | 2 | All Maps | STV","players":[{"user_id":216,"name":"Waffle Wannabe","steam_id":76561198064510650,"connected_time":3449000000000,"state":"active","ping":116},{"user_id":239,"name":"Greskrendtregk","steam_id":76561197969553142,"connected_time":1175000000000,"state":"active","ping":58},{"user_id":232,"name":"Joy in A Box","steam_id":76561198156820753,"connected_time":1663000000000,"state":"active","ping":183},{"user_id":242,"name":"SorenMaximus","steam_id":76561198962936832,"connected_time":521000000000,"state":"active","ping":48},{"user_id":236,"name":"amoeba","steam_id":76561198970261784,"connected_time":1487000000000,"state":"active","ping":55},{"user_id":148,"name":"XzachTLY","steam_id":76561198145534604,"connected_time":9729000000000,"state":"active","ping":69},{"user_id":241,"name":"Kzjytsugn","steam_id":76561198130241974,"connected_time":796000000000,"state":"active","ping":40},{"user_id":160,"name":"Austin the Forecaster","steam_id":76561198141635855,"connected_time":9076000000000,"state":"active","ping":63},{"user_id":223,"name":"TheCowledWiz","steam_id":76561198016735868,"connected_time":2380000000000,"state":"active","ping":53},{"user_id":229,"name":"gabberGirl99","steam_id":76561198131166135,"connected_time":2081000000000,"state":"active","ping":44},{"user_id":238,"name":"NEBULA","steam_id":76561198086878595,"connected_time":1379000000000,"state":"active","ping":86},{"user_id":237,"name":"cyra","steam_id":76561198025454291,"connected_time":1444000000000,"state":"active","ping":44},{"user_id":188,"name":"tails luvr 1","steam_id":76561198073269122,"connected_time":7458000000000,"state":"active","ping":122},{"user_id":192,"name":"squash","steam_id":76561198150281353,"connected_time":6616000000000,"state":"active","ping":56},{"user_id":183,"name":"booch","steam_id":76561198017030029,"connected_time":7693000000000,"state":"active","ping":70},{"user_id":243,"name":"yo merry chirstmas","steam_id":76561198163265338,"connected_time":458000000000,"state":"active","ping":53},{"user_id":198,"name":"4","steam_id":76561198009121060,"connected_time":6306000000000,"state":"active","ping":76},{"user_id":234,"name":"dog-shaped dog","steam_id":76561198286166220,"connected_time":1648000000000,"state":"active","ping":130},{"user_id":235,"name":"moe","steam_id":76561198929586245,"connected_time":1598000000000,"state":"active","ping":86},{"user_id":244,"name":"gorlab","steam_id":76561198025089694,"connected_time":396000000000,"state":"active","ping":65},{"user_id":211,"name":"arcticmonkeysfan2006","steam_id":76561198345528370,"connected_time":3662000000000,"state":"active","ping":60},{"user_id":222,"name":"a chicken","steam_id":76561198313121580,"connected_time":3023000000000,"state":"active","ping":83},{"user_id":179,"name":"jorts","steam_id":76561199041179985,"connected_time":8023000000000,"state":"active","ping":60},{"user_id":228,"name":"rorytherednosedreindeer","steam_id":76561198065825165,"connected_time":2125000000000,"state":"active","ping":82}]},{"server_id":17,"name":"Uncletopia | San Francisco | 1 | All Maps","name_short":"sfo-1","host":"sfo-1.us.uncletopia.com","port":27015,"enabled":true,"region":"us-west","cc":"us","latitude":37.77397,"longitude":-122.4313,"reserved":0,"last_update":"0001-01-01T00:00:00Z","name_a2s":"Uncletopia | San Francisco | 1 | All Maps","protocol":17,"map":"cp_gravelpit","folder":"tf","game":"Team Fortress","app_id":440,"player_count":24,"max_players":24,"Bots":0,"server_type":"Dedicated","server_os":"Linux","password":true,"vac":true,"version":"7723704","steam_id":85568392924469999,"keywords":["cp","nocrits","nodmgspread","uncletopia"],"game_id":440,"stv_port":27016,"stv_name":"Uncletopia | San Francisco | 1 | All Maps | STV","players":[{"user_id":401,"name":"tim E","steam_id":76561198401800919,"connected_time":1485000000000,"state":"active","ping":79},{"user_id":406,"name":"Stapler","steam_id":76561198099295077,"connected_time":547000000000,"state":"active","ping":46},{"user_id":407,"name":"Convenient Strip Mall","steam_id":76561198164678062,"connected_time":443000000000,"state":"active","ping":62},{"user_id":395,"name":"T^T | pHIL - \u003c3 sab","steam_id":76561198309010627,"connected_time":1710000000000,"state":"active","ping":55},{"user_id":387,"name":"Non-Union Mexican Equivalent","steam_id":76561198013399809,"connected_time":2222000000000,"state":"active","ping":55},{"user_id":411,"name":"Slime","steam_id":76561199175440452,"connected_time":278000000000,"state":"active","ping":106},{"user_id":388,"name":"BigSqueezy","steam_id":76561198094158829,"connected_time":2188000000000,"state":"active","ping":78},{"user_id":412,"name":"Establish Dominance","steam_id":76561197994706942,"connected_time":260000000000,"state":"active","ping":58},{"user_id":413,"name":"bad spy player","steam_id":76561198873699671,"connected_time":225000000000,"state":"active","ping":55},{"user_id":394,"name":"FiddyFoMike","steam_id":76561198057072581,"connected_time":1721000000000,"state":"active","ping":47},{"user_id":414,"name":"Orange bench","steam_id":76561198191269339,"connected_time":202000000000,"state":"active","ping":79},{"user_id":364,"name":"real","steam_id":76561198156053300,"connected_time":3481000000000,"state":"active","ping":63},{"user_id":415,"name":"THC Freebaser","steam_id":76561198075779863,"connected_time":192000000000,"state":"active","ping":77},{"user_id":382,"name":"Perididdle","steam_id":76561198056864606,"connected_time":2516000000000,"state":"active","ping":81},{"user_id":416,"name":"Dargon","steam_id":76561198059383981,"connected_time":174000000000,"state":"active","ping":49},{"user_id":417,"name":"Facehurt","steam_id":76561198028504034,"connected_time":130000000000,"state":"active","ping":82},{"user_id":375,"name":"Mignyanne :3","steam_id":76561198048754056,"connected_time":3297000000000,"state":"active","ping":50},{"user_id":217,"name":"Fig","steam_id":76561198203889013,"connected_time":14234000000000,"state":"active","ping":67},{"user_id":396,"name":"MinusSoup918","steam_id":76561198060902773,"connected_time":1706000000000,"state":"active","ping":79},{"user_id":397,"name":"MemeyBoi3rd","steam_id":76561199443570634,"connected_time":1705000000000,"state":"active","ping":80},{"user_id":418,"name":"Glove Man","steam_id":76561198186899790,"connected_time":128000000000,"state":"active","ping":102},{"user_id":328,"name":"Rabbitone","steam_id":76561198132691749,"connected_time":6702000000000,"state":"active","ping":101},{"user_id":399,"name":"Saber","steam_id":76561199122189609,"connected_time":1616000000000,"state":"active","ping":77},{"user_id":403,"name":"sora","steam_id":76561198094256973,"connected_time":1318000000000,"state":"active","ping":54}]},{"server_id":18,"name":"Uncletopia | San Francisco | 2 | All Maps","name_short":"sfo-2","host":"sfo-1.us.uncletopia.com","port":27025,"enabled":true,"region":"us-west","cc":"us","latitude":37.77397,"longitude":-122.4313,"reserved":0,"last_update":"0001-01-01T00:00:00Z","name_a2s":"Uncletopia | San Francisco | 2 | All Maps","protocol":17,"map":"cp_sunshine","folder":"tf","game":"Team Fortress","app_id":440,"player_count":24,"max_players":24,"Bots":0,"server_type":"Dedicated","server_os":"Linux","password":true,"vac":true,"version":"7723704","steam_id":85568392924470000,"keywords":["cp","nocrits","nodmgspread","uncletopia"],"game_id":440,"stv_port":27026,"stv_name":"Uncletopia | San Francisco | 2 | All Maps | STV","players":[{"user_id":57,"name":"Frongus","steam_id":76561197979056451,"connected_time":1669000000000,"state":"active","ping":60},{"user_id":76,"name":"wrost tf2 player ever","steam_id":76561199439477857,"connected_time":761000000000,"state":"active","ping":98},{"user_id":77,"name":"Grilled Cheese Deluxe","steam_id":76561198077957564,"connected_time":752000000000,"state":"active","ping":75},{"user_id":78,"name":"DrD","steam_id":76561198067266383,"connected_time":739000000000,"state":"active","ping":54},{"user_id":69,"name":"Livin' Like Larry","steam_id":76561198313360974,"connected_time":1375000000000,"state":"active","ping":39},{"user_id":75,"name":"havarti gaming","steam_id":76561198069895678,"connected_time":799000000000,"state":"active","ping":70},{"user_id":70,"name":"R5-D4","steam_id":76561198025196439,"connected_time":1212000000000,"state":"active","ping":75},{"user_id":90,"name":"Jacasola","steam_id":76561198055460402,"connected_time":25000000000,"state":"active","ping":45},{"user_id":33,"name":"azucar ❤","steam_id":76561199038054603,"connected_time":2929000000000,"state":"active","ping":110},{"user_id":91,"name":"Dr. Crygor","steam_id":76561198036559181,"connected_time":21000000000,"state":"spawning","ping":114},{"user_id":35,"name":"woody's wood","steam_id":76561198315741793,"connected_time":2793000000000,"state":"active","ping":61},{"user_id":36,"name":"matt_rolltide","steam_id":76561198796727164,"connected_time":2654000000000,"state":"active","ping":43},{"user_id":54,"name":"Marcy wu","steam_id":76561199217048284,"connected_time":1742000000000,"state":"active","ping":70},{"user_id":38,"name":"PachucoWaffle","steam_id":76561198051491032,"connected_time":2572000000000,"state":"active","ping":68},{"user_id":82,"name":"F3RRAL","steam_id":76561198172279275,"connected_time":523000000000,"state":"active","ping":60},{"user_id":40,"name":"The Horny","steam_id":76561198863639459,"connected_time":2502000000000,"state":"active","ping":70},{"user_id":92,"name":"Discovery","steam_id":76561198841844093,"connected_time":6000000000,"state":"spawning","ping":61},{"user_id":42,"name":"El Monte","steam_id":76561198263562991,"connected_time":2463000000000,"state":"active","ping":58},{"user_id":88,"name":"airbudenjoyer2012","steam_id":76561198150428763,"connected_time":214000000000,"state":"active","ping":64},{"user_id":81,"name":"Thatoddboi","steam_id":76561199427185916,"connected_time":533000000000,"state":"active","ping":47},{"user_id":74,"name":"bappo del taco","steam_id":76561199068510270,"connected_time":897000000000,"state":"active","ping":30},{"user_id":65,"name":"HeartUnderblade","steam_id":76561198055471470,"connected_time":1448000000000,"state":"active","ping":72},{"user_id":83,"name":"R.O.U.S.","steam_id":76561198339604554,"connected_time":510000000000,"state":"active","ping":72},{"user_id":89,"name":"Reneegade","steam_id":76561198244721320,"connected_time":156000000000,"state":"active","ping":131}]},{"server_id":19,"name":"Uncletopia | San Francisco | 3 | No Payload","name_short":"sfo-3","host":"sfo-1.us.uncletopia.com","port":27035,"enabled":true,"region":"us-west","cc":"us","latitude":37.77397,"longitude":-122.4313,"reserved":0,"last_update":"0001-01-01T00:00:00Z","name_a2s":"Uncletopia | San Francisco | 3 | No Payload","protocol":17,"map":"cp_dustbowl","folder":"tf","game":"Team Fortress","app_id":440,"player_count":0,"max_players":24,"Bots":0,"server_type":"Dedicated","server_os":"Linux","password":true,"vac":true,"version":"7723704","steam_id":85568392924742824,"keywords":["cp","nocrits","nodmgspread","uncletopia"],"game_id":440,"stv_port":27036,"stv_name":"Uncletopia | San Francisco | 3 | No Payload | STV","players":null},{"server_id":20,"name":"Uncletopia | San Francisco | 4 | Community","name_short":"sfo-4","host":"sfo-1.us.uncletopia.com","port":27045,"enabled":true,"region":"us-west","cc":"us","latitude":37.77397,"longitude":-122.4313,"reserved":0,"last_update":"0001-01-01T00:00:00Z","name_a2s":"Uncletopia | San Francisco | 4 | Community","protocol":17,"map":"workshop/koth_synthetic_rc6a.ugc1549817316","folder":"tf","game":"Team Fortress","app_id":440,"player_count":0,"max_players":24,"Bots":0,"server_type":"Dedicated","server_os":"Linux","password":true,"vac":true,"version":"7723704","steam_id":85568392924742826,"keywords":["cp","nocrits","nodmgspread","uncletopia"],"game_id":440,"stv_port":27046,"stv_name":"Uncletopia | San Francisco | 4 | Community | STV","players":null},{"server_id":141,"name":"Uncletopia | Sydney | 1 | All Maps","name_short":"syd-1","host":"syd-1.au.uncletopia.com","port":27015,"enabled":true,"region":"au","cc":"au","latitude":-33.865143,"longitude":151.2099,"reserved":0,"last_update":"0001-01-01T00:00:00Z","name_a2s":"Uncletopia | Sydney | 1 | All Maps","protocol":17,"map":"pl_swiftwater_final1","folder":"tf","game":"Team Fortress","app_id":440,"player_count":22,"max_players":24,"Bots":0,"server_type":"Dedicated","server_os":"Linux","password":true,"vac":true,"version":"7723704","steam_id":85568392924470001,"keywords":["nocrits","nodmgspread","payload","uncletopia"],"game_id":440,"stv_port":27016,"stv_name":"Uncletopia | Sydney | 1 | All Maps | STV","players":[{"user_id":213,"name":"SuperCheppies","steam_id":76561198157309145,"connected_time":472000000000,"state":"active","ping":51},{"user_id":216,"name":"Jonny","steam_id":76561198053391732,"connected_time":230000000000,"state":"active","ping":74},{"user_id":214,"name":"KillerBlow","steam_id":76561198930232832,"connected_time":446000000000,"state":"active","ping":77},{"user_id":215,"name":"Glockenspe (She/Her)","steam_id":76561199184115241,"connected_time":296000000000,"state":"active","ping":47},{"user_id":187,"name":"Muffin™","steam_id":76561198819353439,"connected_time":2546000000000,"state":"active","ping":45},{"user_id":217,"name":"floppinv2","steam_id":76561198213566569,"connected_time":59000000000,"state":"active","ping":99},{"user_id":218,"name":"gave my love to a shooting star","steam_id":76561197990537324,"connected_time":55000000000,"state":"active","ping":106},{"user_id":211,"name":"War","steam_id":76561198157868917,"connected_time":587000000000,"state":"active","ping":64},{"user_id":210,"name":"Tas","steam_id":76561198041224384,"connected_time":659000000000,"state":"active","ping":45},{"user_id":62,"name":"Mail Bomb Victim","steam_id":76561198284533039,"connected_time":12462000000000,"state":"active","ping":67},{"user_id":190,"name":"Vanessa","steam_id":76561198077728992,"connected_time":2311000000000,"state":"active","ping":60},{"user_id":98,"name":"jocelyn j jones","steam_id":76561198076706359,"connected_time":9911000000000,"state":"active","ping":71},{"user_id":207,"name":"AfroNinja","steam_id":76561198120372011,"connected_time":1003000000000,"state":"active","ping":65},{"user_id":219,"name":"Skeleton on the Dunny","steam_id":76561198216754205,"connected_time":53000000000,"state":"active","ping":46},{"user_id":220,"name":"Gregory","steam_id":76561199028542666,"connected_time":50000000000,"state":"active","ping":46},{"user_id":176,"name":"AcidOxidant","steam_id":76561198053504029,"connected_time":3214000000000,"state":"active","ping":50},{"user_id":203,"name":"Mooty","steam_id":76561198301293435,"connected_time":1453000000000,"state":"active","ping":58},{"user_id":204,"name":"yeni","steam_id":76561198045696353,"connected_time":1199000000000,"state":"active","ping":59},{"user_id":206,"name":"NewChris","steam_id":76561198254754182,"connected_time":1095000000000,"state":"active","ping":74},{"user_id":209,"name":"Michaelsoft Binbows","steam_id":76561198422847304,"connected_time":861000000000,"state":"active","ping":58},{"user_id":166,"name":"Celph","steam_id":76561197993987500,"connected_time":5182000000000,"state":"active","ping":55},{"user_id":199,"name":"01001110 01101111","steam_id":76561198290288735,"connected_time":2105000000000,"state":"active","ping":61}]},{"server_id":123,"name":"Uncletopia | Sydney | 2 | All Maps","name_short":"syd-2","host":"syd-1.au.uncletopia.com","port":27025,"enabled":true,"region":"au","cc":"au","latitude":-33.865143,"longitude":151.2099,"reserved":0,"last_update":"0001-01-01T00:00:00Z","name_a2s":"Uncletopia | Sydney | 2 | All Maps","protocol":17,"map":"koth_lakeside_final","folder":"tf","game":"Team Fortress","app_id":440,"player_count":0,"max_players":24,"Bots":0,"server_type":"Dedicated","server_os":"Linux","password":true,"vac":true,"version":"7723704","steam_id":85568392924470002,"keywords":["cp","nocrits","nodmgspread","uncletopia"],"game_id":440,"stv_port":27026,"stv_name":"Uncletopia | Sydney | 2 | All Maps | STV","players":null},{"server_id":395,"name":"Uncletopia | Sydney | 3 | All Maps","name_short":"syd-3","host":"syd-1.au.uncletopia.com","port":27035,"enabled":true,"region":"au","cc":"au","latitude":-33.865143,"longitude":151.2099,"reserved":0,"last_update":"0001-01-01T00:00:00Z","name_a2s":"Uncletopia | Sydney | 3 | All Maps","protocol":17,"map":"pl_upward","folder":"tf","game":"Team Fortress","app_id":440,"player_count":17,"max_players":24,"Bots":0,"server_type":"Dedicated","server_os":"Linux","password":true,"vac":true,"version":"7723704","steam_id":85568392925194467,"keywords":["nocrits","nodmgspread","payload","uncletopia"],"game_id":440,"stv_port":27036,"stv_name":"Uncletopia | Sydney | 3 | All Maps | STV","players":[{"user_id":59,"name":"michael","steam_id":76561198052848358,"connected_time":3221000000000,"state":"spawning","ping":118},{"user_id":49,"name":"Kiwoo","steam_id":76561198097429186,"connected_time":3801000000000,"state":"spawning","ping":153},{"user_id":81,"name":"Zeron","steam_id":76561198125778202,"connected_time":1698000000000,"state":"spawning","ping":96},{"user_id":61,"name":"Speed-moment","steam_id":76561198138604894,"connected_time":3125000000000,"state":"spawning","ping":101},{"user_id":40,"name":"InductedGold675","steam_id":76561198425091507,"connected_time":4058000000000,"state":"spawning","ping":104},{"user_id":97,"name":"FIX","steam_id":76561197995157189,"connected_time":383000000000,"state":"spawning","ping":101},{"user_id":98,"name":"Tiger_Tan","steam_id":76561198221733844,"connected_time":373000000000,"state":"spawning","ping":135},{"user_id":44,"name":"tazz.","steam_id":76561197999757636,"connected_time":3928000000000,"state":"spawning","ping":111},{"user_id":93,"name":"ToadFungus","steam_id":76561199219667039,"connected_time":647000000000,"state":"spawning","ping":175},{"user_id":46,"name":"Dr. Hoppity","steam_id":76561197999715646,"connected_time":3915000000000,"state":"spawning","ping":93},{"user_id":100,"name":"broccoli","steam_id":76561198362942706,"connected_time":120000000000,"state":"spawning","ping":170},{"user_id":88,"name":"alex","steam_id":76561198053382248,"connected_time":1068000000000,"state":"spawning","ping":105},{"user_id":51,"name":"EpicGuy4227","steam_id":76561198094132328,"connected_time":3719000000000,"state":"spawning","ping":126},{"user_id":85,"name":"The Gaming","steam_id":76561198914415738,"connected_time":1300000000000,"state":"spawning","ping":122},{"user_id":99,"name":"Hotguy77","steam_id":76561199222041792,"connected_time":366000000000,"state":"spawning","ping":119},{"user_id":95,"name":"West Pole","steam_id":76561198365996796,"connected_time":624000000000,"state":"spawning","ping":131},{"user_id":70,"name":"cade is sleepy","steam_id":76561198126719182,"connected_time":2476000000000,"state":"spawning","ping":101}]},{"server_id":396,"name":"Uncletopia | Sydney | 4 | All Maps","name_short":"syd-4","host":"syd-1.au.uncletopia.com","port":27045,"enabled":true,"region":"au","cc":"au","latitude":-33.865143,"longitude":151.2099,"reserved":0,"last_update":"0001-01-01T00:00:00Z","name_a2s":"Uncletopia | Sydney | 4 | All Maps","protocol":17,"map":"cp_altitude","folder":"tf","game":"Team Fortress","app_id":440,"player_count":0,"max_players":24,"Bots":0,"server_type":"Dedicated","server_os":"Linux","password":true,"vac":true,"version":"7723704","steam_id":85568392925397958,"keywords":["cp","nocrits","nodmgspread","uncletopia"],"game_id":440,"stv_port":27046,"stv_name":"Uncletopia | Sydney | 4 | All Maps | STV","players":null},{"server_id":58,"name":"Uncletopia | Sydney | 5 | No Payload","name_short":"syd-5","host":"syd-1.au.uncletopia.com","port":27055,"enabled":true,"region":"au","cc":"au","latitude":-33.865143,"longitude":151.2099,"reserved":0,"last_update":"0001-01-01T00:00:00Z","name_a2s":"Uncletopia | Sydney | 5 | No Payload","protocol":17,"map":"koth_cascade","folder":"tf","game":"Team Fortress","app_id":440,"player_count":0,"max_players":24,"Bots":0,"server_type":"Dedicated","server_os":"Linux","password":true,"vac":true,"version":"7723704","steam_id":85568392925397959,"keywords":["cp","nocrits","nodmgspread","uncletopia"],"game_id":440,"stv_port":27056,"stv_name":"Uncletopia | Sydney | 5 | No Payload | STV","players":null},{"server_id":59,"name":"Uncletopia | Sydney | 6 | Community","name_short":"syd-6","host":"syd-1.au.uncletopia.com","port":27065,"enabled":true,"region":"au","cc":"au","latitude":-33.865143,"longitude":151.2099,"reserved":0,"last_update":"0001-01-01T00:00:00Z","name_a2s":"Uncletopia | Sydney | 6 | Community","protocol":17,"map":"koth_lakeside_final","folder":"tf","game":"Team Fortress","app_id":440,"player_count":0,"max_players":24,"Bots":0,"server_type":"Dedicated","server_os":"Linux","password":true,"vac":true,"version":"7723704","steam_id":85568392925397960,"keywords":["cp","nocrits","nodmgspread","uncletopia"],"game_id":440,"stv_port":27066,"stv_name":"Uncletopia | Sydney | 6 | Community | STV","players":null},{"server_id":49,"name":"Uncletopia | Warsaw | 1 | All Maps","name_short":"waw-1","host":"waw-1.pl.uncletopia.com","port":27015,"enabled":true,"region":"eu","cc":"pl","latitude":52.2297,"longitude":21.017532,"reserved":0,"last_update":"0001-01-01T00:00:00Z","name_a2s":"Uncletopia | Warsaw | 1 | All Maps","protocol":17,"map":"cp_process_final","folder":"tf","game":"Team Fortress","app_id":440,"player_count":0,"max_players":24,"Bots":0,"server_type":"Dedicated","server_os":"Linux","password":true,"vac":true,"version":"7723704","steam_id":85568392925397850,"keywords":["cp","nocrits","nodmgspread","uncletopia"],"game_id":440,"stv_port":27016,"stv_name":"Uncletopia | Warsaw | 1 | All Maps | STV","players":null},{"server_id":50,"name":"Uncletopia | Warsaw | 2 | All Maps","name_short":"waw-2","host":"waw-1.pl.uncletopia.com","port":27025,"enabled":true,"region":"eu","cc":"pl","latitude":52.2297,"longitude":21.017532,"reserved":0,"last_update":"0001-01-01T00:00:00Z","name_a2s":"Uncletopia | Warsaw | 2 | All Maps","protocol":17,"map":"pl_snowycoast","folder":"tf","game":"Team Fortress","app_id":440,"player_count":0,"max_players":24,"Bots":0,"server_type":"Dedicated","server_os":"Linux","password":true,"vac":true,"version":"7723704","steam_id":85568392925397851,"keywords":["nocrits","nodmgspread","payload","uncletopia"],"game_id":440,"stv_port":27026,"stv_name":"Uncletopia | Warsaw | 2 | All Maps | STV","players":null},{"server_id":51,"name":"Uncletopia | Warsaw | 3 | All Maps","name_short":"waw-3","host":"waw-1.pl.uncletopia.com","port":27035,"enabled":true,"region":"eu","cc":"pl","latitude":52.2297,"longitude":21.017532,"reserved":0,"last_update":"0001-01-01T00:00:00Z","name_a2s":"Uncletopia | Warsaw | 3 | All Maps","protocol":17,"map":"koth_lakeside_final","folder":"tf","game":"Team Fortress","app_id":440,"player_count":0,"max_players":24,"Bots":0,"server_type":"Dedicated","server_os":"Linux","password":true,"vac":true,"version":"7723704","steam_id":85568392925397852,"keywords":["cp","nocrits","nodmgspread","uncletopia"],"game_id":440,"stv_port":27036,"stv_name":"Uncletopia | Warsaw | 3 | All Maps | STV","players":null},{"server_id":52,"name":"Uncletopia | Warsaw | 4 | All Maps","name_short":"waw-4","host":"waw-1.pl.uncletopia.com","port":27045,"enabled":true,"region":"eu","cc":"pl","latitude":52.2297,"longitude":21.017532,"reserved":0,"last_update":"0001-01-01T00:00:00Z","name_a2s":"Uncletopia | Warsaw | 4 | All Maps","protocol":17,"map":"pl_upward","folder":"tf","game":"Team Fortress","app_id":440,"player_count":0,"max_players":24,"Bots":0,"server_type":"Dedicated","server_os":"Linux","password":true,"vac":true,"version":"7723704","steam_id":85568392925397853,"keywords":["nocrits","nodmgspread","payload","uncletopia"],"game_id":440,"stv_port":27046,"stv_name":"Uncletopia | Warsaw | 4 | All Maps | STV","players":null},{"server_id":53,"name":"Uncletopia | Warsaw | 5 | No Payload","name_short":"waw-5","host":"waw-1.pl.uncletopia.com","port":27055,"enabled":true,"region":"eu","cc":"pl","latitude":52.2297,"longitude":21.017532,"reserved":0,"last_update":"0001-01-01T00:00:00Z","name_a2s":"Uncletopia | Warsaw | 5 | No Payload","protocol":17,"map":"koth_highpass","folder":"tf","game":"Team Fortress","app_id":440,"player_count":0,"max_players":24,"Bots":0,"server_type":"Dedicated","server_os":"Linux","password":true,"vac":true,"version":"7723704","steam_id":85568392925397854,"keywords":["cp","nocrits","nodmgspread","uncletopia"],"game_id":440,"stv_port":27056,"stv_name":"Uncletopia | Warsaw | 5 | No Payload | STV","players":null},{"server_id":54,"name":"Uncletopia | Warsaw | 6 | Community","name_short":"waw-6","host":"waw-1.pl.uncletopia.com","port":27065,"enabled":true,"region":"eu","cc":"pl","latitude":52.2297,"longitude":21.017532,"reserved":0,"last_update":"0001-01-01T00:00:00Z","name_a2s":"Uncletopia | Warsaw | 6 | Community","protocol":17,"map":"koth_viaduct","folder":"tf","game":"Team Fortress","app_id":440,"player_count":0,"max_players":24,"Bots":0,"server_type":"Dedicated","server_os":"Linux","password":true,"vac":true,"version":"7723704","steam_id":85568392925397856,"keywords":["cp","nocrits","nodmgspread","uncletopia"],"game_id":440,"stv_port":27066,"stv_name":"Uncletopia | Warsaw | 6 | Community | STV","players":null}]}