{"status":true,"message":"","result":[{"server_id":9,"name":"Uncletopia | Atlanta | 1 | All Maps","name_short":"atl-1","host":"atl-1.us.uncletopia.com","port":27015,"enabled":true,"region":"us-east","cc":"us","latitude":33.753746,"longitude":-84.38633,"reserved":0,"last_update":"0001-01-01T00:00:00Z","name_a2s":"Uncletopia | Atlanta | 1 | All Maps","protocol":17,"map":"pl_upward","folder":"tf","game":"Team Fortress","app_id":440,"player_count":24,"max_players":24,"Bots":0,"server_type":"Dedicated","server_os":"Linux","password":true,"vac":true,"version":"7961495","steam_id":85568392924469982,"keywords":["nocrits","nodmgspread","payload","uncletopia"],"game_id":440,"stv_port":27016,"stv_name":"Uncletopia | Atlanta | 1 | All Maps | STV","players":[{"user_id":418,"name":"Dr Gregory House, MD","steam_id":76561198986281248,"connected_time":2166000000000,"state":"active","ping":80},{"user_id":429,"name":"Heathcliff","steam_id":76561198044288534,"connected_time":1914000000000,"state":"active","ping":85},{"user_id":234,"name":"trianamarco780","steam_id":76561199084319677,"connected_time":11868000000000,"state":"active","ping":110},{"user_id":444,"name":"Kiss Master","steam_id":76561198289572271,"connected_time":585000000000,"state":"active","ping":61},{"user_id":339,"name":"com lag","steam_id":76561198019019392,"connected_time":4008000000000,"state":"active","ping":59},{"user_id":445,"name":"HarryjusttHarry","steam_id":76561198982810452,"connected_time":526000000000,"state":"active","ping":76},{"user_id":356,"name":"Sucsubot","steam_id":76561198106456128,"connected_time":3692000000000,"state":"active","ping":59},{"user_id":381,"name":"jerry","steam_id":76561198422891994,"connected_time":2941000000000,"state":"active","ping":106},{"user_id":322,"name":"shinon","steam_id":76561198373626848,"connected_time":4786000000000,"state":"active","ping":69},{"user_id":383,"name":"Notorious H.R.T.","steam_id":76561198104012115,"connected_time":2883000000000,"state":"active","ping":63},{"user_id":384,"name":"Sythoo","steam_id":76561198220893788,"connected_time":2883000000000,"state":"active","ping":71},{"user_id":440,"name":"Kine¬≤","steam_id":76561198061505962,"connected_time":1157000000000,"state":"active","ping":45},{"user_id":303,"name":"Kc","steam_id":76561198210734407,"connected_time":6459000000000,"state":"active","ping":59},{"user_id":335,"name":"Ghost","steam_id":76561198038317862,"connected_time":4271000000000,"state":"active","ping":133},{"user_id":436,"name":"NeptuneÀñ‚Å∫ÔΩ°Àö‚ãÜÀô‚ô•","steam_id":76561199054203198,"connected_time":1725000000000,"state":"active","ping":92},{"user_id":306,"name":"YUNG NASTYMAN","steam_id":76561198039710677,"connected_time":6209000000000,"state":"active","ping":75},{"user_id":404,"name":"thomasdee725???","steam_id":76561199189526173,"connected_time":2565000000000,"state":"active","ping":83},{"user_id":443,"name":"Luigi4tl","steam_id":76561198051862389,"connected_time":735000000000,"state":"active","ping":63},{"user_id":439,"name":"MinimanC","steam_id":76561198071475084,"connected_time":1331000000000,"state":"active","ping":77},{"user_id":408,"name":"DuckMann","steam_id":76561198197058638,"connected_time":2438000000000,"state":"active","ping":47},{"user_id":296,"name":"Le4n!!!","steam_id":76561198045522596,"connected_time":7426000000000,"state":"active","ping":71},{"user_id":432,"name":"DEQUAVIS","steam_id":76561198843060075,"connected_time":1836000000000,"state":"active","ping":117},{"user_id":398,"name":"Dark Lord","steam_id":76561198044199150,"connected_time":2631000000000,"state":"active","ping":94},{"user_id":428,"name":"sansa musa","steam_id":76561198163723555,"connected_time":2072000000000,"state":"active","ping":66}]},{"server_id":104,"name":"Uncletopia | Atlanta | 2 | All Maps","name_short":"atl-2","host":"atl-1.us.uncletopia.com","port":27025,"enabled":true,"region":"us-east","cc":"us","latitude":33.753746,"longitude":-84.38633,"reserved":0,"last_update":"0001-01-01T00:00:00Z","name_a2s":"Uncletopia | Atlanta | 2 | All Maps","protocol":17,"map":"pl_barnblitz","folder":"tf","game":"Team Fortress","app_id":440,"player_count":24,"max_players":24,"Bots":0,"server_type":"Dedicated","server_os":"Linux","password":true,"vac":true,"version":"7961495","steam_id":85568392924469983,"keywords":["nocrits","nodmgspread","payload","uncletopia"],"game_id":440,"stv_port":27026,"stv_name":"Uncletopia | Atlanta | 2 | All Maps | STV","players":[{"user_id":281,"name":"PickleHater13","steam_id":76561198259380127,"connected_time":2495000000000,"state":"active","ping":80},{"user_id":317,"name":"Average Khajiit Assasssin","steam_id":76561199134893517,"connected_time":808000000000,"state":"active","ping":99},{"user_id":283,"name":"Captain Crunch (real)","steam_id":76561198249264748,"connected_time":2457000000000,"state":"active","ping":109},{"user_id":284,"name":"bug","steam_id":76561198240706148,"connected_time":2446000000000,"state":"active","ping":82},{"user_id":273,"name":"You Don't Nomi.","steam_id":76561197969137836,"connected_time":2854000000000,"state":"active","ping":67},{"user_id":316,"name":"Hobo Shanker","steam_id":76561198001785187,"connected_time":812000000000,"state":"active","ping":75},{"user_id":294,"name":"PewPew","steam_id":76561198011299099,"connected_time":2168000000000,"state":"active","ping":60},{"user_id":279,"name":"Drinker of Water","steam_id":76561198284647525,"connected_time":2537000000000,"state":"active","ping":72},{"user_id":259,"name":"√∂¬ør√∂  √π œÄ (NG√Ø‚óã√° x 21","steam_id":76561198069589278,"connected_time":3987000000000,"state":"active","ping":142},{"user_id":326,"name":"TehBubbles","steam_id":76561198276698567,"connected_time":329000000000,"state":"active","ping":72},{"user_id":328,"name":"squeaker","steam_id":76561198055626638,"connected_time":263000000000,"state":"active","ping":106},{"user_id":335,"name":"Sleepy Brady","steam_id":76561198867378129,"connected_time":26000000000,"state":"spawning","ping":73},{"user_id":332,"name":"Moonrox Lostwalks","steam_id":76561198001584041,"connected_time":165000000000,"state":"active","ping":47},{"user_id":324,"name":"Tactically A Coward","steam_id":76561199274044215,"connected_time":518000000000,"state":"active","ping":85},{"user_id":333,"name":"Tanner J. targets engies","steam_id":76561198172024365,"connected_time":152000000000,"state":"active","ping":83},{"user_id":307,"name":"6 abs","steam_id":76561198048220355,"connected_time":1155000000000,"state":"active","ping":116},{"user_id":244,"name":"CheetoSmoke7","steam_id":76561198095217273,"connected_time":5101000000000,"state":"active","ping":57},{"user_id":263,"name":"Aqua from Super Bomberman R","steam_id":76561198172274958,"connected_time":3917000000000,"state":"active","ping":60},{"user_id":217,"name":"Anyar","steam_id":76561198160174097,"connected_time":6711000000000,"state":"active","ping":81},{"user_id":319,"name":"Pie","steam_id":76561198996610188,"connected_time":705000000000,"state":"active","ping":65},{"user_id":265,"name":"cbv djopiikvh, l;qep[voj","steam_id":76561198304661367,"connected_time":3882000000000,"state":"active","ping":59},{"user_id":321,"name":"Wooden E","steam_id":76561198020308956,"connected_time":681000000000,"state":"active","ping":58},{"user_id":327,"name":"Twiggy","steam_id":76561199169825151,"connected_time":305000000000,"state":"active","ping":82},{"user_id":194,"name":"Radium","steam_id":76561198195881339,"connected_time":8200000000000,"state":"active","ping":62}]},{"server_id":400,"name":"Uncletopia | Atlanta | 3 | Stopwatch","name_short":"atl-3","host":"atl-1.us.uncletopia.com","port":27035,"enabled":true,"region":"us-east","cc":"us","latitude":33.753746,"longitude":-84.38633,"reserved":0,"last_update":"0001-01-01T00:00:00Z","name_a2s":"Uncletopia | Atlanta | 3 | Stopwatch","protocol":17,"map":"workshop/koth_product_final.ugc454272353","folder":"tf","game":"Team Fortress","app_id":440,"player_count":8,"max_players":24,"Bots":0,"server_type":"Dedicated","server_os":"Linux","password":true,"vac":true,"version":"7961495","steam_id":85568392924515187,"keywords":["cp","nocrits","nodmgspread","uncletopia"],"game_id":440,"stv_port":27036,"stv_name":"Uncletopia | Atlanta | 3 | Stopwatch | STV","players":[{"user_id":531,"name":"Varie","steam_id":76561199454930210,"connected_time":1942000000000,"state":"active","ping":86},{"user_id":532,"name":"Mask","steam_id":76561198877649728,"connected_time":1687000000000,"state":"active","ping":143},{"user_id":543,"name":"neet","steam_id":76561197968115168,"connected_time":87000000000,"state":"active","ping":51},{"user_id":539,"name":"30 fps gaming","steam_id":76561199216756079,"connected_time":652000000000,"state":"active","ping":98},{"user_id":534,"name":"Hipster_Giraffe","steam_id":76561198069701092,"connected_time":1381000000000,"state":"active","ping":75},{"user_id":546,"name":"lazy lagoon","steam_id":76561199185620994,"connected_time":23000000000,"state":"spawning","ping":299},{"user_id":542,"name":"Thurricane","steam_id":76561198410724666,"connected_time":343000000000,"state":"active","ping":65},{"user_id":544,"name":"megakronos479","steam_id":76561198867315071,"connected_time":71000000000,"state":"active","ping":63}]},{"server_id":401,"name":"Uncletopia | Atlanta | 4 | Community","name_short":"atl-4","host":"atl-1.us.uncletopia.com","port":27045,"enabled":true,"region":"us-east","cc":"us","latitude":33.753746,"longitude":-84.38633,"reserved":0,"last_update":"0001-01-01T00:00:00Z","name_a2s":"Uncletopia | Atlanta | 4 | Community","protocol":17,"map":"workshop/pl_stallberg_rc3.ugc1849111469","folder":"tf","game":"Team Fortress","app_id":440,"player_count":23,"max_players":24,"Bots":0,"server_type":"Dedicated","server_os":"Linux","password":true,"vac":true,"version":"7961495","steam_id":85568392924515188,"keywords":["nocrits","nodmgspread","payload","uncletopia"],"game_id":440,"stv_port":27046,"stv_name":"Uncletopia | Atlanta | 4 | Community | STV","players":[{"user_id":13,"name":"Pango","steam_id":76561198069811545,"connected_time":3999000000000,"state":"active","ping":66},{"user_id":14,"name":"Avo","steam_id":76561197993340494,"connected_time":3991000000000,"state":"spawning","ping":50},{"user_id":56,"name":"stink","steam_id":76561198099318923,"connected_time":748000000000,"state":"spawning","ping":323},{"user_id":17,"name":"‚ô°Alyx‚ô°","steam_id":76561198024303978,"connected_time":3942000000000,"state":"spawning","ping":162},{"user_id":50,"name":"William Lovett","steam_id":76561197991063996,"connected_time":1435000000000,"state":"spawning","ping":153},{"user_id":19,"name":"Decolour","steam_id":76561199045608372,"connected_time":3873000000000,"state":"active","ping":171},{"user_id":48,"name":"TheMadHattah","steam_id":76561198066587266,"connected_time":1618000000000,"state":"spawning","ping":138},{"user_id":64,"name":"Duncan","steam_id":76561198042148095,"connected_time":292000000000,"state":"spawning","ping":183},{"user_id":22,"name":"Sir Cumference","steam_id":76561198068000747,"connected_time":3574000000000,"state":"spawning","ping":210},{"user_id":54,"name":"Midnight Flame","steam_id":76561198279692754,"connected_time":933000000000,"state":"spawning","ping":131},{"user_id":24,"name":"Albino Jellyfish","steam_id":76561198208561097,"connected_time":3551000000000,"state":"spawning","ping":60},{"user_id":49,"name":"Legit_Jaxer","steam_id":76561198172234053,"connected_time":1488000000000,"state":"spawning","ping":179},{"user_id":66,"name":"bonehead","steam_id":76561198345111741,"connected_time":25000000000,"state":"active","ping":80},{"user_id":27,"name":"CabezaGrande","steam_id":76561197972555502,"connected_time":3476000000000,"state":"spawning","ping":157},{"user_id":28,"name":"Invictus","steam_id":76561198079517075,"connected_time":3473000000000,"state":"spawning","ping":203},{"user_id":67,"name":"PigPig","steam_id":76561198068190834,"connected_time":4000000000,"state":"spawning","ping":103},{"user_id":33,"name":"Peluche Marisa","steam_id":76561199011452659,"connected_time":3337000000000,"state":"spawning","ping":188},{"user_id":60,"name":"CherryPieRed2023","steam_id":76561198998007496,"connected_time":381000000000,"state":"spawning","ping":330},{"user_id":61,"name":"The Notorious C.H.E.F","steam_id":76561198310658990,"connected_time":378000000000,"state":"spawning","ping":165},{"user_id":62,"name":"BarrowBaron","steam_id":76561198013633236,"connected_time":359000000000,"state":"spawning","ping":116},{"user_id":46,"name":"tgirl swag","steam_id":76561198128164970,"connected_time":1730000000000,"state":"active","ping":85},{"user_id":45,"name":"Blaze","steam_id":76561198043797702,"connected_time":1786000000000,"state":"spawning","ping":148},{"user_id":63,"name":"wajanta","steam_id":76561199040280852,"connected_time":345000000000,"state":"spawning","ping":172}]},{"server_id":2,"name":"Uncletopia | Chicago | 1 | All Maps","name_short":"chi-1","host":"chi-1.us.uncletopia.com","port":27015,"enabled":true,"region":"us-central","cc":"us","latitude":41.881832,"longitude":-87.62318,"reserved":0,"last_update":"0001-01-01T00:00:00Z","name_a2s":"Uncletopia | Chicago | 1 | All Maps","protocol":17,"map":"pl_upward","folder":"tf","game":"Team Fortress","app_id":440,"player_count":24,"max_players":24,"Bots":0,"server_type":"Dedicated","server_os":"Linux","password":true,"vac":true,"version":"7961495","steam_id":85568392924469984,"keywords":["nocrits","nodmgspread","payload","uncletopia"],"game_id":440,"stv_port":27016,"stv_name":"Uncletopia | Chicago | 1 | All Maps | STV","players":[{"user_id":333,"name":"popfulmail","steam_id":76561198865971290,"connected_time":2588000000000,"state":"active","ping":78},{"user_id":300,"name":"Rode hard, put away wet","steam_id":76561198062764039,"connected_time":4777000000000,"state":"active","ping":54},{"user_id":338,"name":"Provocator","steam_id":76561197961830410,"connected_time":2270000000000,"state":"active","ping":68},{"user_id":324,"name":"richard clock","steam_id":76561198048455671,"connected_time":3711000000000,"state":"active","ping":60},{"user_id":370,"name":"OsrsPro","steam_id":76561198402246477,"connected_time":646000000000,"state":"active","ping":62},{"user_id":374,"name":"ThatGalLucy","steam_id":76561198294956944,"connected_time":321000000000,"state":"active","ping":94},{"user_id":375,"name":"Wellink","steam_id":76561198854204494,"connected_time":300000000000,"state":"active","ping":162},{"user_id":371,"name":"Bear","steam_id":76561198062949510,"connected_time":511000000000,"state":"active","ping":59},{"user_id":376,"name":"Weary","steam_id":76561198145767546,"connected_time":279000000000,"state":"active","ping":61},{"user_id":373,"name":"Swiftmend","steam_id":76561197995595692,"connected_time":429000000000,"state":"active","ping":77},{"user_id":354,"name":"Xurany","steam_id":76561199005012427,"connected_time":1836000000000,"state":"active","ping":71},{"user_id":369,"name":"CrazyRage","steam_id":76561198008684353,"connected_time":800000000000,"state":"active","ping":65},{"user_id":325,"name":"biden cart 15 dollars","steam_id":76561198253731826,"connected_time":3627000000000,"state":"active","ping":65},{"user_id":331,"name":"Jak(i)","steam_id":76561198076823144,"connected_time":2648000000000,"state":"active","ping":67},{"user_id":350,"name":"Stupid Fat Fucking James Corden","steam_id":76561198860279627,"connected_time":1874000000000,"state":"active","ping":62},{"user_id":367,"name":"KingCrawful","steam_id":76561198104291657,"connected_time":945000000000,"state":"active","ping":60},{"user_id":366,"name":"b√ºddeh","steam_id":76561198070735936,"connected_time":972000000000,"state":"active","ping":76},{"user_id":334,"name":"Free2Play","steam_id":76561198065920486,"connected_time":2524000000000,"state":"active","ping":49},{"user_id":362,"name":"Karrot","steam_id":76561198058970903,"connected_time":1142000000000,"state":"active","ping":68},{"user_id":319,"name":"Rec","steam_id":76561198022813906,"connected_time":3849000000000,"state":"active","ping":59},{"user_id":363,"name":"reis","steam_id":76561199232952016,"connected_time":1131000000000,"state":"active","ping":194},{"user_id":360,"name":"Lia_Rein","steam_id":76561198151569597,"connected_time":1423000000000,"state":"active","ping":149},{"user_id":355,"name":"fudo myoo","steam_id":76561198456258164,"connected_time":1826000000000,"state":"active","ping":75},{"user_id":372,"name":"A Sun","steam_id":76561198142545364,"connected_time":479000000000,"state":"active","ping":71}]},{"server_id":106,"name":"Uncletopia | Chicago | 2 | All Maps","name_short":"chi-2","host":"chi-1.us.uncletopia.com","port":27025,"enabled":true,"region":"us-central","cc":"us","latitude":41.881832,"longitude":-87.62318,"reserved":0,"last_update":"0001-01-01T00:00:00Z","name_a2s":"Uncletopia | Chicago | 2 | All Maps","protocol":17,"map":"cp_dustbowl","folder":"tf","game":"Team Fortress","app_id":440,"player_count":24,"max_players":24,"Bots":0,"server_type":"Dedicated","server_os":"Linux","password":true,"vac":true,"version":"7961495","steam_id":85568392924469985,"keywords":["cp","nocrits","nodmgspread","uncletopia"],"game_id":440,"stv_port":27026,"stv_name":"Uncletopia | Chicago | 2 | All Maps | STV","players":[{"user_id":636,"name":"BooM","steam_id":76561197993616122,"connected_time":1830000000000,"state":"active","ping":92},{"user_id":648,"name":"Dr.Pig","steam_id":76561198069496754,"connected_time":1208000000000,"state":"active","ping":81},{"user_id":660,"name":"beast from the east","steam_id":76561198267624034,"connected_time":302000000000,"state":"active","ping":59},{"user_id":659,"name":"Rat","steam_id":76561198128926034,"connected_time":310000000000,"state":"active","ping":67},{"user_id":672,"name":"blonk-182","steam_id":76561198035304483,"connected_time":64000000000,"state":"active","ping":63},{"user_id":663,"name":"average wesker enjoyer","steam_id":76561197968351430,"connected_time":230000000000,"state":"active","ping":95},{"user_id":640,"name":"monky (funky)","steam_id":76561198350027075,"connected_time":1717000000000,"state":"active","ping":60},{"user_id":664,"name":"DigitalTheAlchemist","steam_id":76561198380873323,"connected_time":221000000000,"state":"active","ping":45},{"user_id":665,"name":"Troyer","steam_id":76561198038005881,"connected_time":207000000000,"state":"active","ping":60},{"user_id":666,"name":"sedmatt","steam_id":76561199227340549,"connected_time":187000000000,"state":"active","ping":120},{"user_id":655,"name":"lacava.ryan","steam_id":76561199118865787,"connected_time":743000000000,"state":"active","ping":72},{"user_id":667,"name":"TheoLynwood","steam_id":76561198079596878,"connected_time":182000000000,"state":"active","ping":71},{"user_id":658,"name":"‚òº girl u my everything bagel","steam_id":76561198074180953,"connected_time":313000000000,"state":"active","ping":72},{"user_id":644,"name":"slasher4713","steam_id":76561199033532858,"connected_time":1458000000000,"state":"active","ping":60},{"user_id":654,"name":"mr.edderkopper","steam_id":76561198152614478,"connected_time":804000000000,"state":"active","ping":45},{"user_id":590,"name":"Sickmind33","steam_id":76561198036248611,"connected_time":4286000000000,"state":"active","ping":46},{"user_id":669,"name":"Û†Å≥ ‚Åßfortnite56K(Nick/Ger)","steam_id":76561198404564240,"connected_time":177000000000,"state":"active","ping":71},{"user_id":630,"name":"zoey","steam_id":76561198084679526,"connected_time":2441000000000,"state":"active","ping":59},{"user_id":620,"name":"Lennu","steam_id":76561198060730154,"connected_time":2588000000000,"state":"active","ping":76},{"user_id":631,"name":"Space Magic","steam_id":76561199006292310,"connected_time":2440000000000,"state":"active","ping":113},{"user_id":671,"name":"motherfucker 2.0","steam_id":76561198141189209,"connected_time":74000000000,"state":"active","ping":60},{"user_id":602,"name":"lexi","steam_id":76561198176299759,"connected_time":3707000000000,"state":"active","ping":77},{"user_id":638,"name":"I Wish I Could Unsee That","steam_id":76561198353316299,"connected_time":1801000000000,"state":"active","ping":79},{"user_id":641,"name":"slammin","steam_id":76561197965022076,"connected_time":1717000000000,"state":"active","ping":60}]},{"server_id":402,"name":"Uncletopia | Chicago | 3 | All Maps","name_short":"chi-3","host":"chi-1.us.uncletopia.com","port":27035,"enabled":true,"region":"us-central","cc":"us","latitude":41.881832,"longitude":-87.62318,"reserved":0,"last_update":"0001-01-01T00:00:00Z","name_a2s":"Uncletopia | Chicago | 3 | All Maps","protocol":17,"map":"pl_barnblitz","folder":"tf","game":"Team Fortress","app_id":440,"player_count":24,"max_players":24,"Bots":0,"server_type":"Dedicated","server_os":"Linux","password":true,"vac":true,"version":"7961495","steam_id":85568392924515191,"keywords":["nocrits","nodmgspread","payload","uncletopia"],"game_id":440,"stv_port":27036,"stv_name":"Uncletopia | Chicago | 3 | All Maps | STV","players":[{"user_id":174,"name":"777","steam_id":76561198277163301,"connected_time":57000000000,"state":"active","ping":68},{"user_id":142,"name":"Bonk!","steam_id":76561198047526804,"connected_time":3048000000000,"state":"active","ping":82},{"user_id":171,"name":"Bajanga.co","steam_id":76561199122049654,"connected_time":340000000000,"state":"active","ping":80},{"user_id":96,"name":"evildoer","steam_id":76561198137124492,"connected_time":5730000000000,"state":"active","ping":60},{"user_id":169,"name":"conscripted monk","steam_id":76561199029246232,"connected_time":834000000000,"state":"active","ping":67},{"user_id":130,"name":"LocaKola","steam_id":76561198173435430,"connected_time":3742000000000,"state":"active","ping":72},{"user_id":173,"name":"goblin","steam_id":76561199004451589,"connected_time":240000000000,"state":"active","ping":73},{"user_id":154,"name":"gogurt","steam_id":76561199051096093,"connected_time":2261000000000,"state":"active","ping":60},{"user_id":160,"name":"snorg","steam_id":76561199103766971,"connected_time":1582000000000,"state":"active","ping":61},{"user_id":156,"name":"CF-TF2","steam_id":76561198145893044,"connected_time":2202000000000,"state":"active","ping":81},{"user_id":150,"name":"Gotta Move That Gear Up","steam_id":76561197993467034,"connected_time":2432000000000,"state":"active","ping":48},{"user_id":158,"name":"Snimca","steam_id":76561198453519709,"connected_time":1639000000000,"state":"active","ping":65},{"user_id":141,"name":"Renegade Radish","steam_id":76561198868344346,"connected_time":3075000000000,"state":"active","ping":61},{"user_id":157,"name":"Buffalo Soldier","steam_id":76561198089364545,"connected_time":1936000000000,"state":"active","ping":53},{"user_id":120,"name":"LordOfTheNoobs","steam_id":76561197962697523,"connected_time":4342000000000,"state":"active","ping":63},{"user_id":167,"name":"MaxVegas","steam_id":76561197987524887,"connected_time":965000000000,"state":"active","ping":141},{"user_id":166,"name":"Mycelion","steam_id":76561198024999530,"connected_time":1247000000000,"state":"active","ping":77},{"user_id":168,"name":"The Most Useless Scout","steam_id":76561199085768718,"connected_time":849000000000,"state":"active","ping":81},{"user_id":172,"name":"imng","steam_id":76561198014988031,"connected_time":284000000000,"state":"active","ping":64},{"user_id":145,"name":"Drake from State Farm","steam_id":76561199069029812,"connected_time":3013000000000,"state":"active","ping":105},{"user_id":129,"name":"TheGrassMan (He/Him)","steam_id":76561198118984048,"connected_time":3787000000000,"state":"active","ping":68},{"user_id":146,"name":"Null","steam_id":76561198062791227,"connected_time":2979000000000,"state":"active","ping":57},{"user_id":164,"name":"She got that strap (on)","steam_id":76561198057745131,"connected_time":1523000000000,"state":"active","ping":48},{"user_id":86,"name":"goombinus","steam_id":76561198136164826,"connected_time":6341000000000,"state":"active","ping":41}]},{"server_id":403,"name":"Uncletopia | Chicago | 4 | All Maps","name_short":"chi-4","host":"chi-1.us.uncletopia.com","port":27045,"enabled":true,"region":"us-central","cc":"us","latitude":41.881832,"longitude":-87.62318,"reserved":0,"last_update":"0001-01-01T00:00:00Z","name_a2s":"Uncletopia | Chicago | 4 | All Maps","protocol":17,"map":"pl_upward","folder":"tf","game":"Team Fortress","app_id":440,"player_count":24,"max_players":24,"Bots":0,"server_type":"Dedicated","server_os":"Linux","password":true,"vac":true,"version":"7961495","steam_id":85568392924515193,"keywords":["nocrits","nodmgspread","payload","uncletopia"],"game_id":440,"stv_port":27046,"stv_name":"Uncletopia | Chicago | 4 | All Maps | STV","players":[{"user_id":26,"name":"zacmattsmith","steam_id":76561199027704149,"connected_time":2248000000000,"state":"active","ping":70},{"user_id":35,"name":"TapueLocket","steam_id":76561198976879324,"connected_time":1506000000000,"state":"active","ping":52},{"user_id":28,"name":"Tonio The Jester","steam_id":76561199489156825,"connected_time":2235000000000,"state":"active","ping":60},{"user_id":36,"name":"JECK","steam_id":76561198931190250,"connected_time":1471000000000,"state":"active","ping":52},{"user_id":37,"name":"zeke.taflinger","steam_id":76561199143940832,"connected_time":1467000000000,"state":"active","ping":50},{"user_id":72,"name":"breaking bad dies in part 5","steam_id":76561199232873994,"connected_time":126000000000,"state":"active","ping":72},{"user_id":39,"name":"Tophu","steam_id":76561198380229671,"connected_time":1391000000000,"state":"active","ping":61},{"user_id":73,"name":"Droptavious Le Quantavious","steam_id":76561198995972200,"connected_time":118000000000,"state":"active","ping":129},{"user_id":64,"name":"Smooth, Refreshing Bleach‚Ñ¢","steam_id":76561197981060504,"connected_time":788000000000,"state":"active","ping":45},{"user_id":74,"name":"Ankliosumos","steam_id":76561198106443757,"connected_time":95000000000,"state":"active","ping":62},{"user_id":50,"name":"coffee","steam_id":76561198112057089,"connected_time":1181000000000,"state":"active","ping":118},{"user_id":46,"name":"Bear","steam_id":76561198117931881,"connected_time":1218000000000,"state":"active","ping":79},{"user_id":47,"name":"Ruins","steam_id":76561198140372785,"connected_time":1216000000000,"state":"active","ping":51},{"user_id":51,"name":"bitboxtunes","steam_id":76561198190955579,"connected_time":1121000000000,"state":"active","ping":65},{"user_id":68,"name":"TacoMan4Life","steam_id":76561198832562728,"connected_time":159000000000,"state":"active","ping":104},{"user_id":67,"name":"Tlaxcalli","steam_id":76561198189330642,"connected_time":180000000000,"state":"active","ping":104},{"user_id":53,"name":"‚Ä¢PixelGhost25‚Ä¢","steam_id":76561197998922428,"connected_time":1101000000000,"state":"active","ping":73},{"user_id":55,"name":"slim","steam_id":76561199177189922,"connected_time":1045000000000,"state":"active","ping":94},{"user_id":56,"name":"Ind0Gaming","steam_id":76561198360790288,"connected_time":1045000000000,"state":"active","ping":61},{"user_id":57,"name":"danielthirtle","steam_id":76561198403702338,"connected_time":1033000000000,"state":"active","ping":64},{"user_id":63,"name":"Sanguo","steam_id":76561198065741609,"connected_time":799000000000,"state":"active","ping":82},{"user_id":69,"name":"THEY DONT WANT US TO THRIVE","steam_id":76561197995620232,"connected_time":152000000000,"state":"active","ping":59},{"user_id":62,"name":"Sneed-poster","steam_id":76561198206198937,"connected_time":836000000000,"state":"active","ping":78},{"user_id":70,"name":"Born2Krill","steam_id":76561198427100244,"connected_time":148000000000,"state":"active","ping":115}]},{"server_id":36,"name":"Uncletopia | Chicago | 5 | All Maps","name_short":"chi-5","host":"chi-2.us.uncletopia.com","port":27015,"enabled":true,"region":"us-central","cc":"us","latitude":41.881832,"longitude":-87.62318,"reserved":0,"last_update":"0001-01-01T00:00:00Z","name_a2s":"Uncletopia | Chicago | 5 | All Maps","protocol":17,"map":"cp_mercenarypark","folder":"tf","game":"Team Fortress","app_id":440,"player_count":0,"max_players":24,"Bots":0,"server_type":"Dedicated","server_os":"Linux","password":true,"vac":true,"version":"7961495","steam_id":85568392924866362,"keywords":["cp","nocrits","nodmgspread","uncletopia"],"game_id":440,"stv_port":27016,"stv_name":"Uncletopia | Chicago | 5 | All Maps | STV","players":null},{"server_id":37,"name":"Uncletopia | Chicago | 6 | All Maps","name_short":"chi-6","host":"chi-2.us.uncletopia.com","port":27025,"enabled":true,"region":"us-central","cc":"us","latitude":41.881832,"longitude":-87.62318,"reserved":0,"last_update":"0001-01-01T00:00:00Z","name_a2s":"Uncletopia | Chicago | 6 | All Maps","protocol":17,"map":"cp_altitude","folder":"tf","game":"Team Fortress","app_id":440,"player_count":24,"max_players":24,"Bots":0,"server_type":"Dedicated","server_os":"Linux","password":true,"vac":true,"version":"7961495","steam_id":85568392924866363,"keywords":["cp","nocrits","nodmgspread","uncletopia"],"game_id":440,"stv_port":27026,"stv_name":"Uncletopia | Chicago | 6 | All Maps | STV","players":[{"user_id":211,"name":"j_thane","steam_id":76561198040933603,"connected_time":818000000000,"state":"active","ping":75},{"user_id":165,"name":"LoneParity","steam_id":76561198947301430,"connected_time":3491000000000,"state":"active","ping":87},{"user_id":162,"name":"Hovg9000","steam_id":76561199191556710,"connected_time":4238000000000,"state":"active","ping":86},{"user_id":217,"name":"Torensz64(But weezer)","steam_id":76561198239036482,"connected_time":111000000000,"state":"active","ping":111},{"user_id":200,"name":"hazypoz","steam_id":76561198075647830,"connected_time":1912000000000,"state":"active","ping":61},{"user_id":209,"name":"Big Puff","steam_id":76561198209820681,"connected_time":1354000000000,"state":"active","ping":62},{"user_id":175,"name":"paddy","steam_id":76561198097588802,"connected_time":3025000000000,"state":"active","ping":45},{"user_id":221,"name":"the doubters never saw it comin","steam_id":76561199389283507,"connected_time":79000000000,"state":"active","ping":72},{"user_id":177,"name":"K.O. Stradivarius","steam_id":76561198974913245,"connected_time":2821000000000,"state":"active","ping":71},{"user_id":180,"name":"ALA BOY","steam_id":76561199029607399,"connected_time":2745000000000,"state":"active","ping":95},{"user_id":204,"name":"original name","steam_id":76561199186288763,"connected_time":1838000000000,"state":"active","ping":99},{"user_id":214,"name":"Raizen","steam_id":76561199092445367,"connected_time":506000000000,"state":"active","ping":45},{"user_id":222,"name":"derpywoman5000","steam_id":76561198049258493,"connected_time":67000000000,"state":"active","ping":137},{"user_id":182,"name":"Cicada Orchestra","steam_id":76561199226839783,"connected_time":2724000000000,"state":"active","ping":92},{"user_id":218,"name":"4d4 civilnetworks.net","steam_id":76561198402360789,"connected_time":106000000000,"state":"active","ping":61},{"user_id":188,"name":"AstronautPug","steam_id":76561198162372709,"connected_time":2603000000000,"state":"active","ping":54},{"user_id":223,"name":"Silverkeys","steam_id":76561197986012496,"connected_time":55000000000,"state":"active","ping":64},{"user_id":186,"name":"Sneaky_Tank","steam_id":76561198078814793,"connected_time":2628000000000,"state":"active","ping":85},{"user_id":224,"name":"y‚ÇÄ studios","steam_id":76561199055563514,"connected_time":54000000000,"state":"active","ping":60},{"user_id":225,"name":"Piss Goblin","steam_id":76561198091394431,"connected_time":34000000000,"state":"active","ping":63},{"user_id":202,"name":"WeeajEw","steam_id":76561198142481010,"connected_time":1881000000000,"state":"active","ping":50},{"user_id":216,"name":"Chief Inspector Detector","steam_id":76561198027171160,"connected_time":142000000000,"state":"active","ping":35},{"user_id":210,"name":"Foxire","steam_id":76561198023974599,"connected_time":1190000000000,"state":"active","ping":96},{"user_id":226,"name":"Makina","steam_id":76561198057475567,"connected_time":27000000000,"state":"active","ping":61}]},{"server_id":38,"name":"Uncletopia | Chicago | 7 | Stopwatch","name_short":"chi-7","host":"chi-2.us.uncletopia.com","port":27035,"enabled":true,"region":"us-central","cc":"us","latitude":41.881832,"longitude":-87.62318,"reserved":0,"last_update":"0001-01-01T00:00:00Z","name_a2s":"Uncletopia | Chicago | 7 | Stopwatch","protocol":17,"map":"pl_borneo","folder":"tf","game":"Team Fortress","app_id":440,"player_count":0,"max_players":24,"Bots":0,"server_type":"Dedicated","server_os":"Linux","password":true,"vac":true,"version":"7961495","steam_id":85568392924866364,"keywords":["nocrits","nodmgspread","payload","uncletopia"],"game_id":440,"stv_port":27036,"stv_name":"Uncletopia | Chicago | 7 | Stopwatch | STV","players":null},{"server_id":39,"name":"Uncletopia | Chicago | 8 | Community","name_short":"chi-8","host":"chi-2.us.uncletopia.com","port":27045,"enabled":true,"region":"us-central","cc":"us","latitude":41.881832,"longitude":-87.62318,"reserved":0,"last_update":"0001-01-01T00:00:00Z","name_a2s":"Uncletopia | Chicago | 8 | Community","protocol":17,"map":"workshop/cp_caldera_rc3.ugc2834196889","folder":"tf","game":"Team Fortress","app_id":440,"player_count":0,"max_players":24,"Bots":0,"server_type":"Dedicated","server_os":"Linux","password":true,"vac":true,"version":"7961495","steam_id":85568392924866365,"keywords":["cp","nocrits","nodmgspread","uncletopia"],"game_id":440,"stv_port":27046,"stv_name":"Uncletopia | Chicago | 8 | Community | STV","players":null},{"server_id":8,"name":"Uncletopia | Dallas | 1 | All Maps","name_short":"dal-1","host":"dal-1.us.uncletopia.com","port":27015,"enabled":true,"region":"us-central","cc":"us","latitude":32.779167,"longitude":-96.80889,"reserved":0,"last_update":"0001-01-01T00:00:00Z","name_a2s":"Uncletopia | Dallas | 1 | All Maps","protocol":17,"map":"ctf_2fort","folder":"tf","game":"Team Fortress","app_id":440,"player_count":24,"max_players":24,"Bots":0,"server_type":"Dedicated","server_os":"Linux","password":true,"vac":true,"version":"7961495","steam_id":85568392924469986,"keywords":["ctf","nocrits","nodmgspread","uncletopia"],"game_id":440,"stv_port":27016,"stv_name":"Uncletopia | Dallas | 1 | All Maps | STV","players":[{"user_id":265,"name":"RC","steam_id":76561198048127881,"connected_time":3983000000000,"state":"active","ping":61},{"user_id":258,"name":"Charlie","steam_id":76561198798127908,"connected_time":4192000000000,"state":"active","ping":82},{"user_id":301,"name":"fish","steam_id":76561198111396488,"connected_time":1462000000000,"state":"active","ping":44},{"user_id":310,"name":"PureDebt","steam_id":76561198982614367,"connected_time":318000000000,"state":"active","ping":68},{"user_id":294,"name":"CrŒªf227","steam_id":76561198196211121,"connected_time":1629000000000,"state":"active","ping":63},{"user_id":241,"name":"Mr.Rogers","steam_id":76561198043878683,"connected_time":5421000000000,"state":"active","ping":82},{"user_id":312,"name":"Eomy","steam_id":76561198297783627,"connected_time":53000000000,"state":"active","ping":82},{"user_id":311,"name":"Normalux","steam_id":76561198293891426,"connected_time":72000000000,"state":"active","ping":99},{"user_id":288,"name":"Antwan","steam_id":76561198246200638,"connected_time":1741000000000,"state":"active","ping":45},{"user_id":309,"name":"baunter","steam_id":76561198024311871,"connected_time":445000000000,"state":"active","ping":65},{"user_id":282,"name":"TOASTEngineer","steam_id":76561198004890916,"connected_time":1994000000000,"state":"active","ping":97},{"user_id":280,"name":"Syvana00","steam_id":76561198363957842,"connected_time":2210000000000,"state":"active","ping":89},{"user_id":289,"name":"cakgamin","steam_id":76561199088909749,"connected_time":1736000000000,"state":"active","ping":85},{"user_id":293,"name":"Dog + Cat + Frog + Moose","steam_id":76561198011675372,"connected_time":1660000000000,"state":"active","ping":108},{"user_id":296,"name":"YunKo„ÉÑ","steam_id":76561199107366261,"connected_time":1600000000000,"state":"active","ping":93},{"user_id":240,"name":"Anthid","steam_id":76561198074493797,"connected_time":5791000000000,"state":"active","ping":54},{"user_id":283,"name":"Monsieur Marley","steam_id":76561198153543927,"connected_time":1858000000000,"state":"active","ping":73},{"user_id":269,"name":"jestor","steam_id":76561198248148760,"connected_time":3661000000000,"state":"active","ping":77},{"user_id":297,"name":"TheHumanTaco119","steam_id":76561198996107520,"connected_time":1569000000000,"state":"active","ping":82},{"user_id":307,"name":"Fog_Ballistic","steam_id":76561199074395345,"connected_time":569000000000,"state":"active","ping":99},{"user_id":308,"name":"Echo","steam_id":76561199165491231,"connected_time":525000000000,"state":"active","ping":68},{"user_id":267,"name":"Pim","steam_id":76561198046050375,"connected_time":3917000000000,"state":"active","ping":104},{"user_id":313,"name":"solo cranker","steam_id":76561198246181902,"connected_time":28000000000,"state":"active","ping":73},{"user_id":261,"name":"Bogey","steam_id":76561198096227944,"connected_time":4171000000000,"state":"active","ping":44}]},{"server_id":108,"name":"Uncletopia | Dallas | 2 | All Maps","name_short":"dal-2","host":"dal-1.us.uncletopia.com","port":27025,"enabled":true,"region":"us-central","cc":"us","latitude":32.779167,"longitude":-96.80889,"reserved":0,"last_update":"0001-01-01T00:00:00Z","name_a2s":"Uncletopia | Dallas | 2 | All Maps","protocol":17,"map":"cp_gorge","folder":"tf","game":"Team Fortress","app_id":440,"player_count":24,"max_players":24,"Bots":0,"server_type":"Dedicated","server_os":"Linux","password":true,"vac":true,"version":"7961495","steam_id":85568392924469988,"keywords":["cp","nocrits","nodmgspread","uncletopia"],"game_id":440,"stv_port":27026,"stv_name":"Uncletopia | Dallas | 2 | All Maps | STV","players":[{"user_id":283,"name":"Glar","steam_id":76561198341907150,"connected_time":556000000000,"state":"active","ping":93},{"user_id":278,"name":"errant","steam_id":76561197961758410,"connected_time":700000000000,"state":"active","ping":36},{"user_id":227,"name":"cyborgjo2147","steam_id":76561199184761439,"connected_time":3614000000000,"state":"active","ping":79},{"user_id":249,"name":"Joan The Kisaragi Cat","steam_id":76561199370650064,"connected_time":2256000000000,"state":"active","ping":67},{"user_id":271,"name":"Fizzle","steam_id":76561199466859396,"connected_time":1041000000000,"state":"active","ping":46},{"user_id":269,"name":"The Benefactor","steam_id":76561198307247913,"connected_time":1429000000000,"state":"active","ping":81},{"user_id":290,"name":"explosives anonymous","steam_id":76561198141862936,"connected_time":240000000000,"state":"active","ping":78},{"user_id":279,"name":"Breach","steam_id":76561198045060392,"connected_time":590000000000,"state":"active","ping":66},{"user_id":274,"name":"Menacing","steam_id":76561198009093788,"connected_time":955000000000,"state":"active","ping":45},{"user_id":291,"name":"Loopi","steam_id":76561198371514763,"connected_time":232000000000,"state":"active","ping":77},{"user_id":280,"name":"CommodoreEvac","steam_id":76561198035694806,"connected_time":586000000000,"state":"active","ping":97},{"user_id":242,"name":"Willy the Wonderdog","steam_id":76561198067089970,"connected_time":2942000000000,"state":"active","ping":40},{"user_id":264,"name":"Russell","steam_id":76561198024159373,"connected_time":1681000000000,"state":"active","ping":87},{"user_id":143,"name":"Futanari of the Amazon Enjoyer","steam_id":76561198074294849,"connected_time":10047000000000,"state":"active","ping":108},{"user_id":282,"name":"GreenApples","steam_id":76561198120559543,"connected_time":563000000000,"state":"active","ping":89},{"user_id":286,"name":"Mitsuba","steam_id":76561198034175095,"connected_time":413000000000,"state":"active","ping":100},{"user_id":287,"name":"zzzz","steam_id":76561198310495200,"connected_time":388000000000,"state":"active","ping":82},{"user_id":289,"name":"Ricodashadad","steam_id":76561198066140119,"connected_time":284000000000,"state":"active","ping":52},{"user_id":221,"name":"MrHappyMAg","steam_id":76561198060359133,"connected_time":4160000000000,"state":"active","ping":48},{"user_id":259,"name":"Derblitz","steam_id":76561198040953176,"connected_time":1742000000000,"state":"active","ping":89},{"user_id":144,"name":"walting white","steam_id":76561198072156623,"connected_time":9925000000000,"state":"active","ping":119},{"user_id":253,"name":"Mazdamundi!","steam_id":76561198044691081,"connected_time":1955000000000,"state":"active","ping":65},{"user_id":275,"name":"Lolxdloldx","steam_id":76561198136887125,"connected_time":874000000000,"state":"active","ping":82},{"user_id":270,"name":"Clear Sights","steam_id":76561198006215683,"connected_time":1310000000000,"state":"active","ping":75}]},{"server_id":404,"name":"Uncletopia | Dallas | 3 | All Maps","name_short":"dal-3","host":"dal-1.us.uncletopia.com","port":27035,"enabled":true,"region":"us-central","cc":"us","latitude":32.779167,"longitude":-96.80889,"reserved":0,"last_update":"0001-01-01T00:00:00Z","name_a2s":"Uncletopia | Dallas | 3 | All Maps","protocol":17,"map":"koth_cascade","folder":"tf","game":"Team Fortress","app_id":440,"player_count":0,"max_players":24,"Bots":0,"server_type":"Dedicated","server_os":"Linux","password":true,"vac":true,"version":"7961495","steam_id":85568392924515219,"keywords":["cp","nocrits","nodmgspread","uncletopia"],"game_id":440,"stv_port":27036,"stv_name":"Uncletopia | Dallas | 3 | All Maps | STV","players":null},{"server_id":405,"name":"Uncletopia | Dallas | 4 | Community","name_short":"dal-4","host":"dal-1.us.uncletopia.com","port":27045,"enabled":true,"region":"us-central","cc":"us","latitude":32.779167,"longitude":-96.80889,"reserved":0,"last_update":"0001-01-01T00:00:00Z","name_a2s":"Uncletopia | Dallas | 4 | Community","protocol":17,"map":"workshop/koth_rotunda_rc10w.ugc2964421291","folder":"tf","game":"Team Fortress","app_id":440,"player_count":0,"max_players":24,"Bots":0,"server_type":"Dedicated","server_os":"Linux","password":true,"vac":true,"version":"7961495","steam_id":85568392924515220,"keywords":["cp","nocrits","nodmgspread","uncletopia"],"game_id":440,"stv_port":27046,"stv_name":"Uncletopia | Dallas | 4 | Community | STV","players":null},{"server_id":5,"name":"Uncletopia | Frankfurt | 1 | All Maps","name_short":"frk-1","host":"frk-1.de.uncletopia.com","port":27015,"enabled":true,"region":"eu","cc":"de","latitude":50.110924,"longitude":8.682127,"reserved":0,"last_update":"0001-01-01T00:00:00Z","name_a2s":"Uncletopia | Frankfurt | 1 | All Maps","protocol":17,"map":"cp_gorge","folder":"tf","game":"Team Fortress","app_id":440,"player_count":0,"max_players":24,"Bots":0,"server_type":"Dedicated","server_os":"Linux","password":true,"vac":true,"version":"7961495","steam_id":85568392924469989,"keywords":["cp","nocrits","nodmgspread","uncletopia"],"game_id":440,"stv_port":27016,"stv_name":"Uncletopia | Frankfurt | 1 | All Maps | STV","players":null},{"server_id":110,"name":"Uncletopia | Frankfurt | 2 | All Maps","name_short":"frk-2","host":"frk-1.de.uncletopia.com","port":27025,"enabled":true,"region":"eu","cc":"de","latitude":50.110924,"longitude":8.682127,"reserved":0,"last_update":"0001-01-01T00:00:00Z","name_a2s":"Uncletopia | Frankfurt | 2 | All Maps","protocol":17,"map":"pl_frontier_final","folder":"tf","game":"Team Fortress","app_id":440,"player_count":24,"max_players":24,"Bots":0,"server_type":"Dedicated","server_os":"Linux","password":true,"vac":true,"version":"7961495","steam_id":85568392924469990,"keywords":["nocrits","nodmgspread","payload","uncletopia"],"game_id":440,"stv_port":27026,"stv_name":"Uncletopia | Frankfurt | 2 | All Maps | STV","players":[{"user_id":606,"name":"shampoo","steam_id":76561198999938413,"connected_time":1428000000000,"state":"active","ping":173},{"user_id":569,"name":"cactus sandwich","steam_id":76561198164210779,"connected_time":3965000000000,"state":"active","ping":86},{"user_id":626,"name":"Skyrider of Spaceways","steam_id":76561197991678236,"connected_time":2000000000,"state":"spawning","ping":107},{"user_id":603,"name":"Flashback","steam_id":76561197973978552,"connected_time":1667000000000,"state":"active","ping":84},{"user_id":449,"name":"AhYesItsLarry","steam_id":76561198113895325,"connected_time":9936000000000,"state":"active","ping":72},{"user_id":623,"name":"bubbleTea 60hz","steam_id":76561199487938189,"connected_time":221000000000,"state":"active","ping":58},{"user_id":512,"name":"xxfishymemesxx","steam_id":76561199021497492,"connected_time":5995000000000,"state":"active","ping":144},{"user_id":618,"name":"beast","steam_id":76561198354211339,"connected_time":645000000000,"state":"active","ping":86},{"user_id":593,"name":"Divine","steam_id":76561198430207251,"connected_time":2271000000000,"state":"active","ping":121},{"user_id":622,"name":"ChPerette üéÆ","steam_id":76561198060004887,"connected_time":258000000000,"state":"active","ping":46},{"user_id":513,"name":"else1","steam_id":76561197996558319,"connected_time":5656000000000,"state":"active","ping":76},{"user_id":526,"name":"‚ô• Cirno ‚ô•","steam_id":76561198834982738,"connected_time":4916000000000,"state":"active","ping":66},{"user_id":583,"name":"Hacker Studios","steam_id":76561199209653826,"connected_time":3625000000000,"state":"active","ping":61},{"user_id":612,"name":"Dr.Disrespect","steam_id":76561198043820228,"connected_time":1045000000000,"state":"active","ping":46},{"user_id":565,"name":"Gsus","steam_id":76561198819979852,"connected_time":4177000000000,"state":"active","ping":109},{"user_id":519,"name":"Kenny","steam_id":76561198994898206,"connected_time":5174000000000,"state":"active","ping":65},{"user_id":580,"name":"√ßodar","steam_id":76561198235518444,"connected_time":3690000000000,"state":"active","ping":49},{"user_id":625,"name":"Bj√∂rn","steam_id":76561198092738253,"connected_time":35000000000,"state":"active","ping":49},{"user_id":598,"name":"Monke Hartmann","steam_id":76561198281389701,"connected_time":1935000000000,"state":"active","ping":88},{"user_id":602,"name":"Steve, from HR","steam_id":76561198072088365,"connected_time":1708000000000,"state":"active","ping":63},{"user_id":599,"name":"Weakling","steam_id":76561198046645017,"connected_time":1929000000000,"state":"active","ping":76},{"user_id":605,"name":"Lemon","steam_id":76561198188535947,"connected_time":1515000000000,"state":"active","ping":73},{"user_id":601,"name":"dragonst4r","steam_id":76561198092649942,"connected_time":1762000000000,"state":"active","ping":58},{"user_id":613,"name":"frbuz (ÿπ)","steam_id":76561198327135462,"connected_time":1007000000000,"state":"active","ping":147}]},{"server_id":308,"name":"Uncletopia | Frankfurt | 3 | All Maps","name_short":"frk-3","host":"frk-1.de.uncletopia.com","port":27035,"enabled":true,"region":"eu","cc":"de","latitude":50.110924,"longitude":8.682127,"reserved":0,"last_update":"0001-01-01T00:00:00Z","name_a2s":"Uncletopia | Frankfurt | 3 | All Maps","protocol":17,"map":"koth_lakeside_final","folder":"tf","game":"Team Fortress","app_id":440,"player_count":0,"max_players":24,"Bots":0,"server_type":"Dedicated","server_os":"Linux","password":true,"vac":true,"version":"7961495","steam_id":85568392924504274,"keywords":["cp","nocrits","nodmgspread","uncletopia"],"game_id":440,"stv_port":27036,"stv_name":"Uncletopia | Frankfurt | 3 | All Maps | STV","players":null},{"server_id":309,"name":"Uncletopia | Frankfurt | 4 | All Maps","name_short":"frk-4","host":"frk-1.de.uncletopia.com","port":27045,"enabled":true,"region":"eu","cc":"de","latitude":50.110924,"longitude":8.682127,"reserved":0,"last_update":"0001-01-01T00:00:00Z","name_a2s":"Uncletopia | Frankfurt | 4 | All Maps","protocol":17,"map":"koth_highpass","folder":"tf","game":"Team Fortress","app_id":440,"player_count":0,"max_players":24,"Bots":0,"server_type":"Dedicated","server_os":"Linux","password":true,"vac":true,"version":"7961495","steam_id":85568392924504275,"keywords":["cp","nocrits","nodmgspread","uncletopia"],"game_id":440,"stv_port":27046,"stv_name":"Uncletopia | Frankfurt | 4 | All Maps | STV","players":null},{"server_id":310,"name":"Uncletopia | Frankfurt | 5 | All Maps","name_short":"frk-5","host":"frk-1.de.uncletopia.com","port":27055,"enabled":true,"region":"eu","cc":"de","latitude":50.110924,"longitude":8.682127,"reserved":0,"last_update":"0001-01-01T00:00:00Z","name_a2s":"Uncletopia | Frankfurt | 5 | All Maps","protocol":17,"map":"cp_snakewater_final1","folder":"tf","game":"Team Fortress","app_id":440,"player_count":0,"max_players":24,"Bots":0,"server_type":"Dedicated","server_os":"Linux","password":true,"vac":true,"version":"7961495","steam_id":85568392924504277,"keywords":["cp","nocrits","nodmgspread","uncletopia"],"game_id":440,"stv_port":27056,"stv_name":"Uncletopia | Frankfurt | 5 | All Maps | STV","players":null},{"server_id":311,"name":"Uncletopia | Frankfurt | 6 | All Maps","name_short":"frk-6","host":"frk-1.de.uncletopia.com","port":27065,"enabled":true,"region":"eu","cc":"de","latitude":50.110924,"longitude":8.682127,"reserved":0,"last_update":"0001-01-01T00:00:00Z","name_a2s":"Uncletopia | Frankfurt | 6 | All Maps","protocol":17,"map":"koth_viaduct","folder":"tf","game":"Team Fortress","app_id":440,"player_count":0,"max_players":24,"Bots":0,"server_type":"Dedicated","server_os":"Linux","password":true,"vac":true,"version":"7961495","steam_id":85568392924504278,"keywords":["cp","nocrits","nodmgspread","uncletopia"],"game_id":440,"stv_port":27066,"stv_name":"Uncletopia | Frankfurt | 6 | All Maps | STV","players":null},{"server_id":23,"name":"Uncletopia | Frankfurt | 7 | Stopwatch","name_short":"frk-7","host":"frk-1.de.uncletopia.com","port":27075,"enabled":true,"region":"eu","cc":"de","latitude":50.110924,"longitude":8.682127,"reserved":0,"last_update":"0001-01-01T00:00:00Z","name_a2s":"Uncletopia | Frankfurt | 7 | Stopwatch","protocol":17,"map":"workshop/pl_vigil_rc10.ugc1266210012","folder":"tf","game":"Team Fortress","app_id":440,"player_count":0,"max_players":24,"Bots":0,"server_type":"Dedicated","server_os":"Linux","password":true,"vac":true,"version":"7961495","steam_id":85568392924742827,"keywords":["nocrits","nodmgspread","payload","uncletopia"],"game_id":440,"stv_port":27076,"stv_name":"Uncletopia | Frankfurt | 7 | Stopwatch | STV","players":null},{"server_id":24,"name":"Uncletopia | Frankfurt | 8 | Community","name_short":"frk-8","host":"frk-1.de.uncletopia.com","port":27085,"enabled":true,"region":"eu","cc":"de","latitude":50.110924,"longitude":8.682127,"reserved":0,"last_update":"0001-01-01T00:00:00Z","name_a2s":"Uncletopia | Frankfurt | 8 | Community","protocol":17,"map":"workshop/koth_kemptown_rc1.ugc767410655","folder":"tf","game":"Team Fortress","app_id":440,"player_count":0,"max_players":24,"Bots":0,"server_type":"Dedicated","server_os":"Linux","password":true,"vac":true,"version":"7961495","steam_id":85568392924742828,"keywords":["cp","nocrits","nodmgspread","uncletopia"],"game_id":440,"stv_port":27086,"stv_name":"Uncletopia | Frankfurt | 8 | Community | STV","players":null},{"server_id":202,"name":"Uncletopia | Hong Kong | 1 | All Maps","name_short":"hgk-1","host":"hgk-1.hk.uncletopia.com","port":27015,"enabled":true,"region":"asia","cc":"hk","latitude":22.302711,"longitude":114.177216,"reserved":0,"last_update":"0001-01-01T00:00:00Z","name_a2s":"Uncletopia | Hong Kong | 1 | All Maps","protocol":17,"map":"koth_lakeside_final","folder":"tf","game":"Team Fortress","app_id":440,"player_count":0,"max_players":24,"Bots":0,"server_type":"Dedicated","server_os":"Linux","password":true,"vac":true,"version":"7961495","steam_id":85568392924494504,"keywords":["cp","nocrits","nodmgspread","uncletopia"],"game_id":440,"stv_port":27016,"stv_name":"Uncletopia | Hong Kong | 1 | All Maps | STV","players":null},{"server_id":1,"name":"Uncletopia | Los Angeles | 1 | All Maps","name_short":"lax-1","host":"lax-1.us.uncletopia.com","port":27015,"enabled":true,"region":"us-west","cc":"us","latitude":33.94279,"longitude":-118.41004,"reserved":0,"last_update":"0001-01-01T00:00:00Z","name_a2s":"Uncletopia | Los Angeles | 1 | All Maps","protocol":17,"map":"koth_cascade","folder":"tf","game":"Team Fortress","app_id":440,"player_count":10,"max_players":24,"Bots":0,"server_type":"Dedicated","server_os":"Linux","password":true,"vac":true,"version":"7961495","steam_id":85568392924469991,"keywords":["cp","nocrits","nodmgspread","uncletopia"],"game_id":440,"stv_port":27016,"stv_name":"Uncletopia | Los Angeles | 1 | All Maps | STV","players":[{"user_id":26,"name":"TOTALLY HARDCORE","steam_id":76561198842311643,"connected_time":503000000000,"state":"active","ping":72},{"user_id":36,"name":"Derpmaaster","steam_id":76561198960702857,"connected_time":14000000000,"state":"spawning","ping":47},{"user_id":16,"name":"Bobletoob","steam_id":76561199184464900,"connected_time":1992000000000,"state":"active","ping":49},{"user_id":23,"name":"K2f","steam_id":76561198049600563,"connected_time":1027000000000,"state":"active","ping":48},{"user_id":24,"name":"Liam TF2","steam_id":76561198067137160,"connected_time":830000000000,"state":"active","ping":53},{"user_id":27,"name":"Oober Jackalope","steam_id":76561198285747760,"connected_time":454000000000,"state":"active","ping":61},{"user_id":31,"name":"EngiWeedGameing","steam_id":76561199474458646,"connected_time":213000000000,"state":"active","ping":110},{"user_id":29,"name":"TF radio, I take song requests","steam_id":76561199142143339,"connected_time":330000000000,"state":"active","ping":48},{"user_id":32,"name":"Scorpianswag","steam_id":76561198260651036,"connected_time":119000000000,"state":"active","ping":30},{"user_id":34,"name":"bcizzo","steam_id":76561197994399953,"connected_time":87000000000,"state":"active","ping":54}]},{"server_id":112,"name":"Uncletopia | Los Angeles | 2 | All Maps","name_short":"lax-2","host":"lax-1.us.uncletopia.com","port":27025,"enabled":true,"region":"us-west","cc":"us","latitude":33.94279,"longitude":-118.41004,"reserved":0,"last_update":"0001-01-01T00:00:00Z","name_a2s":"Uncletopia | Los Angeles | 2 | All Maps","protocol":17,"map":"cp_altitude","folder":"tf","game":"Team Fortress","app_id":440,"player_count":0,"max_players":24,"Bots":0,"server_type":"Dedicated","server_os":"Linux","password":true,"vac":true,"version":"7961495","steam_id":85568392924469992,"keywords":["cp","nocrits","nodmgspread","uncletopia"],"game_id":440,"stv_port":27026,"stv_name":"Uncletopia | Los Angeles | 2 | All Maps | STV","players":null},{"server_id":324,"name":"Uncletopia | Los Angeles | 3 | All Maps","name_short":"lax-3","host":"lax-1.us.uncletopia.com","port":27035,"enabled":true,"region":"us-west","cc":"us","latitude":33.94279,"longitude":-118.41004,"reserved":0,"last_update":"0001-01-01T00:00:00Z","name_a2s":"Uncletopia | Los Angeles | 3 | All Maps","protocol":17,"map":"cp_process_final","folder":"tf","game":"Team Fortress","app_id":440,"player_count":0,"max_players":24,"Bots":0,"server_type":"Dedicated","server_os":"Linux","password":true,"vac":true,"version":"7961495","steam_id":85568392924510198,"keywords":["cp","nocrits","nodmgspread","uncletopia"],"game_id":440,"stv_port":27036,"stv_name":"Uncletopia | Los Angeles | 3 | All Maps | STV","players":null},{"server_id":25,"name":"Uncletopia | Los Angeles | 4 | Stopwatch","name_short":"lax-4","host":"lax-1.us.uncletopia.com","port":27045,"enabled":true,"region":"us-west","cc":"us","latitude":33.94279,"longitude":-118.41004,"reserved":0,"last_update":"0001-01-01T00:00:00Z","name_a2s":"Uncletopia | Los Angeles | 4 | Stopwatch","protocol":17,"map":"workshop/cp_reckoner_rc6.ugc674719999","folder":"tf","game":"Team Fortress","app_id":440,"player_count":0,"max_players":24,"Bots":0,"server_type":"Dedicated","server_os":"Linux","password":true,"vac":true,"version":"7961495","steam_id":85568392924510199,"keywords":["cp","nocrits","nodmgspread","uncletopia"],"game_id":440,"stv_port":27046,"stv_name":"Uncletopia | Los Angeles | 4 | Stopwatch | STV","players":null},{"server_id":11,"name":"Uncletopia | London | 1 | All Maps","name_short":"lon-1","host":"lon-1.uk.uncletopia.com","port":27015,"enabled":true,"region":"eu","cc":"gb","latitude":51.509865,"longitude":-0.118092,"reserved":0,"last_update":"0001-01-01T00:00:00Z","name_a2s":"Uncletopia | London | 1 | All Maps","protocol":17,"map":"cp_dustbowl","folder":"tf","game":"Team Fortress","app_id":440,"player_count":19,"max_players":24,"Bots":0,"server_type":"Dedicated","server_os":"Linux","password":true,"vac":true,"version":"7961495","steam_id":85568392924367362,"keywords":["cp","nocrits","nodmgspread","uncletopia"],"game_id":440,"stv_port":27016,"stv_name":"Uncletopia | London | 1 | All Maps | STV","players":[{"user_id":868,"name":"Œ© ScAVENGE Œ© (fate consume me","steam_id":76561198034375627,"connected_time":191000000000,"state":"active","ping":50},{"user_id":870,"name":"vug","steam_id":76561198042227249,"connected_time":61000000000,"state":"active","ping":45},{"user_id":669,"name":"meow meow meow","steam_id":76561199510115679,"connected_time":6157000000000,"state":"active","ping":36},{"user_id":869,"name":"doctor sex","steam_id":76561198029044617,"connected_time":152000000000,"state":"active","ping":46},{"user_id":871,"name":"nug","steam_id":76561198055396568,"connected_time":56000000000,"state":"active","ping":51},{"user_id":863,"name":"teddy","steam_id":76561198007436837,"connected_time":474000000000,"state":"active","ping":45},{"user_id":790,"name":"Jesus shredding for your sins","steam_id":76561198042438709,"connected_time":3015000000000,"state":"active","ping":67},{"user_id":692,"name":"SteveyJJ","steam_id":76561198083505031,"connected_time":4584000000000,"state":"active","ping":45},{"user_id":682,"name":"Purps","steam_id":76561198053886680,"connected_time":5301000000000,"state":"active","ping":45},{"user_id":709,"name":"sora (live!)","steam_id":76561198096547662,"connected_time":4319000000000,"state":"active","ping":49},{"user_id":865,"name":"3 inch penis girl","steam_id":76561198267838767,"connected_time":291000000000,"state":"active","ping":41},{"user_id":848,"name":"hipster_doofus","steam_id":76561197970902697,"connected_time":1169000000000,"state":"active","ping":53},{"user_id":861,"name":"Yupsilon","steam_id":76561198215004651,"connected_time":820000000000,"state":"active","ping":50},{"user_id":866,"name":"GamingCarp","steam_id":76561198285235511,"connected_time":250000000000,"state":"active","ping":51},{"user_id":864,"name":"Jotun","steam_id":76561199015161498,"connected_time":372000000000,"state":"active","ping":82},{"user_id":756,"name":"v0ddo","steam_id":76561198092745537,"connected_time":3655000000000,"state":"active","ping":45},{"user_id":826,"name":"Vince","steam_id":76561199103000131,"connected_time":1958000000000,"state":"active","ping":45},{"user_id":860,"name":"Gorilla","steam_id":76561198140261408,"connected_time":888000000000,"state":"active","ping":131},{"user_id":811,"name":"GogsCrunchyNuts","steam_id":76561198150599213,"connected_time":2508000000000,"state":"active","ping":84}]},{"server_id":114,"name":"Uncletopia | London | 2 | All Maps","name_short":"lon-2","host":"lon-1.uk.uncletopia.com","port":27025,"enabled":true,"region":"eu","cc":"gb","latitude":51.509865,"longitude":-0.118092,"reserved":0,"last_update":"0001-01-01T00:00:00Z","name_a2s":"Uncletopia | London | 2 | All Maps","protocol":17,"map":"pl_swiftwater_final1","folder":"tf","game":"Team Fortress","app_id":440,"player_count":22,"max_players":24,"Bots":0,"server_type":"Dedicated","server_os":"Linux","password":true,"vac":true,"version":"7961495","steam_id":85568392924470941,"keywords":["nocrits","nodmgspread","payload","uncletopia"],"game_id":440,"stv_port":27026,"stv_name":"Uncletopia | London | 2 | All Maps | STV","players":[{"user_id":479,"name":"Pimpin' \u0026 Blimpin'","steam_id":76561198326776107,"connected_time":607000000000,"state":"active","ping":95},{"user_id":481,"name":"cez","steam_id":76561198361380956,"connected_time":540000000000,"state":"active","ping":44},{"user_id":424,"name":"Sabour","steam_id":76561197963965445,"connected_time":5005000000000,"state":"active","ping":70},{"user_id":314,"name":"Blern","steam_id":76561198180275345,"connected_time":8663000000000,"state":"active","ping":40},{"user_id":464,"name":"VileVex","steam_id":76561198144847851,"connected_time":2158000000000,"state":"active","ping":43},{"user_id":472,"name":"Mini Chappers","steam_id":76561198117606282,"connected_time":1573000000000,"state":"active","ping":48},{"user_id":489,"name":"SuperBob103","steam_id":76561199175360012,"connected_time":257000000000,"state":"active","ping":46},{"user_id":484,"name":"Hamhog","steam_id":76561198353967566,"connected_time":477000000000,"state":"active","ping":122},{"user_id":477,"name":"Stratos-kun","steam_id":76561198091279754,"connected_time":1091000000000,"state":"active","ping":66},{"user_id":500,"name":"konstt","steam_id":76561198168270939,"connected_time":36000000000,"state":"active","ping":67},{"user_id":499,"name":"Bajas","steam_id":76561198179339326,"connected_time":62000000000,"state":"active","ping":86},{"user_id":485,"name":"topi tykki","steam_id":76561198107605938,"connected_time":471000000000,"state":"active","ping":93},{"user_id":501,"name":"Nuda","steam_id":76561198097550587,"connected_time":16000000000,"state":"spawning","ping":57},{"user_id":476,"name":"AsuX","steam_id":76561197990333289,"connected_time":1344000000000,"state":"active","ping":60},{"user_id":455,"name":"Mr consistent rockets","steam_id":76561198132922827,"connected_time":3261000000000,"state":"active","ping":43},{"user_id":340,"name":"HilldogGaming‚ôõ","steam_id":76561198082209322,"connected_time":7710000000000,"state":"active","ping":84},{"user_id":309,"name":"dools18","steam_id":76561198880768062,"connected_time":9213000000000,"state":"active","ping":58},{"user_id":482,"name":"Islands","steam_id":76561198042388297,"connected_time":515000000000,"state":"active","ping":97},{"user_id":483,"name":"Bread","steam_id":76561198000516525,"connected_time":504000000000,"state":"active","ping":63},{"user_id":493,"name":"‚ô° Cursed ‚ô°","steam_id":76561199161458959,"connected_time":216000000000,"state":"active","ping":159},{"user_id":494,"name":"taffer","steam_id":76561199480942903,"connected_time":208000000000,"state":"active","ping":74},{"user_id":452,"name":"Nanna","steam_id":76561199052659275,"connected_time":3403000000000,"state":"active","ping":48}]},{"server_id":320,"name":"Uncletopia | London | 3 | All Maps","name_short":"lon-3","host":"lon-1.uk.uncletopia.com","port":27035,"enabled":true,"region":"eu","cc":"gb","latitude":51.509865,"longitude":-0.118092,"reserved":0,"last_update":"0001-01-01T00:00:00Z","name_a2s":"Uncletopia | London | 3 | All Maps","protocol":17,"map":"koth_harvest_final","folder":"tf","game":"Team Fortress","app_id":440,"player_count":14,"max_players":24,"Bots":0,"server_type":"Dedicated","server_os":"Linux","password":true,"vac":true,"version":"7961495","steam_id":85568392924510192,"keywords":["cp","nocrits","nodmgspread","uncletopia"],"game_id":440,"stv_port":27036,"stv_name":"Uncletopia | London | 3 | All Maps | STV","players":[{"user_id":678,"name":"Devious","steam_id":76561198035576811,"connected_time":1000000000000,"state":"active","ping":62},{"user_id":681,"name":"Robin","steam_id":76561198002206156,"connected_time":697000000000,"state":"active","ping":60},{"user_id":661,"name":"Dan Dan the Furious","steam_id":76561198091032527,"connected_time":3049000000000,"state":"active","ping":41},{"user_id":680,"name":"Fr√∂gg-K√§t","steam_id":76561198263561004,"connected_time":939000000000,"state":"active","ping":60},{"user_id":657,"name":"Venwood","steam_id":76561198126973175,"connected_time":3704000000000,"state":"active","ping":54},{"user_id":693,"name":"Arisu","steam_id":76561198080168182,"connected_time":64000000000,"state":"active","ping":85},{"user_id":689,"name":"PROFILE NAME","steam_id":76561198180056982,"connected_time":94000000000,"state":"active","ping":40},{"user_id":647,"name":"Skelet (Contract Signer)","steam_id":76561198051685232,"connected_time":4136000000000,"state":"active","ping":44},{"user_id":686,"name":"Redcap","steam_id":76561198453326277,"connected_time":159000000000,"state":"active","ping":35},{"user_id":688,"name":"The destroyer of foreskin","steam_id":76561198135275966,"connected_time":133000000000,"state":"active","ping":152},{"user_id":694,"name":"ÈõªÂ≠ê„Éû„Éç„Éº„ÅßÊ±∫Ê∏à„ÄÄÔΩû\ufffd","steam_id":76561198118412910,"connected_time":4000000000,"state":"spawning","ping":44},{"user_id":692,"name":"Spurinna","steam_id":76561198208607769,"connected_time":75000000000,"state":"connecting","ping":0},{"user_id":668,"name":"Banzar1","steam_id":76561198170325423,"connected_time":2429000000000,"state":"active","ping":123},{"user_id":655,"name":"Gorgeous George","steam_id":76561198144256544,"connected_time":3990000000000,"state":"active","ping":48}]},{"server_id":321,"name":"Uncletopia | London | 4 | All Maps","name_short":"lon-4","host":"lon-1.uk.uncletopia.com","port":27045,"enabled":true,"region":"eu","cc":"gb","latitude":51.509865,"longitude":-0.118092,"reserved":0,"last_update":"0001-01-01T00:00:00Z","name_a2s":"Uncletopia | London | 4 | All Maps","protocol":17,"map":"pl_frontier_final","folder":"tf","game":"Team Fortress","app_id":440,"player_count":24,"max_players":24,"Bots":0,"server_type":"Dedicated","server_os":"Linux","password":true,"vac":true,"version":"7961495","steam_id":85568392924510193,"keywords":["nocrits","nodmgspread","payload","uncletopia"],"game_id":440,"stv_port":27046,"stv_name":"Uncletopia | London | 4 | All Maps | STV","players":[{"user_id":620,"name":"Alpha_2-4","steam_id":76561198189925027,"connected_time":546000000000,"state":"active","ping":69},{"user_id":581,"name":"mrmicowave","steam_id":76561199059236134,"connected_time":3382000000000,"state":"active","ping":67},{"user_id":601,"name":"George W. Bush","steam_id":76561198135132711,"connected_time":2496000000000,"state":"active","ping":57},{"user_id":602,"name":"jonas","steam_id":76561198250132954,"connected_time":2304000000000,"state":"active","ping":60},{"user_id":612,"name":"AnDrG","steam_id":76561198200357702,"connected_time":1344000000000,"state":"active","ping":88},{"user_id":580,"name":"WaryShadow","steam_id":76561198067922790,"connected_time":3413000000000,"state":"active","ping":46},{"user_id":613,"name":"DarthMurloc_OW","steam_id":76561198075577711,"connected_time":1248000000000,"state":"active","ping":89},{"user_id":621,"name":"robouki","steam_id":76561198168265569,"connected_time":390000000000,"state":"active","ping":42},{"user_id":585,"name":"Dat Boi","steam_id":76561199101269765,"connected_time":3278000000000,"state":"active","ping":139},{"user_id":616,"name":"travis","steam_id":76561198138119811,"connected_time":991000000000,"state":"active","ping":45},{"user_id":603,"name":"Bonzothegreat24","steam_id":76561198031220372,"connected_time":2286000000000,"state":"active","ping":61},{"user_id":604,"name":"Nicana12","steam_id":76561198182376005,"connected_time":2256000000000,"state":"active","ping":52},{"user_id":605,"name":"AdaM","steam_id":76561198965127494,"connected_time":2250000000000,"state":"active","ping":58},{"user_id":606,"name":"Alfiemon","steam_id":76561198248095694,"connected_time":2210000000000,"state":"active","ping":60},{"user_id":617,"name":"waj","steam_id":76561198053628243,"connected_time":975000000000,"state":"active","ping":44},{"user_id":614,"name":"Phalcon","steam_id":76561197987051394,"connected_time":1216000000000,"state":"active","ping":84},{"user_id":608,"name":"Admiral","steam_id":76561198799071012,"connected_time":2098000000000,"state":"active","ping":42},{"user_id":609,"name":"Wilderhammer","steam_id":76561198132133702,"connected_time":2000000000000,"state":"active","ping":55},{"user_id":599,"name":"Nick","steam_id":76561198304189507,"connected_time":2779000000000,"state":"active","ping":55},{"user_id":595,"name":"noah","steam_id":76561198099457089,"connected_time":2884000000000,"state":"active","ping":66},{"user_id":610,"name":"Yinsoo","steam_id":76561198127697875,"connected_time":1959000000000,"state":"active","ping":67},{"user_id":597,"name":"washed up","steam_id":76561198275742101,"connected_time":2864000000000,"state":"active","ping":75},{"user_id":598,"name":"engineer gaming","steam_id":76561198005148944,"connected_time":2849000000000,"state":"active","ping":80},{"user_id":622,"name":"Gety0","steam_id":76561198044387185,"connected_time":4000000000,"state":"spawning","ping":117}]},{"server_id":21,"name":"Uncletopia | London | 5 | All Maps","name_short":"lon-5","host":"lon-1.uk.uncletopia.com","port":27055,"enabled":true,"region":"eu","cc":"gb","latitude":51.509865,"longitude":-0.118092,"reserved":0,"last_update":"0001-01-01T00:00:00Z","name_a2s":"Uncletopia | London | 5 | All Maps","protocol":17,"map":"koth_lakeside_final","folder":"tf","game":"Team Fortress","app_id":440,"player_count":0,"max_players":24,"Bots":0,"server_type":"Dedicated","server_os":"Linux","password":true,"vac":true,"version":"7961495","steam_id":85568392924742829,"keywords":["cp","nocrits","nodmgspread","uncletopia"],"game_id":440,"stv_port":27056,"stv_name":"Uncletopia | London | 5 | All Maps | STV","players":null},{"server_id":22,"name":"Uncletopia | London | 6 | All Maps","name_short":"lon-6","host":"lon-1.uk.uncletopia.com","port":27065,"enabled":true,"region":"eu","cc":"gb","latitude":51.509865,"longitude":-0.118092,"reserved":0,"last_update":"0001-01-01T00:00:00Z","name_a2s":"Uncletopia | London | 6 | All Maps","protocol":17,"map":"pl_barnblitz","folder":"tf","game":"Team Fortress","app_id":440,"player_count":23,"max_players":24,"Bots":0,"server_type":"Dedicated","server_os":"Linux","password":true,"vac":true,"version":"7961495","steam_id":85568392924742830,"keywords":["nocrits","nodmgspread","payload","uncletopia"],"game_id":440,"stv_port":27066,"stv_name":"Uncletopia | London | 6 | All Maps | STV","players":[{"user_id":151,"name":"Sam","steam_id":76561198273913888,"connected_time":1732000000000,"state":"active","ping":71},{"user_id":163,"name":"Turtle","steam_id":76561198053254139,"connected_time":284000000000,"state":"active","ping":40},{"user_id":134,"name":"KittyKate ‚ù§","steam_id":76561198116340817,"connected_time":2274000000000,"state":"active","ping":60},{"user_id":126,"name":"–ü—Ä–∏–≥–æ–∂–∏–Ω","steam_id":76561198358431840,"connected_time":2855000000000,"state":"active","ping":82},{"user_id":135,"name":"Four Legged Elsa ‚ù§","steam_id":76561198101502273,"connected_time":2256000000000,"state":"active","ping":45},{"user_id":158,"name":"‚ìà ‚òÖ","steam_id":76561198001235783,"connected_time":652000000000,"state":"active","ping":69},{"user_id":164,"name":"Laru","steam_id":76561197998838438,"connected_time":15000000000,"state":"active","ping":89},{"user_id":147,"name":"Piellino","steam_id":76561198156873276,"connected_time":1790000000000,"state":"active","ping":102},{"user_id":114,"name":"MrEdman4","steam_id":76561198062233923,"connected_time":3551000000000,"state":"active","ping":113},{"user_id":133,"name":"êÇÉêÇÉ","steam_id":76561198345122095,"connected_time":2454000000000,"state":"active","ping":76},{"user_id":159,"name":"goofy goober","steam_id":76561198068054530,"connected_time":628000000000,"state":"active","ping":88},{"user_id":131,"name":"Is that on gang, blud?","steam_id":76561199000829228,"connected_time":2659000000000,"state":"active","ping":96},{"user_id":160,"name":"stonebum","steam_id":76561198057004606,"connected_time":595000000000,"state":"active","ping":58},{"user_id":115,"name":"etc","steam_id":76561197998394797,"connected_time":3534000000000,"state":"active","ping":53},{"user_id":142,"name":"Proto-arc","steam_id":76561198012776747,"connected_time":1935000000000,"state":"active","ping":59},{"user_id":152,"name":"TurnaJ","steam_id":76561198189223495,"connected_time":1725000000000,"state":"active","ping":66},{"user_id":161,"name":"Fuzz","steam_id":76561198013049077,"connected_time":582000000000,"state":"active","ping":82},{"user_id":153,"name":"Sigsby","steam_id":76561198155116429,"connected_time":1722000000000,"state":"active","ping":65},{"user_id":154,"name":"ignitor \u003c3","steam_id":76561198218996844,"connected_time":1701000000000,"state":"active","ping":57},{"user_id":140,"name":"[HOL] Solringen","steam_id":76561198003584681,"connected_time":2116000000000,"state":"active","ping":78},{"user_id":109,"name":"iji","steam_id":76561199149378965,"connected_time":3964000000000,"state":"active","ping":76},{"user_id":144,"name":"green spy","steam_id":76561198080064268,"connected_time":1884000000000,"state":"active","ping":55},{"user_id":155,"name":"tone'","steam_id":76561198055552635,"connected_time":1697000000000,"state":"active","ping":60}]},{"server_id":40,"name":"Uncletopia | London | 7 | Stopwatch","name_short":"lon-7","host":"lon-1.uk.uncletopia.com","port":27075,"enabled":true,"region":"eu","cc":"gb","latitude":51.509865,"longitude":-0.118092,"reserved":0,"last_update":"0001-01-01T00:00:00Z","name_a2s":"Uncletopia | London | 7 | Stopwatch","protocol":17,"map":"workshop/koth_ashville_final.ugc2130459942","folder":"tf","game":"Team Fortress","app_id":440,"player_count":0,"max_players":24,"Bots":0,"server_type":"Dedicated","server_os":"Linux","password":true,"vac":true,"version":"7961495","steam_id":85568392924964314,"keywords":["cp","nocrits","nodmgspread","uncletopia"],"game_id":440,"stv_port":27076,"stv_name":"Uncletopia | London | 7 | Stopwatch | STV","players":null},{"server_id":41,"name":"Uncletopia | London | 8 | Community","name_short":"lon-8","host":"lon-1.uk.uncletopia.com","port":27085,"enabled":true,"region":"eu","cc":"gb","latitude":51.509865,"longitude":-0.118092,"reserved":0,"last_update":"0001-01-01T00:00:00Z","name_a2s":"Uncletopia | London | 8 | Community","protocol":17,"map":"workshop/pl_phoenix_b4a.ugc2969509359","folder":"tf","game":"Team Fortress","app_id":440,"player_count":0,"max_players":24,"Bots":0,"server_type":"Dedicated","server_os":"Linux","password":true,"vac":true,"version":"7961495","steam_id":85568392924964315,"keywords":["nocrits","nodmgspread","payload","uncletopia"],"game_id":440,"stv_port":27086,"stv_name":"Uncletopia | London | 8 | Community | STV","players":null},{"server_id":300,"name":"Uncletopia | Montr√©al | 1 | One Thousand Uncles","name_short":"mtl-1","host":"mtl-1.ca.uncletopia.com","port":27015,"enabled":true,"region":"us-east","cc":"ca","latitude":45.50889,"longitude":-73.56167,"reserved":0,"last_update":"0001-01-01T00:00:00Z","name_a2s":"Uncletopia | Montr√©al | 1 | One Thousand Uncles","protocol":17,"map":"cp_dustbowl","folder":"tf","game":"Team Fortress","app_id":440,"player_count":32,"max_players":32,"Bots":20,"server_type":"Dedicated","server_os":"Linux","password":true,"vac":true,"version":"7961495","steam_id":85568392924500087,"keywords":["alltalk","bots","cp","danepve","increased_maxplayers","norespawntime","uncletopia"],"game_id":440,"stv_port":0,"stv_name":"","players":[{"user_id":293,"name":"melon soda","steam_id":76561198066748230,"connected_time":4497000000000,"state":"active","ping":78},{"user_id":296,"name":"Berlioz","steam_id":76561198040532757,"connected_time":4314000000000,"state":"active","ping":86},{"user_id":342,"name":"orinkai177","steam_id":76561199191553388,"connected_time":71000000000,"state":"active","ping":103},{"user_id":299,"name":"Chillax","steam_id":76561198051192502,"connected_time":3714000000000,"state":"active","ping":172},{"user_id":301,"name":"{‚ô†}_MR. JESTER _{‚ô†}","steam_id":76561198152371294,"connected_time":3566000000000,"state":"active","ping":151},{"user_id":340,"name":"EeryCar","steam_id":76561199466199522,"connected_time":263000000000,"state":"active","ping":64},{"user_id":337,"name":"14K COMPUTER WIZARD","steam_id":76561198090704108,"connected_time":876000000000,"state":"active","ping":45},{"user_id":330,"name":"Jared","steam_id":76561198020432651,"connected_time":1690000000000,"state":"active","ping":85},{"user_id":335,"name":"Heartgold","steam_id":76561199062592062,"connected_time":1023000000000,"state":"active","ping":72},{"user_id":332,"name":"Denn‡πëÔ≠•","steam_id":76561198257270574,"connected_time":1525000000000,"state":"active","ping":63},{"user_id":333,"name":"crab","steam_id":76561198166356216,"connected_time":1453000000000,"state":"active","ping":71},{"user_id":336,"name":"morbidly a beast","steam_id":76561198061653298,"connected_time":977000000000,"state":"active","ping":87}]},{"server_id":301,"name":"Uncletopia | Montr√©al | 2 | One Thousand Uncles","name_short":"mtl-2","host":"mtl-1.ca.uncletopia.com","port":27025,"enabled":true,"region":"us-east","cc":"ca","latitude":45.50889,"longitude":-73.56167,"reserved":0,"last_update":"0001-01-01T00:00:00Z","name_a2s":"Uncletopia | Montr√©al | 2 | One Thousand Uncles","protocol":17,"map":"cp_mossrock","folder":"tf","game":"Team Fortress","app_id":440,"player_count":0,"max_players":32,"Bots":0,"server_type":"Dedicated","server_os":"Linux","password":true,"vac":true,"version":"7961495","steam_id":85568392924500088,"keywords":["alltalk","cp","danepve","increased_maxplayers","norespawntime","uncletopia"],"game_id":440,"stv_port":0,"stv_name":"","players":null},{"server_id":302,"name":"Uncletopia | Montr√©al | 3 | One Thousand Uncles","name_short":"mtl-3","host":"mtl-1.ca.uncletopia.com","port":27035,"enabled":true,"region":"us-east","cc":"ca","latitude":45.50889,"longitude":-73.56167,"reserved":0,"last_update":"0001-01-01T00:00:00Z","name_a2s":"Uncletopia | Montr√©al | 3 | One Thousand Uncles","protocol":17,"map":"pl_pier","folder":"tf","game":"Team Fortress","app_id":440,"player_count":21,"max_players":32,"Bots":20,"server_type":"Dedicated","server_os":"Linux","password":true,"vac":true,"version":"7961495","steam_id":85568392924500089,"keywords":["alltalk","bots","danepve","increased_maxplayers","norespawntime","payload","uncletopia"],"game_id":440,"stv_port":0,"stv_name":"","players":[{"user_id":88,"name":"CrashoQuemado","steam_id":76561199088362195,"connected_time":241000000000,"state":"active","ping":213}]},{"server_id":13,"name":"Uncletopia | New York City | 1 | All Maps","name_short":"nyc-1","host":"nyc-1.us.uncletopia.com","port":27015,"enabled":true,"region":"us-east","cc":"us","latitude":40.73061,"longitude":-73.93524,"reserved":0,"last_update":"0001-01-01T00:00:00Z","name_a2s":"Uncletopia | New York City | 1 | All Maps","protocol":17,"map":"pl_frontier_final","folder":"tf","game":"Team Fortress","app_id":440,"player_count":24,"max_players":24,"Bots":0,"server_type":"Dedicated","server_os":"Linux","password":true,"vac":true,"version":"7961495","steam_id":85568392924469993,"keywords":["nocrits","nodmgspread","payload","uncletopia"],"game_id":440,"stv_port":27016,"stv_name":"Uncletopia | New York City | 1 | All Maps | STV","players":[{"user_id":369,"name":"Sergeant Snowflake","steam_id":76561198041474489,"connected_time":737000000000,"state":"active","ping":73},{"user_id":364,"name":"DARLIIIIIIIIIIIIIING","steam_id":76561198055082693,"connected_time":1200000000000,"state":"active","ping":65},{"user_id":370,"name":"Larvalicious","steam_id":76561198064332550,"connected_time":706000000000,"state":"active","ping":52},{"user_id":371,"name":"foil eater","steam_id":76561198827648455,"connected_time":684000000000,"state":"active","ping":74},{"user_id":320,"name":"banana","steam_id":76561198087023916,"connected_time":3862000000000,"state":"active","ping":165},{"user_id":355,"name":"Size 18 Zebra Midge","steam_id":76561198078886351,"connected_time":2104000000000,"state":"active","ping":65},{"user_id":362,"name":"nhbiker","steam_id":76561198081277675,"connected_time":1414000000000,"state":"active","ping":56},{"user_id":350,"name":"Xavibite","steam_id":76561198209380493,"connected_time":2359000000000,"state":"active","ping":44},{"user_id":353,"name":"don","steam_id":76561198204410892,"connected_time":2300000000000,"state":"active","ping":106},{"user_id":324,"name":"@_@","steam_id":76561197994492154,"connected_time":3719000000000,"state":"active","ping":149},{"user_id":349,"name":"Sorbet Shark Cookie","steam_id":76561198133082665,"connected_time":2375000000000,"state":"active","ping":46},{"user_id":356,"name":"Fishybros","steam_id":76561198182045699,"connected_time":1836000000000,"state":"active","ping":57},{"user_id":372,"name":"Archer","steam_id":76561198174612018,"connected_time":671000000000,"state":"active","ping":73},{"user_id":361,"name":"brisky","steam_id":76561198869675719,"connected_time":1485000000000,"state":"active","ping":52},{"user_id":360,"name":"bone","steam_id":76561199510343690,"connected_time":1568000000000,"state":"active","ping":33},{"user_id":258,"name":"Tony","steam_id":76561198169799653,"connected_time":7062000000000,"state":"active","ping":90},{"user_id":348,"name":"blone","steam_id":76561199077504411,"connected_time":2407000000000,"state":"active","ping":106},{"user_id":373,"name":"DrCoeloCephalo","steam_id":76561198102666293,"connected_time":167000000000,"state":"active","ping":90},{"user_id":367,"name":"wiiblob","steam_id":76561198109106242,"connected_time":823000000000,"state":"active","ping":129},{"user_id":365,"name":"Arcelite","steam_id":76561198007089716,"connected_time":1174000000000,"state":"active","ping":64},{"user_id":331,"name":"Bootes","steam_id":76561197968255551,"connected_time":3373000000000,"state":"active","ping":54},{"user_id":344,"name":"asu mesugakiüí¢üí¢","steam_id":76561198349648942,"connected_time":3093000000000,"state":"active","ping":149},{"user_id":368,"name":"Frost ‚ô•","steam_id":76561198168870617,"connected_time":823000000000,"state":"active","ping":52},{"user_id":276,"name":"The Mighty ReeN","steam_id":76561198155114268,"connected_time":6231000000000,"state":"active","ping":88}]},{"server_id":14,"name":"Uncletopia | New York City | 2 | All Maps","name_short":"nyc-2","host":"nyc-1.us.uncletopia.com","port":27025,"enabled":true,"region":"us-east","cc":"us","latitude":40.73061,"longitude":-73.93524,"reserved":0,"last_update":"0001-01-01T00:00:00Z","name_a2s":"Uncletopia | New York City | 2 | All Maps","protocol":17,"map":"pl_borneo","folder":"tf","game":"Team Fortress","app_id":440,"player_count":24,"max_players":24,"Bots":0,"server_type":"Dedicated","server_os":"Linux","password":true,"vac":true,"version":"7961495","steam_id":85568392924469994,"keywords":["nocrits","nodmgspread","payload","uncletopia"],"game_id":440,"stv_port":27026,"stv_name":"Uncletopia | New York City | 2 | All Maps | STV","players":[{"user_id":86,"name":"Reese","steam_id":76561198044035968,"connected_time":8952000000000,"state":"active","ping":86},{"user_id":190,"name":"steven","steam_id":76561198173047169,"connected_time":1049000000000,"state":"active","ping":64},{"user_id":117,"name":"The Washer of Dishes","steam_id":76561198028157625,"connected_time":6962000000000,"state":"active","ping":90},{"user_id":189,"name":"Senator Armstrong","steam_id":76561198141479053,"connected_time":1082000000000,"state":"active","ping":49},{"user_id":186,"name":"Straight White Man \u003che/him\u003e","steam_id":76561199500876333,"connected_time":1490000000000,"state":"active","ping":62},{"user_id":142,"name":"A Cat","steam_id":76561198221549132,"connected_time":4577000000000,"state":"active","ping":105},{"user_id":188,"name":"Kiko Koizumi","steam_id":76561198098127774,"connected_time":1157000000000,"state":"active","ping":52},{"user_id":180,"name":"S25","steam_id":76561198424979656,"connected_time":2237000000000,"state":"active","ping":117},{"user_id":209,"name":"goshawksaretheonlyrealbirds","steam_id":76561198041087236,"connected_time":223000000000,"state":"active","ping":66},{"user_id":199,"name":"Cowabummer","steam_id":76561198272640432,"connected_time":755000000000,"state":"active","ping":167},{"user_id":201,"name":"NiŒªiwiŒªi, ‚ñºiscount of ‚ñºio","steam_id":76561198009193777,"connected_time":495000000000,"state":"active","ping":59},{"user_id":191,"name":"somewhat silly","steam_id":76561198010269150,"connected_time":1036000000000,"state":"active","ping":124},{"user_id":208,"name":"autism","steam_id":76561199433791353,"connected_time":224000000000,"state":"active","ping":137},{"user_id":210,"name":"Jason","steam_id":76561198107058140,"connected_time":221000000000,"state":"active","ping":56},{"user_id":202,"name":"ÂèñÂêçÂè´ÂÅöÂøç","steam_id":76561198278282836,"connected_time":352000000000,"state":"active","ping":52},{"user_id":213,"name":"Hard Soap","steam_id":76561198267905614,"connected_time":127000000000,"state":"active","ping":81},{"user_id":205,"name":"mkl","steam_id":76561197986401685,"connected_time":292000000000,"state":"active","ping":88},{"user_id":197,"name":"Vroooooooooooooooom","steam_id":76561198139913628,"connected_time":833000000000,"state":"active","ping":86},{"user_id":200,"name":"Yummy Kabobz","steam_id":76561198067661705,"connected_time":625000000000,"state":"active","ping":59},{"user_id":166,"name":"BRONY POWER","steam_id":76561198075510786,"connected_time":2992000000000,"state":"active","ping":81},{"user_id":212,"name":"BootlegMario","steam_id":76561198041504280,"connected_time":192000000000,"state":"active","ping":76},{"user_id":195,"name":"Silva Baq","steam_id":76561198025445281,"connected_time":946000000000,"state":"active","ping":48},{"user_id":123,"name":"kairOs.fk","steam_id":76561197972421260,"connected_time":5876000000000,"state":"active","ping":48},{"user_id":196,"name":"jg125","steam_id":76561198824953530,"connected_time":934000000000,"state":"active","ping":177}]},{"server_id":15,"name":"Uncletopia | New York City | 3 | Stopwatch","name_short":"nyc-3","host":"nyc-1.us.uncletopia.com","port":27035,"enabled":true,"region":"us-east","cc":"us","latitude":40.73061,"longitude":-73.93524,"reserved":0,"last_update":"0001-01-01T00:00:00Z","name_a2s":"Uncletopia | New York City | 3 | Stopwatch","protocol":17,"map":"workshop/koth_bagel_rc6.ugc2514036946","folder":"tf","game":"Team Fortress","app_id":440,"player_count":0,"max_players":24,"Bots":0,"server_type":"Dedicated","server_os":"Linux","password":true,"vac":true,"version":"7961495","steam_id":85568392924742820,"keywords":["cp","nocrits","nodmgspread","uncletopia"],"game_id":440,"stv_port":27036,"stv_name":"Uncletopia | New York City | 3 | Stopwatch | STV","players":null},{"server_id":16,"name":"Uncletopia | New York City | 4 | Community","name_short":"nyc-4","host":"nyc-1.us.uncletopia.com","port":27045,"enabled":true,"region":"us-east","cc":"us","latitude":40.73061,"longitude":-73.93524,"reserved":0,"last_update":"0001-01-01T00:00:00Z","name_a2s":"Uncletopia | New York City | 4 | Community","protocol":17,"map":"workshop/koth_ashville_final.ugc2130459942","folder":"tf","game":"Team Fortress","app_id":440,"player_count":0,"max_players":24,"Bots":0,"server_type":"Dedicated","server_os":"Linux","password":true,"vac":true,"version":"7961495","steam_id":85568392924742821,"keywords":["cp","nocrits","nodmgspread","uncletopia"],"game_id":440,"stv_port":27046,"stv_name":"Uncletopia | New York City | 4 | Community | STV","players":null},{"server_id":142,"name":"Uncletopia | S√£o Paulo | 1 | All Maps","name_short":"sao-1","host":"sao-1.br.uncletopia.com","port":27015,"enabled":true,"region":"sa","cc":"br","latitude":-23.533773,"longitude":-46.62529,"reserved":0,"last_update":"0001-01-01T00:00:00Z","name_a2s":"Uncletopia | S√£o Paulo | 1 | All Maps","protocol":17,"map":"cp_mountainlab","folder":"tf","game":"Team Fortress","app_id":440,"player_count":0,"max_players":24,"Bots":0,"server_type":"Dedicated","server_os":"Linux","password":true,"vac":true,"version":"7961495","steam_id":85568392924469996,"keywords":["cp","nocrits","nodmgspread","uncletopia"],"game_id":440,"stv_port":27016,"stv_name":"Uncletopia | S√£o Paulo | 1 | All Maps | STV","players":null},{"server_id":143,"name":"Uncletopia | S√£o Paulo | 2 | Community","name_short":"sao-2","host":"sao-2.br.uncletopia.com","port":27015,"enabled":true,"region":"sa","cc":"br","latitude":-23.533773,"longitude":-46.62529,"reserved":0,"last_update":"0001-01-01T00:00:00Z","name_a2s":"Uncletopia | S√£o Paulo | 2 | Community","protocol":17,"map":"workshop/koth_product_final.ugc454272353","folder":"tf","game":"Team Fortress","app_id":440,"player_count":5,"max_players":24,"Bots":0,"server_type":"Dedicated","server_os":"Linux","password":true,"vac":true,"version":"7961495","steam_id":85568392924485349,"keywords":["cp","nocrits","nodmgspread","uncletopia"],"game_id":440,"stv_port":27016,"stv_name":"Uncletopia | S√£o Paulo | 2 | Community | STV","players":[{"user_id":9,"name":"gothwy","steam_id":76561199293182786,"connected_time":3552000000000,"state":"active","ping":44},{"user_id":10,"name":"Chatuba64","steam_id":76561199008037225,"connected_time":3537000000000,"state":"active","ping":48},{"user_id":15,"name":"bob esponja","steam_id":76561199397432410,"connected_time":1196000000000,"state":"active","ping":64},{"user_id":17,"name":"RaposaDePel√∫cia","steam_id":76561199051404580,"connected_time":642000000000,"state":"active","ping":53},{"user_id":19,"name":"Gui","steam_id":76561199156408297,"connected_time":195000000000,"state":"active","ping":41}]},{"server_id":7,"name":"Uncletopia | Seattle | 1 | All Maps","name_short":"sea-1","host":"sea-1.us.uncletopia.com","port":27015,"enabled":true,"region":"us-west","cc":"us","latitude":47.608013,"longitude":-122.33517,"reserved":0,"last_update":"0001-01-01T00:00:00Z","name_a2s":"Uncletopia | Seattle | 1 | All Maps","protocol":17,"map":"cp_mossrock","folder":"tf","game":"Team Fortress","app_id":440,"player_count":24,"max_players":24,"Bots":0,"server_type":"Dedicated","server_os":"Linux","password":true,"vac":true,"version":"7961495","steam_id":85568392924469997,"keywords":["cp","nocrits","nodmgspread","uncletopia"],"game_id":440,"stv_port":27016,"stv_name":"Uncletopia | Seattle | 1 | All Maps | STV","players":[{"user_id":524,"name":"PageBoiSkull","steam_id":76561198237353578,"connected_time":337000000000,"state":"active","ping":63},{"user_id":511,"name":"Captain Underbelly","steam_id":76561198811270935,"connected_time":878000000000,"state":"active","ping":70},{"user_id":492,"name":"goofy goober","steam_id":76561199024079388,"connected_time":3103000000000,"state":"active","ping":45},{"user_id":522,"name":"goos  e","steam_id":76561198036774894,"connected_time":497000000000,"state":"active","ping":41},{"user_id":499,"name":"NFL.com","steam_id":76561198113405376,"connected_time":2259000000000,"state":"active","ping":81},{"user_id":483,"name":"Banana Man","steam_id":76561199012105803,"connected_time":3406000000000,"state":"active","ping":53},{"user_id":512,"name":"Tom","steam_id":76561198070630154,"connected_time":816000000000,"state":"active","ping":80},{"user_id":435,"name":"Sasha The Foxgirl","steam_id":76561198018403555,"connected_time":7524000000000,"state":"active","ping":45},{"user_id":425,"name":"DaddyGalaxy","steam_id":76561198139697796,"connected_time":8928000000000,"state":"active","ping":58},{"user_id":490,"name":"goofy","steam_id":76561199072142013,"connected_time":3234000000000,"state":"active","ping":96},{"user_id":419,"name":"Preston","steam_id":76561198255721392,"connected_time":9629000000000,"state":"active","ping":128},{"user_id":505,"name":"Jovo","steam_id":76561197993265970,"connected_time":1432000000000,"state":"active","ping":45},{"user_id":515,"name":"Greskrendtregk","steam_id":76561197969553142,"connected_time":774000000000,"state":"active","ping":52},{"user_id":498,"name":"Oldengie","steam_id":76561199074712665,"connected_time":2262000000000,"state":"active","ping":140},{"user_id":466,"name":"fishtank.live","steam_id":76561198280085840,"connected_time":4843000000000,"state":"active","ping":67},{"user_id":509,"name":"NewWorldBlues","steam_id":76561198823311447,"connected_time":1242000000000,"state":"active","ping":60},{"user_id":517,"name":"Big Yoshi","steam_id":76561199160576376,"connected_time":722000000000,"state":"active","ping":88},{"user_id":491,"name":"dust | it/she","steam_id":76561198045218909,"connected_time":3168000000000,"state":"active","ping":37},{"user_id":520,"name":"LACTAID","steam_id":76561198276585202,"connected_time":641000000000,"state":"active","ping":87},{"user_id":521,"name":"New_guy","steam_id":76561199379823082,"connected_time":519000000000,"state":"active","ping":128},{"user_id":473,"name":"MORE BOUNCE TO THE OUNCE","steam_id":76561198243399336,"connected_time":4426000000000,"state":"active","ping":84},{"user_id":459,"name":"Trips","steam_id":76561198054581597,"connected_time":5330000000000,"state":"active","ping":61},{"user_id":519,"name":"Legally retarded","steam_id":76561198289642788,"connected_time":669000000000,"state":"active","ping":67},{"user_id":528,"name":"Engynier Gaimeang (F2P)","steam_id":76561199013888779,"connected_time":197000000000,"state":"active","ping":71}]},{"server_id":119,"name":"Uncletopia | Seattle | 2 | All Maps","name_short":"sea-2","host":"sea-1.us.uncletopia.com","port":27025,"enabled":true,"region":"us-west","cc":"us","latitude":47.608013,"longitude":-122.33517,"reserved":0,"last_update":"0001-01-01T00:00:00Z","name_a2s":"Uncletopia | Seattle | 2 | All Maps","protocol":17,"map":"pl_pier","folder":"tf","game":"Team Fortress","app_id":440,"player_count":24,"max_players":24,"Bots":0,"server_type":"Dedicated","server_os":"Linux","password":true,"vac":true,"version":"7961495","steam_id":85568392924469998,"keywords":["nocrits","nodmgspread","payload","uncletopia"],"game_id":440,"stv_port":27026,"stv_name":"Uncletopia | Seattle | 2 | All Maps | STV","players":[{"user_id":114,"name":"felon","steam_id":76561199100342013,"connected_time":1076000000000,"state":"active","ping":75},{"user_id":103,"name":"SmallErection","steam_id":76561198071770147,"connected_time":1497000000000,"state":"active","ping":48},{"user_id":125,"name":"üå∏AVYüå∏","steam_id":76561197964252106,"connected_time":435000000000,"state":"active","ping":92},{"user_id":119,"name":"P.C. Baby","steam_id":76561198067011379,"connected_time":604000000000,"state":"active","ping":71},{"user_id":130,"name":"Scoops M'Gooch","steam_id":76561198048423812,"connected_time":110000000000,"state":"active","ping":89},{"user_id":120,"name":"Draco6257","steam_id":76561199147322448,"connected_time":591000000000,"state":"active","ping":101},{"user_id":46,"name":"COOL master_9","steam_id":76561198073041151,"connected_time":3937000000000,"state":"active","ping":99},{"user_id":117,"name":"Eden","steam_id":76561198081284664,"connected_time":804000000000,"state":"active","ping":77},{"user_id":126,"name":"hemaglox","steam_id":76561198023187633,"connected_time":430000000000,"state":"active","ping":45},{"user_id":109,"name":"Linksaver1","steam_id":76561198096312838,"connected_time":1376000000000,"state":"active","ping":74},{"user_id":128,"name":"=Silver=","steam_id":76561198292307127,"connected_time":197000000000,"state":"active","ping":72},{"user_id":51,"name":"Firedust19","steam_id":76561198153238631,"connected_time":3784000000000,"state":"active","ping":100},{"user_id":110,"name":"greenpeace","steam_id":76561197983221708,"connected_time":1239000000000,"state":"active","ping":68},{"user_id":53,"name":"pjrock101","steam_id":76561198070616561,"connected_time":3759000000000,"state":"active","ping":52},{"user_id":78,"name":"taytehwolf","steam_id":76561198221552500,"connected_time":2529000000000,"state":"active","ping":129},{"user_id":55,"name":"Weakforanimebitches","steam_id":76561198217663016,"connected_time":3676000000000,"state":"active","ping":78},{"user_id":85,"name":"dragon.soldier18","steam_id":76561198286080082,"connected_time":1968000000000,"state":"active","ping":68},{"user_id":57,"name":"Young ZALES","steam_id":76561198114207768,"connected_time":3646000000000,"state":"active","ping":115},{"user_id":86,"name":"JellyParrot","steam_id":76561199190990163,"connected_time":1952000000000,"state":"active","ping":121},{"user_id":129,"name":"bon!","steam_id":76561198061966425,"connected_time":196000000000,"state":"active","ping":175},{"user_id":124,"name":"sloth","steam_id":76561198285819311,"connected_time":502000000000,"state":"active","ping":62},{"user_id":115,"name":"bun","steam_id":76561198098836810,"connected_time":1034000000000,"state":"active","ping":94},{"user_id":118,"name":"diamondskyir","steam_id":76561199223952268,"connected_time":628000000000,"state":"active","ping":50},{"user_id":107,"name":"Thexx [she/they]","steam_id":76561198113823050,"connected_time":1425000000000,"state":"active","ping":50}]},{"server_id":406,"name":"Uncletopia | Seattle | 3 | Stopwatch","name_short":"sea-3","host":"sea-1.us.uncletopia.com","port":27035,"enabled":true,"region":"us-west","cc":"us","latitude":47.608013,"longitude":-122.33517,"reserved":0,"last_update":"0001-01-01T00:00:00Z","name_a2s":"Uncletopia | Seattle | 3 | Stopwatch","protocol":17,"map":"cp_gullywash_final1","folder":"tf","game":"Team Fortress","app_id":440,"player_count":0,"max_players":24,"Bots":0,"server_type":"Dedicated","server_os":"Linux","password":true,"vac":true,"version":"7961495","steam_id":85568392924515217,"keywords":["cp","nocrits","nodmgspread","uncletopia"],"game_id":440,"stv_port":27036,"stv_name":"Uncletopia | Seattle | 3 | Stopwatch | STV","players":null},{"server_id":17,"name":"Uncletopia | San Francisco | 1 | All Maps","name_short":"sfo-1","host":"sfo-1.us.uncletopia.com","port":27015,"enabled":true,"region":"us-west","cc":"us","latitude":37.77397,"longitude":-122.4313,"reserved":0,"last_update":"0001-01-01T00:00:00Z","name_a2s":"Uncletopia | San Francisco | 1 | All Maps","protocol":17,"map":"koth_cascade","folder":"tf","game":"Team Fortress","app_id":440,"player_count":0,"max_players":24,"Bots":0,"server_type":"Dedicated","server_os":"Linux","password":true,"vac":true,"version":"7961495","steam_id":85568392924469999,"keywords":["cp","nocrits","nodmgspread","uncletopia"],"game_id":440,"stv_port":27016,"stv_name":"Uncletopia | San Francisco | 1 | All Maps | STV","players":null},{"server_id":18,"name":"Uncletopia | San Francisco | 2 | All Maps","name_short":"sfo-2","host":"sfo-1.us.uncletopia.com","port":27025,"enabled":true,"region":"us-west","cc":"us","latitude":37.77397,"longitude":-122.4313,"reserved":0,"last_update":"0001-01-01T00:00:00Z","name_a2s":"Uncletopia | San Francisco | 2 | All Maps","protocol":17,"map":"cp_mountainlab","folder":"tf","game":"Team Fortress","app_id":440,"player_count":0,"max_players":24,"Bots":0,"server_type":"Dedicated","server_os":"Linux","password":true,"vac":true,"version":"7961495","steam_id":85568392924470000,"keywords":["cp","nocrits","nodmgspread","uncletopia"],"game_id":440,"stv_port":27026,"stv_name":"Uncletopia | San Francisco | 2 | All Maps | STV","players":null},{"server_id":19,"name":"Uncletopia | San Francisco | 3 | Stopwatch","name_short":"sfo-3","host":"sfo-1.us.uncletopia.com","port":27035,"enabled":true,"region":"us-west","cc":"us","latitude":37.77397,"longitude":-122.4313,"reserved":0,"last_update":"0001-01-01T00:00:00Z","name_a2s":"Uncletopia | San Francisco | 3 | Stopwatch","protocol":17,"map":"workshop/koth_clearcut_b15.ugc2107050255","folder":"tf","game":"Team Fortress","app_id":440,"player_count":0,"max_players":24,"Bots":0,"server_type":"Dedicated","server_os":"Linux","password":true,"vac":true,"version":"7961495","steam_id":85568392924742824,"keywords":["cp","nocrits","nodmgspread","uncletopia"],"game_id":440,"stv_port":27036,"stv_name":"Uncletopia | San Francisco | 3 | Stopwatch | STV","players":null},{"server_id":20,"name":"Uncletopia | San Francisco | 4 | Community","name_short":"sfo-4","host":"sfo-1.us.uncletopia.com","port":27045,"enabled":true,"region":"us-west","cc":"us","latitude":37.77397,"longitude":-122.4313,"reserved":0,"last_update":"0001-01-01T00:00:00Z","name_a2s":"Uncletopia | San Francisco | 4 | Community","protocol":17,"map":"workshop/cp_reckoner_rc6.ugc674719999","folder":"tf","game":"Team Fortress","app_id":440,"player_count":0,"max_players":24,"Bots":0,"server_type":"Dedicated","server_os":"Linux","password":true,"vac":true,"version":"7961495","steam_id":85568392924742826,"keywords":["cp","nocrits","nodmgspread","uncletopia"],"game_id":440,"stv_port":27046,"stv_name":"Uncletopia | San Francisco | 4 | Community | STV","players":null},{"server_id":141,"name":"Uncletopia | Sydney | 1 | All Maps","name_short":"syd-1","host":"syd-1.au.uncletopia.com","port":27015,"enabled":true,"region":"au","cc":"au","latitude":-33.865143,"longitude":151.2099,"reserved":0,"last_update":"0001-01-01T00:00:00Z","name_a2s":"Uncletopia | Sydney | 1 | All Maps","protocol":17,"map":"cp_altitude","folder":"tf","game":"Team Fortress","app_id":440,"player_count":0,"max_players":24,"Bots":0,"server_type":"Dedicated","server_os":"Linux","password":true,"vac":true,"version":"7961495","steam_id":85568392924470001,"keywords":["cp","nocrits","nodmgspread","uncletopia"],"game_id":440,"stv_port":27016,"stv_name":"Uncletopia | Sydney | 1 | All Maps | STV","players":null},{"server_id":123,"name":"Uncletopia | Sydney | 2 | All Maps","name_short":"syd-2","host":"syd-1.au.uncletopia.com","port":27025,"enabled":true,"region":"au","cc":"au","latitude":-33.865143,"longitude":151.2099,"reserved":0,"last_update":"0001-01-01T00:00:00Z","name_a2s":"Uncletopia | Sydney | 2 | All Maps","protocol":17,"map":"cp_mercenarypark","folder":"tf","game":"Team Fortress","app_id":440,"player_count":0,"max_players":24,"Bots":0,"server_type":"Dedicated","server_os":"Linux","password":true,"vac":true,"version":"7961495","steam_id":85568392924470002,"keywords":["cp","nocrits","nodmgspread","uncletopia"],"game_id":440,"stv_port":27026,"stv_name":"Uncletopia | Sydney | 2 | All Maps | STV","players":null},{"server_id":395,"name":"Uncletopia | Sydney | 3 | All Maps","name_short":"syd-3","host":"syd-1.au.uncletopia.com","port":27035,"enabled":true,"region":"au","cc":"au","latitude":-33.865143,"longitude":151.2099,"reserved":0,"last_update":"0001-01-01T00:00:00Z","name_a2s":"Uncletopia | Sydney | 3 | All Maps","protocol":17,"map":"koth_brazil","folder":"tf","game":"Team Fortress","app_id":440,"player_count":0,"max_players":24,"Bots":0,"server_type":"Dedicated","server_os":"Linux","password":true,"vac":true,"version":"7961495","steam_id":85568392925194467,"keywords":["cp","nocrits","nodmgspread","uncletopia"],"game_id":440,"stv_port":27036,"stv_name":"Uncletopia | Sydney | 3 | All Maps | STV","players":null},{"server_id":396,"name":"Uncletopia | Sydney | 4 | All Maps","name_short":"syd-4","host":"syd-1.au.uncletopia.com","port":27045,"enabled":true,"region":"au","cc":"au","latitude":-33.865143,"longitude":151.2099,"reserved":0,"last_update":"0001-01-01T00:00:00Z","name_a2s":"Uncletopia | Sydney | 4 | All Maps","protocol":17,"map":"cp_standin_final","folder":"tf","game":"Team Fortress","app_id":440,"player_count":0,"max_players":24,"Bots":0,"server_type":"Dedicated","server_os":"Linux","password":true,"vac":true,"version":"7961495","steam_id":85568392925397958,"keywords":["cp","nocrits","nodmgspread","uncletopia"],"game_id":440,"stv_port":27046,"stv_name":"Uncletopia | Sydney | 4 | All Maps | STV","players":null},{"server_id":58,"name":"Uncletopia | Sydney | 5 | Stopwatch","name_short":"syd-5","host":"syd-1.au.uncletopia.com","port":27055,"enabled":true,"region":"au","cc":"au","latitude":-33.865143,"longitude":151.2099,"reserved":0,"last_update":"0001-01-01T00:00:00Z","name_a2s":"Uncletopia | Sydney | 5 | Stopwatch","protocol":17,"map":"koth_highpass","folder":"tf","game":"Team Fortress","app_id":440,"player_count":0,"max_players":24,"Bots":0,"server_type":"Dedicated","server_os":"Linux","password":true,"vac":true,"version":"7961495","steam_id":85568392925397959,"keywords":["cp","nocrits","nodmgspread","uncletopia"],"game_id":440,"stv_port":27056,"stv_name":"Uncletopia | Sydney | 5 | Stopwatch | STV","players":null},{"server_id":59,"name":"Uncletopia | Sydney | 6 | Community","name_short":"syd-6","host":"syd-1.au.uncletopia.com","port":27065,"enabled":true,"region":"au","cc":"au","latitude":-33.865143,"longitude":151.2099,"reserved":0,"last_update":"0001-01-01T00:00:00Z","name_a2s":"Uncletopia | Sydney | 6 | Community","protocol":17,"map":"workshop/koth_soot_final1.ugc2969540689","folder":"tf","game":"Team Fortress","app_id":440,"player_count":0,"max_players":24,"Bots":0,"server_type":"Dedicated","server_os":"Linux","password":true,"vac":true,"version":"7961495","steam_id":85568392925397960,"keywords":["cp","nocrits","nodmgspread","uncletopia"],"game_id":440,"stv_port":27066,"stv_name":"Uncletopia | Sydney | 6 | Community | STV","players":null},{"server_id":49,"name":"Uncletopia | Warsaw | 1 | One Thousand Uncles","name_short":"waw-1","host":"waw-1.pl.uncletopia.com","port":27015,"enabled":true,"region":"eu","cc":"pl","latitude":52.2297,"longitude":21.017532,"reserved":0,"last_update":"0001-01-01T00:00:00Z","name_a2s":"Uncletopia | Warsaw | 1 | One Thousand Uncles","protocol":17,"map":"pl_goldrush","folder":"tf","game":"Team Fortress","app_id":440,"player_count":0,"max_players":32,"Bots":0,"server_type":"Dedicated","server_os":"Linux","password":true,"vac":true,"version":"7961495","steam_id":85568392925397850,"keywords":["alltalk","danepve","increased_maxplayers","norespawntime","payload","uncletopia"],"game_id":440,"stv_port":0,"stv_name":"","players":null},{"server_id":50,"name":"Uncletopia | Warsaw | 2 | One Thousand Uncles","name_short":"waw-2","host":"waw-1.pl.uncletopia.com","port":27025,"enabled":true,"region":"eu","cc":"pl","latitude":52.2297,"longitude":21.017532,"reserved":0,"last_update":"0001-01-01T00:00:00Z","name_a2s":"Uncletopia | Warsaw | 2 | One Thousand Uncles","protocol":17,"map":"pl_goldrush","folder":"tf","game":"Team Fortress","app_id":440,"player_count":0,"max_players":32,"Bots":0,"server_type":"Dedicated","server_os":"Linux","password":true,"vac":true,"version":"7961495","steam_id":85568392925397851,"keywords":["alltalk","danepve","increased_maxplayers","norespawntime","payload","uncletopia"],"game_id":440,"stv_port":0,"stv_name":"","players":null},{"server_id":51,"name":"Uncletopia | Warsaw | 3 | All Maps","name_short":"waw-3","host":"waw-1.pl.uncletopia.com","port":27035,"enabled":true,"region":"eu","cc":"pl","latitude":52.2297,"longitude":21.017532,"reserved":0,"last_update":"0001-01-01T00:00:00Z","name_a2s":"Uncletopia | Warsaw | 3 | All Maps","protocol":17,"map":"koth_viaduct","folder":"tf","game":"Team Fortress","app_id":440,"player_count":0,"max_players":24,"Bots":0,"server_type":"Dedicated","server_os":"Linux","password":true,"vac":true,"version":"7961495","steam_id":85568392925397852,"keywords":["cp","nocrits","nodmgspread","uncletopia"],"game_id":440,"stv_port":27036,"stv_name":"Uncletopia | Warsaw | 3 | All Maps | STV","players":null},{"server_id":52,"name":"Uncletopia | Warsaw | 4 | All Maps","name_short":"waw-4","host":"waw-1.pl.uncletopia.com","port":27045,"enabled":true,"region":"eu","cc":"pl","latitude":52.2297,"longitude":21.017532,"reserved":0,"last_update":"0001-01-01T00:00:00Z","name_a2s":"Uncletopia | Warsaw | 4 | All Maps","protocol":17,"map":"pl_pier","folder":"tf","game":"Team Fortress","app_id":440,"player_count":0,"max_players":24,"Bots":0,"server_type":"Dedicated","server_os":"Linux","password":true,"vac":true,"version":"7961495","steam_id":85568392925397853,"keywords":["nocrits","nodmgspread","payload","uncletopia"],"game_id":440,"stv_port":27046,"stv_name":"Uncletopia | Warsaw | 4 | All Maps | STV","players":null},{"server_id":53,"name":"Uncletopia | Warsaw | 5 | Stopwatch","name_short":"waw-5","host":"waw-1.pl.uncletopia.com","port":27055,"enabled":true,"region":"eu","cc":"pl","latitude":52.2297,"longitude":21.017532,"reserved":0,"last_update":"0001-01-01T00:00:00Z","name_a2s":"Uncletopia | Warsaw | 5 | Stopwatch","protocol":17,"map":"koth_lakeside_final","folder":"tf","game":"Team Fortress","app_id":440,"player_count":0,"max_players":24,"Bots":0,"server_type":"Dedicated","server_os":"Linux","password":true,"vac":true,"version":"7961495","steam_id":85568392925397854,"keywords":["cp","nocrits","nodmgspread","uncletopia"],"game_id":440,"stv_port":27056,"stv_name":"Uncletopia | Warsaw | 5 | Stopwatch | STV","players":null},{"server_id":54,"name":"Uncletopia | Warsaw | 6 | Community","name_short":"waw-6","host":"waw-1.pl.uncletopia.com","port":27065,"enabled":true,"region":"eu","cc":"pl","latitude":52.2297,"longitude":21.017532,"reserved":0,"last_update":"0001-01-01T00:00:00Z","name_a2s":"Uncletopia | Warsaw | 6 | Community","protocol":17,"map":"workshop/koth_bagel_rc6.ugc2514036946","folder":"tf","game":"Team Fortress","app_id":440,"player_count":0,"max_players":24,"Bots":0,"server_type":"Dedicated","server_os":"Linux","password":true,"vac":true,"version":"7961495","steam_id":85568392925397856,"keywords":["cp","nocrits","nodmgspread","uncletopia"],"game_id":440,"stv_port":27066,"stv_name":"Uncletopia | Warsaw | 6 | Community | STV","players":null}]}